醫事機構代碼,醫事機構名稱,醫事機構地址,經度,緯度,醫事機構電話,廠牌項目,快篩試劑截至目前結餘存貨數量,來源資料時間,備註
2335140015,苗栗縣西湖鄉衛生所,苗栗縣西湖鄉龍洞村１鄰１６號,120.7577,24.5578,(037)921211,羅氏家用新冠病毒抗原自我檢測套組,27,2022/05/11 14:16:33,無
2338070010,南投縣鹿谷鄉衛生所,南投縣鹿谷鄉中正路二段２０號,120.7542,23.74488,(049)2752002,羅氏家用新冠病毒抗原自我檢測套組,42,2022/05/11 14:16:33,快篩試劑販售時間 上班日（星期一至星期五）14:00~16:00
2340170016,嘉義縣大埔鄉衛生所,嘉義縣大埔鄉大埔村５３－１號,120.5928,23.29397,(05)2521214,羅氏家用新冠病毒抗原自我檢測套組,51,2022/05/11 14:16:33,無
2341220015,臺南市山上區衛生所,臺南市山上區山上里３５－２號,120.3582,23.09859,(06)5781013,羅氏家用新冠病毒抗原自我檢測套組,14,2022/05/11 14:16:33,防疫快篩販售時間每週一、三、四、五為14點至15點，週二16點至17點，週六、日及例假日不販售
2341300018,臺南市龍崎區衛生所,臺南市龍崎區崎頂里新市子１５８號,120.3618,22.96521,(06)5941397,羅氏家用新冠病毒抗原自我檢測套組,45,2022/05/11 14:16:33,無
2342270019,高雄市那瑪夏區衛生所,高雄市那瑪夏區瑪雅里６鄰平和巷２５２號,120.7024,23.24708,(07)6701142,羅氏家用新冠病毒抗原自我檢測套組,1,2022/05/11 14:16:33,春節期間正常門診
2344011036,澎湖縣馬公市第三衛生所,澎湖縣馬公市西文里１１８之２號,119.5836,23.56813,(06)9211723,羅氏家用新冠病毒抗原自我檢測套組,51,2022/05/11 14:16:33,本所快篩試劑只提供離島衛生室（虎井、桶盤）販售，時間週一至週五08:30-17:00售完為止，星期六、日國定假日09:00-12:00。
2344030022,澎湖縣白沙鄉鳥嶼衛生所,澎湖縣白沙鄉鳥嶼村漁港新村３號,119.6599,23.66008,(06)9916092,羅氏家用新冠病毒抗原自我檢測套組,173,2022/05/11 14:16:33,非上班時間提供急診服務
2344030031,澎湖縣白沙鄉吉貝衛生所,澎湖縣白沙鄉吉貝村８－１３號,119.6138,23.74056,(06)9911430,羅氏家用新冠病毒抗原自我檢測套組,264,2022/05/11 14:16:33,無
2344050015,澎湖縣望安鄉衛生所,澎湖縣望安鄉西安村３６－７號,119.4972,23.36161,(06)9991036,羅氏家用新冠病毒抗原自我檢測套組,44,2022/05/11 14:16:33,夜間急診。快篩試劑販售時間為:每日08:00-12:00、13:30-17:30售完為止，如有餘數為離島未售出（東嶼坪、花嶼）。
2344050024,澎湖縣望安鄉將軍衛生所,澎湖縣望安鄉將軍村１２鄰將軍澳１之３號,119.5216,23.3615,(06)9902066,羅氏家用新冠病毒抗原自我檢測套組,33,2022/05/11 14:16:33,24小時急診
2345120016,花蓮縣萬榮鄉衛生所,花蓮縣萬榮鄉萬榮村１鄰１６號,121.4092,23.71558,(03)8751651,羅氏家用新冠病毒抗原自我檢測套組,189,2022/05/11 14:16:33,快篩試劑代售時間：週一至週五下午2點至下午4點，販售為止。
2346070015,臺東縣東河鄉衛生所,臺東縣東河鄉東河村南東河路１０鄰３００號,121.3031,22.96846,(089)896289,羅氏家用新冠病毒抗原自我檢測套組,78,2022/05/11 14:16:33,快篩試劑販售時間:◆平日（星期一三四五）上午9-11時販售，星期二下午13-15時販售售完為止。
2346160014,台東縣蘭嶼鄉衛生所,臺東縣蘭嶼鄉紅頭村３６號,121.5546,22.02493,(089)732575,羅氏家用新冠病毒抗原自我檢測套組,45,2022/05/11 14:16:33,販售口罩時間 星期一至星期五 8:00~12:00 13:30~17:30
2391020010,連江縣北竿鄉衛生所,連江縣北竿鄉塘岐村２８１－６號,119.9991,26.22617,(083)655592,羅氏家用新冠病毒抗原自我檢測套組,31,2022/05/11 14:16:33,新冠快篩試劑販售於週一至周六每日上午08:30-12:00開放購買。
2391030016,連江縣莒光鄉西莒衛生所,連江縣莒光鄉青帆村１４－１號,119.9331,25.97157,(083)689122,羅氏家用新冠病毒抗原自我檢測套組,207,2022/05/11 14:16:33,防疫口罩星期一至五09:00-17:00、（六）09:00-12:00現場購買
2391030026,連江縣莒光鄉東莒衛生所,連江縣莒光鄉大坪村３０－１號,119.9731,25.96113,(083)689038,羅氏家用新冠病毒抗原自我檢測套組,434,2022/05/11 14:16:33,防疫口罩星期一至星期日上午10:00-12:00收取健保卡，下午3:30至本所領取口罩。
5901010165,傑安藥局,臺北市松山區八德路２段４３７巷７弄８號１樓,121.5473,25.04914,(02)27524155,羅氏家用新冠病毒抗原自我檢測套組,1,2022/05/11 14:16:33,9:30開始發號碼牌
5901010192,益華藥局,臺北市松山區民生東路５段１３８巷６號,121.5615,25.05827,(02)27624898,羅氏家用新冠病毒抗原自我檢測套組,1,2022/05/11 14:16:33,無
5901012203,博荃藥局,臺北市松山區敦化北路４巷５１號,121.5447,25.05006,(02)27316736,羅氏家用新冠病毒抗原自我檢測套組,37,2022/05/11 14:16:33,快篩銷售時間為下午2點憑健保卡開始取號碼牌購買，星期日及連續假期公休 !
5901012570,予志藥局,臺北市松山區富錦街５２１號,121.5649,25.06119,(02)27623522,羅氏家用新冠病毒抗原自我檢測套組,33,2022/05/11 14:16:33,實名制快篩星期一到三下午2點、星期四到六晚上8點、星期日停售
5901012598,婕登藥局,臺北市松山區八德路４段６９９號,121.5766,25.05021,(02)27482893,羅氏家用新冠病毒抗原自我檢測套組,14,2022/05/11 14:16:33,今天快篩已經發送完畢（電腦庫存不準）
5901012749,躍獅松和藥局,臺北市松山區八德路四段６６６－１號,121.5761,25.04979,(02)27492569,羅氏家用新冠病毒抗原自我檢測套組,78,2022/05/11 14:16:33,實名制快篩販售時段，每日下午4點販售，售完為止
5901013095,康采藥局,臺北市松山區南京東路５段２９１巷１７－２號,121.5663,25.05236,(02)27670271,羅氏家用新冠病毒抗原自我檢測套組,15,2022/05/11 14:16:33,（已完售，庫存不準）快篩試劑每日16點販售，週日沒有販售
5901013200,專品南京藥局,臺北市松山區南京東路４段７３號,121.5532,25.05185,(02)25147685,羅氏家用新冠病毒抗原自我檢測套組,78,2022/05/11 14:16:33,無
5901013399,一安正昇藥局,臺北市松山區南京東路５段３０９號,121.5667,25.05155,(02)27680993,羅氏家用新冠病毒抗原自我檢測套組,1,2022/05/11 14:16:33,快篩發放時間  下午14:30
5901013442,松山八德藥局,臺北市松山區八德路２段４００號,121.5466,25.04804,(02)27782773,羅氏家用新冠病毒抗原自我檢測套組,78,2022/05/11 14:16:33,快篩實名制，每天16:00開始販售，售完為止。
5901013595,巧心藥局,臺北市松山區八德路３段１２巷５７弄３９之３號１樓,121.5521,25.04567,(02)25703728,羅氏家用新冠病毒抗原自我檢測套組,91,2022/05/11 14:16:33,快篩試劑14:00販售，售完為止．
5901013693,民生盛康藥局,臺北市松山區民生東路５段２０４號１樓,121.5648,25.05826,(02)27460758,羅氏家用新冠病毒抗原自我檢測套組,80,2022/05/11 14:16:33,【每日70分】星期一~六9:00發號碼牌，11:00~20:00拿號碼牌回來領取，每人限1張號碼牌，逾時不候
5901013737,全欣藥局,臺北市松山區復興北路７３號２樓,121.5442,25.05104,(02)87729066,羅氏家用新冠病毒抗原自我檢測套組,48,2022/05/11 14:16:33,9:00am開始販售30人份15:00販售30人份:18:00販售17人份；週六:9:00販售39人份；週日:15:00販售39人份....排隊人數滿會先發號碼
5901020376,靜園藥局,臺北市大安區和平東路２段１１８巷５７之１號,121.5429,25.02254,(02)27336390,羅氏家用新冠病毒抗原自我檢測套組,21,2022/05/11 14:16:33,每日下午2:00販賣實名制快篩
5901020385,延吉大藥局,臺北市大安區延吉街１５３號１樓,121.5548,25.04066,(02)27819227,羅氏家用新冠病毒抗原自我檢測套組,60,2022/05/11 14:16:33,無
5901020554,師大藥局,臺北市大安區師大路９９號１樓,121.5285,25.02271,(02)23623479,羅氏家用新冠病毒抗原自我檢測套組,78,2022/05/11 14:16:33,實名制快篩試劑開賣時間下午2:30現場排隊
5901022898,永康藥局,臺北市大安區麗水街６之２號,121.529,25.03289,(02)23279362,羅氏家用新冠病毒抗原自我檢測套組,32,2022/05/11 14:16:33,下午2點開賣快篩，  請自行排隊沒有發號碼牌
5901023331,佑安藥局,臺北市大安區延吉街２３３巷９號,121.5561,25.03708,(02)27069339,羅氏家用新冠病毒抗原自我檢測套組,23,2022/05/11 14:16:33,營業時間為下午兩點開始，週六暫定賣快篩，人數不多時會取消
5901023653,信安健康藥局,臺北市大安區仁愛路４段１２２巷５８號,121.5501,25.03392,(02)27084858,羅氏家用新冠病毒抗原自我檢測套組,32,2022/05/11 14:16:33,快篩實聯制每天下午2:00開始 （沒有發號碼牌）
5901024007,古亭健康人生藥局,臺北市大安區羅斯福路２段８３號,121.5237,25.02572,(02)23660895,羅氏家用新冠病毒抗原自我檢測套組,23,2022/05/11 14:16:33,快篩僅販售14:00-16:00。營業時間9:30-21:55。
5901024098,杏一瑞安藥局,臺北市大安區瑞安街２０８巷１１弄１號,121.5406,25.02866,(02)27096710,羅氏家用新冠病毒抗原自我檢測套組,156,2022/05/11 14:16:33,3點發快篩，前5分鐘發牌
5901024114,好安心藥局,臺北市大安區和平東路２段９８之２號,121.5415,25.02493,(02)23772166,羅氏家用新冠病毒抗原自我檢測套組,69,2022/05/11 14:16:33,快篩發放: 週一至週六 15:30現場開始販售（人滿提早發售），不發號碼牌。
5901024347,博大藥局,臺北市大安區安和路２段６５號,121.5526,25.03063,(02)27027858,羅氏家用新冠病毒抗原自我檢測套組,62,2022/05/11 14:16:33,若有配給．下午兩點開始販售。
5901024516,博昱師大藥局,臺北市大安區羅斯福路３段１８９號,121.5281,25.02109,(02)23696966,羅氏家用新冠病毒抗原自我檢測套組,35,2022/05/11 14:16:33,實名制快篩販售時間為下午14:00~15:30
5901024767,杏一樂業藥局,臺北市大安區樂業街１６２號,121.5535,25.01958,(02)27383194,羅氏家用新冠病毒抗原自我檢測套組,78,2022/05/11 14:16:33,週一~週六快篩下午三點現場直接販售（不發號碼牌），週日無販售。
5901024865,沛林東區生活藥粧藥局,臺北市大安區忠孝東路４段１８１巷７弄５號,121.551,25.04219,(02)27763759,羅氏家用新冠病毒抗原自我檢測套組,19,2022/05/11 14:16:33,每日早上11:00營業，若快篩有到貨，每日發放時間為下午2:00開始
5901024892,太醫藥局,臺北市大安區師大路１２號,121.5283,25.02568,(02)23685125,羅氏家用新冠病毒抗原自我檢測套組,11,2022/05/11 14:16:33,快篩發放時間:周一至周五13:30，無發放號碼牌
5901024918,康祥藥局,臺北市大安區忠孝東路４段２１６巷２１號,121.5531,25.04025,(02)27817891,羅氏家用新冠病毒抗原自我檢測套組,2,2022/05/11 14:16:33,星期天11:00-19:00
5901025022,躍獅敦和藥局,臺北市大安區和平東路３段１０號,121.547,25.02453,(02)23785767,羅氏家用新冠病毒抗原自我檢測套組,34,2022/05/11 14:16:33,無
5901025059,博醫仁愛藥局,臺北市大安區仁愛路４段８巷２號１樓,121.5443,25.0375,(02)27019107,羅氏家用新冠病毒抗原自我檢測套組,5,2022/05/11 14:16:33,每天11:30發號碼牌，12:00~15:00憑號碼牌與健保卡購買實名制快篩
5901091473,快安藥局,臺北市大同區南京西路２８２、２８４號,121.5146,25.05349,(02)25561925,羅氏家用新冠病毒抗原自我檢測套組,36,2022/05/11 14:16:33,下午兩點開放快篩試劑購買
5901092130,大同民生藥局,臺北市大同區民生西路１２８號１樓、２樓及１３０號１樓、２樓,121.5191,25.05734,(02)25558886,羅氏家用新冠病毒抗原自我檢測套組,78,2022/05/11 14:16:33,快篩實名制，每天16:00開始販售，售完為止。
5901100057,百源堂大藥局,臺北市中山區長安東路２段４７－５號,121.5322,25.04857,(02)25364362,羅氏家用新冠病毒抗原自我檢測套組,9,2022/05/11 14:16:33,週休2 日及國定假日休營業時間上午8時30分至晚間7點
5901100333,明美藥局,臺北市中山區長春路６９號,121.5266,25.05502,(02)25365419,羅氏家用新冠病毒抗原自我檢測套組,46,2022/05/11 14:16:33,口罩周一至周五，16:30-18:30販售
5901100422,滿順藥局,臺北市中山區伊通街５４號１樓,121.5347,25.05145,(02)25075283,羅氏家用新冠病毒抗原自我檢測套組,1,2022/05/11 14:16:33,快篩服務時間 AM 8:30 起 售完為止
5901101321,文德藥局,臺北市中山區龍江路３５６巷１９號１樓,121.5401,25.06607,(02)25181178,羅氏家用新冠病毒抗原自我檢測套組,51,2022/05/11 14:16:33,無
5901101509,永直藥局,臺北市中山區北安路５９５巷２弄６號,121.5483,25.08192,(02)85098059,羅氏家用新冠病毒抗原自我檢測套組,219,2022/05/11 14:16:33,周一至周六早上8點發號碼牌，下午2點到晚上8點販售（拿號碼牌來買），周日不販售
5901101929,樂活苑藥局,臺北市中山區北安路５４６號１樓,121.548,25.08014,(02)25323296,羅氏家用新冠病毒抗原自我檢測套組,120,2022/05/11 14:16:33,實名制快篩代售時間為18:00~19:00.現場排隊，不發號碼牌.
5901102560,龍江藥局,臺北市中山區龍江路３５６巷１４號,121.5403,25.06591,(02)25023724,羅氏家用新冠病毒抗原自我檢測套組,22,2022/05/11 14:16:33,無
5901102837,正傑健保藥局,臺北市中山區長安東路２段１８１號,121.5426,25.04839,(02)27310181,羅氏家用新冠病毒抗原自我檢測套組,78,2022/05/11 14:16:33,下午四點開始販售
5901103192,昶青林森藥局,臺北市中山區林森北路１１９巷５２號,121.5269,25.05018,(02)25639939,羅氏家用新冠病毒抗原自我檢測套組,47,2022/05/11 14:16:33,口罩代售平日10:30-20:00，例假日13:30-18:00 售完為止
5901103325,仁一藥局,臺北市中山區林森北路５２０號,121.5255,25.06232,(02)25711742,羅氏家用新冠病毒抗原自我檢測套組,33,2022/05/11 14:16:33,快篩發放時間每日下午2點
5901103423,農安藥局,臺北市中山區農安街１８之１號,121.5248,25.06483,(02)25959293,羅氏家用新冠病毒抗原自我檢測套組,95,2022/05/11 14:16:33,快篩2點發號碼牌 3點後來拿
5901103585,禾全藥局,臺北市中山區龍江路３３２號,121.5409,25.06532,(02)25165721,羅氏家用新冠病毒抗原自我檢測套組,57,2022/05/11 14:16:33,實名制快篩發放時間：1400、19:00  ；現場排隊
5901103629,十二願藥局,臺北市中山區林森北路３０９號,121.5256,25.05588,(02)25311223,羅氏家用新冠病毒抗原自我檢測套組,78,2022/05/11 14:16:33,快篩晚上8點開始發放.營業時間下午1點至凌晨3點
5901103656,大樹龍江藥局,臺北市中山區龍江路２４２號,121.5406,25.05889,(02)25035666,羅氏家用新冠病毒抗原自我檢測套組,78,2022/05/11 14:16:33,快篩實名制，每天16:00開始販售，售完為止。
5901103736,杏一龍錦藥局,臺北市中山區龍江路２７９號１樓,121.5408,25.05973,(02)25174618,羅氏家用新冠病毒抗原自我檢測套組,3,2022/05/11 14:16:33,快篩提供時段週一到週六 9:00-12:00 週日不提供發放!!! 不發號碼牌 每日販售78人次 售完為止＞＜
5901103745,吉林藥局,臺北市中山區吉林路３７１號（１樓）,121.5305,25.06511,(02)25865990,羅氏家用新冠病毒抗原自我檢測套組,78,2022/05/11 14:16:33,快篩實名制，每天16:00開始販售，售完為止。
5901110133,泰成藥局,臺北市內湖區內湖路３段１３５號１樓,121.5899,25.08685,(02)27921231,羅氏家用新冠病毒抗原自我檢測套組,33,2022/05/11 14:16:33,口罩販售:上午9:00開始發號碼牌，9點同步販售.
5901110311,永安藥局,臺北市內湖區文德路２１０巷３０弄４８號,121.5852,25.07723,(02)26586658,羅氏家用新冠病毒抗原自我檢測套組,1,2022/05/11 14:16:33,口罩販售時間早上10點開始發號碼牌  同時販售
5901110446,清白藥局,臺北市內湖區東湖路１０８號,121.6157,25.06828,(02)26305743,羅氏家用新冠病毒抗原自我檢測套組,36,2022/05/11 14:16:33,無
5901112351,康信藥局,臺北市內湖區民權東路６段２９６巷２９號,121.6062,25.07203,(02)26342088,羅氏家用新冠病毒抗原自我檢測套組,41,2022/05/11 14:16:33,無
5901112682,富康東湖藥局,臺北市內湖區東湖路１１９巷４９弄１６號,121.617,25.06988,(02)26323222,羅氏家用新冠病毒抗原自我檢測套組,10,2022/05/11 14:16:33,視快篩實際到貨時間販售；LINE社群搜尋「富康藥局東湖店」會有第一線消息
5901112977,瑞光藥局,臺北市內湖區瑞光路２１２號,121.5763,25.07525,(02)87513365,羅氏家用新冠病毒抗原自我檢測套組,36,2022/05/11 14:16:33,實名制快篩每日PM14:00開賣
5901113018,桔子藥局,臺北市內湖區內湖路２段３３３號,121.5917,25.08319,(02)27930052,羅氏家用新冠病毒抗原自我檢測套組,156,2022/05/11 14:16:33,早0900-1200，午1400-1700，晚1900-2100
5901113081,宜昇優良藥局,臺北市內湖區康寧路３段１６５巷１０號,121.6118,25.07081,(02)26327817,羅氏家用新冠病毒抗原自我檢測套組,29,2022/05/11 14:16:33,快篩代售時間: 下午14:00
5901113198,傑昇藥局,臺北市內湖區內湖路２段２２７號,121.589,25.0818,(02)27925957,羅氏家用新冠病毒抗原自我檢測套組,37,2022/05/11 14:16:33,快篩代售時間:星期一~星期六 下午02:00
5901113385,躍獅康成藥局,臺北市內湖區成功路４段６１巷１１號,121.5928,25.0814,(02)87922031,羅氏家用新冠病毒抗原自我檢測套組,20,2022/05/11 14:16:33,如有收到政府配送，實名制快篩13:40發號碼牌，14:00開賣。實名制口罩已無販售。
5901113438,晶龍藥局,臺北市內湖區成功路４段２１８號,121.5961,25.08456,(02)27956255,羅氏家用新冠病毒抗原自我檢測套組,78,2022/05/11 14:16:33,快篩試劑販售時間:星期一~六下午2:30 售完為止
5901113456,佑全內湖康寧藥局,臺北市內湖區康寧路３段３９號、３９號２樓、４１號、４３號,121.6078,25.07264,(02)26346578,羅氏家用新冠病毒抗原自我檢測套組,45,2022/05/11 14:16:33,實名制快篩14:00販售 13:50發號碼牌
5901113563,耀元藥局,臺北市內湖區康樂街１５０號,121.6192,25.07263,(02)26337369,羅氏家用新冠病毒抗原自我檢測套組,49,2022/05/11 14:16:33,週一至週六實名制快篩下午兩點販售，依現場排隊順序購買，沒有發放號碼牌。週日無販售。特殊情況依現場公告為主。
5901113661,內湖藥局,臺北市內湖區康寧路１段１１６號１樓,121.5934,25.07948,(02)27940545,羅氏家用新冠病毒抗原自我檢測套組,78,2022/05/11 14:16:33,快篩實名制，每天16:00開始販售，售完為止。
5901121841,泓安藥局,臺北市南港區興華路７５號,121.6061,25.05517,(02)27861083,羅氏家用新冠病毒抗原自我檢測套組,14,2022/05/11 14:16:33,星期一至星期日早上10:00開賣快篩試劑
5901121912,成恩藥局,臺北市南港區成福路２３號,121.5867,25.04473,(02)27856602,羅氏家用新冠病毒抗原自我檢測套組,124,2022/05/11 14:16:33,快篩販賣時間：平日 周一到周五 下午3:00~5:00，現場排隊不發放號碼牌
5901122080,成福大藥局,臺北市南港區成福路８號,121.5859,25.04578,(02)27859221,羅氏家用新冠病毒抗原自我檢測套組,57,2022/05/11 14:16:33,無
5901150235,杏城藥局,臺北市士林區天母東路２４號,121.5322,25.11764,(02)28725144,羅氏家用新冠病毒抗原自我檢測套組,31,2022/05/11 14:16:33,週一至週五下午2:00 週六上午10:00販售實名制快篩試劑 週日公休 每人限一卡
5901150271,建芳藥局,臺北市士林區德行東路１４８號,121.5296,25.10804,(02)28357172,羅氏家用新冠病毒抗原自我檢測套組,14,2022/05/11 14:16:33,無
5901150548,田倉藥局,臺北市士林區士東路１２４號,121.5302,25.11219,(02)88662188,羅氏家用新冠病毒抗原自我檢測套組,78,2022/05/11 14:16:33,每日19:00（傍晚7點）開始販售.
5901150575,日康藥局,臺北市士林區士東路１２號１樓,121.5267,25.11168,(02)28358558,羅氏家用新冠病毒抗原自我檢測套組,15,2022/05/11 14:16:33,無
5901152079,資生堂藥局,臺北市士林區承德路４段４０巷１７號１Ｆ,121.522,25.08107,(02)28857588,羅氏家用新冠病毒抗原自我檢測套組,78,2022/05/11 14:16:33,今日快篩已售完
5901152453,家赫藥局,臺北市士林區忠義街８０號１樓,121.5317,25.10614,(02)28346453,羅氏家用新冠病毒抗原自我檢測套組,78,2022/05/11 14:16:33,每日下午2:40開始發號碼牌販售實名制快篩
5901152659,和樹藥局,臺北市士林區後港街４５巷１號１樓,121.5228,25.08444,(02)28821188,羅氏家用新冠病毒抗原自我檢測套組,78,2022/05/11 14:16:33,週日公休，周一早上9:30
5901152873,幸福藥局,臺北市士林區德行東路１０９巷８號,121.5284,25.10812,(02)28346650,羅氏家用新冠病毒抗原自我檢測套組,30,2022/05/11 14:16:33,Covid-19試劑販售時間:每日下午2點15分至下午5點販售（含星日（如果有貨））售完為止
5901153263,健揚藥局,臺北市士林區延平北路５段２５１號,121.5097,25.08483,(02)28163698,羅氏家用新冠病毒抗原自我檢測套組,17,2022/05/11 14:16:33,每日下午13:30開始販售
5901153496,躍獅忠誠藥局,臺北市士林區忠義街７０號,121.5314,25.10594,(02)28387948,羅氏家用新冠病毒抗原自我檢測套組,26,2022/05/11 14:16:33,快篩下午兩點販售，現場排隊沒有發號碼牌（週日販售視到貨情況決定）
5901153674,愛佳藥局,臺北市士林區承德路４段２２２之１號,121.5215,25.0885,(02)28811199,羅氏家用新冠病毒抗原自我檢測套組,78,2022/05/11 14:16:33,實名制快篩平日一~五下午5:00販售，假日（六、日）不販售
5901154000,文昌大藥局,臺北市士林區文昌路７２號１樓,121.5213,25.09634,(02)28376196,羅氏家用新冠病毒抗原自我檢測套組,31,2022/05/11 14:16:33,1.5／11-5／17 14:00販售實名制快篩  2.每日提供18份 醫護警消郵差憑證購買 限10:00開放 3.自費快篩已到貨
5901154019,忠義台安藥局,臺北市士林區忠義街７２號１樓,121.5315,25.106,(02)28380685,羅氏家用新冠病毒抗原自我檢測套組,33,2022/05/11 14:16:33,下午2點開始販售快篩試劑
5901154028,向宇藥局,臺北市士林區德行東路２１７號１樓,121.5328,25.10935,(02)88661101,羅氏家用新冠病毒抗原自我檢測套組,67,2022/05/11 14:16:33,無
5901154082,德行盛康藥局,臺北市士林區德行東路２０６之１號１樓,121.532,25.1089,(02)28348756,羅氏家用新冠病毒抗原自我檢測套組,55,2022/05/11 14:16:33,無
5901154135,誠泰中西藥局,臺北市士林區永平街１３號１樓,121.5051,25.08996,(02)88112352,羅氏家用新冠病毒抗原自我檢測套組,78,2022/05/11 14:16:33,周一到周六晚上7:00開始販賣，   周日上午10:00開賣到下午1:00
5901160062,丸三大藥局,臺北市北投區自強街１０５號,121.5153,25.11086,(02)28230637,羅氏家用新冠病毒抗原自我檢測套組,6,2022/05/11 14:16:33,實名制快篩試劑13:30開始販售
5901160099,進春藥局,臺北市北投區明德路１５１號,121.5206,25.11086,(02)28216938,羅氏家用新冠病毒抗原自我檢測套組,17,2022/05/11 14:16:33,無休 上午九點開始販售，現場排隊。（依現場公告為主）
5901160197,川秀藥局,臺北市北投區石牌路２段９９巷９號１樓,121.5166,25.11792,(02)28270702,羅氏家用新冠病毒抗原自我檢測套組,30,2022/05/11 14:16:33,每日14:00開賣
5901160222,新祥藥局,臺北市北投區知行路２０８號－１,121.4668,25.11935,(02)28582551,羅氏家用新冠病毒抗原自我檢測套組,84,2022/05/11 14:16:33,實名制快篩下午1:30分發放號碼牌，隨後依照號碼牌發售，周日休息
5901160428,九福藥局,臺北市北投區公館路２３６號,121.5081,25.12612,(02)28953009,羅氏家用新冠病毒抗原自我檢測套組,22,2022/05/11 14:16:33,★週日店休未營業. 快篩下午1點發號碼牌
5901160517,弘安藥局,臺北市北投區懷德街３３號１樓,121.5193,25.11219,(02)28206390,羅氏家用新冠病毒抗原自我檢測套組,13,2022/05/11 14:16:33,快篩每日下午2:00開賣，現場購買售完為止
5901160802,美康藥局,臺北市北投區明德路９０號１樓,121.5196,25.1094,(02)28281176,羅氏家用新冠病毒抗原自我檢測套組,25,2022/05/11 14:16:33,營業時間:10:30~22:00；13:30開始販售快篩
5901161890,良興藥局,臺北市北投區中和街２８６號,121.5004,25.14047,(02)28933360,羅氏家用新冠病毒抗原自我檢測套組,59,2022/05/11 14:16:33,18點30分點開始營業
5901161934,康揚藥局,臺北市北投區中和街３２２號,121.4998,25.14108,(02)28946520,羅氏家用新冠病毒抗原自我檢測套組,46,2022/05/11 14:16:33,（ 實名制快篩發放時間: 14:00~售完為止）
5901162306,上頤藥局,臺北市北投區中和街３２７號１樓,121.4997,25.14097,(02)28981230,羅氏家用新冠病毒抗原自我檢測套組,336,2022/05/11 14:16:33,快篩販售時間:星期一~六 下午2點開賣，星期日停售
5901162477,長宜藥局,臺北市北投區自強街１１２號,121.5155,25.11074,(02)28216605,羅氏家用新冠病毒抗原自我檢測套組,52,2022/05/11 14:16:33,實名制快篩試劑發放時間:14:00~售完為止，會依政府配送狀況調整
5901162833,維康藥局,臺北市北投區石牌路２段１９１．１９３號,121.5184,25.11874,(02)28206343,羅氏家用新冠病毒抗原自我檢測套組,2,2022/05/11 14:16:33,快篩發放時間為每日下午3點排隊，現場購賣
5901163269,佳祈健保藥局,臺北市北投區明德路１４４號,121.5208,25.11047,(02)28232535,羅氏家用新冠病毒抗原自我檢測套組,27,2022/05/11 14:16:33,無
5901163296,天禧大藥局,臺北市北投區實踐街３５號,121.5087,25.11521,(02)28213558,羅氏家用新冠病毒抗原自我檢測套組,30,2022/05/11 14:16:33,實名制快篩下午1:30現場販售
5901163527,理得藥局,臺北市北投區石牌路１段１５０號,121.5131,25.11426,(02)28289680,羅氏家用新冠病毒抗原自我檢測套組,31,2022/05/11 14:16:33,每日13:30發放號碼牌 14:00開賣，售完為止。
5901163536,天富大藥局,臺北市北投區石牌路２段１７１號（實際使用：１樓）,121.518,25.11848,(02)28225812,羅氏家用新冠病毒抗原自我檢測套組,67,2022/05/11 14:16:33,週一至週六下午2-3點直接販售；週日暫停販售
5901163545,天康大藥局,臺北市北投區中央南路１段５７號,121.5014,25.13192,(02)28914265,羅氏家用新冠病毒抗原自我檢測套組,9,2022/05/11 14:16:33,實名制快篩下午1:30現場販售
5901163581,陳藥師藥局,臺北市北投區光明路２巷１３－２號（實際使用：１樓）,121.4997,25.13132,(02)28921971,羅氏家用新冠病毒抗原自我檢測套組,78,2022/05/11 14:16:33,無
5901163616,江南育仁大藥局,臺北市北投區育仁路５５號１樓,121.4981,25.13361,(02)28981850,羅氏家用新冠病毒抗原自我檢測套組,29,2022/05/11 14:16:33,下午2點販售實名制快篩，假日視政府配發情況調整
5901163634,心樂藥局,臺北市北投區致遠一路２段１０５號１樓,121.5128,25.1131,(02)28210261,羅氏家用新冠病毒抗原自我檢測套組,36,2022/05/11 14:16:33,您好。發放快篩時間:周一二三五六早上8:30-09:00，週四加開早上10-11點，周一二三五 下午4:00-4:30，周日及國定假日休息
5901163643,致遠盛康藥局,臺北市北投區致遠二路１４１號１樓,121.5128,25.1173,(02)28263580,羅氏家用新冠病毒抗原自我檢測套組,56,2022/05/11 14:16:33,快篩試劑下午2點開始發放號碼牌
5901163652,康賢藥局,臺北市北投區西安街１段３５９號１樓,121.5153,25.11429,(02)28219295,羅氏家用新冠病毒抗原自我檢測套組,14,2022/05/11 14:16:33,週一至週六下午1:00起販售快篩，週日及國定假日公休。
5901170059,必欣藥局,臺北市信義區松仁路２６４號,121.5696,25.02425,(02)27225060,羅氏家用新冠病毒抗原自我檢測套組,30,2022/05/11 14:16:33,實名制快篩販售時間：星期一至星期六下午13：30開始
5901170139,福華藥局,臺北市信義區吳興街２８１巷３號１樓,121.5643,25.02656,(02)27208527,羅氏家用新冠病毒抗原自我檢測套組,103,2022/05/11 14:16:33,現階段下午1:30配合政府發售快篩試劑
5901170648,立信藥局,臺北市信義區松山路４０３號,121.578,25.04144,(02)27687754,羅氏家用新冠病毒抗原自我檢測套組,3,2022/05/11 14:16:33,快篩試劑販賣時間:晚上七點至九點
5901170906,吳興藥局,臺北市信義區吳興街２７９號１樓,121.5642,25.02658,(02)27208328,羅氏家用新冠病毒抗原自我檢測套組,6,2022/05/11 14:16:33,實名制快篩販售時間，周一至周六13：00現場排隊購買（勿電話追問）
5901170915,杏仁藥局,臺北市信義區大道路１３５號,121.5834,25.03901,(02)27262541,羅氏家用新冠病毒抗原自我檢測套組,14,2022/05/11 14:16:33,實名制快篩:週一至週五下午3點販售，週六週日無販售
5901172179,新和平藥局,臺北市信義區虎林街１９８號１樓,121.5769,25.03844,(02)23460951,羅氏家用新冠病毒抗原自我檢測套組,19,2022/05/11 14:16:33,每星期一至星期六早上10點起   發放實名制快篩試劑 .星期日休息
5901172213,華泰藥局,臺北市信義區虎林街８２巷５號,121.5769,25.04335,(02)27601992,羅氏家用新冠病毒抗原自我檢測套組,3,2022/05/11 14:16:33,快篩 ／ 早上 8:30  開始販售 . 售完為止 .
5901172240,德康大藥局,臺北市信義區松山路５４１巷２１號,121.579,25.03794,(02)27272502,羅氏家用新冠病毒抗原自我檢測套組,4,2022/05/11 14:16:33,今日無快篩
5901172820,安心藥局,臺北市信義區永吉路３０巷１４８弄４之１號,121.5685,25.04266,(02)27474992,羅氏家用新冠病毒抗原自我檢測套組,26,2022/05/11 14:16:33,快篩代售時間14:00起現場排隊
5901172924,躍獅松仁藥局,臺北市信義區松仁路２３３號（實際營業地址：１樓）,121.5688,25.02617,(02)27238626,羅氏家用新冠病毒抗原自我檢測套組,42,2022/05/11 14:16:33,快篩販售時段:下午13:30開始售完至晚上19:00前
5901173238,正和藥局,臺北市信義區吳興街２２５巷６號,121.5634,25.02782,(02)23455186,羅氏家用新冠病毒抗原自我檢測套組,61,2022/05/11 14:16:33,下午2點半發放快篩，週日無發放
5901173587,新興健保藥局,臺北市信義區永吉路３０巷１１３號,121.5689,25.04324,(02)27494892,羅氏家用新冠病毒抗原自我檢測套組,33,2022/05/11 14:16:33,快篩試劑下午二點開始販售
5901173694,洪暘藥局,臺北市信義區富陽街８６號,121.5564,25.02127,(02)27337099,羅氏家用新冠病毒抗原自我檢測套組,26,2022/05/11 14:16:33,下午2點開始販售，限一人持一張健保卡。
5901173710,專品光復藥局,臺北市信義區光復南路４６７之１號,121.5577,25.03384,(02)27586682,羅氏家用新冠病毒抗原自我檢測套組,77,2022/05/11 14:16:33,禮拜一到六下午三點販售口罩
5901173818,博亞藥局,臺北市信義區莊敬路４６２號,121.5677,25.02672,(02)27580506,羅氏家用新冠病毒抗原自我檢測套組,39,2022/05/11 14:16:33,平日早上8:30、晚上8:00；假日早上8:30，發放號碼牌，持號碼牌購買!
5901173881,壹間藥師藥局,臺北市信義區虎林街１２０巷１４８號,121.5742,25.04213,(02)27672833,羅氏家用新冠病毒抗原自我檢測套組,1,2022/05/11 14:16:33,5／11（三）10:30實名制快篩開始販售
5901173934,躍獅光復藥局,臺北市信義區光復南路４１７之８號,121.5577,25.03682,(02)87862307,羅氏家用新冠病毒抗原自我檢測套組,33,2022/05/11 14:16:33,下午1點開始販售
5901173943,躍獅興雅藥局,臺北市信義區松德路１２８號,121.5745,25.03734,(02)87808429,羅氏家用新冠病毒抗原自我檢測套組,48,2022/05/11 14:16:33,14:00發號碼牌且同步開賣快篩，販賣至15:00或售完為止，週日無販售。
5901174057,詠晴中西藥局,臺北市信義區松山路４８４之４號（１樓含夾層）,121.5778,25.0389,(02)27266890,羅氏家用新冠病毒抗原自我檢測套組,81,2022/05/11 14:16:33,實名制快篩 - 16:30領號碼牌.當天取貨即可.避免群聚風險
5901174066,愛維喜藥局,臺北市信義區莊敬路２７８號１樓,121.5627,25.02882,(02)27586989,羅氏家用新冠病毒抗原自我檢測套組,75,2022/05/11 14:16:33,快篩周一至五15:30.周六8:30開賣.約30分前收健保卡現金500元1張.發號碼牌
5901174075,信義盛康藥局,臺北市信義區永吉路２８６號（１樓）,121.5744,25.04538,(02)23460521,羅氏家用新冠病毒抗原自我檢測套組,6,2022/05/11 14:16:33,無
5901174084,市政藥局,臺北市信義區忠孝東路５段１６９號１樓、１７１號１樓,121.5688,25.0412,(02)27560050,羅氏家用新冠病毒抗原自我檢測套組,78,2022/05/11 14:16:33,快篩實名制，每天16:00開始販售，售完為止。
5901180055,日生大藥局,臺北市中正區汀州路１段５３號１樓,121.5076,25.03026,(02)23031393,羅氏家用新冠病毒抗原自我檢測套組,57,2022/05/11 14:16:33,快篩試劑代售服務時間:（1）5月11日周三 下午14點起開賣 售完為止
5901183985,正康藥局,臺北市中正區漢口街１段２２號,121.5142,25.04507,(02)23712831,羅氏家用新冠病毒抗原自我檢測套組,2,2022/05/11 14:16:33,快篩13:30發號碼牌，14:00發放快篩
5901184080,活力健康藥妝藥局,臺北市中正區中華路２段３１５巷１號,121.5062,25.02795,(02)23392625,羅氏家用新冠病毒抗原自我檢測套組,7,2022/05/11 14:16:33,快篩14:00-15:00， 建議提早排隊
5901184179,保德中華藥局,臺北市中正區中華路２段１５９號,121.5042,25.03101,(02)23027720,羅氏家用新冠病毒抗原自我檢測套組,78,2022/05/11 14:16:33,快篩下午三點開始發號碼牌及販售，限當日購買
5901184553,珍忻藥局,臺北市中正區南昌路１段６５號,121.5174,25.03107,(02)23965115,羅氏家用新冠病毒抗原自我檢測套組,37,2022/05/11 14:16:33,健保快篩發放:13:20及18:20分兩梯次發號碼牌
5901184679,汀州藥局,臺北市中正區汀州路１段１８７、１８９、１９１號（１樓）,121.5112,25.02704,(02)23090705,羅氏家用新冠病毒抗原自我檢測套組,78,2022/05/11 14:16:33,快篩實名制，每天16:00開始販售，售完為止。
5901190033,世欣藥局,臺北市萬華區東園街１７３號１Ｆ,121.4973,25.02419,(02)23074263,羅氏家用新冠病毒抗原自我檢測套組,37,2022/05/11 14:16:33,防疫快篩劑服務時間週一至五14:00-16:00週六10:00-12:00
5901190426,皇祥藥局,臺北市萬華區萬青街１６５號１樓,121.5016,25.02279,(02)23375676,羅氏家用新冠病毒抗原自我檢測套組,8,2022/05/11 14:16:33,有貨時每天下午2點販售 五份醫護人員
5901190668,聯慶大藥局,臺北市萬華區萬大路３０６號１樓,121.5003,25.02495,(02)23039850,羅氏家用新冠病毒抗原自我檢測套組,1,2022/05/11 14:16:33,無
5901192180,康之友藥局,臺北市萬華區青年路２０號,121.5055,25.02592,(02)23011598,羅氏家用新冠病毒抗原自我檢測套組,30,2022/05/11 14:16:33,下午兩點發號碼牌
5901192448,健誠大藥局,臺北市萬華區環河南路２段１８５號,121.4919,25.03246,(02)23042223,羅氏家用新冠病毒抗原自我檢測套組,1,2022/05/11 14:16:33,實名制快篩販售：周一至周五早上9點開始，周六、周日早上10點開始
5901192546,躍獅西園藥局,臺北市萬華區西園路２段２６０號,121.4946,25.02784,(02)23094063,羅氏家用新冠病毒抗原自我檢測套組,60,2022/05/11 14:16:33,快篩販售時段：下午2點至售完為止（政府正常配貨的情況下，現場排隊）
5901192975,萬華藥局,臺北市萬華區萬大路２４８號實際營業地址１樓、２樓,121.5003,25.02626,(02)23012221,羅氏家用新冠病毒抗原自我檢測套組,78,2022/05/11 14:16:33,快篩實名制，每天16:00開始販售，售完為止。
5901193070,榮勝藥局,臺北市萬華區萬大路２３３號,121.5006,25.02649,(02)23331121,羅氏家用新冠病毒抗原自我檢測套組,6,2022/05/11 14:16:33,每日快篩早上十一點開始販售
5901193132,松本藥局,臺北市萬華區西昌街２３３號,121.5007,25.03723,(02)23029559,羅氏家用新冠病毒抗原自我檢測套組,20,2022/05/11 14:16:33,無
5901193221,正盛藥局,臺北市萬華區中華路２段４３４－１號,121.5064,25.02708,(02)23050386,羅氏家用新冠病毒抗原自我檢測套組,69,2022/05/11 14:16:33,【5／9自費快篩+血氧機到貨!!】1.一~六20點，周日不賣 2.排隊人潮多，建議7點左右提前候位 3.詳情看公告或板橋正康臉書
5901193230,啟仁藥局,臺北市萬華區環河南路２段１７７號,121.492,25.03259,(02)23362771,羅氏家用新冠病毒抗原自我檢測套組,15,2022/05/11 14:16:33,六日沒配送就停售（有配就有），一般時間下午2點開始發號碼牌， 發完為止
5901193310,和德藥局,臺北市萬華區西園路２段２９２號１樓,121.4935,25.02698,(02)23331522,羅氏家用新冠病毒抗原自我檢測套組,78,2022/05/11 14:16:33,快篩實名制，每天16:00開始販售，售完為止。
5901193329,西園宏越藥局,臺北市萬華區西園路２段２１３號,121.4942,25.02714,(02)23097336,羅氏家用新冠病毒抗原自我檢測套組,17,2022/05/11 14:16:33,實名制快篩下午4點~5點販售
5901193338,艾米力藥師藥局,臺北市萬華區西藏路１０７－２號１樓,121.5035,25.02955,(02)23036583,羅氏家用新冠病毒抗原自我檢測套組,75,2022/05/11 14:16:33,實名制快篩：周一~周五【晚上】7:00販售；周末（六日）早上9:00販售
5901193365,企鵝藥局,臺北市萬華區西昌街１７５號（１樓）,121.5007,25.03886,(02)23884691,羅氏家用新冠病毒抗原自我檢測套組,26,2022/05/11 14:16:33,公費快篩試劑，下午2點發號碼牌
5901200105,建興藥局,臺北市文山區木柵路２段８１號１樓,121.561,24.98889,(02)29399993,羅氏家用新冠病毒抗原自我檢測套組,13,2022/05/11 14:16:33,星期一至星期日早上8時30分現場販售實名制快篩試劑
5901200114,健群藥局,臺北市文山區景興路４１號,121.5448,24.99717,(02)29328898,羅氏家用新冠病毒抗原自我檢測套組,10,2022/05/11 14:16:33,無
5901201568,康宜庭生活藥局,臺北市文山區興隆路４段６４號,121.5613,24.98514,(02)29385363,羅氏家用新冠病毒抗原自我檢測套組,39,2022/05/11 14:16:33,實名快篩14:00開賣 現場排隊
5901201835,巧康藥局,臺北市文山區木新路３段２６２、２６４號,121.5585,24.98132,(02)29372061,羅氏家用新冠病毒抗原自我檢測套組,54,2022/05/11 14:16:33,每日下午2點發放號碼牌，2點15進行快篩販售。請勿離場，離場視同放棄。
5901202047,華君藥局,臺北市文山區興隆路２段６０號,121.5478,24.99955,(02)29319510,羅氏家用新冠病毒抗原自我檢測套組,2,2022/05/11 14:16:33,每天12:00開始販售快篩
5901202396,宇康藥局,臺北市文山區羅斯福路５段２１８巷７號,121.5383,25.00203,(02)29307066,羅氏家用新冠病毒抗原自我檢測套組,2,2022/05/11 14:16:33,無
5901202654,康宜庭萬隆藥局,臺北市文山區羅斯福路５段２０２號,121.5384,25.00322,(02)29348662,羅氏家用新冠病毒抗原自我檢測套組,38,2022/05/11 14:16:33,實名快篩中午才到貨   每日下午14:00準時開賣（建議13:00來排隊）
5901202681,振大藥局,臺北市文山區永安街２２巷１６號,121.5697,24.98683,(02)29393385,羅氏家用新冠病毒抗原自我檢測套組,30,2022/05/11 14:16:33,無
5901202949,萬隆大藥局,臺北市文山區羅斯福路５段２１８巷１５號,121.538,25.00203,(02)29334580,羅氏家用新冠病毒抗原自我檢測套組,119,2022/05/11 14:16:33,9：00~23：00
5901202958,杏一萬安藥局,臺北市文山區萬安街１５號,121.5706,25.00139,(02)22302126,羅氏家用新冠病毒抗原自我檢測套組,11,2022/05/11 14:16:33,營業時間0900-2200
5901203044,木新健康人生藥局,臺北市文山區木新路３段２０３號,121.5598,24.9814,(02)86611465,羅氏家用新冠病毒抗原自我檢測套組,68,2022/05/11 14:16:33,10:00~21:00；13:45發號碼牌，14點發放快篩
5901203062,大樹文山藥局,臺北市文山區興隆路３段１３號（１、２、３樓）,121.555,25.00088,(02)29342226,羅氏家用新冠病毒抗原自我檢測套組,78,2022/05/11 14:16:33,快篩實名制，每天16:00開始販售，售完為止。
5901203106,光明大藥局,臺北市文山區忠順街１段６６號,121.5607,24.98426,(02)29390275,羅氏家用新冠病毒抗原自我檢測套組,37,2022/05/11 14:16:33,無
5901203124,福興藥局,臺北市文山區福興路５６號,121.5505,25.00345,(02)89313868,羅氏家用新冠病毒抗原自我檢測套組,11,2022/05/11 14:16:33,領快篩時間:周一到周六，下午2點開放購買快篩，1人1卡1份
5901203366,大樹木柵藥局,臺北市文山區木柵路３段１０８號、１１０號（１樓、２樓）,121.5676,24.98866,(02)22340110,羅氏家用新冠病毒抗原自我檢測套組,78,2022/05/11 14:16:33,快篩實名制，每天16:00開始販售，售完為止。
5901203375,大樹景美藥局,臺北市文山區羅斯福路６段２３４之１號,121.5404,24.99244,(02)29322951,羅氏家用新冠病毒抗原自我檢測套組,78,2022/05/11 14:16:33,快篩實名制，每天16:00開始販售，售完為止。
5901203400,富康活力睦新藥局,臺北市文山區木新路３段２１６號,121.5595,24.98153,(02)29393666,羅氏家用新冠病毒抗原自我檢測套組,49,2022/05/11 14:16:33,無
5901203419,康宜庭興隆藥局,臺北市文山區興隆路３段２００號１樓,121.559,24.99779,(02)22304866,羅氏家用新冠病毒抗原自我檢測套組,29,2022/05/11 14:16:33,無
5901203428,康宜庭景文藥局,臺北市文山區景文街９７號１樓,121.5413,24.99093,(02)29302801,羅氏家用新冠病毒抗原自我檢測套組,29,2022/05/11 14:16:33,營業時間為08:30-22:30；14:00開始發放快篩實名制號碼牌並立即販售，謝謝您的配合
5901203446,景華盛康藥局,臺北市文山區景華街６９號１樓,121.545,24.99524,(02)29310188,羅氏家用新冠病毒抗原自我檢測套組,78,2022/05/11 14:16:33,快篩販售時間:下午3點開賣，現場發送號碼牌
5901203464,大愛幸福藥局,臺北市文山區木新路２段２２１號１樓,121.5675,24.98344,(02)29379977,羅氏家用新冠病毒抗原自我檢測套組,50,2022/05/11 14:16:33,無
5901203482,健康家藥局,臺北市文山區興隆路２段１３３號１樓,121.5481,25.00011,(02)29330858,羅氏家用新冠病毒抗原自我檢測套組,16,2022/05/11 14:16:33,實名制快篩下午一點開始販售，5／1店休
5902030643,新高橋藥局,高雄市左營區民族一路１０２８號,120.3201,22.68255,(07)3100696,羅氏家用新冠病毒抗原自我檢測套組,60,2022/05/11 14:16:33,依快篩配送時間滾動式調整下午14:30，請備妥當日可領買之健保卡與現金500元購買，不找零，0號是雙號，謝謝配合
5902032218,和信藥師健保藥局,高雄市左營區崇德路２６７號,120.3037,22.6756,(07)3419363,羅氏家用新冠病毒抗原自我檢測套組,5,2022/05/11 14:16:33,實名制快篩 ， 周一至周六上午9點起開始販賣 ， 周日店休 !!!
5902042661,元春中西藥師藥局,高雄市楠梓區後昌路８３７巷３７號,120.294,22.71109,(07)3605656,羅氏家用新冠病毒抗原自我檢測套組,44,2022/05/11 14:16:33,周1~周6下午16:00開賣快篩，售完為止
5902050565,澄和藥局,高雄市三民區澄和路６６號,120.3445,22.64474,(07)3923111,羅氏家用新冠病毒抗原自我檢測套組,35,2022/05/11 14:16:33,快篩試劑- 販售時間自下午14:00起至售完為止
5902050636,嘉益藥局,高雄市三民區重慶街３０號,120.302,22.64223,(07)3110157,羅氏家用新冠病毒抗原自我檢測套組,52,2022/05/11 14:16:33,快篩實名制下午15：00開始販售.
5902050798,友泰藥局,高雄市三民區中和街１６９號,120.2868,22.6388,(07)3125236,羅氏家用新冠病毒抗原自我檢測套組,17,2022/05/11 14:16:33,無
5902050903,皇安藥局,高雄市三民區九如一路４６１號,120.3296,22.63865,(07)3866779,羅氏家用新冠病毒抗原自我檢測套組,1,2022/05/11 14:16:33,營業日0900可先領取號碼牌，上午9:00-12:00及下午3:00~10:.00為販賣快篩時間，售完為止
5902051268,上正藥師藥局,高雄市三民區憲政路２５５號,120.3185,22.63647,(07)2223355,羅氏家用新冠病毒抗原自我檢測套組,34,2022/05/11 14:16:33,周一至周五下午2點販售實名制快篩試劑，周末六日早上8點半至10點販售實名制快篩試劑
5902056718,岱安藥局,高雄市三民區熱河二街２３號,120.3018,22.6439,(07)3219946,羅氏家用新冠病毒抗原自我檢測套組,12,2022/05/11 14:16:33,下午1點~5點開始販售實名制快篩（日公休）
5902057484,永勝藥局,高雄市三民區褒忠街１１４號,120.334,22.64262,(07)3814643,羅氏家用新冠病毒抗原自我檢測套組,16,2022/05/11 14:16:33,快篩試劑 販售時間  PM2:00-4:00 售完為止.
5902060025,連作藥局,高雄市新興區大同一路２０３－１號,120.3003,22.62856,(07)2154716,羅氏家用新冠病毒抗原自我檢測套組,24,2022/05/11 14:16:33,快篩試紙領用時間為每日下午2點
5902061540,長青藥局,高雄市新興區六合路１１４號,120.3159,22.63223,(07)2223969,羅氏家用新冠病毒抗原自我檢測套組,6,2022/05/11 14:16:33,快篩下午2點
5902071528,岩生藥局,高雄市前金區自立一路１５－１號,120.2975,22.63437,(07)2863608,羅氏家用新冠病毒抗原自我檢測套組,1,2022/05/11 14:16:33,營業時間為24小時 過年期間正常營業
5902085308,幸福藥師藥局,高雄市苓雅區青年一路１６７－３號,120.3079,22.62172,(07)5368701,羅氏家用新冠病毒抗原自我檢測套組,7,2022/05/11 14:16:33,1: 自111／5／1起：快篩販售時間為14:00開始。2: 販售方式依現場公告為主，售完為止。
5902090827,博平藥局,高雄市前鎮區草衙二路３７７號,120.3224,22.57808,(07)8311814,羅氏家用新冠病毒抗原自我檢測套組,42,2022/05/11 14:16:33,下午2點開始販售快篩.售完為止
5902092554,協和藥局,高雄市前鎮區中華五路９８３號,120.306,22.60221,(07)5377769,羅氏家用新冠病毒抗原自我檢測套組,14,2022/05/11 14:16:33,快篩代售:除星期天休息 周一至周五下午2:00 周六:晚上7點
5903010127,友誠藥局,臺中市豐原區豐東路４０１號１樓,120.7336,24.25457,(04)25132371,羅氏家用新冠病毒抗原自我檢測套組,40,2022/05/11 14:16:33,禮拜一至禮拜日快篩發放時間下午兩點開始販售，售完為止。
5903010261,豐原西勢藥局,臺中市豐原區西勢路２００號１樓,120.7067,24.24379,(04)25262330,羅氏家用新冠病毒抗原自我檢測套組,46,2022/05/11 14:16:33,今日快篩下午2:00開賣，1:50發號碼牌，因疫情無法店內排隊，不便之處敬請見諒。
5903010485,大樹圓環藥局,臺中市豐原區圓環東路６１７號１樓,120.7283,24.25084,(04)25122212,羅氏家用新冠病毒抗原自我檢測套組,78,2022/05/11 14:16:33,口罩販售時間：14:00 - 16:00
5903010501,佑全豐原圓環東藥局,臺中市豐原區圓環東路５４８、５５０、５５２、５５４號１樓,120.7275,24.24948,(04)25246069,羅氏家用新冠病毒抗原自我檢測套組,32,2022/05/11 14:16:33,營業時間9:00-21:00，今日實名制1:50發號碼牌2:00開賣，售完為止
5903010547,佑全豐原中正藥局,臺中市豐原區中正路２２３、２２５號１、２樓,120.7175,24.25179,(04)25152886,羅氏家用新冠病毒抗原自我檢測套組,53,2022/05/11 14:16:33,實名制快篩販售時間:下午2點開始（13:50發號碼牌）
5903010556,升禾和大藥局,臺中市豐原區育英路２６號１樓,120.7163,24.24346,(04)25293099,羅氏家用新冠病毒抗原自我檢測套組,78,2022/05/11 14:16:33,快篩試劑18:00領取.採現場排隊.售完為止
5903010583,林居藥局,臺中市豐原區源豐路１１４號１樓,120.7173,24.25367,(04)25159168,羅氏家用新冠病毒抗原自我檢測套組,47,2022/05/11 14:16:33,快篩依當天物流送貨時間， 會在 FB林居藥局 公告販售時間， 謝謝
5903020034,國良豐藥局,臺中市東勢區豐勢路２１號１樓,120.8318,24.24779,(04)25885778,羅氏家用新冠病毒抗原自我檢測套組,14,2022/05/11 14:16:33,快篩試劑下午2:00開始
5903040036,得康藥局,臺中市清水區高美路１１７號,120.5753,24.27879,(04)26260622,羅氏家用新冠病毒抗原自我檢測套組,78,2022/05/11 14:16:33,5／11下午14:40開始販售
5903050274,鹿寮藥局,臺中市沙鹿區中山路４６１、４６１－１號１、２樓,120.5615,24.24387,(04)26630677,羅氏家用新冠病毒抗原自我檢測套組,78,2022/05/11 14:16:33,快篩實名制，每天16:00開始販售，售完為止。
5903060010,大芳藥局,臺中市梧棲區中央路１段９０７號,120.5381,24.24742,(04)26561755,羅氏家用新冠病毒抗原自我檢測套組,40,2022/05/11 14:16:33,快篩試劑.下午兩點開始販售.
5903060038,梧棲玖裕藥局,臺中市梧棲區中和街８５號,120.5316,24.25545,(04)26583909,羅氏家用新冠病毒抗原自我檢測套組,22,2022/05/11 14:16:33,快篩代售星期一~五 下午2點.星期六早上10:30點 星期休假
5903060092,佑全梧棲文化藥局,臺中市梧棲區文化路二段１５０號１樓,120.531,24.25526,(04)26566433,羅氏家用新冠病毒抗原自我檢測套組,39,2022/05/11 14:16:33,實名快篩下午1：50發號碼牌；14：00開始販售
5903070025,得安藥局,臺中市后里區四村路７８號,120.7129,24.30469,(04)25585333,羅氏家用新冠病毒抗原自我檢測套組,117,2022/05/11 14:16:33,快篩販賣時間 14:00~15:00（售完為止）
5903070169,佑全后里甲后藥局,臺中市后里區甲后路一段７２８號１、２樓,120.7193,24.30951,(04)25583116,羅氏家用新冠病毒抗原自我檢測套組,19,2022/05/11 14:16:33,實名制快篩每日14:00販售。13:50發放號碼牌。
5903080094,灃洲大藥局,臺中市神岡區豐洲路４６６－３號１樓,120.7045,24.26179,(04)25150169,羅氏家用新冠病毒抗原自我檢測套組,4,2022/05/11 14:16:33,星期日公休，實名制快篩販售時間為每日下午三點
5903080138,佑全神岡中山藥局,臺中市神岡區中山路５４９、５４９之１、５４９之２號１樓,120.6842,24.24638,(04)25634677,羅氏家用新冠病毒抗原自我檢測套組,40,2022/05/11 14:16:33,每日下午1點50分發號碼牌2點開賣
5903090429,佑全潭子中山藥局,臺中市潭子區中山路一段９之１號,120.7023,24.18847,(04)25356140,羅氏家用新冠病毒抗原自我檢測套組,50,2022/05/11 14:16:33,營業時間:09:00-21:00／健保實聯制購買時間:14:00開始販售，13:50開始發號碼牌，售完為止。
5903100055,大詮藥師藥局,臺中市大雅區民生路３段４３２號,120.6655,24.23441,(04)25682767,羅氏家用新冠病毒抗原自我檢測套組,25,2022/05/11 14:16:33,實名制快篩，5／5起改下午2點賣。平時營業時間；週一到週五11:30至22:00，週六晚上9點打烊，周日固定公休。
5903100135,大雅安德藥局,臺中市大雅區中清東路２２９號１樓,120.6469,24.22459,(04)25604133,羅氏家用新冠病毒抗原自我檢測套組,30,2022/05/11 14:16:33,5／11（三）。實名制快篩13:30領取號碼牌，14:00販賣，不找零，每張卡隔一個月買一次，限每人一卡一份
5903100180,杏一大雅中清藥局,臺中市大雅區中清路四段３１、３３、３５號１樓,120.6448,24.22615,(04)25601791,羅氏家用新冠病毒抗原自我檢測套組,51,2022/05/11 14:16:33,週一~週六14:00販售（13:50發號碼牌）每人每卡限定1份500元!週日無販售!
5903100215,佑全大雅雅環藥局,臺中市大雅區雅環路二段８８號１樓,120.653,24.22634,(04)25605942,羅氏家用新冠病毒抗原自我檢測套組,40,2022/05/11 14:16:33,營業時間:09:00~21:00；實名制快篩於每日13:50發放號碼牌，14:00開始販售。
5903150135,全品藥局,臺中市烏日區公園路２４０之１號１樓,120.6254,24.10234,(04)23362690,羅氏家用新冠病毒抗原自我檢測套組,32,2022/05/11 14:16:33,週一 ~ 週五  下午2:00 & 週六 早上9點 販售 ，售完為止
5903150144,佑全台中烏日藥局,臺中市烏日區中山路一段３５４號１樓,120.6386,24.10816,(04)23367756,羅氏家用新冠病毒抗原自我檢測套組,34,2022/05/11 14:16:33,實名制快篩販售時間：下午2點（請準備剛好500元，謝謝配合）
5903150153,溪南藥局,臺中市烏日區溪南路一段５６５號１樓,120.6431,24.07523,(04)23353666,羅氏家用新冠病毒抗原自我檢測套組,78,2022/05/11 14:16:33,快篩實名制，每天16:00開始販售，售完為止。
5903180142,峰正藥局,臺中市霧峰區中正路８３０號１樓,120.6987,24.06244,(04)23303353,羅氏家用新冠病毒抗原自我檢測套組,78,2022/05/11 14:16:33,快篩實名制，每天16:00開始販售，售完為止。
5903190228,中山德侑藥局,臺中市太平區中山路３段２之２號１樓,120.7222,24.14942,(04)23920682,羅氏家用新冠病毒抗原自我檢測套組,24,2022/05/11 14:16:33,每日下午13:30開始販售，但遇特殊情況快篩販售時間會調整
5903190273,太平小林健保藥局,臺中市太平區育賢路５１８號,120.7133,24.15883,(04)23954436,羅氏家用新冠病毒抗原自我檢測套組,20,2022/05/11 14:16:33,每天早上8點發號碼牌，下午4:30販售口罩
5903190362,太平中山藥局,臺中市太平區中山路４段１１號,120.7139,24.14931,(04)23959200,羅氏家用新冠病毒抗原自我檢測套組,78,2022/05/11 14:16:33,快篩實名制，每天16:00開始販售，售完為止。
5903190497,太平惠民藥師藥局,臺中市太平區東平路３６８號１樓,120.7267,24.13433,(04)22768799,羅氏家用新冠病毒抗原自我檢測套組,37,2022/05/11 14:16:33,實名制快篩:每日下午2點開賣，一人一卡，請自備500元，不找零
5903190700,佑全太平藥局,臺中市太平區樹德路１２１號１樓,120.712,24.15444,(04)23910016,羅氏家用新冠病毒抗原自我檢測套組,34,2022/05/11 14:16:33,每天下午1點40發號碼牌.2點開始販售
5903200229,信元藥局,臺中市大里區益民路２段３７２號１樓,120.684,24.11545,(04)24876051,羅氏家用新冠病毒抗原自我檢測套組,46,2022/05/11 14:16:33,下午5點發號碼牌並依序販賣
5903200443,佳霖藥局,臺中市大里區塗城路９６４號１樓,120.6933,24.09081,(04)24960895,羅氏家用新冠病毒抗原自我檢測套組,1,2022/05/11 14:16:33,健保卡快篩:（周日和周三停賣）.請備好健保卡和500元整.下午3點半開賣.現場排隊／售完為止
5903200514,大明永欣藥局,臺中市大里區大明路５３９號１樓、５４１號１樓,120.6735,24.11478,(04)24068864,羅氏家用新冠病毒抗原自我檢測套組,33,2022/05/11 14:16:33,實名制快篩每天下午2點開始發號碼牌
5903200541,大里康媞藥局,臺中市大里區塗城路４９４號,120.7024,24.08867,(04)24966627,羅氏家用新冠病毒抗原自我檢測套組,35,2022/05/11 14:16:33,快篩下午兩點開始
5903200596,大樹大里藥局,臺中市大里區中興路二段１０１號,120.6885,24.10305,(04)24861133,羅氏家用新冠病毒抗原自我檢測套組,78,2022/05/11 14:16:33,快篩實名制，每天16:00開始販售，售完為止。
5903200685,塗城藥局,臺中市大里區中興路一段１８７、１８９、１９１號１樓,120.6933,24.09008,(04)24967234,羅氏家用新冠病毒抗原自我檢測套組,78,2022/05/11 14:16:33,快篩實名制，每天16:00開始販售，售完為止。
5903200756,佑全大里大明藥局,臺中市大里區大明路３６０、３６２號,120.6787,24.11511,(04)24818633,羅氏家用新冠病毒抗原自我檢測套組,50,2022/05/11 14:16:33,實名制快篩，開賣時間:下午14:00，售完為止
5903220141,雙十小林健保藥局,臺中市中區雙十路一段３５號,120.6855,24.14172,(04)22253662,羅氏家用新冠病毒抗原自我檢測套組,39,2022/05/11 14:16:33,每日8點販賣
5903220150,老順安大藥局,臺中市中區中華路二段６３號、６５號１樓,120.6794,24.14801,(04)22016306,羅氏家用新冠病毒抗原自我檢測套組,88,2022/05/11 14:16:33,5／11暫停販售        實名制快篩銷售時間:周一至周六下午兩點至三點
5903220169,公園大藥局,臺中市中區公園路９５號１樓,120.6796,24.1462,(04)22062682,羅氏家用新冠病毒抗原自我檢測套組,31,2022/05/11 14:16:33,每日上午8點至下午11點59分
5903220178,佑全台中中華藥局,臺中市中區中華路一段１６２號１樓,120.6779,24.14605,(04)22291556,羅氏家用新冠病毒抗原自我檢測套組,42,2022/05/11 14:16:33,下午01:40開始發放號碼牌!! 售完為止!! 一人一卡一盒
5903220196,日安藥局,臺中市中區臺灣大道一段３３０號１樓,120.6801,24.1422,(04)22234246,羅氏家用新冠病毒抗原自我檢測套組,60,2022/05/11 14:16:33,週一至週六 下午2:30開始販售快篩   週日 早上9:30開始販售
5903230209,東京藥師藥局,臺中市東區復興路五段１４９號１樓,120.6893,24.14543,(04)22132278,羅氏家用新冠病毒抗原自我檢測套組,22,2022/05/11 14:16:33,無
5903230218,十甲東亞藥師大藥局,臺中市東區十甲路４１０號１樓,120.7081,24.14425,(04)22118879,羅氏家用新冠病毒抗原自我檢測套組,9,2022/05/11 14:16:33,實名快篩 星期一至六 每日下午一點至五點販售 售完為止
5903230227,東區小林健保藥局,臺中市東區十甲路４８５號１樓,120.7104,24.14464,(04)22135148,羅氏家用新冠病毒抗原自我檢測套組,28,2022/05/11 14:16:33,無
5903240170,美村全成藥局,臺中市西區美村路１段２２２號１樓,120.6615,24.14875,(04)23014006,羅氏家用新冠病毒抗原自我檢測套組,67,2022/05/11 14:16:33,5／11 今日快篩 下午2:00開始販售..售完為止
5903240205,捷登藥局,臺中市西區公益路１０６號,120.6613,24.15105,(04)23191929,羅氏家用新冠病毒抗原自我檢測套組,46,2022/05/11 14:16:33,實名制快篩 每日下午 2:00 準時開賣，售完為止 .
5903240385,喆星藥局,臺中市西區精誠路４２２號,120.655,24.14522,(04)24715301,羅氏家用新冠病毒抗原自我檢測套組,31,2022/05/11 14:16:33,快篩試劑下午2點現場排隊領號碼牌，售完為止（周日不販售）
5903240447,大樹五權藥局,臺中市西區五權路９７－１號１樓,120.6717,24.14626,(04)22022910,羅氏家用新冠病毒抗原自我檢測套組,78,2022/05/11 14:16:33,快篩實名制，每天16:00開始販售，售完為止。
5903240465,德恩藥師藥局,臺中市西區精誠路２５２號１樓,120.6549,24.14949,(04)23102358,羅氏家用新冠病毒抗原自我檢測套組,33,2022/05/11 14:16:33,下午2:00開賣。若延後送貨，會再另外公告開賣時間。
5903240474,佑全台中向上藥局,臺中市西區向上路一段３８６、３８８號１樓,120.6559,24.14688,(04)23204732,羅氏家用新冠病毒抗原自我檢測套組,46,2022/05/11 14:16:33,因政府配貨時間不一，依照門市現場公告時間為主
5903240492,好好誠美藥局,臺中市西區向上北路１８６號１樓,120.6611,24.14797,(04)23022838,羅氏家用新冠病毒抗原自我檢測套組,54,2022/05/11 14:16:33,快篩販售時間下午兩點
5903250381,大樹美村藥局,臺中市南區美村南路１２４號,120.667,24.11499,(04)22621113,羅氏家用新冠病毒抗原自我檢測套組,78,2022/05/11 14:16:33,口罩販售時間：14:00 - 16:00
5903250658,田園藥局,臺中市南區學府路１６０號１樓,120.6742,24.12909,(04)22220605,羅氏家用新冠病毒抗原自我檢測套組,1,2022/05/11 14:16:33,每週三公休。每天13:30 開始販售，一人限一卡，依到貨數量販售
5903260270,冠安藥局,臺中市北區進化路５１０、５１２號,120.6946,24.16047,(04)22335770,羅氏家用新冠病毒抗原自我檢測套組,8,2022/05/11 14:16:33,快篩 13:30 開賣--5／4日後 14：00開賣
5903260341,台中漢口藥局,臺中市北區漢口路３段１８３號,120.6711,24.16703,(04)22936166,羅氏家用新冠病毒抗原自我檢測套組,39,2022/05/11 14:16:33,實名制快篩販售時間每天下午2點~售完為止
5903260449,喜樂藥局,臺中市北區中清路１段３１號,120.677,24.1529,(04)22060423,羅氏家用新冠病毒抗原自我檢測套組,13,2022/05/11 14:16:33,快篩實名制，每日早上9:30開始販售，售完為止。
5903260476,康媞藥局,臺中市北區北平路二段１２８號１樓,120.6774,24.17124,(04)22925388,羅氏家用新冠病毒抗原自我檢測套組,44,2022/05/11 14:16:33,無
5903260618,中清小林健保藥局,臺中市北區中清路一段８６、８８號１樓,120.6767,24.15622,(04)22034197,羅氏家用新冠病毒抗原自我檢測套組,35,2022/05/11 14:16:33,24小時營業無公休，早上八點發號碼牌，十二點以後過健保卡發放口罩.
5903260654,康新藥局,臺中市北區五權路２３２號,120.677,24.15078,(04)22020008,羅氏家用新冠病毒抗原自我檢測套組,9,2022/05/11 14:16:33,無
5903260663,佑全台中五權藥局,臺中市北區五權路４９６號,120.6833,24.15329,(04)22080702,羅氏家用新冠病毒抗原自我檢測套組,44,2022/05/11 14:16:33,因政府配貨時間不一，依照門市現場公告時間為主
5903260707,新藥林藥局,臺中市北區健行路４４５－５號１樓,120.6803,24.15896,(04)22053458,羅氏家用新冠病毒抗原自我檢測套組,77,2022/05/11 14:16:33,.快篩:星期一~星期五 下午3點開始，星期六下午一點，星期三.日公休，現場排隊
5903260734,立得藥局,臺中市北區忠太西路１１號１樓,120.6678,24.15997,(04)22080013,羅氏家用新冠病毒抗原自我檢測套組,7,2022/05/11 14:16:33,固定周一到周六，雨季期間；方便顧客；快篩隨到隨買
5903260798,光恒藥局,臺中市北區五權路２６１號１樓,120.6767,24.15097,(04)22068638,羅氏家用新冠病毒抗原自我檢測套組,56,2022/05/11 14:16:33,快篩 周一到周六早上8:00到12:00 開放購買
5903260958,健康達人藥局,臺中市北區北平路２段５６號１樓,120.6735,24.17153,(04)22994866,羅氏家用新冠病毒抗原自我檢測套組,30,2022/05/11 14:16:33,快篩實名制，每天中午2:00開始販售，售完為止。
5903261008,台中大樹藥局,臺中市北區漢口路三段２６１號,120.6726,24.16703,(04)22981113,羅氏家用新冠病毒抗原自我檢測套組,78,2022/05/11 14:16:33,快篩實名制，每天16:00開始販售，售完為止。
5903261017,多倫多藥局,臺中市北區太原路二段１１號１樓,120.6753,24.16558,(04)22980210,羅氏家用新冠病毒抗原自我檢測套組,8,2022/05/11 14:16:33,無
5903270392,瑞德大藥局,臺中市西屯區中清西二街８４號,120.6671,24.17511,(04)22939820,羅氏家用新冠病毒抗原自我檢測套組,10,2022/05/11 14:16:33,固定周一至周日早上9:00開始販售口罩.售完為止
5903270614,至善德侑藥局,臺中市西屯區至善路６０號,120.6395,24.17141,(04)24518729,羅氏家用新冠病毒抗原自我檢測套組,48,2022/05/11 14:16:33,實名制快篩下午14:00開始發號碼牌.14:15開始販售
5903270721,舒健藥局,臺中市西屯區西屯路二段２５５號２樓,120.6459,24.17179,(04)27077858,羅氏家用新冠病毒抗原自我檢測套組,78,2022/05/11 14:16:33,公費快篩試劑於周一至周六晚上7點現場排隊購買，週日公休。
5903270801,榮友藥局,臺中市西屯區臺灣大道四段１７４２號,120.6024,24.18286,(04)23508392,羅氏家用新冠病毒抗原自我檢測套組,17,2022/05/11 14:16:33,05／11實名快篩下午13:30開賣謝謝
5903270810,佑全福星藥局,臺中市西屯區黎明路三段３９５、３９７號,120.639,24.18251,(04)24527465,羅氏家用新冠病毒抗原自我檢測套組,33,2022/05/11 14:16:33,因政府實名制快篩配貨時間不一，依照門市現場公告時間為主
5903270865,尚禾藥局,臺中市西屯區青海路一段６５號,120.6548,24.16438,(04)23147688,羅氏家用新冠病毒抗原自我檢測套組,39,2022/05/11 14:16:33,實名制快篩發放：時段一中午12:30~14:00。時段二20：30~22：30。時段一若未發完，餘量將遞延至時段二發放。周日停售。
5903270883,祥和大藥局,臺中市西屯區青海路二段２４０－９號,120.6418,24.17323,(04)27000122,羅氏家用新冠病毒抗原自我檢測套組,16,2022/05/11 14:16:33,快篩下午1:00發放
5903270927,河南小林健保藥局,臺中市西屯區河南路二段２９８號１樓,120.6485,24.17477,(04)24512830,羅氏家用新冠病毒抗原自我檢測套組,2,2022/05/11 14:16:33,固定每日早上8點發放口罩號碼牌，下午4點半開始販售。
5903270963,源興大藥局,臺中市西屯區西屯路二段１２號,120.6622,24.16387,(04)23143045,羅氏家用新冠病毒抗原自我檢測套組,29,2022/05/11 14:16:33,口罩販售時間：每日下午2點至售完為止。
5903271022,西屯藥局,臺中市西屯區西屯路三段１５０－４５號１樓,120.621,24.18716,(04)24621822,羅氏家用新冠病毒抗原自我檢測套組,78,2022/05/11 14:16:33,快篩實名制，每天16:00開始販售，售完為止。
5903271031,美十樂中科藥局,臺中市西屯區西屯路三段１６６－６５號１樓,120.6129,24.19035,(04)24610219,羅氏家用新冠病毒抗原自我檢測套組,468,2022/05/11 14:16:33,醫事人員卡片損壞，暫時無法販賣快篩
5903271068,西墩藥局,臺中市西屯區黎明路三段２７５、２７７號１樓,120.6373,24.17812,(04)24510770,羅氏家用新冠病毒抗原自我檢測套組,78,2022/05/11 14:16:33,快篩實名制，每天16:00開始販售，售完為止。
5903271086,常春藤藥局,臺中市西屯區福康路８０號１樓,120.618,24.18603,(04)24619296,羅氏家用新冠病毒抗原自我檢測套組,52,2022/05/11 14:16:33,每日下午兩點到四點、晚上七點到九點 販賣防疫家用快篩
5903271193,何安藥局,臺中市西屯區西屯路二段１０１號Ｂ棟１樓,120.6531,24.16616,(04)23161110,羅氏家用新冠病毒抗原自我檢測套組,78,2022/05/11 14:16:33,快篩實名制，每天16:00開始販售，售完為止。
5903271291,西屯長安藥局,臺中市西屯區成都路３６８號１樓,120.6641,24.17322,(04)22981221,羅氏家用新冠病毒抗原自我檢測套組,78,2022/05/11 14:16:33,快篩實名制，每天16:00開始販售，售完為止。
5903280576,佑全黎明藥局,臺中市南屯區黎明路２段２６６號,120.6359,24.14816,(04)23805560,羅氏家用新冠病毒抗原自我檢測套組,42,2022/05/11 14:16:33,實名制快篩販售時間為每日下午兩點，一點50分發放號碼牌
5903280807,大樹南屯藥局,臺中市南屯區向上路一段６４３號１樓,120.6486,24.14659,(04)24758887,羅氏家用新冠病毒抗原自我檢測套組,78,2022/05/11 14:16:33,快篩實名制，每天16:00開始販售，售完為止。
5903280898,佑全台中忠勇藥局,臺中市南屯區忠勇路５１－８號１樓,120.614,24.14376,(04)23803282,羅氏家用新冠病毒抗原自我檢測套組,49,2022/05/11 14:16:33,每週一到週六實名制快篩販售14:00（限量78份）不發號碼牌售完為止
5903290385,元復藥局,臺中市北屯區東山路１段２２５－７號,120.7155,24.17475,(04)24362075,羅氏家用新冠病毒抗原自我檢測套組,24,2022/05/11 14:16:33,上午7:20-7:40及8:30起發號碼牌。
5903290394,億銓藥局,臺中市北屯區北屯路２１０－１號,120.6961,24.16756,(04)22313670,羅氏家用新冠病毒抗原自我檢測套組,5,2022/05/11 14:16:33,快篩實名制週一~週五下午1：00開賣、週六上午11：00開賣，週日公休。
5903290607,敦化小林健保藥局,臺中市北屯區敦化路１段６６８號,120.6643,24.18593,(04)24261881,羅氏家用新冠病毒抗原自我檢測套組,65,2022/05/11 14:16:33,每日早上8:00領號碼牌，16:30再回藥局領口罩（全年無休）
5903290803,英全藥局,臺中市北屯區北平路三段３４號,120.6803,24.17105,(04)22345179,羅氏家用新冠病毒抗原自我檢測套組,25,2022/05/11 14:16:33,營業時間早上8點到晚上11點  快篩試劑購買時間下午14點
5903290821,昌平炘星藥局,臺中市北屯區昌平路二段１１－３６號,120.6886,24.18159,(04)22417616,羅氏家用新冠病毒抗原自我檢測套組,4,2022/05/11 14:16:33,快篩禮拜一到禮拜六8:30開賣，禮拜六18:00後公休，禮拜日全日公休
5903290849,新盛藥局,臺中市北屯區松竹路二段１５７號１樓,120.6959,24.18312,(04)22467779,羅氏家用新冠病毒抗原自我檢測套組,53,2022/05/11 14:16:33,下午2:30至8:30賣快篩試劑週一至週六
5903290867,軍功啄木鳥藥局,臺中市北屯區軍功路二段１７５號,120.7195,24.17982,(04)22390160,羅氏家用新冠病毒抗原自我檢測套組,46,2022/05/11 14:16:33,每日1520至售完為止
5903290876,北屯軍功藥局,臺中市北屯區軍功路一段７５２號,120.7193,24.17513,(04)24375111,羅氏家用新冠病毒抗原自我檢測套組,78,2022/05/11 14:16:33,快篩實名制，每天16:00開始販售，售完為止。
5903290929,微笑藥局,臺中市北屯區昌平路一段３１８號１樓,120.6907,24.17344,(04)22432699,羅氏家用新冠病毒抗原自我檢測套組,78,2022/05/11 14:16:33,【快篩試劑】下午2:30起~現場排隊~
5903290974,興安永佳藥局,臺中市北屯區興安路一段３３３號１樓,120.6944,24.17431,(04)22437876,羅氏家用新冠病毒抗原自我檢測套組,12,2022/05/11 14:16:33,每天下午13:30開始販售快篩，售完為止
5903291042,全成北屯藥局,臺中市北屯區北屯路４３９－１１號１樓,120.7004,24.17913,(04)22463518,羅氏家用新冠病毒抗原自我檢測套組,73,2022/05/11 14:16:33,快篩每日下午3:00開始販售
5903291060,大樹北屯藥局,臺中市北屯區松竹路二段４１１號１樓,120.6895,24.18192,(04)22422262,羅氏家用新冠病毒抗原自我檢測套組,78,2022/05/11 14:16:33,快篩實名制，每天16:00開始販售，售完為止。
5903291131,兩隻老虎藥局,臺中市北屯區崇德路２段１２號１樓,120.6855,24.16869,(04)22364635,羅氏家用新冠病毒抗原自我檢測套組,48,2022/05/11 14:16:33,營業時間早上九點到晚上九點半（快篩下午兩點開賣）
5903291220,佑全台中四平藥局,臺中市北屯區四平路３６０號１樓,120.682,24.19324,(04)24212792,羅氏家用新冠病毒抗原自我檢測套組,78,2022/05/11 14:16:33,無
5905010143,啄木鳥藥師藥局,臺南市新營區新南里民治路２４２號,120.3041,23.30767,(06)6590248,羅氏家用新冠病毒抗原自我檢測套組,77,2022/05/11 14:16:33,每天下午4:00開始販售，售完為止
5905010250,大樹新營藥局,臺南市新營區民權路７４、７６、７８號１樓,120.3127,23.30615,(06)6328300,羅氏家用新冠病毒抗原自我檢測套組,78,2022/05/11 14:16:33,快篩實名制，每天16:00開始販售，售完為止。
5905020023,大樹鹽水藥局,臺南市鹽水區朝琴路１２６－３號１樓,120.271,23.32228,(06)6520432,羅氏家用新冠病毒抗原自我檢測套組,78,2022/05/11 14:16:33,快篩實名制，每天16:00開始販售，售完為止。
5905030092,大樹白河藥局,臺南市白河區中山路１５３號１樓,120.417,23.35255,(06)6830006,羅氏家用新冠病毒抗原自我檢測套組,78,2022/05/11 14:16:33,快篩實名制，每天16:00開始販售，售完為止。
5905040141,大樹麻豆藥局,臺南市麻豆區中山路４８、５０號１樓,120.2469,23.18382,(06)5716556,羅氏家用新冠病毒抗原自我檢測套組,78,2022/05/11 14:16:33,快篩實名制，每天16:00開始販售，售完為止。
5905050058,佳里啄木鳥藥局,臺南市佳里區延平路７６號１樓,120.1795,23.15507,(06)7236396,羅氏家用新冠病毒抗原自我檢測套組,47,2022/05/11 14:16:33,下午2點-售完為止（若當天配送延誤，時間另行公布）
5905050165,德昌藥局佳里店,臺南市佳里區光復路２３３號,120.1746,23.16095,(06)7232388,羅氏家用新冠病毒抗原自我檢測套組,68,2022/05/11 14:16:33,固定周一至周六14:30開始販售口罩，售完為止
5905050209,大樹佳里藥局,臺南市佳里區延平路２３７號１樓,120.1783,23.1599,(06)7231323,羅氏家用新冠病毒抗原自我檢測套組,78,2022/05/11 14:16:33,快篩實名制，每天16:00開始販售，售完為止。
5905060198,大樹新化藥局,臺南市新化區中正路５３１號１樓,120.3072,23.03764,(06)5901331,羅氏家用新冠病毒抗原自我檢測套組,78,2022/05/11 14:16:33,快篩實名制，每天16:00開始販售，售完為止。
5905070050,晶德昌藥局,臺南市善化區文光里中山路８５號,120.3034,23.13298,(06)5856141,羅氏家用新冠病毒抗原自我檢測套組,46,2022/05/11 14:16:33,14:30-16:00.依號碼牌售完為止
5905070112,健登藥局,臺南市善化區大成路２１２號１樓,120.3004,23.13021,(06)5831133,羅氏家用新冠病毒抗原自我檢測套組,48,2022/05/11 14:16:33,快篩實名制販售 : 週一~六 下午兩點開始 週日不販售
5905070121,大樹善化藥局,臺南市善化區民權路５４、５６、５８號１樓,120.3034,23.1322,(06)5830550,羅氏家用新冠病毒抗原自我檢測套組,78,2022/05/11 14:16:33,快篩實名制，每天16:00開始販售，售完為止。
5905070158,南科健登藥局,臺南市善化區龍目井路４１３號１樓,120.3058,23.10922,(06)5836266,羅氏家用新冠病毒抗原自我檢測套組,60,2022/05/11 14:16:33,快篩實名制販售 : 週一~六 下午兩點開始 週日不販售
5905080056,大樹學甲藥局,臺南市學甲區中正路１３５號１樓,120.1793,23.23029,(06)7820001,羅氏家用新冠病毒抗原自我檢測套組,78,2022/05/11 14:16:33,快篩實名制，每天16:00開始販售，售完為止。
5905140039,安安藥局隆田店,臺南市官田區中山路一段１５號１樓,120.3186,23.1927,(06)5795705,羅氏家用新冠病毒抗原自我檢測套組,39,2022/05/11 14:16:33,全日口罩販賣
5905200030,新和德健保藥局,臺南市新市區中正路３１９－１號,120.2939,23.07958,(06)5997603,羅氏家用新冠病毒抗原自我檢測套組,65,2022/05/11 14:16:33,快篩實名制每日14:15發號碼牌；14:30開始販售，售完為止
5905200085,大樹新市藥局,臺南市新市區中正路４９、５１號１樓,120.2916,23.07223,(06)5892552,羅氏家用新冠病毒抗原自我檢測套組,78,2022/05/11 14:16:33,快篩實名制，每天16:00開始販售，售完為止。
5905270176,大樹仁德藥局,臺南市仁德區中正路二段１１５２號１樓,120.2519,22.97062,(06)2797466,羅氏家用新冠病毒抗原自我檢測套組,78,2022/05/11 14:16:33,快篩實名制，每天16:00開始販售，售完為止。
5905280109,大樹青青藥局,臺南市歸仁區中山路三段１２號,120.2875,22.96765,(06)2300301,羅氏家用新冠病毒抗原自我檢測套組,78,2022/05/11 14:16:33,快篩實名制，每天16:00開始販售，售完為止。
5905280163,歸仁丁丁藥局,臺南市歸仁區中山路三段７３號１樓,120.2861,22.96753,(06)2300767,羅氏家用新冠病毒抗原自我檢測套組,78,2022/05/11 14:16:33,快篩星期一至日15:00開始販售，如有異動可關注丁丁藥局歸仁店FB，貨到公告（憑號碼牌購買）
5905290034,大樹關廟藥局,臺南市關廟區中央路２６３號１樓,120.3272,22.96109,(06)5965889,羅氏家用新冠病毒抗原自我檢測套組,78,2022/05/11 14:16:33,快篩實名制，每天16:00開始販售，售完為止。
5905310755,德昌藥局永康店,臺南市永康區中華路４６２號,120.2327,23.01082,(06)3020628,羅氏家用新冠病毒抗原自我檢測套組,78,2022/05/11 14:16:33,快篩販售時間：星期一~星期日14:30~16:00
5905310817,永大啄木鳥藥局,臺南市永康區永大路二段３９７號１樓,120.2632,23.01227,(06)2071575,羅氏家用新冠病毒抗原自我檢測套組,43,2022/05/11 14:16:33,快篩販售星期一~星期日14:00~售完（當天配送若延誤，時間另行公佈）
5905311074,中華長億藥局,臺南市永康區中華路７３４、７３６號１樓,120.2288,23.0167,(06)3022322,羅氏家用新冠病毒抗原自我檢測套組,78,2022/05/11 14:16:33,快篩實名制，每天16:00開始販售，售完為止。
5905311127,台南永康藥局,臺南市永康區中山南路８１６、８１６─１、２、３號１樓,120.2471,23.02099,(06)2020201,羅氏家用新冠病毒抗原自我檢測套組,78,2022/05/11 14:16:33,快篩實名制，每天16:00開始販售，售完為止。
5905320466,佑全中華藥局,臺南市東區中華東路三段２１５號,120.2253,22.97603,(06)2906386,羅氏家用新冠病毒抗原自我檢測套組,32,2022/05/11 14:16:33,星期一-六08:00-21:00
5905320797,大樹自由藥局,臺南市東區自由路三段３８２號１樓,120.2373,22.98241,(06)2890800,羅氏家用新冠病毒抗原自我檢測套組,78,2022/05/11 14:16:33,快篩實名制，每天16:00開始販售，售完為止。
5905320804,大樹大同藥局,臺南市東區大同路二段２２７、２２９號１樓,120.2143,22.97567,(06)2158700,羅氏家用新冠病毒抗原自我檢測套組,78,2022/05/11 14:16:33,快篩實名制，每天16:00開始販售，售完為止。
5905320840,信霖藥局,臺南市東區崇明路１２３號１樓,120.2179,22.97946,(06)3364699,羅氏家用新冠病毒抗原自我檢測套組,32,2022/05/11 14:16:33,週日公休 快篩販售時間為下午兩點
5905320868,大樹東寧藥局,臺南市東區東寧路４３６號１樓,120.2291,22.9895,(06)2360006,羅氏家用新冠病毒抗原自我檢測套組,78,2022/05/11 14:16:33,快篩實名制，每天16:00開始販售，售完為止。
5905320886,中華崇德藥局,臺南市東區中華東路三段１８１、１８３號１樓,120.2259,22.97667,(06)2880800,羅氏家用新冠病毒抗原自我檢測套組,78,2022/05/11 14:16:33,快篩實名制，每天16:00開始販售，售完為止。
5905320911,大樹崇道藥局,臺南市東區崇道路６３號１樓,120.2272,22.97227,(06)2680456,羅氏家用新冠病毒抗原自我檢測套組,78,2022/05/11 14:16:33,快篩實名制，每天16:00開始販售，售完為止。
5905330159,勝一藥局,臺南市南區省躬里灣裡路９０號１樓,120.1807,22.93114,(06)2626168,羅氏家用新冠病毒抗原自我檢測套組,44,2022/05/11 14:16:33,快篩實名制時間:下午2點~售完
5905330284,大樹佳華藥局,臺南市南區金華路二段１２９號１樓,120.1911,22.98035,(06)2641238,羅氏家用新冠病毒抗原自我檢測套組,78,2022/05/11 14:16:33,快篩實名制，每天16:00開始販售，售完為止。
5905340173,賜安大藥局,臺南市中西區光賢里武聖路９號,120.1932,23.00517,(06)3589600,羅氏家用新冠病毒抗原自我檢測套組,55,2022/05/11 14:16:33,快篩 代售時段 星期一-六 下午2點~6點
5905350393,和緯啄木鳥藥局,臺南市北區和緯路２段１７６號,120.2074,23.01231,(06)2519805,羅氏家用新冠病毒抗原自我檢測套組,41,2022/05/11 14:16:33,實名快篩販售時間：周一~周五14:00，周六11:00，周日停售（若有變更，敬請見諒）門市另有販售非實名制快篩，歡迎洽詢
5905370180,安南啄木鳥藥局,臺南市安南區安和路一段１０７號,120.2143,23.02826,(06)2821265,羅氏家用新冠病毒抗原自我檢測套組,46,2022/05/11 14:16:33,快篩販售時間 一~五:14:00 ／ 六~日:9:00 （依政府配貨狀況調整時間）
5905370224,上振藥局,臺南市安南區安中路三段４３號１樓,120.1828,23.04721,(06)2551061,羅氏家用新冠病毒抗原自我檢測套組,40,2022/05/11 14:16:33,星期一~星期六 14:00~售完
5905370304,大樹安南藥局,臺南市安南區安和路四段５５７號１樓,120.2185,23.06181,(06)3563370,羅氏家用新冠病毒抗原自我檢測套組,78,2022/05/11 14:16:33,快篩實名制，每天16:00開始販售，售完為止。
5905370466,大樹北安藥局,臺南市安南區北安路三段１５８號１樓,120.2036,23.04256,(06)2553633,羅氏家用新冠病毒抗原自我檢測套組,78,2022/05/11 14:16:33,快篩實名制，每天16:00開始販售，售完為止。
5905380300,新高橋藥局台南永華店,臺南市安平區華平路２７９號１樓,120.1748,22.99031,(06)2992362,羅氏家用新冠病毒抗原自我檢測套組,1,2022/05/11 14:16:33,若有到貨早上九點五十分發放號碼牌十點開始販售
5907010141,維安社區藥局,高雄市鳳山區國富路２５-１號,120.3497,22.61517,(07)7630980,羅氏家用新冠病毒抗原自我檢測套組,35,2022/05/11 14:16:33,代售口罩及快篩試劑開始時間為下午2點.現場排隊，售完為止
5907011095,鳳山五甲藥局,高雄市鳳山區正義里五甲二路１３９號１樓,120.3409,22.6014,(07)7269899,羅氏家用新冠病毒抗原自我檢測套組,78,2022/05/11 14:16:33,快篩實名制，每天16:00開始販售，售完為止。
5907011148,大樹國泰藥局,高雄市鳳山區興仁里五甲一路２９２號,120.3539,22.61698,(07)7407234,羅氏家用新冠病毒抗原自我檢測套組,78,2022/05/11 14:16:33,快篩實名制，每天16:00開始販售，售完為止。
5907011184,肉豆公藥局南榮店,高雄市鳳山區善美里南榮路１６９號１樓,120.3366,22.60186,(07)7278385,羅氏家用新冠病毒抗原自我檢測套組,21,2022/05/11 14:16:33,現場領藥優先處理，快篩實名制下午2點開始販售，售完為止!!
5907011228,鳳山青年藥局,高雄市鳳山區文德里青年路二段３９９號１樓,120.3513,22.64292,(07)7678383,羅氏家用新冠病毒抗原自我檢測套組,78,2022/05/11 14:16:33,口罩販售時間：14:00 - 16:00
5907011317,凱旋藥局,高雄市鳳山區國隆里新富路３７３號１樓,120.3475,22.61494,(07)7671181,羅氏家用新冠病毒抗原自我檢測套組,78,2022/05/11 14:16:33,快篩實名制，每天16:00開始販售，售完為止。
5907011362,佑全鳳山藥局,高雄市鳳山區文德里青年路二段４６３號１－２樓,120.3498,22.64513,(07)7801568,羅氏家用新冠病毒抗原自我檢測套組,48,2022/05/11 14:16:33,實名制快篩14:00~18:00
5907011371,大樹五甲藥局,高雄市鳳山區福祥里五甲三路２４號１－２樓．２６號１－２樓,120.3278,22.59317,(07)8224926,羅氏家用新冠病毒抗原自我檢測套組,78,2022/05/11 14:16:33,快篩實名制，每天16:00開始販售，售完為止。
5907020030,鑫德昌藥局,高雄市岡山區溪東路３８號１樓,120.2915,22.79249,(07)6233338,羅氏家用新冠病毒抗原自我檢測套組,51,2022/05/11 14:16:33,實名制快篩 販售時間 14:30-16:00
5907020085,大德藥局,高雄市岡山區大德一路９８號,120.3025,22.79689,(07)6221456,羅氏家用新冠病毒抗原自我檢測套組,78,2022/05/11 14:16:33,快篩實名制，每天16:00開始販售，售完為止。
5907020094,大樹岡山藥局,高雄市岡山區岡山路１３６號,120.2967,22.78913,(07)6219477,羅氏家用新冠病毒抗原自我檢測套組,78,2022/05/11 14:16:33,快篩實名制，每天16:00開始販售，售完為止。
5907030072,旗美藥局,高雄市旗山區東平里延平二路４１號,120.4933,22.882,(07)6629839,羅氏家用新冠病毒抗原自我檢測套組,42,2022/05/11 14:16:33,實名制快篩劑購買時間為下午14:00~20:00，星期日店休無配送快篩，請至鄰近藥局購買
5907030152,旗山藥局,高雄市旗山區中華路２３號,120.4841,22.88027,(07)6621158,羅氏家用新冠病毒抗原自我檢測套組,78,2022/05/11 14:16:33,快篩實名制，每天16:00開始販售，售完為止。
5907050029,林園健人藥師藥局,高雄市林園區林園北路３７２號,120.3951,22.5126,(07)6421598,羅氏家用新冠病毒抗原自我檢測套組,18,2022/05/11 14:16:33,營業日14:00~16:00為販賣時間，售完為止，週日不販售。
5907050092,林園啄木鳥藥局,高雄市林園區鳳林路二段８０３號１樓,120.3957,22.5135,(07)6414772,羅氏家用新冠病毒抗原自我檢測套組,33,2022/05/11 14:16:33,快篩實名制領取時間下午2點（若當天配送延誤，時間另行公布）
5907050109,林園藥局,高雄市林園區仁愛路１３號１樓,120.3928,22.50418,(07)6425855,羅氏家用新冠病毒抗原自我檢測套組,78,2022/05/11 14:16:33,快篩實名制，每天16:00開始販售，售完為止。
5907060267,加嘉藥局,高雄市大寮區山頂里內厝路１９１號１樓,120.3901,22.60793,(07)7860683,羅氏家用新冠病毒抗原自我檢測套組,1,2022/05/11 14:16:33,無
5907070012,舒康藥師藥局,高雄市大樹區久堂路１２９號,120.4167,22.65781,(07)6520268,羅氏家用新冠病毒抗原自我檢測套組,21,2022/05/11 14:16:33,14:00~18:00若提前售完，銷售時間提前結束。
5907080189,德昌藥局仁雄店,高雄市仁武區灣內里仁雄路３８、３８－１、３８－２號,120.3506,22.68074,(07)3749166,羅氏家用新冠病毒抗原自我檢測套組,66,2022/05/11 14:16:33,固定週一至週日14:30~16:00開始發放號碼牌並依序販售快篩.售完為止
5907080250,仁同藥局,高雄市仁武區八卦里永仁街７０６號１樓,120.3313,22.69072,(07)3736142,羅氏家用新冠病毒抗原自我檢測套組,2,2022/05/11 14:16:33,可購買快篩試劑時間每日早上7:30到8:30
5907080269,興德昌藥局,高雄市仁武區文武里中華路２３２號,120.3516,22.69985,(07)3757005,羅氏家用新冠病毒抗原自我檢測套組,78,2022/05/11 14:16:33,固定週一至週日14:30~16:00開始發放號碼牌並依序販售快篩.售完為止
5907080303,群邦藥局,高雄市仁武區八德東路１８０號１樓,120.3422,22.68538,(07)3745985,羅氏家用新冠病毒抗原自我檢測套組,32,2022/05/11 14:16:33,每日下午2:00開始販售公費快篩（售完為止），星期日藥局早上8:30-9:30賣公費快篩
5907090167,大樹大社藥局,高雄市大社區中山路３０８號１樓,120.3503,22.73145,(07)3531682,羅氏家用新冠病毒抗原自我檢測套組,78,2022/05/11 14:16:33,快篩實名制，每天16:00開始販售，售完為止。
5907140108,德昌藥局阿蓮店,高雄市阿蓮區阿蓮里中正路４５６號,120.3321,22.88075,(07)6318868,羅氏家用新冠病毒抗原自我檢測套組,71,2022/05/11 14:16:33,固定周一至周日14:30-16:00販售快篩，售完為止
5907150257,大樹大立藥局,高雄市路竹區國昌路５１號,120.26,22.85409,(07)6961663,羅氏家用新冠病毒抗原自我檢測套組,78,2022/05/11 14:16:33,快篩實名制，每天16:00開始販售，售完為止。
5907160093,保生藥局,高雄市湖內區葉厝里保生路３４０．３４２號,120.2195,22.90733,(07)6990800,羅氏家用新冠病毒抗原自我檢測套組,79,2022/05/11 14:16:33,快篩實名制，每天16:00開始販售，售完為止。
5907200047,永恒健康生活藥局,高雄市梓官區智蚵里通安路１７６號１樓,120.252,22.7307,(07)6102755,羅氏家用新冠病毒抗原自我檢測套組,33,2022/05/11 14:16:33,營業時間週一到週日早上8:30至晚上9:30  實名制快篩 每天下午3:00 開始
5907280036,七賢藥局,高雄市鹽埕區七賢三路１６２號１樓,120.2829,22.62712,(07)5330616,羅氏家用新冠病毒抗原自我檢測套組,78,2022/05/11 14:16:33,快篩實名制，每天16:00開始販售，售完為止。
5907290158,美館久億藥局,高雄市鼓山區美術東二路２４５、２４７號,120.2883,22.66526,(07)5227762,羅氏家用新冠病毒抗原自我檢測套組,44,2022/05/11 14:16:33,星期一至星期天快篩發放，以物流實際到貨時間開始發放，請持續注意快篩地圖
5907300042,育安健保藥局,高雄市左營區富國路３３９號１樓,120.3071,22.66643,(07)5508862,羅氏家用新冠病毒抗原自我檢測套組,19,2022/05/11 14:16:33,如果有來貨？快篩實名制下午2:00開始販售，售完為止。自備現金500元，無刷卡無刷卡無刷卡。周日公休
5907300168,金元藥局,高雄市左營區重愛路２２０號,120.3156,22.68562,(07)3458378,羅氏家用新冠病毒抗原自我檢測套組,1,2022/05/11 14:16:33,快篩試劑郵差配送，約10點至11點左右會送到藥局，即開始販售，星期四，六營業時間至中午12點
5907300702,禾順左營藥局,高雄市左營區自由三路４１０號２樓,120.3127,22.67563,(07)3592582,羅氏家用新冠病毒抗原自我檢測套組,48,2022/05/11 14:16:33,星期一~星期六 實名制快篩劑發放時間13:30~15:00 （周日公休）
5907300711,富元聯合健康藥局,高雄市左營區博愛三路３７號,120.3038,22.67145,(07)3488585,羅氏家用新冠病毒抗原自我檢測套組,50,2022/05/11 14:16:33,快篩於下午兩點販售
5907300882,得孚社區藥局,高雄市左營區重立路５３３號１樓,120.3098,22.67955,(07)3410121,羅氏家用新冠病毒抗原自我檢測套組,59,2022/05/11 14:16:33,營業日上午09:30-11:30為販賣快篩時間.三四下午2:30-400販售
5907300926,高鐵藥局,高雄市左營區華夏路１３２２．１３２６號,120.312,22.68587,(07)3452797,羅氏家用新冠病毒抗原自我檢測套組,78,2022/05/11 14:16:33,快篩實名制，每天16:00開始販售，售完為止。
5907300980,大路藥局,高雄市左營區左營大路５５－２號１樓,120.2877,22.6813,(07)5851001,羅氏家用新冠病毒抗原自我檢測套組,78,2022/05/11 14:16:33,快篩實名制，每天16:00開始販售，售完為止。
5907310173,安健藥局,高雄市楠梓區鳳楠路２５０號,120.3296,22.72617,(07)3520167,羅氏家用新冠病毒抗原自我檢測套組,32,2022/05/11 14:16:33,2／06起營業日早上8點開始販賣，周六日早上8:30 .售完為止
5907310262,大樹楠梓藥局,高雄市楠梓區軍校路９０８號,120.2919,22.71246,(07)3632322,羅氏家用新冠病毒抗原自我檢測套組,78,2022/05/11 14:16:33,快篩實名制，每天16:00開始販售，售完為止。
5907310342,楠梓久億藥局,高雄市楠梓區德祥路２２１號,120.3075,22.72657,(07)3657099,羅氏家用新冠病毒抗原自我檢測套組,1,2022/05/11 14:16:33,每日78份實名制快篩販售時間2:00PM-4:30PM，提早售完即截止。
5907310404,藍田藥局,高雄市楠梓區藍田路１號,120.2953,22.72643,(07)3601236,羅氏家用新冠病毒抗原自我檢測套組,78,2022/05/11 14:16:33,快篩實名制，每天16:00開始販售，售完為止。
5907320179,新高橋藥局天祥店,高雄市三民區天祥一路１１７號,120.3205,22.66711,(07)3102683,羅氏家用新冠病毒抗原自我檢測套組,78,2022/05/11 14:16:33,下午2:30開始販售快篩，2:20發號碼牌
5907320697,鄰好藥師藥局,高雄市三民區褒揚街２８７號,120.3398,22.64097,(07)3909589,羅氏家用新冠病毒抗原自我檢測套組,34,2022/05/11 14:16:33,購買實名制快篩時間下午14:00-16:00，各類防疫用品販售中
5907320919,心寬福藥局,高雄市三民區大順二路７１８號一樓,120.3193,22.65359,(07)3832366,羅氏家用新冠病毒抗原自我檢測套組,34,2022/05/11 14:16:33,快篩販售因人力有限，週一、四上午9:00其餘下午2:00，週日公休。
5907321032,三民明誠藥局,高雄市三民區明誠一路５００號１－２Ｆ及５０２號,120.3223,22.66046,(07)3493137,羅氏家用新冠病毒抗原自我檢測套組,35,2022/05/11 14:16:33,快篩試劑下午2:00販售
5907321069,桂林活力藥局九如店,高雄市三民區懷安街１１２號１樓,120.3176,22.64095,(07)3981009,羅氏家用新冠病毒抗原自我檢測套組,78,2022/05/11 14:16:33,每天15:30發號碼牌，於18:00前兌換完畢，逾期棄權，剩餘則繼續發放
5907321121,九如順天藥局,高雄市三民區大連街９巷１８號,120.3045,22.64073,(07)3220706,羅氏家用新冠病毒抗原自我檢測套組,3,2022/05/11 14:16:33,實名制快篩為下午1點-6點開放領取，領完為止
5907350346,武廟幸福藥局,高雄市苓雅區武廟路３５號,120.3316,22.62999,(07)7170085,羅氏家用新冠病毒抗原自我檢測套組,10,2022/05/11 14:16:33,1: 自111／5／1起：快篩販售時間為13:40開始。2: 販售方式依現場公告為主，售完為止。
5907350499,鑫美健保特約藥局,高雄市苓雅區光華一路１４８－５８號１樓,120.3158,22.62389,(07)7715088,羅氏家用新冠病毒抗原自我檢測套組,57,2022/05/11 14:16:33,14:00開賣實名制快篩，馨田診所配合公費快篩，慢箋免費領藥，防疫物資特賣
5907350506,大樹苓雅藥局,高雄市苓雅區中華四路１５３號,120.3001,22.61783,(07)5353111,羅氏家用新冠病毒抗原自我檢測套組,78,2022/05/11 14:16:33,快篩實名制，每天16:00開始販售，售完為止。
5907350551,大樹武廟藥局,高雄市苓雅區武廟路４３、４５號１樓,120.3314,22.63005,(07)7222268,羅氏家用新冠病毒抗原自我檢測套組,78,2022/05/11 14:16:33,快篩實名制，每天16:00開始販售，售完為止。
5907350631,三多藥局,高雄市苓雅區三多二路２９２號１樓,120.3173,22.61838,(07)3365889,羅氏家用新冠病毒抗原自我檢測套組,78,2022/05/11 14:16:33,快篩實名制，每天16:00開始販售，售完為止。
5907360379,金服安藥局,高雄市前鎮區鎮興路１９１號,120.3115,22.59249,(07)8150061,羅氏家用新冠病毒抗原自我檢測套組,2,2022/05/11 14:16:33,每日下午2-4點販賣快篩試劑
5907360520,大樹瑞福藥局,高雄市前鎮區瑞隆路１７０號１樓、２樓,120.3357,22.60598,(07)7271170,羅氏家用新冠病毒抗原自我檢測套組,78,2022/05/11 14:16:33,快篩實名制，每天16:00開始販售，售完為止。
5907360673,前鎮大樹藥局,高雄市前鎮區瑞隆路４７２號１樓,120.3291,22.60547,(07)7137171,羅氏家用新冠病毒抗原自我檢測套組,78,2022/05/11 14:16:33,快篩實名制，每天16:00開始販售，售完為止。
5907380255,安安藥師藥局,高雄市小港區孔鳳路５６５號１樓,120.3586,22.58393,(07)7915933,羅氏家用新冠病毒抗原自我檢測套組,25,2022/05/11 14:16:33,快篩實名制周一至周六下午14:00開始販售，售完為止
5907380264,大樹孔鳳藥局,高雄市小港區孔鳳路５１９、５２１號,120.3587,22.5828,(07)7918521,羅氏家用新冠病毒抗原自我檢測套組,78,2022/05/11 14:16:33,快篩實名制，每天16:00開始販售，售完為止。
5907380424,大樹小港藥局,高雄市小港區康莊路７５號１樓,120.3559,22.56853,(07)8068328,羅氏家用新冠病毒抗原自我檢測套組,78,2022/05/11 14:16:33,快篩實名制，每天16:00開始販售，售完為止。
5911010015,喬寶藥局,基隆市中正區義二路６６號１樓,121.7461,25.13187,(02)24202827,羅氏家用新冠病毒抗原自我檢測套組,53,2022/05/11 14:16:33,下午2點開賣
5911011478,天康新豐藥局,基隆市中正區新豐街２５１巷４弄９號１樓,121.7885,25.13594,(02)24695168,羅氏家用新冠病毒抗原自我檢測套組,46,2022/05/11 14:16:33,無
5911011512,八斗子東亞藥局,基隆市中正區北寧路３７８號,121.7958,25.13944,(02)24698829,羅氏家用新冠病毒抗原自我檢測套組,2,2022/05/11 14:16:33,中午12點鐘開賣實名制快篩，售完為止
5911011585,雙鶴藥局,基隆市中正區義一路３５號１樓,121.7456,25.13309,(02)24263193,羅氏家用新冠病毒抗原自我檢測套組,59,2022/05/11 14:16:33,下午14:00開始販售
5911011638,中正藥局,基隆市中正區新豐街３８５號１、２樓,121.7856,25.13537,(02)24690660,羅氏家用新冠病毒抗原自我檢測套組,78,2022/05/11 14:16:33,快篩實名制，每天16:00開始販售，售完為止。
5911021170,康蘋藥局,基隆市七堵區開元路５９－２號２樓,121.7139,25.09623,(02)24558150,羅氏家用新冠病毒抗原自我檢測套組,1,2022/05/11 14:16:33,快篩試劑週一至週五14 :30週六13:00週日07:30開賣，現場排隊
5911021438,正心藥局,基隆市七堵區南興路１０號１樓,121.7149,25.09755,(02)24563378,羅氏家用新冠病毒抗原自我檢測套組,12,2022/05/11 14:16:33,每日限量78盒， 星期一~六下午13:30發號碼牌，14:00開始販賣，星期日上午9:00發號碼牌，9:30開始販賣，12:00停止領取
5911030035,陸記藥局,基隆市暖暖區源遠路２４１號,121.7543,25.09882,(02)24576712,羅氏家用新冠病毒抗原自我檢測套組,43,2022/05/11 14:16:33,每日下午兩點販售快篩試劑
5911031096,東方藥局,基隆市暖暖區暖暖街１５３號１樓,121.7367,25.10013,(02)24574171,羅氏家用新冠病毒抗原自我檢測套組,16,2022/05/11 14:16:33,下午2點販售
5911040228,大田大藥局,基隆市仁愛區仁二路５號,121.7507,25.12744,(02)24258762,羅氏家用新冠病毒抗原自我檢測套組,110,2022/05/11 14:16:33,下午2:00發號碼牌並販售
5911040273,第一藥局,基隆市仁愛區愛三路１２０號３樓,121.7436,25.12963,(02)24292288,羅氏家用新冠病毒抗原自我檢測套組,1,2022/05/11 14:16:33,快篩試劑每天下午12點發號碼牌，12點20分到14點販售
5911041403,佑昌藥局,基隆市仁愛區南榮路１７號,121.7423,25.12697,(02)24293309,羅氏家用新冠病毒抗原自我檢測套組,76,2022/05/11 14:16:33,無
5911041967,東隆藥局,基隆市仁愛區仁二路１０５號２樓,121.7482,25.12742,(02)24260727,羅氏家用新冠病毒抗原自我檢測套組,4,2022/05/11 14:16:33,無
5911051409,順豐藥局,基隆市中山區中華路４號,121.7388,25.14545,(02)24369176,羅氏家用新冠病毒抗原自我檢測套組,39,2022/05/11 14:16:33,家用快篩每日下午2點起隨到隨領售完為止。
5911051543,復興藥局,基隆市中山區復興路１２８、１３０、１３２、１３４號１、２樓,121.7262,25.1446,(02)24362566,羅氏家用新冠病毒抗原自我檢測套組,78,2022/05/11 14:16:33,快篩實名制，每天16:00開始販售，售完為止。
5911060015,福泰藥局,基隆市安樂區麥金路４３３號,121.7194,25.12511,(02)24311631,羅氏家用新冠病毒抗原自我檢測套組,58,2022/05/11 14:16:33,下午2點發號碼牌  3點領快篩試劑  星期日休息
5911061370,佑全基隆麥金藥局,基隆市安樂區麥金路２０１號地下１樓之１,121.7211,25.12158,(02)24347816,羅氏家用新冠病毒抗原自我檢測套組,36,2022/05/11 14:16:33,實名制快篩下午兩點開買，營業時間09:00-21:00
5911071483,蘋果藥局,基隆市信義區東明路９７號,121.7614,25.12757,(02)24685158,羅氏家用新冠病毒抗原自我檢測套組,2,2022/05/11 14:16:33,無
5911071572,元登藥局,基隆市信義區深溪路１４９號,121.7826,25.13475,(02)24663826,羅氏家用新冠病毒抗原自我檢測套組,22,2022/05/11 14:16:33,無
5911071590,基隆藥局,基隆市信義區東信路１６６、１６８號１、２樓,121.7646,25.12821,(02)24680955,羅氏家用新冠病毒抗原自我檢測套組,78,2022/05/11 14:16:33,快篩實名制，每天16:00開始販售，售完為止。
5911071607,家安藥師藥局,基隆市信義區信二路２５７、２５９號１樓,121.7478,25.1301,(02)24223917,羅氏家用新冠病毒抗原自我檢測套組,41,2022/05/11 14:16:33,星期一 ~ 星期六14:00開始銷售。
5912012433,安安大藥局,新竹市東區金山里光復路一段１６３巷２號,121.0223,24.78144,(03)5772655,羅氏家用新冠病毒抗原自我檢測套組,78,2022/05/11 14:16:33,快篩實名制  周一至周五14:30販售 週六.周日13:00販售
5912013501,倫洲藥局,新竹市東區食品路９７號１樓,120.9779,24.79801,(03)5744088,羅氏家用新冠病毒抗原自我檢測套組,55,2022/05/11 14:16:33,快篩開賣時間星期一到五為下午兩點，星期六早上八點半，星期日休息
5912013672,關東藥局,新竹市東區光復路１段３３２、３３４號１至２樓,121.0187,24.78289,(03)5777077,羅氏家用新冠病毒抗原自我檢測套組,78,2022/05/11 14:16:33,快篩實名制，每天16:00開始販售，售完為止。
5912013681,仁春藥局,新竹市東區慈濟路２５２號１樓,121.0153,24.79245,(03)6686718,羅氏家用新冠病毒抗原自我檢測套組,78,2022/05/11 14:16:33,如有收到實名制快篩，於15:00開始販售，售完為止，請準備好現金，謝謝
5912013707,信安藥師藥局,新竹市東區南大路８４２號１樓,120.9669,24.78819,(03)5623101,羅氏家用新冠病毒抗原自我檢測套組,45,2022/05/11 14:16:33,下午2點開賣快篩試劑  週日無販售實名制快篩
5912040222,保健藥局,新竹市北區中山路１５３號１樓,120.9635,24.80324,(03)5242088,羅氏家用新冠病毒抗原自我檢測套組,45,2022/05/11 14:16:33,快篩販賣時段：下午2:00現場排隊至售完為止。
5912042897,立新藥師藥局,新竹市北區延平路一段２４５號１樓,120.9532,24.80494,(03)5228968,羅氏家用新冠病毒抗原自我檢測套組,52,2022/05/11 14:16:33,周一~周六PM2:00販售快篩。周日不販售。ps.請自備500元，不找錢
5912042940,新竹北門藥局,新竹市北區中正路３６０、３６２號１樓,120.9629,24.81414,(03)5333234,羅氏家用新冠病毒抗原自我檢測套組,1,2022/05/11 14:16:33,快篩實名制，每天16:00開始販售，售完為止。
5912051350,高晟藥師藥局,新竹市香山區大庄路59號,120.9279,24.78964,(03)5306645,羅氏家用新冠病毒抗原自我檢測套組,49,2022/05/11 14:16:33,下午2點銷售快篩
5917011934,一安堂藥局,臺中市中區臺灣大道一段２０號１樓,120.6847,24.13819,(04)22259616,羅氏家用新冠病毒抗原自我檢測套組,49,2022/05/11 14:16:33,14:00開始領取實名制快篩劑
5917011945,正三吉藥局,臺中市中區臺灣大道一段９５號,120.6831,24.13911,(04)22207700,羅氏家用新冠病毒抗原自我檢測套組,29,2022/05/11 14:16:33,快篩販售時間 14:00~17:00
5917020060,來安藥局,臺中市東區十甲東路４８８號１樓,120.7073,24.13824,(04)22116977,羅氏家用新冠病毒抗原自我檢測套組,1,2022/05/11 14:16:33,發快篩時間早上8點
5917020337,福生藥局,臺中市東區福仁街138號,120.6898,24.1444,(04)22119106,羅氏家用新冠病毒抗原自我檢測套組,38,2022/05/11 14:16:33,星期一~六.下午1:30開始販售實名制快篩.售完為止 星期日8:15~9:30
5917021549,福倫藥局,臺中市東區精武東路１９８號,120.71,24.14933,(04)22139918,羅氏家用新冠病毒抗原自我檢測套組,38,2022/05/11 14:16:33,快篩代售:每天下午02:00開始販售 售完為止.（口罩代售，售完為止）
5917030271,國良藥局,臺中市西區西屯路１段２２０號,120.6707,24.15344,(04)22018772,羅氏家用新冠病毒抗原自我檢測套組,47,2022/05/11 14:16:33,快篩試劑，下午2點開始販售，售完為止。星期日照常販售。
5917030646,華隆藥局,臺中市西區樂群街６之２號,120.6735,24.14025,(04)22243785,羅氏家用新冠病毒抗原自我檢測套組,2,2022/05/11 14:16:33,上午09:00開始販售快篩試劑，售完為止
5917030995,麗新健保大藥局,臺中市西區向上路一段１６２號,120.6612,24.1469,(04)23017100,羅氏家用新冠病毒抗原自我檢測套組,77,2022/05/11 14:16:33,週一至週日下午15:00至售完為止
5917032800,壹藥局,臺中市西區美村路１段７７５號１樓,120.6618,24.13306,(04)23721998,羅氏家用新冠病毒抗原自我檢測套組,38,2022/05/11 14:16:33,星期一到星期日每天下午二點開始販售快篩試劑售完為止謝謝
5917040464,陳信安藥局,臺中市南區永興里高工路３４９號,120.6665,24.11425,(04)22619560,羅氏家用新冠病毒抗原自我檢測套組,33,2022/05/11 14:16:33,實名制快篩 周一至六14:00開賣，庫存依現場為準，周日依政府配送調整
5917041836,健康人生藥局,臺中市南區美村南路１３１號,120.6666,24.11725,(04)22633936,羅氏家用新冠病毒抗原自我檢測套組,31,2022/05/11 14:16:33,實名制快篩 14:00開賣!     因政府配貨時間不一，若貨運有延後配送，依照門市現場公告時間為主!
5917053514,學士藥局,臺中市北區學士路１３號之１樓,120.6823,24.15372,(04)22015008,羅氏家用新冠病毒抗原自我檢測套組,6,2022/05/11 14:16:33,固定周一到周日，早上09:50開始發放號碼牌及販賣快篩
5917053550,嘉樂藥局,臺中市北區西屯路一段３５１－７號,120.6658,24.15956,(04)23263967,羅氏家用新冠病毒抗原自我檢測套組,10,2022/05/11 14:16:33,星期一~五8.30~12.30，14.00~21.30，星期六8.30-12.30
5917053649,博森藥局,臺中市北區健行路４９３號,120.6778,24.15905,(04)22068589,羅氏家用新冠病毒抗原自我檢測套組,56,2022/05/11 14:16:33,固定週一到週六，下午2:00到下午4:00以現場排隊方式販售防疫家用快篩。
5917063065,達康藥局,臺中市西屯區中工三路１３９號,120.6186,24.17779,(04)23586332,羅氏家用新冠病毒抗原自我檢測套組,40,2022/05/11 14:16:33,週一~周日下午2點販售快篩售完為止，無發放號碼牌.
5917070060,仁人藥局,臺中市南屯區南屯里黎明路一段１０８５號,120.6377,24.13922,(04)23890451,羅氏家用新冠病毒抗原自我檢測套組,30,2022/05/11 14:16:33,快篩銷售時間：14:00至22:00，售完為止。
5917070382,得安藥局,臺中市南屯區溝墘里大墩路５９６號,120.6495,24.15136,(04)23234168,羅氏家用新冠病毒抗原自我檢測套組,48,2022/05/11 14:16:33,下午2:00開始現場購買快篩試劑，售完為止。
5917070462,長映藥局,臺中市南屯區黎明路二段４３２號１樓,120.6355,24.15166,(04)22510951,羅氏家用新冠病毒抗原自我檢測套組,34,2022/05/11 14:16:33,實名制快篩每日下午2點開賣，售完為止（庫存以現場為主）
5917071996,乾生大藥局,臺中市南屯區大業路９５號,120.6524,24.15336,(04)23281277,羅氏家用新冠病毒抗原自我檢測套組,5,2022/05/11 14:16:33,09:00
5917072699,博仕健保藥局,臺中市南屯區大墩１１街４４５號,120.638,24.14862,(04)23817009,羅氏家用新冠病毒抗原自我檢測套組,118,2022/05/11 14:16:33,星期一至星期五14:00開賣，星期六11:00開賣，現場排隊販售
5917080119,李藥局,臺中市北屯區和順路３９８號,120.7227,24.17664,(04)22390950,羅氏家用新冠病毒抗原自我檢測套組,11,2022/05/11 14:16:33,快篩下午一點半販售，滾動調整時間，請見諒
5917080619,永佳藥局,臺中市北屯區昌平路１段１０５－５號１樓,120.6904,24.17362,(04)22438886,羅氏家用新冠病毒抗原自我檢測套組,45,2022/05/11 14:16:33,快篩下午2點販售
5917082300,蔡宗耀中西藥局,臺中市北屯區平德里河北路２段６１號,120.6831,24.16994,(04)22341880,羅氏家用新冠病毒抗原自我檢測套組,2,2022/05/11 14:16:33,早上9點30分至下午12點30分，下午3點至8點發口罩，有發號碼牌。
5921010223,王藥局,臺南市東區小東里小東路１９０－１號,120.2276,22.99976,(06)2378697,羅氏家用新冠病毒抗原自我檢測套組,37,2022/05/11 14:16:33,週一 至 週日，下午 2:00 ~ 晚上9:00 （ 需健保卡 ）
5921012085,台安藥局,臺南市東區大同路一段１６３號,120.2113,22.98503,(06)2150011,羅氏家用新冠病毒抗原自我檢測套組,44,2022/05/11 14:16:33,快篩下午四點開始銷售
5921012334,家庭藥局,臺南市東區崇文里生產路３６９─３號,120.2278,22.96502,(06)2607298,羅氏家用新冠病毒抗原自我檢測套組,13,2022/05/11 14:16:33,快篩於星期一~星期六下午2:00開始~售完為止
5921013073,太和藥師藥局,臺南市東區仁和路５１─１號,120.2297,22.98064,(06)2906063,羅氏家用新冠病毒抗原自我檢測套組,17,2022/05/11 14:16:33,實名制快篩.每週一至週六下午1:30販售，週日公休
5921020112,裕仁藥局,臺南市南區新興里新興路１９４號１樓,120.1936,22.97731,(06)2614263,羅氏家用新冠病毒抗原自我檢測套組,1,2022/05/11 14:16:33,實名制快篩週一到週六13:00起依序發號碼牌售完為止，週日店休。
5921040301,永生藥局,臺南市北區六甲里公園路４８１號,120.2079,23.00898,(06)2813681,羅氏家用新冠病毒抗原自我檢測套組,4,2022/05/11 14:16:33,已全數售完／即日至15日暫停販售
5921051582,丞功藥局,臺南市中西區成功路３１號,120.2095,22.99747,(06)2287641,羅氏家用新冠病毒抗原自我檢測套組,1,2022/05/11 14:16:33,星期一-六08:00-售完
5921061720,康悅健藥師藥局,臺南市安南區安和路５段１４９-２號,120.2179,23.0659,(06)3556382,羅氏家用新冠病毒抗原自我檢測套組,7,2022/05/11 14:16:33,快篩-星期一-五13:00-售完   星期六-日15:00-售完
5921071226,康活藥局,臺南市安平區健康三街１８６號,120.1686,22.98883,(06)2936483,羅氏家用新冠病毒抗原自我檢測套組,8,2022/05/11 14:16:33,快篩晚上18:00開賣.
5921071244,全家藥局,臺南市安平區華平路１７０號,120.1749,22.98882,(06)2939000,羅氏家用新冠病毒抗原自我檢測套組,71,2022/05/11 14:16:33,下午2:30 開賣快篩  到貨時間不確定  一進一出  請準備剛好金額 謝謝  星期日不營業
5922010281,上安中西藥局,嘉義市東區府路里延平街２３８號之１,120.4502,23.47683,(05)2231005,羅氏家用新冠病毒抗原自我檢測套組,33,2022/05/11 14:16:33,星期一至星期五:上午7點半至8點，下午2點至3點，星期六:上午7點半至9點（售完提前截止）
5922010361,壽生堂藥局,嘉義市東區府路里延平街２８０號,120.4502,23.47683,(05)2225058,羅氏家用新冠病毒抗原自我檢測套組,5,2022/05/11 14:16:33,周一至周日上午09:00起，至20:00或售鑿為止。
5922011966,源豪藥局,嘉義市東區光華路８２號,120.4529,23.4782,(05)2169696,羅氏家用新冠病毒抗原自我檢測套組,23,2022/05/11 14:16:33,周一至周六，售鑿為止。周日休
5922012383,振安藥局,嘉義市東區王田里林森東路３００號１樓,120.464,23.48889,(05)2756541,羅氏家用新冠病毒抗原自我檢測套組,28,2022/05/11 14:16:33,實名制快篩:周一至周日14:00開始販售，售完為止
5922012392,維康藥局,嘉義市東區短竹里大雅路二段５６７號１樓,120.4663,23.47685,(05)2757663,羅氏家用新冠病毒抗原自我檢測套組,49,2022/05/11 14:16:33,＜領購快篩＞ 星期一  ~ 星期五 下午 2:00~5:00 。假日國定假日停售。
5922012945,大明藥局,嘉義市東區大雅路二段６８２號,120.4663,23.47719,(05)2760958,羅氏家用新冠病毒抗原自我檢測套組,40,2022/05/11 14:16:33,5／11號碼牌已發完畢（星期一至六：11點發號碼牌12-14點開始販售）
5922013013,杏一嘉基藥局,嘉義市東區忠孝路５４３－１號,120.4497,23.50018,(05)2786577,羅氏家用新冠病毒抗原自我檢測套組,29,2022/05/11 14:16:33,周一至周日下午2:00時起，售鑿為止。
5922013068,佑全嘉義吳鳳南藥局,嘉義市東區吳鳳南路５８５、５８７號,120.459,23.45639,(05)2399311,羅氏家用新冠病毒抗原自我檢測套組,36,2022/05/11 14:16:33,領取快篩14:00
5922013102,後庄藥局,嘉義市東區吳鳳南路６４９號,120.4594,23.45511,(05)2391233,羅氏家用新冠病毒抗原自我檢測套組,78,2022/05/11 14:16:33,快篩實名制，每天16:00開始販售，售完為止。
5922013111,富善藥局,嘉義市東區新生路２３４號,120.4609,23.48419,(05)2759559,羅氏家用新冠病毒抗原自我檢測套組,53,2022/05/11 14:16:33,5／13、14休假，實名制快篩早上9:30-12:00 號碼牌領取
5922013166,忠孝啄木鳥藥局,嘉義市東區忠孝北街１８５號,120.444,23.51618,(05)2204948,羅氏家用新冠病毒抗原自我檢測套組,42,2022/05/11 14:16:33,有收到配量即每日下午2:00販售
5922013175,森活中西藥局,嘉義市東區吳鳳北路２０８號一樓,120.4533,23.47931,(05)2288518,羅氏家用新冠病毒抗原自我檢測套組,9,2022/05/11 14:16:33,8:30開始發放號碼牌，12:00~14:00領取快篩
5922013193,民權藥局,嘉義市東區民權路１５５號１樓、１５７號１樓,120.4604,23.48374,(05)2775322,羅氏家用新冠病毒抗原自我檢測套組,78,2022/05/11 14:16:33,快篩實名制，每天16:00開始販售，售完為止。
5922020563,信康藥局,嘉義市西區翠岱里仁愛路２２６號,120.443,23.46984,(05)2161680,羅氏家用新冠病毒抗原自我檢測套組,7,2022/05/11 14:16:33,快篩星期一至星期五早上10:00開賣 星期六下午14:00開賣
5922020634,利安藥局,嘉義市西區番社里中山路３４４號１樓,120.4473,23.47984,(05)2225756,羅氏家用新冠病毒抗原自我檢測套組,27,2022/05/11 14:16:33,快篩星期一~六下午13:30販賣，星期日另行公告
5922020652,四維啄木鳥藥局,嘉義市西區德安路１６０號,120.4284,23.48403,(05)2810598,羅氏家用新冠病毒抗原自我檢測套組,33,2022/05/11 14:16:33,口罩：每天8:15，現場排隊
5922020812,海鴻藥師藥局,嘉義市西區民生南路５５２號,120.4433,23.45878,(05)2837758,羅氏家用新冠病毒抗原自我檢測套組,10,2022/05/11 14:16:33,固定每日上午8 : 00 直接排隊發放
5922020821,明興藥局,嘉義市西區仁愛路２４７號１樓,120.4425,23.47149,(05)2365938,羅氏家用新冠病毒抗原自我檢測套組,34,2022/05/11 14:16:33,快篩 周一至周六下午2點開賣  週日無
5922020858,大統藥局,嘉義市西區慶安里北興街１３６號,120.4421,23.48389,(05)2330230,羅氏家用新冠病毒抗原自我檢測套組,24,2022/05/11 14:16:33,5月11日預約登記已滿.有預約的民眾請於上午9:00-11:00領取
5922020938,仁愛弘安藥局,嘉義市西區仁愛路３９３號１樓,120.442,23.47654,(05)2239000,羅氏家用新冠病毒抗原自我檢測套組,2,2022/05/11 14:16:33,早上八點開賣，賣完為止
5922020992,昭安藥局,嘉義市西區民生南路４７９號１樓,120.4437,23.45821,(05)2842240,羅氏家用新冠病毒抗原自我檢測套組,6,2022/05/11 14:16:33,無
5922021006,竹圍藥局,嘉義市西區友愛路２７０、２７２號,120.4339,23.4837,(05)2811233,羅氏家用新冠病毒抗原自我檢測套組,78,2022/05/11 14:16:33,快篩實名制，每天16:00開始販售，售完為止。
5922028783,勝成藥局,嘉義市西區南京路１２６巷１９號,120.4406,23.45687,(05)2360247,羅氏家用新冠病毒抗原自我檢測套組,18,2022/05/11 14:16:33,4月28日起9:30至12:00販賣快篩試劑，請於現場排隊，售完為止
5931010235,友祥藥局,新北市板橋區裕民街１０７號,121.4599,25.02773,(02)22544666,羅氏家用新冠病毒抗原自我檢測套組,42,2022/05/11 14:16:33,無
5931010342,宏達大藥局,新北市板橋區莒光路１７號,121.47,25.02478,(02)22572345,羅氏家用新冠病毒抗原自我檢測套組,2,2022/05/11 14:16:33,快篩 晚上20:00開始販售! 不要打電話來 問題這麼多就到現場 也不給你問
5931010459,欣民藥局,新北市板橋區雙十路３段３９號,121.4706,25.03168,(02)22545938,羅氏家用新冠病毒抗原自我檢測套組,17,2022/05/11 14:16:33,快篩星期一到六下午兩點發放（前提政府有配送）
5931010708,一誠藥局,新北市板橋區府中路６２號,121.4569,25.00965,(02)29673956,羅氏家用新冠病毒抗原自我檢測套組,100,2022/05/11 14:16:33,無
5931011161,全國藥局,新北市板橋區四川路１段２３１號,121.4601,25.00297,(02)29511212,羅氏家用新冠病毒抗原自我檢測套組,48,2022/05/11 14:16:33,健保快篩發放時間:星期一到星期六下午2點發放號碼牌~歡迎大家來領喔!
5931011241,利安藥局,新北市板橋區南雅東路１０８號,121.4535,25.00815,(02)29696295,羅氏家用新冠病毒抗原自我檢測套組,30,2022/05/11 14:16:33,無
5931011447,日生大藥局,新北市板橋區中正路１巷１６弄１６號,121.4551,25.01209,(02)29675261,羅氏家用新冠病毒抗原自我檢測套組,30,2022/05/11 14:16:33,快篩試劑販售時間:週一至週六14:00-20:30  售完為止，周日休假
5931012131,中山大藥局,新北市板橋區中山路１段１０７號,121.4618,25.01025,(02)29575029,羅氏家用新冠病毒抗原自我檢測套組,1,2022/05/11 14:16:33,口罩配發時間.星期一~六早上9點開始.星期日下午1點開始
5931012239,信昌藥局,新北市板橋區三民路２段２０２－９號,121.4789,25.0142,(02)29510784,羅氏家用新冠病毒抗原自我檢測套組,33,2022/05/11 14:16:33,防疫快篩依據每天到貨時間，另行公告
5931013389,谷全藥局,新北市板橋區裕民街４９號,121.4613,25.02851,(02)22561856,羅氏家用新冠病毒抗原自我檢測套組,1,2022/05/11 14:16:33,無
5931013478,富盛藥局,新北市板橋區四維路２９１巷４弄２４號１樓,121.4622,25.02879,(02)22596016,羅氏家用新冠病毒抗原自我檢測套組,40,2022/05/11 14:16:33,快篩試劑.下午2點販售.預防群聚 滾動式調整時間.請勿打電話詢問.謝謝
5931013781,佳和藥局,新北市板橋區文化路１段３８７巷５號１樓,121.4667,25.02193,(02)22589598,羅氏家用新冠病毒抗原自我檢測套組,38,2022/05/11 14:16:33,快篩週一 至五均分早上8:30 和下午3:00販售- 週六早上售完為止. 週日休
5931014420,萬泰藥局,新北市板橋區信義路２２１之１號,121.4597,24.99145,(02)89645570,羅氏家用新冠病毒抗原自我檢測套組,5,2022/05/11 14:16:33,無
5931014555,廣益藥局,新北市板橋區自由路２１號,121.4654,25.02296,(02)22545726,羅氏家用新冠病毒抗原自我檢測套組,156,2022/05/11 14:16:33,下午3點50發號碼牌，4點開始賣
5931015687,正康健保藥局,新北市板橋區大觀路２段６５號１樓,121.4467,25.00246,(02)22756681,羅氏家用新冠病毒抗原自我檢測套組,4,2022/05/11 14:16:33,下午13:30依現場順序開始販售快篩，快篩配送絮亂庫存不準!!
5931015909,向康藥局,新北市板橋區實踐路１４７號１樓,121.4643,25.00437,(02)29637248,羅氏家用新冠病毒抗原自我檢測套組,39,2022/05/11 14:16:33,下午2點開始販售實名制快篩
5931015981,立安中西藥局,新北市板橋區後埔街８３號１樓,121.4607,25.00523,(02)29582241,羅氏家用新冠病毒抗原自我檢測套組,78,2022/05/11 14:16:33,無
5931016273,湯明藥局,新北市板橋區中山路２段３１９號１樓,121.479,25.01866,(02)29571980,羅氏家用新冠病毒抗原自我檢測套組,53,2022/05/11 14:16:33,週一到週五 下午四點  六日時間未定 排隊不發號碼
5931016335,康匯藥局,新北市板橋區實踐路１６７號（１樓）,121.4644,25.00394,(02)29512610,羅氏家用新冠病毒抗原自我檢測套組,44,2022/05/11 14:16:33,★★★每天都有 現領不用等★★★
5931016433,利安社區藥局,新北市板橋區德興街３７巷１４號（１樓）,121.4538,24.99382,(02)89671551,羅氏家用新冠病毒抗原自我檢測套組,26,2022/05/11 14:16:33,無
5931016504,仁泰藥局,新北市板橋區四川路２段３３號１樓,121.4543,24.99537,(02)89672133,羅氏家用新冠病毒抗原自我檢測套組,6,2022/05/11 14:16:33,無
5931016577,廣泰藥師藥局,新北市板橋區館前西路１５０號１樓,121.4556,25.00843,(02)89698381,羅氏家用新冠病毒抗原自我檢測套組,78,2022/05/11 14:16:33,無
5931016586,賜安藥局,新北市板橋區信義路６０號１樓,121.4571,24.99373,(02)29617483,羅氏家用新冠病毒抗原自我檢測套組,21,2022/05/11 14:16:33,4／28快篩每日配送到達公告於LINE@及FB粉絲專頁後開始銷售 售完為止 星期日公休
5931016611,民川藥局,新北市板橋區四川路１段９７號１樓,121.4598,25.00544,(02)29520090,羅氏家用新冠病毒抗原自我檢測套組,29,2022/05/11 14:16:33,星期一~星期六（快篩上午9:00販售38份下午3:00販售40份）
5931016719,王林藥局,新北市板橋區忠孝路２４巷１５號（１樓）,121.4602,25.00135,(02)29636775,羅氏家用新冠病毒抗原自我檢測套組,7,2022/05/11 14:16:33,表列調劑時間才有販售快篩試劑，週六及國定假日只有早上  ， 下午及晚上休息
5931016808,正安健保藥局,新北市板橋區民族路２２４號（１樓）,121.4687,25.00733,(02)29526813,羅氏家用新冠病毒抗原自我檢測套組,72,2022/05/11 14:16:33,17時依現場順序開始販售.週六12點.電腦配送庫存不準..以現場數量為準
5931017092,康橋藥局,新北市板橋區文化路１段２７３號,121.4646,25.01848,(02)22532560,羅氏家用新冠病毒抗原自我檢測套組,33,2022/05/11 14:16:33,快篩試劑 每天下午2點販售 售完為止 周日公休
5931017216,康鑫藥局,新北市板橋區文化路１段２０６號１樓,121.4664,25.02012,(02)82585135,羅氏家用新冠病毒抗原自我檢測套組,47,2022/05/11 14:16:33,實名制快篩販售：周一至周五 下午五點整 開始販售
5931017261,正康新埔藥局,新北市板橋區介壽街４號（１樓）,121.467,25.02025,(02)82595882,羅氏家用新冠病毒抗原自我檢測套組,23,2022/05/11 14:16:33,下午2:30依現場順序開始販售快篩。週日無快篩!
5931017289,板橋大樹藥局,新北市板橋區忠孝路２８號（１樓）,121.4603,25.00176,(02)29555551,羅氏家用新冠病毒抗原自我檢測套組,78,2022/05/11 14:16:33,快篩實名制，每天16:00開始販售，售完為止。
5931017387,華安藥局,新北市板橋區永豐街３２號（１樓）,121.4746,25.01727,(02)29581608,羅氏家用新冠病毒抗原自我檢測套組,32,2022/05/11 14:16:33,快篩平日下午兩點／週六一點 現場開賣 無號碼牌
5931017618,新埔健保藥局,新北市板橋區自由路２號１樓,121.4654,25.02222,(02)22558878,羅氏家用新冠病毒抗原自我檢測套組,39,2022/05/11 14:16:33,無
5931017645,松立藥局,新北市板橋區四川路２段９９之１０號（１樓）,121.4521,24.99448,(02)89670100,羅氏家用新冠病毒抗原自我檢測套組,21,2022/05/11 14:16:33,無
5931017654,葆康藥局,新北市板橋區四川路２段２４５巷３號（１樓）,121.4507,24.99346,(02)89678373,羅氏家用新冠病毒抗原自我檢測套組,3,2022/05/11 14:16:33,下午四點開始販售實名制快篩，不用抽號碼牌，直接排隊購買。
5931017663,盛生藥局,新北市板橋區合宜路９９號（１樓）,121.4479,24.9984,(02)89697299,羅氏家用新冠病毒抗原自我檢測套組,13,2022/05/11 14:16:33,政府快篩下午1:50發放號碼牌.下午2:00準時銷售..假日視政府配量（銷售時間相同）
5931017690,杏文藥局,新北市板橋區實踐路１００號（１樓）,121.464,25.00484,(02)29555699,羅氏家用新冠病毒抗原自我檢測套組,4,2022/05/11 14:16:33,無
5931017752,泓泰藥局,新北市板橋區館前西路１４０號２樓,121.4563,25.0081,(02)29686559,羅氏家用新冠病毒抗原自我檢測套組,64,2022/05/11 14:16:33,無
5931017770,光環藥局,新北市板橋區光環路２段１６號１樓,121.4822,25.01476,(02)89520920,羅氏家用新冠病毒抗原自我檢測套組,78,2022/05/11 14:16:33,無
5931017789,明翠藥局,新北市板橋區四維路１４６、１４８號１、２樓,121.4651,25.02555,(02)22550201,羅氏家用新冠病毒抗原自我檢測套組,78,2022/05/11 14:16:33,快篩實名制，每天16:00開始販售，售完為止。
5931017869,躍獅國慶藥局,新北市板橋區國慶路１７９號（１樓）,121.4626,24.99636,(02)29641548,羅氏家用新冠病毒抗原自我檢測套組,120,2022/05/11 14:16:33,快篩實名制，每天14:00開始販售，售完為止
5931017985,松柏藥局,新北市板橋區松柏街９４號（１樓）,121.4767,25.03065,(02)82585223,羅氏家用新冠病毒抗原自我檢測套組,78,2022/05/11 14:16:33,快篩實名制，每天16:00開始販售，售完為止。
5931017994,後埔藥局,新北市板橋區華興街９號（１樓）,121.459,25.00457,(02)89510306,羅氏家用新冠病毒抗原自我檢測套組,51,2022/05/11 14:16:33,5／10 下午2點發放號碼牌*確保作業流暢請自備500元*每天 78 份晚上10 點以前領取完畢（過卡時間差異剩餘數量僅供參考）
5931018099,廣品藥局,新北市板橋區漢生西路８２號（１樓）,121.4628,25.01934,(02)22576880,羅氏家用新冠病毒抗原自我檢測套組,1,2022/05/11 14:16:33,實名制快篩 周一~周五下午16；00發放 週六.日 早上09；30發放 請勿打電話詢問 感謝配合
5931018124,大楓藥師藥局,新北市板橋區懷仁街８４號（１樓）,121.4774,25.01819,(02)29560576,羅氏家用新冠病毒抗原自我檢測套組,3,2022/05/11 14:16:33,快篩販售時間  下午13:30開始，售完為止。
5931020848,吳廣隆藥局,新北市三重區長壽西街５－１號,121.498,25.06765,(02)29715020,羅氏家用新冠病毒抗原自我檢測套組,24,2022/05/11 14:16:33,每天下午2點開始販售防疫口罩
5931021532,龍門藥局,新北市三重區龍門路１８９號,121.4996,25.07322,(02)29756141,羅氏家用新冠病毒抗原自我檢測套組,78,2022/05/11 14:16:33,實名制快篩販售時間~星期一至星期六下午3點
5931021658,上益藥局,新北市三重區忠孝路２段１３６號１樓,121.4827,25.06833,(02)29879460,羅氏家用新冠病毒抗原自我檢測套組,12,2022/05/11 14:16:33,兒童.成人盒裝彩色口罩熱賣中
5931023349,迪化藥局,新北市三重區中華路７７號,121.4836,25.06267,(02)29834445,羅氏家用新冠病毒抗原自我檢測套組,25,2022/05/11 14:16:33,實名制快篩每日早上九點發牌號／週日食藥署暫停供應快篩
5931023447,安泰藥局,新北市三重區正義北路３００－３號２樓,121.4953,25.06978,(02)89815379,羅氏家用新冠病毒抗原自我檢測套組,81,2022/05/11 14:16:33,5／2只有早上8:30--12:00營業下午.及晚上休息
5931023527,德慈藥局,新北市三重區重新路３段１６號１樓,121.4951,25.06138,(02)29736693,羅氏家用新冠病毒抗原自我檢測套組,1,2022/05/11 14:16:33,快篩試劑販售時間自每日13:00開始
5931024088,美滿藥局,新北市三重區中華路１６號,121.4834,25.0606,(02)89824272,羅氏家用新冠病毒抗原自我檢測套組,78,2022/05/11 14:16:33,滾動式調整
5931024373,予康藥局,新北市三重區文化北路１９８號１樓,121.498,25.06794,(02)89858789,羅氏家用新冠病毒抗原自我檢測套組,65,2022/05/11 14:16:33,（星期日休息） 快篩14:30開始
5931024677,博愛藥局,新北市三重區三民街２２０號１樓,121.4803,25.06712,(02)29711606,羅氏家用新冠病毒抗原自我檢測套組,92,2022/05/11 14:16:33,快篩實名制，如有貨都將於下午2點開始發放，不接受電話只能現場排隊領取，謝謝
5931024944,康希藥局,新北市三重區三和路２段８３號１樓,121.4999,25.0682,(02)89728298,羅氏家用新冠病毒抗原自我檢測套組,28,2022/05/11 14:16:33,每日下午2點依序販賣政府快篩試劑 不發號碼牌
5931025263,鴻泰健保藥局,新北市三重區重新路１段９５號１樓,121.5009,25.06343,(02)29769055,羅氏家用新冠病毒抗原自我檢測套組,28,2022/05/11 14:16:33,每月第一個周日固定公休，防疫快篩下午兩點販售，現場排隊購買不預留
5931025290,康新藥局,新北市三重區正義北路１８５號２樓,121.4964,25.06783,(02)29865982,羅氏家用新冠病毒抗原自我檢測套組,59,2022/05/11 14:16:33,實名制代售時段：下午2點到4點。請自備零錢，恕不找零。.
5931025398,昌誠藥局,新北市三重區三和路４段１６１號１樓,121.4835,25.0785,(02)22876338,羅氏家用新冠病毒抗原自我檢測套組,5,2022/05/11 14:16:33,5／2 （休診）
5931025441,尚好藥局,新北市三重區力行路２段１４２號１樓,121.4823,25.07611,(02)22863232,羅氏家用新冠病毒抗原自我檢測套組,1,2022/05/11 14:16:33,星期一~星期六下午一點開賣實名制
5931025567,閎安藥局,新北市三重區重新路２段８５號１樓、２樓,121.4962,25.06181,(02)29881968,羅氏家用新冠病毒抗原自我檢測套組,1,2022/05/11 14:16:33,快篩代售時間:每日14:00發號碼牌（以在場者為主），15:00發快篩，當日領取至21:00
5931025610,大樹三重藥局,新北市三重區正義北路６６號１樓,121.4972,25.06415,(02)29713188,羅氏家用新冠病毒抗原自我檢測套組,78,2022/05/11 14:16:33,快篩實名制，每天16:00開始販售，售完為止。
5931025914,仁美藥局,新北市三重區慈愛街５１號１、２樓,121.4861,25.07908,(02)22805150,羅氏家用新冠病毒抗原自我檢測套組,78,2022/05/11 14:16:33,快篩實名制，每天16:00開始販售，售完為止。
5931026000,佑全三重正義藥局,新北市三重區正義北路２０７號１、２樓、２０９號１、２樓,121.4962,25.06846,(02)29815341,羅氏家用新冠病毒抗原自我檢測套組,30,2022/05/11 14:16:33,快篩試劑14:00開賣，13:30排隊，13:50發號碼牌。
5931026082,大有藥局,新北市三重區中正北路２１３號１、２樓及２１５號１、２樓,121.4763,25.07013,(02)29885771,羅氏家用新冠病毒抗原自我檢測套組,78,2022/05/11 14:16:33,快篩實名制，每天16:00開始販售，售完為止。
5931030264,永達大藥局,新北市永和區大新街２號,121.5145,25.00853,(02)29213326,羅氏家用新冠病毒抗原自我檢測套組,20,2022/05/11 14:16:33,無
5931030568,仲景藥局,新北市永和區竹林路２１３巷１號,121.521,25.00893,(02)89281687,羅氏家用新冠病毒抗原自我檢測套組,15,2022/05/11 14:16:33,實名制快篩每日總量78份，下午2點現場排隊過卡，1人1卡每月限領1次，不發號碼牌；營業時間9:30-10:30
5931032811,華特健康藥局,新北市永和區永貞路３６２號１樓,121.5102,25.00667,(02)29264391,羅氏家用新冠病毒抗原自我檢測套組,5,2022/05/11 14:16:33,快篩販賣時間13:00-15:00
5931033032,弘光藥局,新北市永和區竹林路中興里６６巷１９號１樓,121.5201,25.01396,(02)29282000,羅氏家用新冠病毒抗原自我檢測套組,1,2022/05/11 14:16:33,早上9點至晚上10點 口罩代售號碼牌自1400開始發放
5931033201,級立健保藥局,新北市永和區保平路１３９號１樓,121.5102,25.00608,(02)29299995,羅氏家用新冠病毒抗原自我檢測套組,78,2022/05/11 14:16:33,快篩代售時間為下午15:00，週日不銷售
5931033541,大欣安藥局,新北市永和區得和路３７０號１樓,121.5244,24.99928,(02)29450808,羅氏家用新冠病毒抗原自我檢測套組,41,2022/05/11 14:16:33,5／3起快篩試劑PAM14:00開始發號碼牌跟販售
5931033578,悅美保健藥局,新北市永和區保生路２２巷２１號１樓,121.5073,25.00839,(02)22323515,羅氏家用新冠病毒抗原自我檢測套組,7,2022/05/11 14:16:33,周一至周六 上午11點到晚上10點
5931033676,九州藥局,新北市永和區自由街５號１樓,121.515,25.00699,(02)29226879,羅氏家用新冠病毒抗原自我檢測套組,48,2022/05/11 14:16:33,實名制快篩5月11日（週三）的到貨，現在開始發售
5931033774,台化藥局,新北市永和區勵行街１１９號１樓,121.5175,25.01202,(02)22318585,羅氏家用新冠病毒抗原自我檢測套組,44,2022/05/11 14:16:33,無
5931033863,欣安大藥局,新北市永和區福和路２２１號１樓,121.5189,25.00749,(02)22326685,羅氏家用新冠病毒抗原自我檢測套組,10,2022/05/11 14:16:33,快篩試劑pm13:30發號碼牌暨銷售，售完為止。
5931033925,康和藥局,新北市永和區中和路５８９號１樓,121.5122,25.00407,(02)22310300,羅氏家用新冠病毒抗原自我檢測套組,34,2022/05/11 14:16:33,實名制快篩下午1點開賣（現場排隊售完為止），星期日無販售
5931033961,永和大樹藥局,新北市永和區福和路１４３號１、２樓,121.5207,25.00766,(02)29233377,羅氏家用新冠病毒抗原自我檢測套組,78,2022/05/11 14:16:33,快篩實名制，每天16:00開始販售，售完為止。
5931034057,佑全永和中山藥局,新北市永和區中山路１段２２７、２２９、２３１號１樓,121.508,25.00776,(02)22331546,羅氏家用新冠病毒抗原自我檢測套組,7,2022/05/11 14:16:33,實際配送時間不定，上午12:50現場開始發放號碼牌。
5931034119,仁愛陽光藥局,新北市永和區仁愛路１４３號１樓,121.5114,25.01293,(02)89213691,羅氏家用新冠病毒抗原自我檢測套組,48,2022/05/11 14:16:33,快篩代售時段14:00，售完為止...
5931034146,亮點藥局,新北市永和區竹林路７１號１樓,121.5186,25.01355,(02)89253895,羅氏家用新冠病毒抗原自我檢測套組,120,2022/05/11 14:16:33,快篩發放時段 下午16:30-18:00
5931040313,亮安藥局,新北市中和區宜安路２號,121.5136,24.99555,(02)29469898,羅氏家用新冠病毒抗原自我檢測套組,27,2022/05/11 14:16:33,無
5931043234,康荃優生保健藥局,新北市中和區福祥路６６號１樓,121.4994,25.00494,(02)22486532,羅氏家用新冠病毒抗原自我檢測套組,8,2022/05/11 14:16:33,無
5931043798,永成藥局,新北市中和區景平路１５６號１樓,121.5176,24.99222,(02)29407619,羅氏家用新冠病毒抗原自我檢測套組,78,2022/05/11 14:16:33,實名制快篩，下午三點領取號碼並開始販售（每日78份）
5931043921,良安藥局,新北市中和區連城路４７７巷１號１樓,121.4833,24.99555,(02)22225798,羅氏家用新冠病毒抗原自我檢測套組,78,2022/05/11 14:16:33,週六日不開店，實名制快篩，晚上9:00開始販售
5931043930,三德和藥局,新北市中和區吉興里南山路２８９號１樓,121.5044,24.99207,(02)22471028,羅氏家用新冠病毒抗原自我檢測套組,23,2022/05/11 14:16:33,無
5931043976,詠邑藥局,新北市中和區南華路４３號１樓,121.5038,24.99671,(02)22445630,羅氏家用新冠病毒抗原自我檢測套組,52,2022/05/11 14:16:33,無
5931044768,民樂健保藥局,新北市中和區員山路２２６巷３弄５號１樓,121.4817,25.00103,(02)22228999,羅氏家用新冠病毒抗原自我檢測套組,1,2022/05/11 14:16:33,13:30-16:00
5931044848,和霖生活藥局,新北市中和區復興路２８９號１樓,121.5018,24.99015,(02)22458227,羅氏家用新冠病毒抗原自我檢測套組,56,2022/05/11 14:16:33,無
5931045032,朝安藥局,新北市中和區復興路２６２號１樓,121.5035,24.99038,(02)31511269,羅氏家用新冠病毒抗原自我檢測套組,51,2022/05/11 14:16:33,實名制快篩下午2點過卡販售，每人限持一卡，不發號碼牌。（任何異動依現場公告為準）
5931045069,禾昌藥局,新北市中和區中安街１７８巷２號１樓,121.5109,24.99954,(02)29267330,羅氏家用新冠病毒抗原自我檢測套組,31,2022/05/11 14:16:33,實名制快篩14:00開始販售／醫護警消優先
5931045130,四維藥局,新北市中和區四維街３７巷２號１樓,121.5124,24.98679,(02)86681345,羅氏家用新冠病毒抗原自我檢測套組,78,2022/05/11 14:16:33,快篩實名制，每天16:00開始販售，售完為止。
5931045158,九崧藥局,新北市中和區南華路２０號１樓,121.503,24.99577,(02)22451379,羅氏家用新冠病毒抗原自我檢測套組,5,2022/05/11 14:16:33,實名制快篩試劑每日下午13:30販售（星期日休息）
5931045229,佑全中和景新藥局,新北市中和區景新街３９５號１樓,121.5126,24.98995,(02)29431408,羅氏家用新冠病毒抗原自我檢測套組,29,2022/05/11 14:16:33,實名制快篩試劑---14:00 開始販售78份
5931045336,杏一中和中山藥局,新北市中和區中山路２段１３５號１樓,121.5021,25.00297,(02)22471992,羅氏家用新冠病毒抗原自我檢測套組,26,2022/05/11 14:16:33,無
5931045345,芳碩藥局,新北市中和區連城路４７巷２號１樓,121.4982,25.00162,(02)82458816,羅氏家用新冠病毒抗原自我檢測套組,44,2022/05/11 14:16:33,販售時間星期一~星期六下午14:00-21:00 （星期日休息）
5931045416,信毅藥局,新北市中和區捷運路５６號１樓,121.5081,24.99078,(02)29423663,羅氏家用新冠病毒抗原自我檢測套組,11,2022/05/11 14:16:33,無
5931045452,安華藥局,新北市中和區圓通路２９３之２號２樓,121.4949,24.99236,(02)22426010,羅氏家用新冠病毒抗原自我檢測套組,61,2022/05/11 14:16:33,無
5931045505,順儷民享藥局,新北市中和區民享街５３號１樓,121.4742,25.00265,(02)22222825,羅氏家用新冠病毒抗原自我檢測套組,17,2022/05/11 14:16:33,無
5931050211,耀生中西藥局,新北市新店區文化路２１巷６號,121.5432,24.97978,(02)29118598,羅氏家用新冠病毒抗原自我檢測套組,22,2022/05/11 14:16:33,下午2點開賣快篩，星期日休息
5931051601,昇旺藥局,新北市新店區建國路１０－１號１樓,121.5401,24.97361,(02)86659233,羅氏家用新冠病毒抗原自我檢測套組,19,2022/05/11 14:16:33,實名制快篩於下午14:00開始販售
5931051816,康宜庭北新藥局,新北市新店區北新路２段４３號１樓,121.5428,24.97285,(02)89147015,羅氏家用新冠病毒抗原自我檢測套組,35,2022/05/11 14:16:33,快篩代售時間為下午2點， 現場排隊
5931052091,康宜庭大坪林藥局,新北市新店區北新路３段１２７號１樓,121.5412,24.9826,(02)89116029,羅氏家用新冠病毒抗原自我檢測套組,18,2022/05/11 14:16:33,實名制快篩14:00發放號碼牌同步販售，每人限持1卡購買1份，請備妥零鈔
5931052215,三民藥局,新北市新店區三民路７８號１樓－１,121.5348,24.97257,(02)89146301,羅氏家用新冠病毒抗原自我檢測套組,35,2022/05/11 14:16:33,實名制快篩試劑下午2點開始現場販售並同步發號碼牌周日休息
5931052313,欣康藥局,新北市新店區中正路２９３號１樓,121.5372,24.97449,(02)89113166,羅氏家用新冠病毒抗原自我檢測套組,12,2022/05/11 14:16:33,快篩試劑，下午一點發號碼牌同步販售
5931053034,康宜庭市公所藥局,新北市新店區北新路１段２８５號１樓,121.541,24.96707,(02)29151709,羅氏家用新冠病毒抗原自我檢測套組,31,2022/05/11 14:16:33,實名制快篩下午兩點開賣
5931053132,康宜庭碧潭藥局,新北市新店區北宜路１段４１號１樓,121.5384,24.95726,(02)29186266,羅氏家用新冠病毒抗原自我檢測套組,43,2022/05/11 14:16:33,14:00 發放號碼牌，同步販售
5931053178,長照藥局,新北市新店區如意街１６號１樓,121.4944,24.94838,(02)22153325,羅氏家用新冠病毒抗原自我檢測套組,17,2022/05/11 14:16:33,請注意5／11快篩下午2:00開賣 單號 一人一 卡 自備500元（請勿再來電詢問囉!）現場自主排隊不發號碼牌
5931053196,康心藥局,新北市新店區北新路３段１０４號１樓,121.5419,24.9812,(02)86655858,羅氏家用新冠病毒抗原自我檢測套組,78,2022/05/11 14:16:33,快篩販售：周一～週六15:00開始，周日無販售。以現場排隊為主，無發號碼牌，庫存有數量就是有貨
5931053329,康宜庭民權藥局,新北市新店區民權路４８－２號１樓,121.5396,24.98307,(02)86655371,羅氏家用新冠病毒抗原自我檢測套組,7,2022/05/11 14:16:33,實名快篩星期一~六14:00開賣現場排隊
5931053347,健詮藥局,新北市新店區建國路１１９號１樓,121.5398,24.97777,(02)29116312,羅氏家用新冠病毒抗原自我檢測套組,5,2022/05/11 14:16:33,11點發號碼牌，12點半-3點過卡買快篩。最新消息會公佈在臉書「健詮藥局」
5931060262,明生藥局,新北市新莊區福樂街１３號,121.4578,25.04504,(02)29913260,羅氏家用新冠病毒抗原自我檢測套組,1,2022/05/11 14:16:33,無
5931060557,一安藥局,新北市新莊區立德里新泰路２６８號,121.446,25.04029,(02)29941618,羅氏家用新冠病毒抗原自我檢測套組,79,2022/05/11 14:16:33,實名制快篩發放時間為15:00  其他詳情請上FB查詢
5931060646,王藥局,新北市新莊區昌盛街３８號,121.4544,25.04988,(02)29922404,羅氏家用新冠病毒抗原自我檢測套組,10,2022/05/11 14:16:33,今天快篩試劑   下午2:00開始販售! 售完為止!
5931060824,禮安藥師藥局,新北市新莊區自立街１０９號１樓,121.4555,25.0455,(02)29942891,羅氏家用新冠病毒抗原自我檢測套組,79,2022/05/11 14:16:33,無
5931067565,豐年藥局,新北市新莊區中正路３７７巷１６號,121.4462,25.03395,(02)22071182,羅氏家用新冠病毒抗原自我檢測套組,78,2022/05/11 14:16:33,無
5931068160,三大藥局,新北市新莊區建安里民安路１９７號,121.4262,25.02256,(02)22030503,羅氏家用新冠病毒抗原自我檢測套組,1,2022/05/11 14:16:33,實名制快篩13:00發號碼.發完號碼開始領快篩及收費
5931068464,健安藥局,新北市新莊區光和里民安西路２０９號１樓,121.4261,25.0147,(02)22043765,羅氏家用新冠病毒抗原自我檢測套組,78,2022/05/11 14:16:33,無
5931068599,建昌藥局,新北市新莊區福營里中正路５５７號,121.435,25.03254,(02)29015422,羅氏家用新冠病毒抗原自我檢測套組,76,2022/05/11 14:16:33,快篩代售時間:週一至週日14:30現場排隊購買，售完為止。（物流配送不及則例外，以門市公告為主）
5931068759,森活藥局,新北市新莊區民安路２２０－１號,121.426,25.02259,(02)22027927,羅氏家用新冠病毒抗原自我檢測套組,77,2022/05/11 14:16:33,實名快篩15點開賣
5931068819,東京大藥局,新北市新莊區民安路１７６號１樓,121.4251,25.02392,(02)22063806,羅氏家用新冠病毒抗原自我檢測套組,66,2022/05/11 14:16:33,口罩代售時間為9:30開始現場排隊販售
5931068875,旭生藥局,新北市新莊區裕民街４２號１樓,121.4188,25.02498,(02)29021289,羅氏家用新冠病毒抗原自我檢測套組,18,2022/05/11 14:16:33,無
5931069792,宏泰藥局,新北市新莊區自信街３７號１樓,121.4543,25.04863,(02)29964649,羅氏家用新冠病毒抗原自我檢測套組,59,2022/05/11 14:16:33,無
593106A379,輔大美康藥局,新北市新莊區中正路５１０號之１，１樓,121.4341,25.03294,(02)29013056,羅氏家用新冠病毒抗原自我檢測套組,2,2022/05/11 14:16:33,實名制快篩9:20發號碼牌／9:30過卡+收費
593106A388,元大藥局,新北市新莊區富國路２０４號１、２樓,121.4249,25.02427,(02)22020082,羅氏家用新冠病毒抗原自我檢測套組,22,2022/05/11 14:16:33,無
593106A771,新佑康健保藥局,新北市新莊區中華路１段３５號１樓,121.4519,25.03765,(02)29947490,羅氏家用新冠病毒抗原自我檢測套組,3,2022/05/11 14:16:33,無
593106A931,建安藥局,新北市新莊區建安街１１７號、１１９號１樓,121.4262,25.02406,(02)22051969,羅氏家用新冠病毒抗原自我檢測套組,78,2022/05/11 14:16:33,快篩實名制，每天16:00開始販售，售完為止。
593106B036,家嘉藥局,新北市新莊區自立街１０３號（１樓）,121.4553,25.04549,(02)89926488,羅氏家用新冠病毒抗原自我檢測套組,57,2022/05/11 14:16:33,今天號碼牌都已發放完畢
593106B090,依都勇藥局,新北市新莊區自信街６３號（１樓）,121.4554,25.04829,(02)29901516,羅氏家用新冠病毒抗原自我檢測套組,47,2022/05/11 14:16:33,無
593106B152,福原藥局,新北市新莊區中原東路７０號（１樓）,121.4632,25.05461,(02)85216190,羅氏家用新冠病毒抗原自我檢測套組,60,2022/05/11 14:16:33,下午2點發放號碼牌
593106B232,新康健保藥局,新北市新莊區自立街１７２號１樓,121.4557,25.04537,(02)29962558,羅氏家用新冠病毒抗原自我檢測套組,66,2022/05/11 14:16:33,早上9點發號碼牌，下午2-4點帶號碼牌來領快篩（逾時不候）
593106B287,盛弘藥局,新北市新莊區中平路２９５號１樓,121.4447,25.05099,(02)22763336,羅氏家用新冠病毒抗原自我檢測套組,41,2022/05/11 14:16:33,政府快篩於平日下午13:50發放號碼牌，下午14:00準時販售，假日視政府配量（販售時間相同）
5931070080,耀鴻藥局,新北市樹林區中山路３段７６號,121.3936,24.97239,(02)26808989,羅氏家用新冠病毒抗原自我檢測套組,78,2022/05/11 14:16:33,每天都有發放口罩
5931071658,大慶藥局,新北市樹林區鎮前街４２－１號,121.4258,24.99271,(02)26759212,羅氏家用新冠病毒抗原自我檢測套組,44,2022/05/11 14:16:33,實名制快篩每日下午2:00開始販售， 現場排隊， 帶500元鈔票／ 健保卡
5931071881,盛立藥局,新北市樹林區大雅路２８５號１樓,121.3795,24.94735,(02)35018218,羅氏家用新冠病毒抗原自我檢測套組,43,2022/05/11 14:16:33,政府快篩平日下午1:50發號碼牌，下午2:00準時販售，假日視政府配量（販售時間相同）
5931071934,樹新藥局,新北市樹林區樹新路３０－３號１樓,121.4272,24.99462,(02)26821080,羅氏家用新冠病毒抗原自我檢測套組,32,2022/05/11 14:16:33,無
5931072351,瑪諾藥局,新北市樹林區復興路２０號,121.4225,24.99462,(02)26830304,羅氏家用新冠病毒抗原自我檢測套組,39,2022/05/11 14:16:33,無
5931072495,鄰康藥局,新北市樹林區日新街３９號１樓,121.4228,24.99211,(02)26855472,羅氏家用新冠病毒抗原自我檢測套組,43,2022/05/11 14:16:33,實名快篩下午2點開始販售
5931072575,永賀藥局,新北市樹林區中山路１段１２７號１樓,121.4227,24.99003,(02)26815801,羅氏家用新冠病毒抗原自我檢測套組,2,2022/05/11 14:16:33,無
5931080031,林政德西藥局,新北市鶯歌區建國路２５６號１樓,121.3477,24.95354,(02)26781412,羅氏家用新冠病毒抗原自我檢測套組,39,2022/05/11 14:16:33,春節期間看診時段請電洽
5931081234,文瑞藥局,新北市鶯歌區尖山路２９６號,121.3406,24.94437,(02)26780589,羅氏家用新冠病毒抗原自我檢測套組,28,2022/05/11 14:16:33,快篩下午14:00開始販售  假日販售時間前一天公告
5931081305,佑家藥局,新北市鶯歌區中正三路１５１號１樓,121.3367,24.94007,(02)26798282,羅氏家用新冠病毒抗原自我檢測套組,21,2022/05/11 14:16:33,星期一至六，下午1:30發號碼牌   每日提供8份給醫護警消等緊急使用
5931081378,鶯歌宏達藥局,新北市鶯歌區國慶街１３８號１樓,121.3508,24.95347,(02)26709693,羅氏家用新冠病毒抗原自我檢測套組,1,2022/05/11 14:16:33,下午三點開始販售實名制快篩~不要打電話來問~藥師有其他工作要做
5931081510,鶯歌藥局,新北市鶯歌區鶯桃路２段１１號１樓,121.3258,24.97205,(02)86778778,羅氏家用新冠病毒抗原自我檢測套組,78,2022/05/11 14:16:33,快篩實名制，每天16:00開始販售，售完為止。
5931081547,信義健保藥局,新北市鶯歌區信義街６３號１樓,121.3534,24.95571,(02)86775563,羅氏家用新冠病毒抗原自我檢測套組,30,2022/05/11 14:16:33,發放時間以現場公告為主
5931091481,盛加藥局,新北市三峽區民生街４９號,121.3755,24.9362,(02)26739797,羅氏家用新冠病毒抗原自我檢測套組,16,2022/05/11 14:16:33,政府快篩平日下午1:50發號碼牌，下午2:00準時販售，假日視政府配量（販售時間相同）
5931091696,祥祐藥局,新北市三峽區文化路１２５號１樓,121.3699,24.93598,(02)26738080,羅氏家用新冠病毒抗原自我檢測套組,37,2022/05/11 14:16:33,實名制快篩下午2點開始販售
5931091874,盛台藥局,新北市三峽區大學路１０８號１、２樓,121.375,24.9438,(02)26722730,羅氏家用新冠病毒抗原自我檢測套組,48,2022/05/11 14:16:33,政府快篩平日13:50發號碼牌，14:00準時販售。假日視政府配量販售（販售時間相同）。
5931091892,三峽藥局,新北市三峽區介壽路１段２７號１樓,121.3757,24.93321,(02)26738868,羅氏家用新冠病毒抗原自我檢測套組,79,2022/05/11 14:16:33,快篩實名制，每天16:00開始販售，售完為止。
5931091972,三峽大昌藥局,新北市三峽區民生街５６號１樓,121.3752,24.93635,(02)26711560,羅氏家用新冠病毒抗原自我檢測套組,40,2022/05/11 14:16:33,無
5931092059,三峽啄木鳥藥局,新北市三峽區中正路１段１４１號１樓,121.3735,24.92875,(02)26744321,羅氏家用新冠病毒抗原自我檢測套組,3,2022/05/11 14:16:33,實名制快篩 中午:12:30開始發號碼牌
5931092111,立雅藥局,新北市三峽區文化路８４號（１樓）,121.3719,24.93627,(02)26712601,羅氏家用新冠病毒抗原自我檢測套組,71,2022/05/11 14:16:33,無
5931092120,進安大藥局,新北市三峽區民生街１７４號（１樓）,121.3713,24.93493,(02)26711125,羅氏家用新冠病毒抗原自我檢測套組,34,2022/05/11 14:16:33,原則下午2點開始販售快篩（實際販售時間，視到貨時間調整）
5931100074,邱藥局,新北市淡水區中山路２７號,121.444,25.17006,(02)26214255,羅氏家用新冠病毒抗原自我檢測套組,14,2022/05/11 14:16:33,無
5931100154,尚運藥局,新北市淡水區學府路５１巷１弄２０號,121.4473,25.16892,(02)26225149,羅氏家用新冠病毒抗原自我檢測套組,73,2022/05/11 14:16:33,無
5931101464,伯聯藥局,新北市淡水區清水街９－１０號１樓,121.4444,25.17023,(02)26255847,羅氏家用新冠病毒抗原自我檢測套組,1,2022/05/11 14:16:33,快篩實名制星期一到六08:00開賣（如有到貨），星期日無販售
5931101633,吉利安健保藥師藥局,新北市淡水區中山北路１段１００號１樓,121.4426,25.17639,(02)26295693,羅氏家用新冠病毒抗原自我檢測套組,62,2022/05/11 14:16:33,若有送貨則當日14:00準時開賣售完為止
5931102103,四季寶健保藥局,新北市淡水區新市一路３段１１７－１號（含夾層）,121.4468,25.18314,(02)26283199,羅氏家用新冠病毒抗原自我檢測套組,79,2022/05/11 14:16:33,無
5931102292,佑全淡水淡金藥局,新北市淡水區淡金路５５號、５７號１樓,121.4559,25.16127,(02)26228040,羅氏家用新冠病毒抗原自我檢測套組,51,2022/05/11 14:16:33,實名制快篩每日兩點開賣（售完為止）
5931102354,天康大藥局,新北市淡水區學府路４９號１樓,121.4479,25.16929,(02)26206523,羅氏家用新冠病毒抗原自我檢測套組,5,2022/05/11 14:16:33,無
5931102461,淡水藥局,新北市淡水區中山路１２７號（１、２樓）,121.4414,25.17107,(02)86313663,羅氏家用新冠病毒抗原自我檢測套組,78,2022/05/11 14:16:33,快篩實名制，每天16:00開始販售，售完為止。
5931102489,水源藥局,新北市淡水區水源街１段１３３號１樓,121.447,25.172,(02)26295233,羅氏家用新冠病毒抗原自我檢測套組,78,2022/05/11 14:16:33,快篩實名制，每天16:00開始販售，售完為止。
5931111586,品康藥局,新北市汐止區湖前街４７號１樓,121.632,25.07005,(02)26954441,羅氏家用新冠病毒抗原自我檢測套組,31,2022/05/11 14:16:33,下午2點販售實名制快篩
5931111988,滿益藥局,新北市汐止區仁愛路１３０號,121.6632,25.06397,(02)86421562,羅氏家用新冠病毒抗原自我檢測套組,39,2022/05/11 14:16:33,口罩代售時間自13:30 ， 現場排隊
5931112047,吉安康健保藥師藥局,新北市汐止區宜興街１１號１樓,121.6213,25.0416,(02)26405881,羅氏家用新冠病毒抗原自我檢測套組,14,2022/05/11 14:16:33,營業時間以現場公告為主
5931112145,汐止健康人生藥局,新北市汐止區忠孝東路２６９號,121.6633,25.06809,(02)86421820,羅氏家用新冠病毒抗原自我檢測套組,39,2022/05/11 14:16:33,快篩代售時間 14:00~售完為止 ；現場排隊
5931112510,汐興藥局,新北市汐止區中興路１１３號１樓、２樓,121.632,25.06494,(02)26927733,羅氏家用新冠病毒抗原自我檢測套組,51,2022/05/11 14:16:33,無
5931112645,健成藥局,新北市汐止區新興路２０號１樓,121.6564,25.06456,(02)26428989,羅氏家用新冠病毒抗原自我檢測套組,31,2022/05/11 14:16:33,無
5931113071,蒲公英藥局,新北市汐止區連興街１２６號（１樓）,121.6538,25.06188,(02)26907770,羅氏家用新冠病毒抗原自我檢測套組,78,2022/05/11 14:16:33,實名制快篩銷售時間:下午17:00-19:00（無發放號碼牌）
5931113197,博昱忠孝藥局,新北市汐止區忠孝東路２７８號（１樓）,121.6637,25.06809,(02)86423838,羅氏家用新冠病毒抗原自我檢測套組,74,2022/05/11 14:16:33,下午兩點開始賣快篩
5931113204,富康活力忠孝藥局,新北市汐止區忠孝東路２７９號１樓,121.6638,25.06854,(02)26422666,羅氏家用新冠病毒抗原自我檢測套組,15,2022/05/11 14:16:33,無
5931120049,本平藥局,新北市瑞芳區瑞芳街４５號,121.8076,25.10913,(02)24972167,羅氏家用新冠病毒抗原自我檢測套組,2,2022/05/11 14:16:33,無
5931121466,瑞芳藥局,新北市瑞芳區明燈路３段５９之１及５９之２號,121.8057,25.10812,(02)24966588,羅氏家用新冠病毒抗原自我檢測套組,78,2022/05/11 14:16:33,快篩實名制，每天16:00開始販售，售完為止。
5931130152,博惠藥局,新北市土城區中央路１段２４９巷２０號,121.4463,24.98538,(02)22618337,羅氏家用新冠病毒抗原自我檢測套組,26,2022/05/11 14:16:33,14:00開始販售政府快篩，不發號碼牌
5931131579,祥安大藥局,新北市土城區立德路４２－１號,121.4636,24.98727,(02)22629707,羅氏家用新冠病毒抗原自我檢測套組,22,2022/05/11 14:16:33,無
5931131908,璨鴻藥局,新北市土城區延和路１９１號,121.4692,24.99035,(02)82622588,羅氏家用新冠病毒抗原自我檢測套組,6,2022/05/11 14:16:33,快篩發放時間星期一至五
5931132343,誠安藥局,新北市土城區中央路４段３６號１樓,121.4207,24.96088,(02)22677737,羅氏家用新冠病毒抗原自我檢測套組,79,2022/05/11 14:16:33,快篩代售時段：平日晚上8點，售完為止
5931132538,宏奇藥局,新北市土城區延吉街１２６號１樓,121.4695,24.98586,(02)82619585,羅氏家用新冠病毒抗原自我檢測套組,51,2022/05/11 14:16:33,無
5931132601,吉城大藥局,新北市土城區學府路１段２０５號１樓,121.4518,24.98459,(02)22626870,羅氏家用新冠病毒抗原自我檢測套組,54,2022/05/11 14:16:33,★★★每天都有 現領不用等★★★
5931132950,美康藥妝藥局,新北市土城區延吉街２５４號１樓,121.4664,24.98465,(02)22616868,羅氏家用新冠病毒抗原自我檢測套組,44,2022/05/11 14:16:33,實名制快篩前一天若有到貨，則隔日三點販售
5931133126,成康藥局,新北市土城區學府路１段１８８號１樓,121.4532,24.98614,(02)22706596,羅氏家用新冠病毒抗原自我檢測套組,3,2022/05/11 14:16:33,春節期間看診時段請電洽
5931133331,城安大藥局,新北市土城區金城路３段４０號,121.4656,24.98639,(02)22646561,羅氏家用新冠病毒抗原自我檢測套組,39,2022/05/11 14:16:33,快篩代售時間晚上8:30
5931133546,宏林保健藥局,新北市土城區裕民路１３４號（１樓）,121.4515,24.98622,(02)82615919,羅氏家用新冠病毒抗原自我檢測套組,33,2022/05/11 14:16:33,無
5931133635,順儷學府藥局,新北市土城區學府路１段１４４巷２號１樓,121.4549,24.98728,(02)22701979,羅氏家用新冠病毒抗原自我檢測套組,47,2022/05/11 14:16:33,無
5931140229,天士藥局,新北市蘆洲區中正路３６號,121.4713,25.08237,(02)22818227,羅氏家用新冠病毒抗原自我檢測套組,3,2022/05/11 14:16:33,目前快篩政府配送不穩定  收到貨後將會盡快開賣
5931142634,華安大藥局,新北市蘆洲區長安街４８號１樓,121.4633,25.07973,(02)22881168,羅氏家用新冠病毒抗原自我檢測套組,43,2022/05/11 14:16:33,無
5931142670,陽光幸福藥局,新北市蘆洲區重陽街８８號１樓,121.4821,25.08454,(02)28486566,羅氏家用新冠病毒抗原自我檢測套組,1,2022/05/11 14:16:33,快篩實名制 早上9點開始販售 採現場排隊
5931143131,杏一蘆洲長安藥局,新北市蘆洲區長安街１２２號１樓,121.4606,25.08179,(02)82854278,羅氏家用新冠病毒抗原自我檢測套組,33,2022/05/11 14:16:33,快篩周一至周六下午兩點購買
5931143275,集賢藥局,新北市蘆洲區信義路２２２巷６１號１、２樓,121.4813,25.08535,(02)22882400,羅氏家用新冠病毒抗原自我檢測套組,78,2022/05/11 14:16:33,快篩實名制，每天16:00開始販售，售完為止。
5931143319,大樹長榮藥局,新北市蘆洲區長榮路６１、６１－１號１樓,121.4624,25.0833,(02)28480567,羅氏家用新冠病毒抗原自我檢測套組,78,2022/05/11 14:16:33,快篩實名制，每天16:00開始販售，售完為止。
5931151473,百成中西藥師藥局,新北市五股區五福里五福路２０號１樓,121.4343,25.08881,(02)22915531,羅氏家用新冠病毒抗原自我檢測套組,32,2022/05/11 14:16:33,口罩代售時間為09:10-22:00；如有餘額，週日亦有販售
5931151713,五股藥局,新北市五股區成泰路１段２３５之２號（１樓）,121.4363,25.07968,(02)22951150,羅氏家用新冠病毒抗原自我檢測套組,77,2022/05/11 14:16:33,快篩實名制，每天16:00開始販售，售完為止。
5931161353,台灣藥局,新北市泰山區明志路１段２８２－２８６號,121.4319,25.06002,(02)22971969,羅氏家用新冠病毒抗原自我檢測套組,70,2022/05/11 14:16:33,下午2:20發號碼牌2:30販售實名制快篩試劑
5931161620,華特藥局,新北市泰山區明志路１段２６０號１樓,121.4321,25.06052,(02)29095662,羅氏家用新冠病毒抗原自我檢測套組,120,2022/05/11 14:16:33,5／10（二）-5／13（五） 晚上7:00開始販售，數量當天晚上會公布
5931171251,喜樂藥師藥局,新北市林口區麗林里公園路１５號１樓,121.3665,25.06762,(02)26005566,羅氏家用新冠病毒抗原自我檢測套組,33,2022/05/11 14:16:33,快篩實名制，每天13:30發號碼牌，14:00開始販售，醫護執照優先10份，週日休息
5931171340,家欣藥師藥局,新北市林口區文化二路１段５６７號１樓,121.3748,25.0777,(02)26025368,羅氏家用新冠病毒抗原自我檢測套組,22,2022/05/11 14:16:33,5／2（一）17:00開始販售實名制快篩，不發號碼牌，每日發放時間不同，請至粉專看
5931171582,綠園藥局,新北市林口區仁愛路２段１０５號１樓,121.3843,25.07507,(02)86012258,羅氏家用新冠病毒抗原自我檢測套組,10,2022/05/11 14:16:33,上午8:30-12:00、下午2:30-18:00、晚上18:00-21:30
5931171706,榮新藥局,新北市林口區忠孝路３８３號１樓,121.3695,25.0713,(02)26089789,羅氏家用新冠病毒抗原自我檢測套組,1,2022/05/11 14:16:33,快篩發放時間  14:50發放號碼牌下午15:00開賣（直至賣完）
5931171724,林康藥局,新北市林口區文化二路１段２２２號１樓,121.3695,25.07226,(02)26088869,羅氏家用新冠病毒抗原自我檢測套組,26,2022/05/11 14:16:33,快篩於下午2點販售，周日公休
5931171831,沐霖藥局,新北市林口區文化三路２段２８６號１樓,121.3775,25.08304,(02)26032086,羅氏家用新冠病毒抗原自我檢測套組,78,2022/05/11 14:16:33,5／11 （三） 17:30 發放號碼牌
5931171877,杏一林口仁愛藥局,新北市林口區仁愛路２段９１號１樓,121.3846,25.07532,(02)26016453,羅氏家用新冠病毒抗原自我檢測套組,46,2022/05/11 14:16:33,無
5931171886,林口辰安藥局,新北市林口區文化三路１段１９１巷５號１樓,121.3619,25.07016,(02)26099151,羅氏家用新冠病毒抗原自我檢測套組,78,2022/05/11 14:16:33,快篩1600開始販售，現場排隊領取
5931211045,三芝藥師藥局,新北市三芝區中正路１段４３號１樓,121.5032,25.25816,(02)86353982,羅氏家用新冠病毒抗原自我檢測套組,27,2022/05/11 14:16:33,無
5931250015,松南藥局,新北市雙溪區中華路２９號,121.8658,25.03728,(02)24931085,羅氏家用新冠病毒抗原自我檢測套組,13,2022/05/11 14:16:33,實名制快篩12點半發號碼牌並販售，​但若排隊人數已超過數量，將視情況提早發放。週日快篩無販售。
5931250042,信芳藥局,新北市雙溪區中華路５０號,121.866,25.03761,(02)24931301,羅氏家用新冠病毒抗原自我檢測套組,35,2022/05/11 14:16:33,無
5932010631,新華興清溪藥局,桃園市桃園區東門里中山東路１０號１樓,121.3136,24.99548,(03)3330011,羅氏家用新冠病毒抗原自我檢測套組,1,2022/05/11 14:16:33,實名制快篩週一~週日14:30，不發號碼牌請依序排隊購買
5932011370,家福聯合藥局,桃園市桃園區中山路６２３號,121.2939,24.99093,(03)2289492,羅氏家用新冠病毒抗原自我檢測套組,36,2022/05/11 14:16:33,0503人數已滿，1點發快篩
5932011870,永祥大藥局,桃園市桃園區永安路５２８號,121.2986,25.00181,(03)3337161,羅氏家用新冠病毒抗原自我檢測套組,2,2022/05/11 14:16:33,口罩販賣時段：週一至週六早上9點
5932012359,長鴻藥師藥局,桃園市桃園區中興里永安路２７７之５號,121.3018,24.99898,(03)3324728,羅氏家用新冠病毒抗原自我檢測套組,29,2022/05/11 14:16:33,營業時間 星期1~6  9:00~22:30  星期日 13:00~22:30 快篩實名制 下午2:00開始販售
5932012671,美德藥師藥局,桃園市桃園區中正路２３０號,121.3104,24.99586,(03)3354160,羅氏家用新冠病毒抗原自我檢測套組,14,2022/05/11 14:16:33,快篩販售時間下午01:00開始
5932012813,桃園大興藥局,桃園市桃園區大興西路二段７６巷３號,121.2984,25.01183,(03)3013222,羅氏家用新冠病毒抗原自我檢測套組,96,2022/05/11 14:16:33,快篩實名制，每天16:00開始販售，售完為止。
5932013338,合豐藥局,桃園市桃園區中山東路８２號,121.3176,24.99664,(03)3394007,羅氏家用新冠病毒抗原自我檢測套組,50,2022/05/11 14:16:33,口罩販售時間：週一至週日
5932013392,桃園中正藥局,桃園市桃園區中正路３７３號,121.3079,24.99955,(03)3381600,羅氏家用新冠病毒抗原自我檢測套組,91,2022/05/11 14:16:33,快篩實名制，每天16:00開始販售，售完為止。
5932013605,新華興藥局,桃園市桃園區中正路６６５號,121.3038,25.00597,(03)3267777,羅氏家用新冠病毒抗原自我檢測套組,16,2022/05/11 14:16:33,實名制快篩週一~週日13:00，不發號碼牌請依序排隊購買
5932013614,桃元松藥局,桃園市桃園區建華三街４２號,121.3118,24.98294,(03)3611066,羅氏家用新冠病毒抗原自我檢測套組,14,2022/05/11 14:16:33,13:00 開始販售實名制快篩
5932013687,桃園春日藥局,桃園市桃園區春日路８７８號,121.3096,25.01561,(03)3580101,羅氏家用新冠病毒抗原自我檢測套組,78,2022/05/11 14:16:33,快篩實名制，每天16:00開始販售，售完為止。
5932013749,桃園寶山藥局,桃園市桃園區寶山街７２號,121.3175,25.01291,(03)3250562,羅氏家用新冠病毒抗原自我檢測套組,78,2022/05/11 14:16:33,快篩實名制，每天16:00開始販售，售完為止。
5932013883,桃園大有藥局,桃園市桃園區大有路５５６號,121.3181,25.01393,(03)3460793,羅氏家用新冠病毒抗原自我檢測套組,14,2022/05/11 14:16:33,快篩星期一到星期日下午1:50發號碼牌；販賣時段：14:00~15:00
5932013909,莊敬長青藥師藥局,桃園市桃園區莊敬路一段３２３號１樓,121.2971,25.02393,(03)3587676,羅氏家用新冠病毒抗原自我檢測套組,52,2022/05/11 14:16:33,平日快篩下午2:00販售 下午1:40發號碼牌 星期六下午4:30販售 下午4:10發號碼牌 周日停配快篩
5932013981,安慶藥局,桃園市桃園區安慶街９１號,121.2924,25.01812,(03)3027267,羅氏家用新冠病毒抗原自我檢測套組,11,2022/05/11 14:16:33,下午兩點販售，現場排隊
5932013990,福澤大業藥局,桃園市桃園區大業路１段４２２號１樓,121.3118,25.01473,(03)3563865,羅氏家用新冠病毒抗原自我檢測套組,66,2022/05/11 14:16:33,家用快篩販賣時段15:30至售完為止
5932014031,大廟藥局,桃園市桃園區中山路１５８號１樓,121.3091,24.99342,(03)3337006,羅氏家用新冠病毒抗原自我檢測套組,78,2022/05/11 14:16:33,無
5932014059,桃園南平藥局,桃園市桃園區南平路３０２－１號１樓,121.2989,25.01855,(03)3165222,羅氏家用新冠病毒抗原自我檢測套組,78,2022/05/11 14:16:33,快篩實名制，每天16:00開始販售，售完為止。
5932014102,小飛象藥局,桃園市桃園區慈文路１９２號,121.3041,25.00907,(03)3552771,羅氏家用新冠病毒抗原自我檢測套組,31,2022/05/11 14:16:33,5／11[15:10]開賣31份，再打來問就掛電話。不發號碼牌。即起調劑確診者視訊處方，請自保。
5932014184,浤安藥局,桃園市桃園區慈德街１號１樓,121.3019,25.00685,(03)3577665,羅氏家用新冠病毒抗原自我檢測套組,22,2022/05/11 14:16:33,14:00開始發放實名制快篩
5932014273,藝文藥局,桃園市桃園區大興西路１段１６５號,121.3049,25.01414,(03)3261789,羅氏家用新冠病毒抗原自我檢測套組,78,2022/05/11 14:16:33,快篩實名制，每天16:00開始販售，售完為止。
5932014344,豐藝藥局,桃園市桃園區泰昌三街２３號１樓,121.2943,24.98954,(03)2200977,羅氏家用新冠病毒抗原自我檢測套組,78,2022/05/11 14:16:33,實名制快篩下午3點販售，依序排隊購買，售完為止。
5932014399,澄心藥局,桃園市桃園區桃鶯路３０５號１樓,121.3193,24.98265,(03)3771468,羅氏家用新冠病毒抗原自我檢測套組,64,2022/05/11 14:16:33,營業時間:8:00-22:00
5932014424,桃園中山藥局,桃園市桃園區中山路７０７號,121.2914,24.99079,(03)2207168,羅氏家用新冠病毒抗原自我檢測套組,78,2022/05/11 14:16:33,快篩實名制，每天16:00開始販售，售完為止。
5932014442,新光藥局,桃園市桃園區大有路１７２號,121.3209,25.00752,(03)3310133,羅氏家用新冠病毒抗原自我檢測套組,138,2022/05/11 14:16:33,營業時間:週一至週五10:00-22:00；快篩下午2:00開始，賣完為止，不發號碼牌
5932014460,桃鶯藥局,桃園市桃園區桃鶯路１０２號,121.318,24.98516,(03)3675100,羅氏家用新冠病毒抗原自我檢測套組,78,2022/05/11 14:16:33,快篩實名制，每天16:00開始販售，售完為止。
5932018593,品一藥局,桃園市桃園區建新街７６號,121.3118,24.98261,(03)3638510,羅氏家用新冠病毒抗原自我檢測套組,6,2022/05/11 14:16:33,快篩販賣時間：週一至週五早上9：30；週六下午1：00（星期天休息），會發號碼牌（今天已發完）
5932019116,慈安藥局,桃園市桃園區永安路３８３號,121.299,25.00086,(03)3369599,羅氏家用新冠病毒抗原自我檢測套組,1,2022/05/11 14:16:33,快篩販賣時段：8:30~10:30，過時後，另78份係隔日販賣的量.
5932019581,莘莘藥局,桃園市桃園區莊敬路一段３６８號,121.2957,25.02375,(03)3170681,羅氏家用新冠病毒抗原自我檢測套組,9,2022/05/11 14:16:33,實名制快篩週一至週六 下午2點開始 售完為止
593201A668,佑您康聯合藥局,桃園市桃園區寶山街３８５號,121.3117,25.01068,(03)3463999,羅氏家用新冠病毒抗原自我檢測套組,35,2022/05/11 14:16:33,快篩代售：星期一~星期六下午2:00發號碼牌
5932021438,全球永美大藥局,桃園市中壢區中山東路二段５３０號１至２樓,121.2454,24.9468,(03)4661839,羅氏家用新冠病毒抗原自我檢測套組,30,2022/05/11 14:16:33,營業時間:9:00-22:00
5932021689,立康專業藥局,桃園市中壢區莊敬路８６５號,121.2543,24.96376,(03)4553121,羅氏家用新冠病毒抗原自我檢測套組,39,2022/05/11 14:16:33,快篩實名制販售時間週一到週五下午14:00販售 週六週日早上10:00販售 現場排隊
5932022051,正翰藥師藥局,桃園市中壢區龍東路４９８號,121.2569,24.93482,(03)4664171,羅氏家用新冠病毒抗原自我檢測套組,75,2022/05/11 14:16:33,週一至週五下午2:30現場排隊銷售實名制快篩（週六，週日中午12:00）上述均以實際到貨為主
5932022159,躍獅新明藥局,桃園市中壢區新明路６６號１樓,121.215,24.95868,(03)2813361,羅氏家用新冠病毒抗原自我檢測套組,48,2022/05/11 14:16:33,快篩販賣時段：14:00~售完為止，現場排隊 ， 星期天沒有販售快篩
5932022346,宜美大藥局,桃園市中壢區莊敬路７１６號,121.2569,24.96642,(03)4637687,羅氏家用新冠病毒抗原自我檢測套組,41,2022/05/11 14:16:33,無
5932022631,中壢中正藥局,桃園市中壢區中正路３６３、３６５號,121.2163,24.95532,(03)4014100,羅氏家用新冠病毒抗原自我檢測套組,78,2022/05/11 14:16:33,快篩實名制，每天16:00開始販售，售完為止。
5932022766,佳敬藥局,桃園市中壢區莊敬路１６０號,121.2573,24.96796,(03)2713595,羅氏家用新冠病毒抗原自我檢測套組,59,2022/05/11 14:16:33,快篩試劑如有配送禮拜一至禮拜五下午2點販售，禮拜六早上八點半
5932022980,美佑康活力藥局,桃園市中壢區五福里中正路６２７號,121.2108,24.95947,(03)2810018,羅氏家用新冠病毒抗原自我檢測套組,26,2022/05/11 14:16:33,快篩販賣時段：周一到周日每天14:00
5932023183,佳華藥局,桃園市中壢區六和路４６號,121.2244,24.96452,(03)2753018,羅氏家用新冠病毒抗原自我檢測套組,45,2022/05/11 14:16:33,快篩銷售時間:星期一二三五下午2:00，星期四六早上8:00，售完為止
5932023647,樂謙藥師藥局,桃園市中壢區龍東路１３４號,121.2522,24.92929,(03)4662775,羅氏家用新冠病毒抗原自我檢測套組,83,2022/05/11 14:16:33,實名快篩每日下午2點、晚上6點 各發39份
5932023772,佑全中壢中正藥局,桃園市中壢區中正路１０８號１、２樓,121.2229,24.95498,(03)2807899,羅氏家用新冠病毒抗原自我檢測套組,34,2022/05/11 14:16:33,實名制快篩販售時間：下午1400-售完為止
5932023889,華勛藥局,桃園市中壢區華勛街１１２、１１４號,121.2597,24.95065,(03)4161881,羅氏家用新冠病毒抗原自我檢測套組,2,2022/05/11 14:16:33,快篩實名制，每天16:00開始販售，售完為止。
5932023932,龍東藥局,桃園市中壢區龍東路２０５號,121.2523,24.92966,(03)4383088,羅氏家用新冠病毒抗原自我檢測套組,78,2022/05/11 14:16:33,快篩實名制，每天16:00開始販售，售完為止。
5932024108,佳愷藥局,桃園市中壢區中北路４７號,121.2368,24.95614,(03)4664735,羅氏家用新冠病毒抗原自我檢測套組,48,2022/05/11 14:16:33,視配貨狀況禮拜三、禮拜五、禮拜六早上9點至11點販售。若未到貨則無法開賣，有任何疑問請致電聯繫許藥師0933-595-819
5932024251,佑全中壢中山藥局,桃園市中壢區中山東路２段２７號１樓,121.2374,24.95443,(03)4385373,羅氏家用新冠病毒抗原自我檢測套組,58,2022/05/11 14:16:33,家用快篩販售時間：下午1400-售完為止
5932024297,新資生弘揚大藥局,桃園市中壢區弘揚路６４號１樓,121.2411,24.95337,(03)3606180,羅氏家用新冠病毒抗原自我檢測套組,51,2022/05/11 14:16:33,無
5932028375,福泰藥師藥局,桃園市中壢區慈惠三街１１２號１樓,121.2257,24.9633,(03)4224130,羅氏家用新冠病毒抗原自我檢測套組,25,2022/05/11 14:16:33,口罩販賣時段：09:00-22:00..
593202A244,澤仁藥局,桃園市中壢區中正路２６３號,121.2193,24.95495,(03)4252254,羅氏家用新冠病毒抗原自我檢測套組,67,2022/05/11 14:16:33,販賣時段：下午 2:30 - 售完為止
593202A833,君安藥局,桃園市中壢區中北路二段３９０號,121.2318,24.95388,(03)4685484,羅氏家用新冠病毒抗原自我檢測套組,77,2022/05/11 14:16:33,快篩實名制，週一至週五晚上7點，週六週日早上9點，視現場狀況，45分鐘前發號碼牌，發完隨即販售，過號視同放棄
593202A931,佳佑藥局,桃園市中壢區環中東路二四一號,121.2573,24.96345,(03)4356190,羅氏家用新冠病毒抗原自我檢測套組,6,2022/05/11 14:16:33,口罩販賣時段：09:00以後發號碼牌，售完為止
593202B447,榮善堂藥局,桃園市中壢區前龍街九號,121.2535,24.9298,(03)4564946,羅氏家用新冠病毒抗原自我檢測套組,55,2022/05/11 14:16:33,全台第一自助快篩領取系統，快篩販賣星期一至四：晚上七點。星期五至六：下午二點。星期天：早上八點
5932031890,福生藥局,桃園市大溪區民權東路１０３號１樓,121.2919,24.88209,(03)3873533,羅氏家用新冠病毒抗原自我檢測套組,27,2022/05/11 14:16:33,早上八點開始發放快篩試劑
5932040308,弘大藥局,桃園市楊梅區大華街十三號,121.1452,24.9076,(03)4751858,羅氏家用新冠病毒抗原自我檢測套組,47,2022/05/11 14:16:33,實名制快篩 14:00發放號碼牌後開始販售至16:00為止逾時不候，禮拜天無販售實名制快篩。
5932042679,得康美藥局,桃園市楊梅區環南路１２８號１樓,121.1466,24.90164,(03)4788128,羅氏家用新冠病毒抗原自我檢測套組,5,2022/05/11 14:16:33,快篩領取規則~中午:12:00-12:30發號碼牌 ／下午時段發快篩A:14:00-15:00 B:20:00-21:00
5932043130,宜康美藥局,桃園市楊梅區環東路４５２號,121.1571,24.91005,(03)4883805,羅氏家用新冠病毒抗原自我檢測套組,77,2022/05/11 14:16:33,快篩販賣時段：早上09:30~10:30（20份）下午15:30~16:30（38份）晚上19:30~20:30（20份）
5932043327,全球埔心大藥局,桃園市楊梅區永美路３９５號,121.1797,24.91488,(03)4824839,羅氏家用新冠病毒抗原自我檢測套組,27,2022/05/11 14:16:33,營業時間:9:00-22:00
5932043345,家安藥局,桃園市楊梅區中興路１３２號,121.1851,24.91655,(03)4811626,羅氏家用新冠病毒抗原自我檢測套組,37,2022/05/11 14:16:33,六日不販售，下次為5／9實名制快篩試劑，下午2點販售
5932043381,楊梅丁丁藥局,桃園市楊梅區中山北路２段２２７號,121.1729,24.90958,(03)4815486,羅氏家用新冠病毒抗原自我檢測套組,78,2022/05/11 14:16:33,依照配送時間預計下午.發放號碼牌時間.請加LINE社群關注
5932051472,康而美聖安藥師藥局,桃園市蘆竹區南山路一段二之一號,121.2916,25.04879,(03)3228753,羅氏家用新冠病毒抗原自我檢測套組,1,2022/05/11 14:16:33,暫停止販售
5932052077,明安藥局,桃園市蘆竹區南竹路一之六號,121.2934,25.04765,(03)3527087,羅氏家用新冠病毒抗原自我檢測套組,36,2022/05/11 14:16:33,販售時段；周一至周日下午2點
5932052737,知博藥師藥局,桃園市蘆竹區營盤里中山路１６０號,121.2977,25.05702,(03)2221886,羅氏家用新冠病毒抗原自我檢測套組,1,2022/05/11 14:16:33,快篩販賣時段：暫定週一至週五16:00-17:00 週六.日不發放.以現場公告時間為主
5932052826,青新藥師藥局,桃園市蘆竹區南竹路五段２５１之１號,121.2597,25.0247,(03)3134328,羅氏家用新冠病毒抗原自我檢測套組,37,2022/05/11 14:16:33,無
5932052835,悅兒藥局,桃園市蘆竹區忠孝西路１８６號,121.2892,25.04011,(03)3126967,羅氏家用新冠病毒抗原自我檢測套組,69,2022/05/11 14:16:33,快篩販賣時段：週一到週日 14:30 開賣
5932052924,青青藥師藥局,桃園市蘆竹區南山路三段３１３號１樓,121.2861,25.08533,(03)3240338,羅氏家用新冠病毒抗原自我檢測套組,51,2022/05/11 14:16:33,口罩販賣時段：週一至週日09:00起
5932052951,永青健康人生藥局,桃園市蘆竹區奉化路１４２號１樓,121.289,25.03917,(03)3528361,羅氏家用新冠病毒抗原自我檢測套組,23,2022/05/11 14:16:33,實名制快篩每日兩點開賣，人潮眾多額滿會提早開始
5932052979,南崁藥局,桃園市蘆竹區中正路２５１、２５３、２５５號,121.2921,25.04695,(03)3522022,羅氏家用新冠病毒抗原自我檢測套組,157,2022/05/11 14:16:33,快篩實名制，每天16:00開始販售，售完為止。
5932053001,安祐大藥局,桃園市蘆竹區忠孝西路１９２號,121.2891,25.03989,(03)2229195,羅氏家用新冠病毒抗原自我檢測套組,14,2022/05/11 14:16:33,口罩販賣時段：一~六 14:00
5932053065,民生藥局,桃園市蘆竹區南昌路４５號,121.2876,25.04245,(03)3216784,羅氏家用新冠病毒抗原自我檢測套組,77,2022/05/11 14:16:33,快篩開賣時間:星期一到五16點. 星期六10:30. 星期日休息.
5932062439,青埔長青藥師藥局,桃園市大園區新生路四段２５１號,121.2134,25.0081,(03)3815097,羅氏家用新冠病毒抗原自我檢測套組,40,2022/05/11 14:16:33,快篩販賣時段 : 14:00開賣，現場排隊，售完為止
5932071009,德佑藥局,桃園市龜山區大崗里新興街２９３號,121.3558,25.04531,(03)3283556,羅氏家用新冠病毒抗原自我檢測套組,4,2022/05/11 14:16:33,快篩試劑販賣時段為每日晚上07:30開始（星期日暫停販售）
5932076255,安得福藥局,桃園市龜山區萬壽路一段２８１號,121.4035,25.01723,(02)82001467,羅氏家用新冠病毒抗原自我檢測套組,42,2022/05/11 14:16:33,口罩販賣時段：13：00開始發號碼牌排隊領取過號重排
5932076791,誠安生活藥局,桃園市龜山區文化七路７９之２號,121.3635,25.05166,(03)3271997,羅氏家用新冠病毒抗原自我檢測套組,200,2022/05/11 14:16:33,即日起停止販售快篩
5932076844,帕米爾藥局,桃園市龜山區萬壽路二段９９１號,121.3369,24.99464,(03)3295522,羅氏家用新冠病毒抗原自我檢測套組,8,2022/05/11 14:16:33,星期一~六家用快篩試劑販賣時段：19:00~20:30。不發號碼牌，請直接排隊購買。
5932077270,明昌藥局,桃園市龜山區中興里萬壽路二段１１９１－６號,121.3318,24.99291,(03)3501205,羅氏家用新冠病毒抗原自我檢測套組,10,2022/05/11 14:16:33,無
5932077378,佑昌藥局,桃園市龜山區民生北路一段５３４號,121.298,25.044,(03)3120760,羅氏家用新冠病毒抗原自我檢測套組,10,2022/05/11 14:16:33,實名制快篩發放時間 14:00
5932077403,穩好保健藥局,桃園市龜山區中興路１３７號,121.3317,24.9889,(03)3500088,羅氏家用新冠病毒抗原自我檢測套組,19,2022/05/11 14:16:33,快篩販賣時段：1400
5932077510,左外野藥局,桃園市龜山區文光街６號１樓,121.3802,25.05471,(03)3271503,羅氏家用新冠病毒抗原自我檢測套組,65,2022/05/11 14:16:33,快篩販售:晚上19:30至20:30（週五公休）*不發號碼牌 請直接排隊購買
5932077529,泰麟大藥局,桃園市龜山區自強西路２３８號１樓,121.3325,24.99625,(03)2133728,羅氏家用新冠病毒抗原自我檢測套組,76,2022/05/11 14:16:33,無
5932077627,文興藥局,桃園市龜山區復興一路１０２號１、２、３樓,121.368,25.0592,(03)3285330,羅氏家用新冠病毒抗原自我檢測套組,78,2022/05/11 14:16:33,快篩實名制，每天16:00開始販售，售完為止。
5932077645,美康萬壽藥局,桃園市龜山區萬壽路１段３２５號１、２樓,121.4024,25.0169,(02)82000001,羅氏家用新冠病毒抗原自我檢測套組,19,2022/05/11 14:16:33,下午兩點開始發號碼牌販售公費快篩
5932080080,厚仁藥局,桃園市八德區大義里永福街１１號,121.3008,24.96265,(03)3611071,羅氏家用新冠病毒抗原自我檢測套組,1,2022/05/11 14:16:33,販賣時段：13:00
5932083670,保健藥局,桃園市八德區介壽路一段８３３號２樓,121.3,24.96168,(03)3669486,羅氏家用新冠病毒抗原自我檢測套組,66,2022/05/11 14:16:33,無
5932083714,佳美大藥局,桃園市八德區介壽路一段六八八號,121.3006,24.96636,(03)3772239,羅氏家用新冠病毒抗原自我檢測套組,46,2022/05/11 14:16:33,營業時間:9:00-22:00，快篩14:00販售
5932083974,晨鴻藥師藥局,桃園市八德區桃鶯路７號１樓,121.3265,24.97179,(03)3764299,羅氏家用新冠病毒抗原自我檢測套組,50,2022/05/11 14:16:33,快篩為早上8:30跟晚上6:00領取號碼牌，星期六早上一次發78份，快篩地圖數量參考就好，請勿再打電話詢問 謝謝
5932084248,佑兒康藥局,桃園市八德區永豐路５７０號,121.2718,24.97541,(03)3709680,羅氏家用新冠病毒抗原自我檢測套組,2,2022/05/11 14:16:33,快篩販售時間:  每週一.二.四.五.六 下午2:30 開始 ； 每週三.日 晚上8:50開始
5932084373,悅康藥局,桃園市八德區介壽路一段９１６號,121.2993,24.95943,(03)3662930,羅氏家用新冠病毒抗原自我檢測套組,7,2022/05/11 14:16:33,全年無休、快篩販賣時段：13:30-17:00
5932084462,興豐丁丁藥局,桃園市八德區興豐路４３５號,121.2895,24.92983,(03)3689287,羅氏家用新冠病毒抗原自我檢測套組,52,2022/05/11 14:16:33,實名制快篩原則於每日下午2點發號碼牌並銷售，如未配送則不銷售
5932084499,誠泰藥局,桃園市八德區大千里東勇街５１－２號,121.3067,24.95861,(03)3649340,羅氏家用新冠病毒抗原自我檢測套組,40,2022/05/11 14:16:33,快篩實名制下午14:00販賣
