醫事機構代碼,醫事機構名稱,醫事機構地址,經度,緯度,醫事機構電話,廠牌項目,快篩試劑截至目前結餘存貨數量,來源資料時間,備註
0291010010,連江縣立醫院,連江縣南竿鄉復興村２１７號,119.9492,26.16084,(083)623995,羅氏家用新冠病毒抗原自我檢測套組,10,2022/05/09 18:36:34,4／29起固定周一至周六上午8:30-9:30快篩試劑販售.
2336210034,臺中市和平區梨山衛生所,臺中市和平區中正路１２號１樓、６８號１樓,121.2592,24.25678,(04)25989540,羅氏家用新冠病毒抗原自我檢測套組,5,2022/05/09 18:36:34,提供24小時急診待診服務，快篩試劑販售時段為周一至五0900-12:00，六日及國定假日為0900-1100
2338120015,南投縣信義鄉衛生所,南投縣信義鄉明德村玉山路４５號,120.8547,23.69653,(049)2791148,羅氏家用新冠病毒抗原自我檢測套組,1,2022/05/09 18:36:34,快篩試劑販售時間星期一至星期五上午09：00-11：00，現場排隊發售，國定假日不販賣。
2340170016,嘉義縣大埔鄉衛生所,嘉義縣大埔鄉大埔村５３－１號,120.5928,23.29397,(05)2521214,羅氏家用新冠病毒抗原自我檢測套組,78,2022/05/09 18:36:34,無
2342250017,高雄市茂林區衛生所,高雄市茂林區茂林里茂林巷８－４號,120.6641,22.88641,(07)6801046,羅氏家用新冠病毒抗原自我檢測套組,16,2022/05/09 18:36:34,夜間急診，請先撥電話07-6801046
2342260013,高雄市桃源區衛生所,高雄市桃源區桃源里南進巷１８８－１號,120.7642,23.15845,(07)6861126,羅氏家用新冠病毒抗原自我檢測套組,84,2022/05/09 18:36:34,IDS提供24小時服務
2342270019,高雄市那瑪夏區衛生所,高雄市那瑪夏區瑪雅里６鄰平和巷２５２號,120.7024,23.24708,(07)6701142,羅氏家用新冠病毒抗原自我檢測套組,8,2022/05/09 18:36:34,春節期間正常門診
2344011036,澎湖縣馬公市第三衛生所,澎湖縣馬公市西文里１１８之２號,119.5836,23.56813,(06)9211723,羅氏家用新冠病毒抗原自我檢測套組,74,2022/05/09 18:36:34,本所快篩試劑只提供離島衛生室（虎井、桶盤）販售，時間週一至週五08:30-17:00售完為止，星期六、日國定假日09:00-12:00。
2344030022,澎湖縣白沙鄉鳥嶼衛生所,澎湖縣白沙鄉鳥嶼村漁港新村３號,119.6599,23.66008,(06)9916092,羅氏家用新冠病毒抗原自我檢測套組,98,2022/05/09 18:36:34,非上班時間提供急診服務
2344030031,澎湖縣白沙鄉吉貝衛生所,澎湖縣白沙鄉吉貝村８－１３號,119.6138,23.74056,(06)9911430,羅氏家用新冠病毒抗原自我檢測套組,194,2022/05/09 18:36:34,無
2344050015,澎湖縣望安鄉衛生所,澎湖縣望安鄉西安村３６－７號,119.4972,23.36161,(06)9991036,羅氏家用新冠病毒抗原自我檢測套組,33,2022/05/09 18:36:34,夜間急診。快篩試劑販售時間為:每日08:00-12:00、13:30-17:30售完為止，如有餘數為離島未售出（東嶼坪、花嶼）。
2344050024,澎湖縣望安鄉將軍衛生所,澎湖縣望安鄉將軍村１２鄰將軍澳１之３號,119.5216,23.3615,(06)9902066,羅氏家用新冠病毒抗原自我檢測套組,16,2022/05/09 18:36:34,24小時急診
2391030016,連江縣莒光鄉西莒衛生所,連江縣莒光鄉青帆村１４－１號,119.9331,25.97157,(083)689122,羅氏家用新冠病毒抗原自我檢測套組,233,2022/05/09 18:36:34,防疫口罩星期一至五09:00-17:00、（六）09:00-12:00現場購買
2391030026,連江縣莒光鄉東莒衛生所,連江縣莒光鄉大坪村３０－１號,119.9731,25.96113,(083)689038,羅氏家用新冠病毒抗原自我檢測套組,480,2022/05/09 18:36:34,防疫口罩星期一至星期日上午10:00-12:00收取健保卡，下午3:30至本所領取口罩。
5901013095,康采藥局,臺北市松山區南京東路５段２９１巷１７－２號,121.5663,25.05236,(02)27670271,羅氏家用新冠病毒抗原自我檢測套組,17,2022/05/09 18:36:34,（已完售，庫存不準）快篩試劑每日16點販售，週日沒有販售
5901013399,一安正昇藥局,臺北市松山區南京東路５段３０９號,121.5667,25.05155,(02)27680993,羅氏家用新冠病毒抗原自我檢測套組,1,2022/05/09 18:36:34,快篩發放時間  下午14:30
5901020385,延吉大藥局,臺北市大安區延吉街１５３號１樓,121.5548,25.04066,(02)27819227,羅氏家用新冠病毒抗原自我檢測套組,3,2022/05/09 18:36:34,無
5901020554,師大藥局,臺北市大安區師大路９９號１樓,121.5285,25.02271,(02)23623479,羅氏家用新冠病毒抗原自我檢測套組,1,2022/05/09 18:36:34,實名制快篩試劑開賣時間下午2:30現場排隊
5901021408,生百藥局,臺北市大安區臨江街１２４號,121.5539,25.03024,(02)27371011,羅氏家用新冠病毒抗原自我檢測套組,66,2022/05/09 18:36:34,無
5901024221,安居藥局,臺北市大安區安居街１９號,121.5549,25.02085,(02)23773537,羅氏家用新冠病毒抗原自我檢測套組,78,2022/05/09 18:36:34,領快篩注意事項:週一到週五晚上7:30-9:00 週六早上8:00-12:00直接排隊購買 .週日不營業
5901024669,百岳藥局,臺北市大安區和平東路２段３１１巷１１號,121.5452,25.02514,(02)27551037,羅氏家用新冠病毒抗原自我檢測套組,74,2022/05/09 18:36:34,快篩試劑販售時間:周一至周五10:30~12:00止
5901024918,康祥藥局,臺北市大安區忠孝東路４段２１６巷２１號,121.5531,25.04025,(02)27817891,羅氏家用新冠病毒抗原自我檢測套組,1,2022/05/09 18:36:34,星期天11:00-19:00
5901025059,博醫仁愛藥局,臺北市大安區仁愛路４段８巷２號１樓,121.5443,25.0375,(02)27019107,羅氏家用新冠病毒抗原自我檢測套組,3,2022/05/09 18:36:34,每天11:30發號碼牌，12:00~15:00憑號碼牌與健保卡購買實名制快篩
5901100333,明美藥局,臺北市中山區長春路６９號,121.5266,25.05502,(02)25365419,羅氏家用新冠病毒抗原自我檢測套組,4,2022/05/09 18:36:34,口罩周一至周五，16:30-18:30販售
5901100422,滿順藥局,臺北市中山區伊通街５４號１樓,121.5347,25.05145,(02)25075283,羅氏家用新冠病毒抗原自我檢測套組,1,2022/05/09 18:36:34,快篩服務時間 AM 8:30 起 售完為止
5901101509,永直藥局,臺北市中山區北安路５９５巷２弄６號,121.5483,25.08192,(02)85098059,羅氏家用新冠病毒抗原自我檢測套組,173,2022/05/09 18:36:34,周一至周六早上8點發號碼牌，下午2點到晚上8點販售（拿號碼牌來買），周日不販售
5901102444,啟美藥師藥局,臺北市中山區錦州街２８２號,121.5352,25.06024,(02)25178032,羅氏家用新冠病毒抗原自我檢測套組,78,2022/05/09 18:36:34,快篩 販售時間 20點開賣到21點，星期六日公休
5901103629,十二願藥局,臺北市中山區林森北路３０９號,121.5256,25.05588,(02)25311223,羅氏家用新冠病毒抗原自我檢測套組,67,2022/05/09 18:36:34,快篩晚上8點開始發放.營業時間下午1點至凌晨3點
5901112011,文新藥局,臺北市內湖區文湖街７－５號１樓,121.5599,25.08544,(02)87978865,羅氏家用新冠病毒抗原自我檢測套組,7,2022/05/09 18:36:34,快篩販售時間:周一~周五 18:00~21:00 ／ 周六 10:00~12:00 ，賣完為止
5901113018,桔子藥局,臺北市內湖區內湖路２段３３３號,121.5917,25.08319,(02)27930052,羅氏家用新冠病毒抗原自我檢測套組,78,2022/05/09 18:36:34,早0900-1200，午1400-1700，晚1900-2100
5901113652,加一藥師藥局,臺北市內湖區星雲街２４號１樓,121.5908,25.07804,(02)87912653,羅氏家用新冠病毒抗原自我檢測套組,93,2022/05/09 18:36:34,無
5901121672,亞博藥師藥局,臺北市南港區興華路８１號,121.6061,25.05545,(02)27838090,羅氏家用新冠病毒抗原自我檢測套組,16,2022/05/09 18:36:34,無
5901150548,田倉藥局,臺北市士林區士東路１２４號,121.5302,25.11219,(02)88662188,羅氏家用新冠病毒抗原自我檢測套組,78,2022/05/09 18:36:34,每日19:00（傍晚7點）開始販售.
5901152079,資生堂藥局,臺北市士林區承德路４段４０巷１７號１Ｆ,121.522,25.08107,(02)28857588,羅氏家用新冠病毒抗原自我檢測套組,78,2022/05/09 18:36:34,今日快篩已售完
5901153503,祥新藥局,臺北市士林區社子街６５號,121.5067,25.08751,(02)28110906,羅氏家用新冠病毒抗原自我檢測套組,54,2022/05/09 18:36:34,5／9晚上7點開賣，實名制快篩星期2、3、5、6早上十點開賣；週一、四晚上7點開賣，周日公休
5901153674,愛佳藥局,臺北市士林區承德路４段２２２之１號,121.5215,25.0885,(02)28811199,羅氏家用新冠病毒抗原自我檢測套組,78,2022/05/09 18:36:34,實名制快篩平日一~五下午5:00販售，假日（六、日）不販售
5901154028,向宇藥局,臺北市士林區德行東路２１７號１樓,121.5328,25.10935,(02)88661101,羅氏家用新冠病毒抗原自我檢測套組,49,2022/05/09 18:36:34,無
5901154091,社正藥局,臺北市士林區社正路１２號１樓,121.5093,25.08854,(02)28118704,羅氏家用新冠病毒抗原自我檢測套組,70,2022/05/09 18:36:34,無
5901154135,誠泰中西藥局,臺北市士林區永平街１３號１樓,121.5051,25.08996,(02)88112352,羅氏家用新冠病毒抗原自我檢測套組,75,2022/05/09 18:36:34,周一到周六晚上7:00開始販賣，  周日休息!
5901161890,良興藥局,臺北市北投區中和街２８６號,121.5004,25.14047,(02)28933360,羅氏家用新冠病毒抗原自我檢測套組,61,2022/05/09 18:36:34,18點30分點開始營業
5901163296,天禧大藥局,臺北市北投區實踐街３５號,121.5087,25.11521,(02)28213558,羅氏家用新冠病毒抗原自我檢測套組,1,2022/05/09 18:36:34,實名制快篩下午1:30現場販售
5901163581,陳藥師藥局,臺北市北投區光明路２巷１３－２號（實際使用：１樓）,121.4997,25.13132,(02)28921971,羅氏家用新冠病毒抗原自我檢測套組,66,2022/05/09 18:36:34,無
5901173818,博亞藥局,臺北市信義區莊敬路４６２號,121.5677,25.02672,(02)27580506,羅氏家用新冠病毒抗原自我檢測套組,39,2022/05/09 18:36:34,平日早上8:30、晚上8:00；假日早上8:30，發放號碼牌，持號碼牌購買!
5901174002,吳興春天藥局,臺北市信義區吳興街１３７號１樓,121.5618,25.02947,(02)27585618,羅氏家用新冠病毒抗原自我檢測套組,1,2022/05/09 18:36:34,下午2:40發號碼牌
5901174011,寶春藥局,臺北市信義區虎林街１１９之１９號１樓,121.5771,25.04112,(02)27566501,羅氏家用新冠病毒抗原自我檢測套組,78,2022/05/09 18:36:34,實名制快篩每日19:00現場排隊販售
5901184633,躍獅東門藥局,臺北市中正區金山南路１段１０８之１號（１樓）,121.5273,25.03538,(02)23920339,羅氏家用新冠病毒抗原自我檢測套組,3,2022/05/09 18:36:34,5／9早上9點開始販售，不提早發放號碼牌
5901190668,聯慶大藥局,臺北市萬華區萬大路３０６號１樓,121.5003,25.02495,(02)23039850,羅氏家用新冠病毒抗原自我檢測套組,37,2022/05/09 18:36:34,無
5901193169,柏祥藥局,臺北市萬華區西藏路１４１號,121.5017,25.02944,(02)23018272,羅氏家用新冠病毒抗原自我檢測套組,80,2022/05/09 18:36:34,1快篩服務時間晚上6:00起售完截止。2販售詳情請見門口公告。3周日公休不販售。
5901193221,正盛藥局,臺北市萬華區中華路２段４３４－１號,121.5064,25.02708,(02)23050386,羅氏家用新冠病毒抗原自我檢測套組,60,2022/05/09 18:36:34,【5／8血氧機到貨!!】1.一~六20點，周日不賣 2.排隊人潮多，建議7點左右提前候位 3.詳情看門口公告或板橋正康總店臉書
5901193338,艾米力藥師藥局,臺北市萬華區西藏路１０７－２號１樓,121.5035,25.02955,(02)23036583,羅氏家用新冠病毒抗原自我檢測套組,71,2022/05/09 18:36:34,實名制快篩：周一~周五 晚上7:00販售；周末（六日）早上9:00販售
5902050903,皇安藥局,高雄市三民區九如一路４６１號,120.3296,22.63865,(07)3866779,羅氏家用新冠病毒抗原自我檢測套組,2,2022/05/09 18:36:34,營業日0900可先領取號碼牌，上午9:00-12:00及下午3:00~10:.00為販賣快篩時間，售完為止
5903050194,樂齊藥局,臺中市沙鹿區北中路８６－１、８６－２號,120.5692,24.22827,(04)26338867,羅氏家用新冠病毒抗原自我檢測套組,78,2022/05/09 18:36:34,防疫家用快篩試劑每日19點開賣，售完為止，庫存請依現場為主。
5903150028,全成烏日藥局,臺中市烏日區溪南路１段７７６號,120.6427,24.07423,(04)23352656,羅氏家用新冠病毒抗原自我檢測套組,78,2022/05/09 18:36:34,實名制快篩晚上7:00發放，售完為止
5903160097,安昌藥局,臺中市大肚區遊園路二段１７６號１樓,120.5808,24.17289,(04)26913890,羅氏家用新冠病毒抗原自我檢測套組,46,2022/05/09 18:36:34,每天晚上19:00點開始現場排隊販賣快篩試劑.
5903170020,理想藥局,臺中市龍井區國際街１２１號,120.5953,24.18672,(04)26521597,羅氏家用新冠病毒抗原自我檢測套組,10,2022/05/09 18:36:34,快篩周一到周五，傍晚6點開賣。星期六早上8點半，星期日，依現場公告。
5903170048,龍井新庄藥局,臺中市龍井區遊園南路１７９號１樓,120.5843,24.18216,(04)26322169,羅氏家用新冠病毒抗原自我檢測套組,78,2022/05/09 18:36:34,於5／9號開始，實名制快篩星期一到星期六晚上8點準時開賣，現場排隊購買.
5903190380,及宏藥局,臺中市太平區樹孝路５０２號,120.7205,24.15806,(04)23919911,羅氏家用新冠病毒抗原自我檢測套組,49,2022/05/09 18:36:34,周一至周五快篩販賣為晚間6:30開始，周六僅上午9點
5903200096,仁化藥局,臺中市大里區仁化路５４０號,120.7012,24.09623,(04)24915902,羅氏家用新冠病毒抗原自我檢測套組,3,2022/05/09 18:36:34,W1-W5  下午1800發放.現場排隊    W6 休息  W日中午12:30
5903270721,舒健藥局,臺中市西屯區西屯路二段２５５號２樓,120.6459,24.17179,(04)27077858,羅氏家用新冠病毒抗原自我檢測套組,72,2022/05/09 18:36:34,公費快篩試劑於周一至周六晚上7點現場排隊購買，週日公休。
5903270865,尚禾藥局,臺中市西屯區青海路一段６５號,120.6548,24.16438,(04)23147688,羅氏家用新冠病毒抗原自我檢測套組,39,2022/05/09 18:36:34,實名制快篩發放：時段一中午12:30~14:00。時段二20：30~22：30。時段一若未發完，餘量將遞延至時段二發放。周日停售。
5903271004,西屯青育藥師藥局,臺中市西屯區西屯路二段２９５－３號１樓,120.6425,24.17735,(04)27077898,羅氏家用新冠病毒抗原自我檢測套組,41,2022/05/09 18:36:34,無
5903271031,美十樂中科藥局,臺中市西屯區西屯路三段１６６－６５號１樓,120.6129,24.19035,(04)24610219,羅氏家用新冠病毒抗原自我檢測套組,468,2022/05/09 18:36:34,醫事人員卡片損壞，暫時無法販賣快篩
5903271246,柏醫藥局,臺中市西屯區上安路５６號１樓,120.6412,24.17052,(04)24526391,羅氏家用新冠病毒抗原自我檢測套組,78,2022/05/09 18:36:34,因應到貨時間不定，統一晚上7點開放78組（5／9已到貨 8:40）
5903280165,南屯福倫藥局,臺中市南屯區南屯路２段３１７號,120.6456,24.13754,(04)24758018,羅氏家用新冠病毒抗原自我檢測套組,14,2022/05/09 18:36:34,實名制快篩: 晚上6:00開始販售.售完為止
5903280549,仁幼藥局,臺中市南屯區黎明東街２２９號１樓,120.6367,24.1482,(04)23809162,羅氏家用新冠病毒抗原自我檢測套組,29,2022/05/09 18:36:34,快篩販售時間平日早上8:30--9:00，晚上7:00--完售，禮拜六下午3:00--完售，請禮讓領藥病患優先
5903280816,大育藥局,臺中市南屯區東興路二段７１號１樓,120.6528,24.13835,(04)24755656,羅氏家用新冠病毒抗原自我檢測套組,7,2022/05/09 18:36:34,每日固定晚上6點開賣 現場發放號碼牌
5903290385,元復藥局,臺中市北屯區東山路１段２２５－７號,120.7155,24.17475,(04)24362075,羅氏家用新冠病毒抗原自我檢測套組,3,2022/05/09 18:36:34,上午7:20-7:40及8:30起發號碼牌。
5903290625,又昌中西健保藥局,臺中市北屯區東山路１段２２３號,120.7152,24.17452,(04)24375716,羅氏家用新冠病毒抗原自我檢測套組,78,2022/05/09 18:36:34,快篩實名制 周一~周五晚上18:30開賣 現場排隊不發號碼牌
5903290901,帥帥藥局,臺中市北屯區東山路一段３００－２號,120.7204,24.1759,(04)24378188,羅氏家用新冠病毒抗原自我檢測套組,76,2022/05/09 18:36:34,星期一二晚上18:30-20:30，星期三至五下午15:00-17:00販賣快篩試劑，售完為止。六.日無販售。
5905010330,新進啄木鳥藥局,臺南市新營區新進路２段２５４號１樓,120.3056,23.30074,(06)6565303,羅氏家用新冠病毒抗原自我檢測套組,1,2022/05/09 18:36:34,自5／7起每日上午10:00開賣，售完為止..
5905320608,中華台安藥局,臺南市東區中華東路一段４號１樓,120.2344,22.99818,(06)2092622,羅氏家用新冠病毒抗原自我檢測套組,2,2022/05/09 18:36:34,固定週一至周日13點-16點販售快篩，售完為止，現場為主
5905380426,好朋友藥師藥局,臺南市安平區建平七街６８３號１樓,120.1692,22.98999,(06)2997907,羅氏家用新冠病毒抗原自我檢測套組,14,2022/05/09 18:36:34,快篩因到貨時間不確定，如當天到貨晚上7點販售，依現場排隊人數決定會提早販售
5907080223,新高橋藥局仁雄店,高雄市仁武區赤山里仁雄路８９－３號,120.3457,22.67722,(07)3485857,羅氏家用新冠病毒抗原自我檢測套組,1,2022/05/09 18:36:34,藥局電話07-3743243
5907080269,興德昌藥局,高雄市仁武區文武里中華路２３２號,120.3516,22.69985,(07)3757005,羅氏家用新冠病毒抗原自我檢測套組,1,2022/05/09 18:36:34,固定週一至週日14:30~16:00開始發放號碼牌並依序販售快篩.售完為止
5907160093,保生藥局,高雄市湖內區葉厝里保生路３４０．３４２號,120.2195,22.90733,(07)6990800,羅氏家用新冠病毒抗原自我檢測套組,1,2022/05/09 18:36:34,快篩實名制，每天16:00開始販售，售完為止。
5911011469,維元社區藥局,基隆市中正區新豐街４４８號,121.7859,25.13568,(02)24601388,羅氏家用新冠病毒抗原自我檢測套組,83,2022/05/09 18:36:34,無
5911021438,正心藥局,基隆市七堵區南興路１０號１樓,121.7149,25.09755,(02)24563378,羅氏家用新冠病毒抗原自我檢測套組,2,2022/05/09 18:36:34,每日限量78盒， 星期一~六下午13:30發號碼牌，14:00開始販賣，星期日上午9:00發號碼牌，9:30開始販賣，12:00停止領取
5911041332,光華藥局,基隆市仁愛區成功一路１２９號１樓,121.7364,25.12786,(02)24338703,羅氏家用新冠病毒抗原自我檢測套組,2,2022/05/09 18:36:34,快篩試劑販賣下午六點販售.星期日休息
5911050162,錦泰藥局,基隆市中山區中山二路４３號,121.7405,25.13786,(02)24228523,羅氏家用新冠病毒抗原自我檢測套組,78,2022/05/09 18:36:34,快篩販賣時間星期一至五晚上7點，星期六，星期日下午5點
5912013565,合康連鎖藥局關新店,新竹市東區關新北路１６１號１樓,121.0204,24.78614,(03)5679666,羅氏家用新冠病毒抗原自我檢測套組,2,2022/05/09 18:36:34,快篩販售時間:17:00
5912042815,合康連鎖藥局西大店,新竹市北區西大路６３６、６３８號１樓,120.9585,24.8101,(03)5233111,羅氏家用新冠病毒抗原自我檢測套組,7,2022/05/09 18:36:34,17:00
5917011945,正三吉藥局,臺中市中區臺灣大道一段９５號,120.6831,24.13911,(04)22207700,羅氏家用新冠病毒抗原自我檢測套組,78,2022/05/09 18:36:34,快篩販售時間 14:00~17:00
5917080888,大華藥局,臺中市北屯區熱河路２段１０９號１樓,120.6873,24.17054,(04)22331721,羅氏家用新冠病毒抗原自我檢測套組,56,2022/05/09 18:36:34,週一至週五1830-2030販售快篩，週六1430-1600販售快篩。週六晚上及週日全天休診。
5921050138,金德藥局,臺南市中西區府前路１段３３號,120.2108,22.98881,(06)2149082,羅氏家用新冠病毒抗原自我檢測套組,1,2022/05/09 18:36:34,星期一-日08:00-23:00
5922012945,大明藥局,嘉義市東區大雅路二段６８２號,120.4663,23.47719,(05)2760958,羅氏家用新冠病毒抗原自我檢測套組,5,2022/05/09 18:36:34,5／9 號碼牌已經分發完畢
5922013111,富善藥局,嘉義市東區新生路２３４號,120.4609,23.48419,(05)2759559,羅氏家用新冠病毒抗原自我檢測套組,7,2022/05/09 18:36:34,5／13、14休假，實名制快篩早上9:10-12:00下午3:10-5:00
5931010235,友祥藥局,新北市板橋區裕民街１０７號,121.4599,25.02773,(02)22544666,羅氏家用新冠病毒抗原自我檢測套組,2,2022/05/09 18:36:34,無
5931010342,宏達大藥局,新北市板橋區莒光路１７號,121.47,25.02478,(02)22572345,羅氏家用新冠病毒抗原自我檢測套組,154,2022/05/09 18:36:34,快篩 晚上20:00開始販售! 不要打電話來 問題這麼多就到現場 也不給你問
5931010646,人民藥局,新北市板橋區仁愛路５９號,121.4604,24.99965,(02)89533956,羅氏家用新冠病毒抗原自我檢測套組,1,2022/05/09 18:36:34,1.依政府規定當日配送，當日販售。2.因每日郵局配送時間不一定，詳看現場公告。.
5931012051,全曜藥局,新北市板橋區民權路２６０巷６２號,121.4603,25.01495,(02)29682681,羅氏家用新冠病毒抗原自我檢測套組,75,2022/05/09 18:36:34,實名制快篩下午七點發放，依現場數量為準（星期日休）
5931014555,廣益藥局,新北市板橋區自由路２１號,121.4654,25.02296,(02)22545726,羅氏家用新冠病毒抗原自我檢測套組,15,2022/05/09 18:36:34,下午3點50發號碼牌，4點開始賣
5931015687,正康健保藥局,新北市板橋區大觀路２段６５號１樓,121.4467,25.00246,(02)22756681,羅氏家用新冠病毒抗原自我檢測套組,50,2022/05/09 18:36:34,下午13:30依現場順序開始販售快篩，快篩配送絮亂庫存不準!!
5931016611,民川藥局,新北市板橋區四川路１段９７號１樓,121.4598,25.00544,(02)29520090,羅氏家用新冠病毒抗原自我檢測套組,1,2022/05/09 18:36:34,星期一~星期六（快篩上午9:00販售38份下午3:00販售40份）
5931017618,新埔健保藥局,新北市板橋區自由路２號１樓,121.4654,25.02222,(02)22558878,羅氏家用新冠病毒抗原自我檢測套組,39,2022/05/09 18:36:34,無
5931017967,曉品中西藥局,新北市板橋區貴興路２４號（１樓）,121.4575,25.00389,(02)29586990,羅氏家用新冠病毒抗原自我檢測套組,2,2022/05/09 18:36:34,無
5931017994,後埔藥局,新北市板橋區華興街９號（１樓）,121.459,25.00457,(02)89510306,羅氏家用新冠病毒抗原自我檢測套組,2,2022/05/09 18:36:34,5／9 下午2點發放號碼牌*確保作業流暢請自備500元*每天 78 份晚上10 點以前領取完畢（過卡時間差異剩餘數量僅供參考）
5931023581,大重仁藥局,新北市三重區重新路５段５９２號１樓,121.4694,25.04539,(02)29958283,羅氏家用新冠病毒抗原自我檢測套組,67,2022/05/09 18:36:34,販賣快篩：星期一~四 1830-1850，星期五1500-1520，星期六日0900-0920
5931024631,德榮藥局,新北市三重區中華路９１號１樓,121.4836,25.06302,(02)29717291,羅氏家用新冠病毒抗原自我檢測套組,78,2022/05/09 18:36:34,政府快篩販售時間星期一至星期六晚間19:00整現場販售..謝謝
5931025398,昌誠藥局,新北市三重區三和路４段１６１號１樓,121.4835,25.0785,(02)22876338,羅氏家用新冠病毒抗原自我檢測套組,5,2022/05/09 18:36:34,5／2 （休診）
5931025656,煜安健保藥局,新北市三重區光明路２３號１樓,121.4912,25.05856,(02)29768128,羅氏家用新冠病毒抗原自我檢測套組,51,2022/05/09 18:36:34,國定假日執行調劑業務
5931025987,忠孝德榮藥局,新北市三重區忠孝路２段９７號１樓,121.4842,25.07005,(02)29800297,羅氏家用新冠病毒抗原自我檢測套組,78,2022/05/09 18:36:34,現場排隊不發號碼牌*實名制快篩* 週一至週日晚間19:00開始代售.
5931026064,五華春天生活藥局,新北市三重區五華街７３號１、２樓,121.4925,25.08291,(02)29876838,羅氏家用新冠病毒抗原自我檢測套組,32,2022/05/09 18:36:34,快篩代售時間：週一至週日15：00，現場排隊購買，售完為止。（物流配送不及則例外，以門市公告為主）
5931033774,台化藥局,新北市永和區勵行街１１９號１樓,121.5175,25.01202,(02)22318585,羅氏家用新冠病毒抗原自我檢測套組,1,2022/05/09 18:36:34,無
5931043565,一安藥妝藥局,新北市中和區中和路９號１.２樓,121.4998,25.00221,(02)22483778,羅氏家用新冠病毒抗原自我檢測套組,1,2022/05/09 18:36:34,下午3點開始發號碼牌販售快篩
5931043921,良安藥局,新北市中和區連城路４７７巷１號１樓,121.4833,24.99555,(02)22225798,羅氏家用新冠病毒抗原自我檢測套組,8,2022/05/09 18:36:34,週六日不開店，實名制快篩，晚上9:00開始販售
5931052724,合康大藥局,新北市新店區中正路２６３－２號１樓,121.5384,24.97367,(02)29109888,羅氏家用新冠病毒抗原自我檢測套組,1,2022/05/09 18:36:34,快篩14:00開始（有事先發號碼牌）網上還有數量是拿到號碼牌還沒來領的，拜託別再問了
5931053034,康宜庭市公所藥局,新北市新店區北新路１段２８５號１樓,121.541,24.96707,(02)29151709,羅氏家用新冠病毒抗原自我檢測套組,1,2022/05/09 18:36:34,實名制快篩下午兩點開賣
5931060244,七安大藥局,新北市新莊區民安西路５５號１、２樓及５７號１樓,121.4275,25.02044,(02)22026066,羅氏家用新冠病毒抗原自我檢測套組,1,2022/05/09 18:36:34,實名制快篩15:00發號碼.發完號碼開始領快篩及收費
5931060342,十安藥局,新北市新莊區中港路３１６號,121.4524,25.04544,(02)29922859,羅氏家用新冠病毒抗原自我檢測套組,2,2022/05/09 18:36:34,自111／04／01起不再販賣實名制口罩
5931060557,一安藥局,新北市新莊區立德里新泰路２６８號,121.446,25.04029,(02)29941618,羅氏家用新冠病毒抗原自我檢測套組,103,2022/05/09 18:36:34,實名制快篩發放時間為15:00  其他詳情請上FB查詢
593106A600,全鎵藥局,新北市新莊區建中街２２號１樓,121.4493,25.03766,(02)22761550,羅氏家用新冠病毒抗原自我檢測套組,2,2022/05/09 18:36:34,16:00快篩開賣
593106B036,家嘉藥局,新北市新莊區自立街１０３號（１樓）,121.4553,25.04549,(02)89926488,羅氏家用新冠病毒抗原自我檢測套組,23,2022/05/09 18:36:34,今天號碼牌都已發放完畢
593106B090,依都勇藥局,新北市新莊區自信街６３號（１樓）,121.4554,25.04829,(02)29901516,羅氏家用新冠病毒抗原自我檢測套組,3,2022/05/09 18:36:34,無
593106B205,藥師佛藥局,新北市新莊區中正路８８１之４號１樓,121.4175,25.02544,(02)29016625,羅氏家用新冠病毒抗原自我檢測套組,78,2022/05/09 18:36:34,準時七點開賣，現場排隊，不發號碼牌，會預留警察消防人員額度，所以民眾購買額度不會是78盒！
5931081547,信義健保藥局,新北市鶯歌區信義街６３號１樓,121.3534,24.95571,(02)86775563,羅氏家用新冠病毒抗原自我檢測套組,39,2022/05/09 18:36:34,發放時間以現場公告為主
5931092200,金美藥局,新北市三峽區大同路２３８號１樓,121.3663,24.92573,(02)86715859,羅氏家用新冠病毒抗原自我檢測套組,1,2022/05/09 18:36:34,無
5931100154,尚運藥局,新北市淡水區學府路５１巷１弄２０號,121.4473,25.16892,(02)26225149,羅氏家用新冠病毒抗原自我檢測套組,28,2022/05/09 18:36:34,無
5931101464,伯聯藥局,新北市淡水區清水街９－１０號１樓,121.4444,25.17023,(02)26255847,羅氏家用新冠病毒抗原自我檢測套組,8,2022/05/09 18:36:34,快篩實名制星期一到六08:00開賣（如有到貨），星期日無販售
5931120049,本平藥局,新北市瑞芳區瑞芳街４５號,121.8076,25.10913,(02)24972167,羅氏家用新冠病毒抗原自我檢測套組,2,2022/05/09 18:36:34,無
5931132343,誠安藥局,新北市土城區中央路４段３６號１樓,121.4207,24.96088,(02)22677737,羅氏家用新冠病毒抗原自我檢測套組,156,2022/05/09 18:36:34,快篩代售時段：平日晚上8點，售完為止
5931133331,城安大藥局,新北市土城區金城路３段４０號,121.4656,24.98639,(02)22646561,羅氏家用新冠病毒抗原自我檢測套組,79,2022/05/09 18:36:34,快篩代售時間晚上8:30
5931160141,日泰藥局,新北市泰山區泰林路２段２２７號,121.4323,25.06194,(02)29095989,羅氏家用新冠病毒抗原自我檢測套組,13,2022/05/09 18:36:34,下午兩點開始販售。每日提供10份確診個案，詳情上臉書粉絲頁
5931171831,沐霖藥局,新北市林口區文化三路２段２８６號１樓,121.3775,25.08304,(02)26032086,羅氏家用新冠病毒抗原自我檢測套組,38,2022/05/09 18:36:34,5／9 （一） 17:30 發放號碼牌
5931171886,林口辰安藥局,新北市林口區文化三路１段１９１巷５號１樓,121.3619,25.07016,(02)26099151,羅氏家用新冠病毒抗原自我檢測套組,2,2022/05/09 18:36:34,快篩1600開始販售，現場排隊領取
5932011370,家福聯合藥局,桃園市桃園區中山路６２３號,121.2939,24.99093,(03)2289492,羅氏家用新冠病毒抗原自我檢測套組,7,2022/05/09 18:36:34,0503人數已滿，1點發快篩
5932011870,永祥大藥局,桃園市桃園區永安路５２８號,121.2986,25.00181,(03)3337161,羅氏家用新冠病毒抗原自我檢測套組,3,2022/05/09 18:36:34,口罩販賣時段：週一至週六早上9點
5932013409,欣立藥局,桃園市桃園區龍安街１８１－１號１樓,121.2782,24.99294,(03)3792001,羅氏家用新冠病毒抗原自我檢測套組,93,2022/05/09 18:36:34,快篩代售時間：晚上6點至銷售完畢。
5932013856,大滝藥局,桃園市桃園區龍壽街７４－２號,121.269,24.97999,(03)3607258,羅氏家用新冠病毒抗原自我檢測套組,3,2022/05/09 18:36:34,營業時間:09:00-23:00 實名制快篩販售時間:晚上6:00~售完
5932014031,大廟藥局,桃園市桃園區中山路１５８號１樓,121.3091,24.99342,(03)3337006,羅氏家用新冠病毒抗原自我檢測套組,22,2022/05/09 18:36:34,無
5932014102,小飛象藥局,桃園市桃園區慈文路１９２號,121.3041,25.00907,(03)3552771,羅氏家用新冠病毒抗原自我檢測套組,78,2022/05/09 18:36:34,5／9[21:30]開賣78份，5／10[09:30]開賣78份，再打來問就掛電話。不發號碼牌。即起調劑確診者視訊處方，請自保。
5932014111,鴻發藥師藥局,桃園市桃園區大有路５４３號,121.3171,25.0149,(03)3582468,羅氏家用新冠病毒抗原自我檢測套組,78,2022/05/09 18:36:34,實聯快篩:早上09:30發放號碼牌，限當日下午2~4點憑牌購買，逾時不候請見諒
5932014326,闔新藥局,桃園市桃園區中正路５７６號１樓,121.3054,25.00388,(03)3317279,羅氏家用新冠病毒抗原自我檢測套組,12,2022/05/09 18:36:34,營業時間:9:00-21:00，實名制快篩領取時間14:30開始，現場排隊
5932018593,品一藥局,桃園市桃園區建新街７６號,121.3118,24.98261,(03)3638510,羅氏家用新冠病毒抗原自我檢測套組,2,2022/05/09 18:36:34,快篩販賣時間：週一至週五早上9：30；週六下午1：00（星期天休息），會發號碼牌（今天已發完）
5932020360,日進藥局,桃園市中壢區中山東路二段１５６號,121.2394,24.95276,(03)4569132,羅氏家用新冠病毒抗原自我檢測套組,2,2022/05/09 18:36:34,政府實名制快篩販售時間:每日早上08:00~售完為止！
5932023889,華勛藥局,桃園市中壢區華勛街１１２、１１４號,121.2597,24.95065,(03)4161881,羅氏家用新冠病毒抗原自我檢測套組,2,2022/05/09 18:36:34,快篩實名制，每天16:00開始販售，售完為止。
593202A833,君安藥局,桃園市中壢區中北路二段３９０號,121.2318,24.95388,(03)4685484,羅氏家用新冠病毒抗原自我檢測套組,76,2022/05/09 18:36:34,快篩實名制，週一至週五晚上7點，週六週日早上9點，視現場狀況，45分鐘前發號碼牌，發完隨即販售，過號視同放棄
593202B447,榮善堂藥局,桃園市中壢區前龍街九號,121.2535,24.9298,(03)4564946,羅氏家用新冠病毒抗原自我檢測套組,63,2022/05/09 18:36:34,全台第一自助快篩領取系統，快篩販賣星期一至四：晚上七點。星期五至六：下午二點。星期天：早上八點
5932030160,永耘藥局,桃園市大溪區介壽路６４號,121.2946,24.92239,(03)3804770,羅氏家用新冠病毒抗原自我檢測套組,57,2022/05/09 18:36:34,快篩試劑販賣時段: 週一至週日早上8:00
5932040246,龍泰藥局,桃園市楊梅區民族路五段１４７巷２號,121.1736,24.9586,(03)4901525,羅氏家用新冠病毒抗原自我檢測套組,1,2022/05/09 18:36:34,快篩販售時間:早上7:30領號碼牌下午2點至4點領快篩（當日有效） 六日中午10點至12點領快篩
5932042679,得康美藥局,桃園市楊梅區環南路１２８號１樓,121.1466,24.90164,(03)4788128,羅氏家用新冠病毒抗原自我檢測套組,1,2022/05/09 18:36:34,快篩領取規則~中午:12:00-12:30發號碼牌 ／下午時段發快篩A:14:00-15:00 B:20:00-21:00
5932043130,宜康美藥局,桃園市楊梅區環東路４５２號,121.1571,24.91005,(03)4883805,羅氏家用新冠病毒抗原自我檢測套組,20,2022/05/09 18:36:34,快篩販賣時段：早上09:30~10:30（20份）下午15:30~16:30（38份）晚上19:30~20:30（20份）
5932052755,大葉藥局,桃園市蘆竹區中山路１３２號１樓,121.2978,25.05699,(03)3125347,羅氏家用新冠病毒抗原自我檢測套組,1,2022/05/09 18:36:34,口罩販賣時段：以現場公告為主
5932052808,柏霖藥局,桃園市蘆竹區中正路３５９號２樓,121.291,25.04902,(03)2120284,羅氏家用新冠病毒抗原自我檢測套組,23,2022/05/09 18:36:34,快篩試劑販賣時間:18:00開始.售完為止
5932052979,南崁藥局,桃園市蘆竹區中正路２５１、２５３、２５５號,121.2921,25.04695,(03)3522022,羅氏家用新冠病毒抗原自我檢測套組,157,2022/05/09 18:36:34,快篩實名制，每天16:00開始販售，售完為止。
5932071009,德佑藥局,桃園市龜山區大崗里新興街２９３號,121.3558,25.04531,(03)3283556,羅氏家用新冠病毒抗原自我檢測套組,121,2022/05/09 18:36:34,快篩試劑販賣時段為每日晚上07:30開始（星期日暫停販售）
5932076844,帕米爾藥局,桃園市龜山區萬壽路二段９９１號,121.3369,24.99464,(03)3295522,羅氏家用新冠病毒抗原自我檢測套組,78,2022/05/09 18:36:34,星期一~六:家用快篩試劑販賣時段：14:30~售完。不發號碼牌，請直接排隊購買。
5932077510,左外野藥局,桃園市龜山區文光街６號１樓,121.3802,25.05471,(03)3271503,羅氏家用新冠病毒抗原自我檢測套組,72,2022/05/09 18:36:34,快篩販售:晚上19:30至20:30（週五公休）*不發號碼牌 請直接排隊購買
5932077529,泰麟大藥局,桃園市龜山區自強西路２３８號１樓,121.3325,24.99625,(03)2133728,羅氏家用新冠病毒抗原自我檢測套組,64,2022/05/09 18:36:34,無
5932083974,晨鴻藥師藥局,桃園市八德區桃鶯路７號１樓,121.3265,24.97179,(03)3764299,羅氏家用新冠病毒抗原自我檢測套組,52,2022/05/09 18:36:34,快篩為早上8:30跟晚上6:00領取號碼牌，星期六早上一次發78份，快篩地圖數量參考就好，請勿再打電話詢問 謝謝
5932084828,阿爾富山藥局,桃園市八德區桃鶯路４號１樓,121.3261,24.97167,(03)3763350,羅氏家用新冠病毒抗原自我檢測套組,1,2022/05/09 18:36:34,本藥局實名制快篩於每日晚間7點以實際到貨數量發放，唯保留可視現場排隊人數額滿情況.酌情提前發號碼牌並受理購買!
5932084864,阿寶藥局,桃園市八德區東勇一路６號,121.3064,24.96452,(03)3750060,羅氏家用新冠病毒抗原自我檢測套組,43,2022/05/09 18:36:34,實名制快篩詳細公告請參閱阿寶藥局官方臉書
5932100210,福澤中豐藥局,桃園市平鎮區中豐路３４５號,121.2116,24.91034,(03)4283805,羅氏家用新冠病毒抗原自我檢測套組,15,2022/05/09 18:36:34,家用快篩販賣時段15:30至售完為止
5932120098,金永生藥局,桃園市觀音區觀音里甘泉街７號,121.0814,25.03696,(03)4732072,羅氏家用新冠病毒抗原自我檢測套組,4,2022/05/09 18:36:34,全年無休，口罩販賣時段：週一至週日14:00起17:00
5933010064,明德藥局,新竹縣關西鎮中山路１８號,121.1778,24.79152,(03)5874335,羅氏家用新冠病毒抗原自我檢測套組,1,2022/05/09 18:36:34,無
5933011196,高平堂藥局,新竹縣關西鎮正義路66號,121.1762,24.79269,(03)5872263,羅氏家用新冠病毒抗原自我檢測套組,51,2022/05/09 18:36:34,相關公告 請搜尋FB【高平堂藥局】
5933031652,合康藥局,新竹縣竹東鎮興農街１１號,121.0861,24.73988,(03)5103818,羅氏家用新冠病毒抗原自我檢測套組,2,2022/05/09 18:36:34,實名制快篩時段：下午17:00~22:30
5933061767,合康藥局湖口,新竹縣湖口鄉民族街１２６號,121.0456,24.90316,(03)6992365,羅氏家用新冠病毒抗原自我檢測套組,5,2022/05/09 18:36:34,星期一~日 16:30發放號碼牌，17:00~19:00領取完畢（無領取到號碼牌則無法購買快篩）
5934012366,熊賀大藥局,宜蘭縣宜蘭市女中路３段２６號,121.7421,24.74576,(03)9352950,羅氏家用新冠病毒抗原自我檢測套組,78,2022/05/09 18:36:34,快篩 星期一至日 晚上7:00開賣 現場排隊
5934020224,源生藥局,宜蘭縣羅東鎮忠孝路８９號,121.7652,24.67759,(03)9563476,羅氏家用新冠病毒抗原自我檢測套組,20,2022/05/09 18:36:34,執業時段請電洽藥局
5935011738,佳禾藥局,苗栗縣苗栗市青苗里建台街7號,120.821,24.55742,(037)373041,羅氏家用新冠病毒抗原自我檢測套組,2,2022/05/09 18:36:34,快篩試劑7：30發號碼牌8：00開始販賣，販賣時段：營業時間至售完為止
5935021421,苑裡啄木鳥藥局,苗栗縣苑裡鎮世界路一段２５號,120.6561,24.44071,(037)854589,羅氏家用新冠病毒抗原自我檢測套組,1,2022/05/09 18:36:34,快篩實名制每日14:30開始販售。各醫院診所慢性處方箋、牙科處方皆可領，全年無休。
5935030171,立安藥局,苗栗縣通霄鎮信義路１０７號,120.6804,24.48877,(037)760100,羅氏家用新冠病毒抗原自我檢測套組,30,2022/05/09 18:36:34,快篩實名制 週一到週六下午15:00開始販售  售完為止
5935041781,惠家藥局,苗栗縣竹南鎮自強街３８號,120.8792,24.69138,(037)463635,羅氏家用新冠病毒抗原自我檢測套組,32,2022/05/09 18:36:34,無
5935042082,樂健藥局,苗栗縣竹南鎮民權街５３－３號２樓,120.8778,24.68577,(037)470988,羅氏家用新冠病毒抗原自我檢測套組,50,2022/05/09 18:36:34,無
5936150341,原全成藥局,臺中市烏日區中山路一段３８７號１樓,120.6388,24.10773,(04)23361818,羅氏家用新冠病毒抗原自我檢測套組,2,2022/05/09 18:36:34,每日＜下午４點＞!!＜下午４點＞!!＜下午４點＞!!開始發號碼牌販售，售完為止！！
5936171386,國際大藥局,臺中市龍井區藝術街６號,120.5954,24.18751,(04)26522118,羅氏家用新冠病毒抗原自我檢測套組,1,2022/05/09 18:36:34,無
5936192018,和康藥局,臺中市太平區樹孝路４６２號,120.7203,24.15716,(04)23917355,羅氏家用新冠病毒抗原自我檢測套組,78,2022/05/09 18:36:34,實名制快篩販售星期一至六 發號碼牌 晚上七點開始銷售售完為止! 5／8（日）加開早上9:00販售，售完為止
5936192134,樹德大藥局,臺中市太平區樹德路１０２號１樓,120.7115,24.15386,(04)23981782,羅氏家用新冠病毒抗原自我檢測套組,23,2022/05/09 18:36:34,下午3點開始領號碼牌，分流領取，請勿依賴網站庫存
593620B138,聯生中西健保藥局,臺中市大里區現岱路１５８巷１１號,120.6919,24.10295,(04)24834058,羅氏家用新冠病毒抗原自我檢測套組,9,2022/05/09 18:36:34,早上八點半領號碼牌下午四點到六點領口罩W6W日早七點
5937013570,彰化藥局,彰化縣彰化市永安街２７８、２８０號,120.5438,24.08977,(04)7287877,羅氏家用新冠病毒抗原自我檢測套組,78,2022/05/09 18:36:34,暫停販售
5937031747,大樹和美藥局,彰化縣和美鎮道周路５０１號,120.494,24.10896,(04)7550090,羅氏家用新冠病毒抗原自我檢測套組,2,2022/05/09 18:36:34,快篩實名制，每天16:00開始販售，售完為止。
5937061727,溪湖藥局,彰化縣溪湖鎮西環路３６５、３７１號１樓,120.4771,23.96099,(04)8818617,羅氏家用新冠病毒抗原自我檢測套組,36,2022/05/09 18:36:34,5／8今日實名制快篩因電腦系統關係以發放號碼牌方式，目前號碼牌已經發放完畢
5937181279,佳恩藥局,彰化縣永靖鄉永西村瑚璉路３０２號,120.547,23.92421,(04)8235753,羅氏家用新冠病毒抗原自我檢測套組,14,2022/05/09 18:36:34,快篩實名制 :電話預約制，當日早上9點開始預約（已額滿）
5939010504,桂賓藥局,雲林縣斗六市信義里鎮北路３號,120.5432,23.71143,(05)5332138,羅氏家用新冠病毒抗原自我檢測套組,75,2022/05/09 18:36:34,週五.六.日 休息 沒售快篩
5939012400,陽光藥局,雲林縣斗六市永安路６９號,120.548,23.70923,(05)5362097,羅氏家用新冠病毒抗原自我檢測套組,20,2022/05/09 18:36:34,快篩16:00開賣~現場排隊，請勿電話詢問
5939012526,世明中西藥局,雲林縣斗六市文化路３２４－１號,120.5532,23.71162,(05)5333109,羅氏家用新冠病毒抗原自我檢測套組,5,2022/05/09 18:36:34,口罩販售:於周一到周日營業時間9:00~售完為止，快篩試劑販售:於周一到周六營業時間14:00開賣~售完為止
5939031585,利芳藥局,雲林縣虎尾鎮光復路３１０號,120.4385,23.71011,(05)6311016,羅氏家用新冠病毒抗原自我檢測套組,26,2022/05/09 18:36:34,販賣口罩時間:0830-賣完為止
5939051238,天愛藥局,雲林縣土庫鎮中山路８０號,120.3903,23.6749,(05)6629923,羅氏家用新冠病毒抗原自我檢測套組,7,2022/05/09 18:36:34,無
5939131400,正鴻健保藥局,雲林縣麥寮鄉表福路３５號,120.255,23.74769,(05)6938786,羅氏家用新冠病毒抗原自我檢測套組,1,2022/05/09 18:36:34,周一至周五早上八點到晚上八點，星期六早上八點到下午四點
5940031402,信沅中西藥局,嘉義縣大林鎮西林里０１１鄰中正路４２０號,120.4528,23.60129,(05)2656377,羅氏家用新冠病毒抗原自我檢測套組,78,2022/05/09 18:36:34,每日販售時間:19:00開始，領取排發完為止。
5941010309,鴻達藥局,臺南市新營區民生里復興路１２４號,120.3101,23.3035,(06)6358837,羅氏家用新冠病毒抗原自我檢測套組,2,2022/05/09 18:36:34,無
5941011708,兆豐藥局,臺南市新營區忠政里中正路５７之１６號,120.3162,23.31681,(06)6352205,羅氏家用新冠病毒抗原自我檢測套組,1,2022/05/09 18:36:34,口罩販售時間：星期一~六08:00至售完為止
5941050063,新生藥局,臺南市佳里區新生路８０號１樓,120.1794,23.16106,(06)7224563,羅氏家用新冠病毒抗原自我檢測套組,39,2022/05/09 18:36:34,快篩時段:早上9:00~10:00。晚上7:00~8:00。
5941270163,太子藥局,臺南市仁德區太子里太子路３３８號,120.2577,22.99146,(06)2729906,羅氏家用新冠病毒抗原自我檢測套組,1,2022/05/09 18:36:34,5／9快篩.已售完.
5943031735,愛樂活藥局,屏東縣東港鎮長春一路１１３－１號,120.4594,22.47111,(08)8312388,羅氏家用新冠病毒抗原自我檢測套組,70,2022/05/09 18:36:34,快篩販賣時間: 週一，二，四，五，日 晚上7點開賣，週三，六（有夜市）下午3點開賣 （星期日公休 晚上才會開門喔）
5943050169,新萬安藥局,屏東縣萬丹鄉萬安村萬丹路一段１１３號,120.4894,22.58628,(08)7772035,羅氏家用新冠病毒抗原自我檢測套組,6,2022/05/09 18:36:34,實名制快篩販售時間中午 12:30  至售完
5945012247,和信藥局,花蓮縣花蓮市中福路１３３號,121.6019,23.97208,(03)8330916,羅氏家用新冠病毒抗原自我檢測套組,7,2022/05/09 18:36:34,營業時間:上午8:30至12點.下午17:30至21點，口罩販賣時間12:30開始，現場排隊售完為止
5946080552,伯安健康藥局,臺東縣長濱鄉長濱村１０鄰長濱路１０５號,121.4515,23.31496,(089)832519,羅氏家用新冠病毒抗原自我檢測套組,27,2022/05/09 18:36:34,無
5946101118,伯安藥局,臺東縣池上鄉新生路１１６號,121.2187,23.12315,(089)863585,羅氏家用新冠病毒抗原自我檢測套組,36,2022/05/09 18:36:34,早0800-1200，午1400-1800，晚1800-2000
