醫事機構代碼,醫事機構名稱,醫事機構地址,經度,緯度,醫事機構電話,廠牌項目,快篩試劑截至目前結餘存貨數量,來源資料時間,備註
2340170016,嘉義縣大埔鄉衛生所,嘉義縣大埔鄉大埔村５３－１號,120.5928,23.29397,(05)2521214,羅氏家用新冠病毒抗原自我檢測套組,78,2022/05/08 14:30:02,無
2342270019,高雄市那瑪夏區衛生所,高雄市那瑪夏區瑪雅里６鄰平和巷２５２號,120.7024,23.24708,(07)6701142,羅氏家用新冠病毒抗原自我檢測套組,61,2022/05/08 14:30:02,春節期間正常門診
2343320018,屏東縣獅子鄉衛生所,屏東縣獅子鄉楓林村楓林二巷３１號,120.7057,22.18402,(08)8771324,羅氏家用新冠病毒抗原自我檢測套組,1,2022/05/08 14:30:02,特休日：每年農曆除夕、初一
2344011036,澎湖縣馬公市第三衛生所,澎湖縣馬公市西文里１１８之２號,119.5836,23.56813,(06)9211723,羅氏家用新冠病毒抗原自我檢測套組,109,2022/05/08 14:30:02,本所快篩試劑只提供離島衛生室（虎井、桶盤）販售，時間週一至週五08:30-17:00售完為止，星期六、日國定假日09:00-12:00。
2344030022,澎湖縣白沙鄉鳥嶼衛生所,澎湖縣白沙鄉鳥嶼村漁港新村３號,119.6599,23.66008,(06)9916092,羅氏家用新冠病毒抗原自我檢測套組,62,2022/05/08 14:30:02,非上班時間提供急診服務
2344030031,澎湖縣白沙鄉吉貝衛生所,澎湖縣白沙鄉吉貝村８－１３號,119.6138,23.74056,(06)9911430,羅氏家用新冠病毒抗原自我檢測套組,189,2022/05/08 14:30:02,無
2344050024,澎湖縣望安鄉將軍衛生所,澎湖縣望安鄉將軍村１２鄰將軍澳１之３號,119.5216,23.3615,(06)9902066,羅氏家用新冠病毒抗原自我檢測套組,83,2022/05/08 14:30:02,24小時急診
2344060011,澎湖縣七美鄉衛生所,澎湖縣七美鄉中和村埔內５４號,119.431,23.2041,(06)9971005,羅氏家用新冠病毒抗原自我檢測套組,1,2022/05/08 14:30:02,無
2345080017,衛生福利部花蓮醫院豐濱原住民分院,花蓮縣豐濱鄉豐濱村光豐路４１號,121.5215,23.60195,(03)8358141,羅氏家用新冠病毒抗原自我檢測套組,78,2022/05/08 14:30:02,*本院口罩每天販售，時間自上午8點至晚上9點  *本院週一至週五上下午皆有門診，星期六隔週提供門診，及24小時急診。
5901013200,專品南京藥局,臺北市松山區南京東路４段７３號,121.5532,25.05185,(02)25147685,羅氏家用新冠病毒抗原自我檢測套組,74,2022/05/08 14:30:02,無
5901013648,慶昌藥局,臺北市松山區延吉街２９號１樓,121.5537,25.04595,(02)25770820,羅氏家用新冠病毒抗原自我檢測套組,2,2022/05/08 14:30:02,下午14:00開始發放
5901013700,杏一台北台安藥局,臺北市松山區八德路２段３９９號１樓,121.5465,25.04833,(02)87728295,羅氏家用新冠病毒抗原自我檢測套組,78,2022/05/08 14:30:02,快篩實名制販售時間為每天下午15:00，開賣前10分鐘發放號碼牌，售完為止
5901013719,大樹松山藥局,臺北市松山區民生東路５段１０７號１樓,121.5601,25.05878,(02)27562226,羅氏家用新冠病毒抗原自我檢測套組,78,2022/05/08 14:30:02,快篩實名制，每天16:00開始販售，售完為止。
5901013737,全欣藥局,臺北市松山區復興北路７３號２樓,121.5442,25.05104,(02)87729066,羅氏家用新冠病毒抗原自我檢測套組,73,2022/05/08 14:30:02,9:00am開始販售30人份15:00販售30人份:18:00販售17人份；週六:9:00販售39人份；週日:15:00販售39人份....排隊人數滿會先發號碼
5901023411,長虹藥局,臺北市大安區忠孝東路４段２１６巷 ６３號,121.5531,25.0382,(02)27210232,羅氏家用新冠病毒抗原自我檢測套組,38,2022/05/08 14:30:02,週一-週日2:30pm 發實名制快篩（現場排隊領號碼牌，依序購買，過號請重新排隊）
5901024678,大安健康人生藥局,臺北市大安區信義路４段３４號,121.5447,25.03316,(02)27025553,羅氏家用新冠病毒抗原自我檢測套組,78,2022/05/08 14:30:02,快篩發放時間:下午3點開始發放號碼牌，並依序入場購買，請協助自備紙鈔
5901024721,麗泰藥局,臺北市大安區復興南路２段１５１巷４號,121.544,25.02832,(02)27079595,羅氏家用新冠病毒抗原自我檢測套組,21,2022/05/08 14:30:02,每天到貨時間不定，到貨後即公告開賣
5901025059,博醫仁愛藥局,臺北市大安區仁愛路４段８巷２號１樓,121.5443,25.0375,(02)27019107,羅氏家用新冠病毒抗原自我檢測套組,3,2022/05/08 14:30:02,每天11:30發號碼牌，12:00~15:00憑號碼牌與健保卡購買實名制快篩
5901091857,佳禾藥局,臺北市大同區大龍街２６２號,121.5158,25.07061,(02)25953806,羅氏家用新冠病毒抗原自我檢測套組,78,2022/05/08 14:30:02,無
5901092130,大同民生藥局,臺北市大同區民生西路１２８號１樓、２樓及１３０號１樓、２樓,121.5191,25.05734,(02)25558886,羅氏家用新冠病毒抗原自我檢測套組,78,2022/05/08 14:30:02,快篩實名制，每天16:00開始販售，售完為止。
5901100155,大信藥局,臺北市中山區林森北路１５９巷６號,121.5255,25.0517,(02)25719080,羅氏家用新冠病毒抗原自我檢測套組,1,2022/05/08 14:30:02,無
5901100333,明美藥局,臺北市中山區長春路６９號,121.5266,25.05502,(02)25365419,羅氏家用新冠病毒抗原自我檢測套組,21,2022/05/08 14:30:02,口罩周一至周五，16:30-18:30販售
5901100440,優豐藥局,臺北市中山區民生東路１段３２號,121.5242,25.05794,(02)25602565,羅氏家用新冠病毒抗原自我檢測套組,78,2022/05/08 14:30:02,下午3點現場作業不分發號碼牌
5901102686,富宥康藥局,臺北市中山區北安路６０８巷５弄２２號,121.5496,25.08263,(02)25325277,羅氏家用新冠病毒抗原自我檢測套組,20,2022/05/08 14:30:02,無
5901103423,農安藥局,臺北市中山區農安街１８之１號,121.5248,25.06483,(02)25959293,羅氏家用新冠病毒抗原自我檢測套組,39,2022/05/08 14:30:02,快篩2點發號碼牌 3點後來拿
5901103629,十二願藥局,臺北市中山區林森北路３０９號,121.5256,25.05588,(02)25311223,羅氏家用新冠病毒抗原自我檢測套組,75,2022/05/08 14:30:02,快篩晚上8點開始發放.營業時間下午1點至凌晨3點
5901103745,吉林藥局,臺北市中山區吉林路３７１號（１樓）,121.5305,25.06511,(02)25865990,羅氏家用新冠病毒抗原自我檢測套組,78,2022/05/08 14:30:02,快篩實名制，每天16:00開始販售，售完為止。
5901103781,龍江台安藥局,臺北市中山區龍江路２４７號（１樓）,121.5408,25.05862,(02)25091007,羅氏家用新冠病毒抗原自我檢測套組,1,2022/05/08 14:30:02,實名制快篩下午2:00開始拿號碼牌
5901103807,專品龍江藥局,臺北市中山區龍江路３１１號１樓,121.5409,25.06127,(02)25178870,羅氏家用新冠病毒抗原自我檢測套組,78,2022/05/08 14:30:02,實名制快篩下午三點開始發號碼牌販售
5901112995,昇龍藥局,臺北市內湖區東湖路１５１號,121.6174,25.0681,(02)26316783,羅氏家用新冠病毒抗原自我檢測套組,2,2022/05/08 14:30:02,營業時間為早上8點到晚上10點；實名制快篩於每日下午一點前領取，​但若排隊人數已超過數量，將視情況提早發放。
5901113018,桔子藥局,臺北市內湖區內湖路２段３３３號,121.5917,25.08319,(02)27930052,羅氏家用新冠病毒抗原自我檢測套組,78,2022/05/08 14:30:02,早0900-1200，午1400-1700，晚1900-2100
5901113438,晶龍藥局,臺北市內湖區成功路４段２１８號,121.5961,25.08456,(02)27956255,羅氏家用新冠病毒抗原自我檢測套組,3,2022/05/08 14:30:02,快篩試劑販售時間:星期一~六下午2:30 售完為止
5901113723,杏一港墘藥局,臺北市內湖區港墘路８３號（１樓）,121.5781,25.08078,(02)87978746,羅氏家用新冠病毒抗原自我檢測套組,78,2022/05/08 14:30:02,無
5901121734,湳港藥局,臺北市南港區研究院路１段１０１巷１２號,121.6167,25.05175,(02)27892200,羅氏家用新冠病毒抗原自我檢測套組,77,2022/05/08 14:30:02,週一至週日，2:30開賣（政府有配送的況狀下）（沒有發放號碼牌），售完為止
5901121985,勝安藥局,臺北市南港區舊莊街１段１６５號,121.6211,25.03949,(02)27828450,羅氏家用新冠病毒抗原自我檢測套組,36,2022/05/08 14:30:02,實名制快篩晚上21:00提供，倘提早額滿且經現場排隊者全體同意，則即時銷售 5／8正常
5901122080,成福大藥局,臺北市南港區成福路８號,121.5859,25.04578,(02)27859221,羅氏家用新冠病毒抗原自我檢測套組,107,2022/05/08 14:30:02,無
5901150342,士林三安藥局,臺北市士林區大南路１１號,121.526,25.08898,(02)28812631,羅氏家用新冠病毒抗原自我檢測套組,68,2022/05/08 14:30:02,無
5901150548,田倉藥局,臺北市士林區士東路１２４號,121.5302,25.11219,(02)88662188,羅氏家用新冠病毒抗原自我檢測套組,78,2022/05/08 14:30:02,每日19:00（傍晚7點）開始販售.
5901152453,家赫藥局,臺北市士林區忠義街８０號１樓,121.5317,25.10614,(02)28346453,羅氏家用新冠病毒抗原自我檢測套組,78,2022/05/08 14:30:02,每日下午2:40開始發號碼牌販售實名制快篩
5901152471,得安藥局,臺北市士林區文林路１４０號,121.5267,25.08878,(02)28836336,羅氏家用新冠病毒抗原自我檢測套組,78,2022/05/08 14:30:02,星期三五六下午3:30---10:00   星期二 四日下午5:00--10:00
5901153272,光榮藥局,臺北市士林區社中街１１８號,121.5103,25.0899,(02)28136060,羅氏家用新冠病毒抗原自我檢測套組,78,2022/05/08 14:30:02,實名制快篩販售時間~下午兩點半（14:30）開始販售~另外若當日未收到快篩無法販售會公告，謝謝大家~
5901153432,大南春天生活藥局,臺北市士林區大南路３１７、３１９號,121.518,25.08888,(02)28882196,羅氏家用新冠病毒抗原自我檢測套組,78,2022/05/08 14:30:02,本藥局可領慢箋 快篩是下午3點開始販售 售完為止（物流無配送&配送不及例外）
5901153521,天母台安藥局,臺北市士林區天母西路３４號,121.5262,25.11835,(02)28728017,羅氏家用新冠病毒抗原自我檢測套組,78,2022/05/08 14:30:02,有配送→每日下午2:30開始販售實
5901153825,太和堂中西藥局,臺北市士林區大東路７４號（實際使用：１樓）,121.5257,25.09037,(02)28814122,羅氏家用新冠病毒抗原自我檢測套組,1,2022/05/08 14:30:02,上午8:30現場領號碼牌。週日公休
5901153941,士東藥局,臺北市士林區士東路９１巷３號,121.5291,25.11256,(02)28760588,羅氏家用新冠病毒抗原自我檢測套組,78,2022/05/08 14:30:02,快篩實名制，每天16:00開始販售，售完為止。
5901154000,文昌大藥局,臺北市士林區文昌路７２號１樓,121.5213,25.09634,(02)28376196,羅氏家用新冠病毒抗原自我檢測套組,51,2022/05/08 14:30:02,1.周一至周日下午15:00販售實名制快篩，請自備零錢 2.每日提供18份，讓醫護警消憑證購買，請pm14:30前來
5901161934,康揚藥局,臺北市北投區中和街３２２號,121.4998,25.14108,(02)28946520,羅氏家用新冠病毒抗原自我檢測套組,23,2022/05/08 14:30:02,（ 實名制快篩發放時間: 14:00~16:00）
5901162477,長宜藥局,臺北市北投區自強街１１２號,121.5155,25.11074,(02)28216605,羅氏家用新冠病毒抗原自我檢測套組,13,2022/05/08 14:30:02,實名制快篩試劑發放時間:14:00~售完為止，會依政府配送狀況調整
5901173694,洪暘藥局,臺北市信義區富陽街８６號,121.5564,25.02127,(02)27337099,羅氏家用新冠病毒抗原自我檢測套組,2,2022/05/08 14:30:02,下午2點開始販售，限一人持一張健保卡。
5901173710,專品光復藥局,臺北市信義區光復南路４６７之１號,121.5577,25.03384,(02)27586682,羅氏家用新冠病毒抗原自我檢測套組,75,2022/05/08 14:30:02,禮拜一到六下午三點販售口罩
5901173872,柏愛藥局,臺北市信義區基隆路２段１３１之９號,121.5567,25.02788,(02)27325472,羅氏家用新冠病毒抗原自我檢測套組,1,2022/05/08 14:30:02,國定假日營業時間為09:30-17:30；實名制快篩09:30開賣
5901174084,市政藥局,臺北市信義區忠孝東路５段１６９號１樓、１７１號１樓,121.5688,25.0412,(02)27560050,羅氏家用新冠病毒抗原自我檢測套組,78,2022/05/08 14:30:02,快篩實名制，每天16:00開始販售，售完為止。
5901184080,活力健康藥妝藥局,臺北市中正區中華路２段３１５巷１號,121.5062,25.02795,(02)23392625,羅氏家用新冠病毒抗原自我檢測套組,17,2022/05/08 14:30:02,快篩14:00-15:00， 建議提早排隊
5901184366,宏越藥局,臺北市中正區中華路２段３１３巷４號,121.5061,25.02813,(02)23050880,羅氏家用新冠病毒抗原自我檢測套組,78,2022/05/08 14:30:02,代售實名制快篩時間 每日下午14:30開始  售完即停止  可關注FB公告當日是否代售
5901184679,汀州藥局,臺北市中正區汀州路１段１８７、１８９、１９１號（１樓）,121.5112,25.02704,(02)23090705,羅氏家用新冠病毒抗原自我檢測套組,78,2022/05/08 14:30:02,快篩實名制，每天16:00開始販售，售完為止。
5901192180,康之友藥局,臺北市萬華區青年路２０號,121.5055,25.02592,(02)23011598,羅氏家用新冠病毒抗原自我檢測套組,1,2022/05/08 14:30:02,下午兩點發號碼牌
5901192546,躍獅西園藥局,臺北市萬華區西園路２段２６０號,121.4946,25.02784,(02)23094063,羅氏家用新冠病毒抗原自我檢測套組,15,2022/05/08 14:30:02,快篩販售時段：下午2點至售完為止（政府正常配貨的情況下，現場排隊）
5901201568,康宜庭生活藥局,臺北市文山區興隆路４段６４號,121.5613,24.98514,(02)29385363,羅氏家用新冠病毒抗原自我檢測套組,9,2022/05/08 14:30:02,實名快篩14:00開賣 現場排隊
5901201835,巧康藥局,臺北市文山區木新路３段２６２、２６４號,121.5585,24.98132,(02)29372061,羅氏家用新冠病毒抗原自我檢測套組,36,2022/05/08 14:30:02,每日下午2點發放號碼牌，2點15進行快篩販售。請勿離場，離場視同放棄。
5901202654,康宜庭萬隆藥局,臺北市文山區羅斯福路５段２０２號,121.5384,25.00322,(02)29348662,羅氏家用新冠病毒抗原自我檢測套組,5,2022/05/08 14:30:02,實名快篩中午才到貨   每日下午14:00準時開賣（建議13:00來排隊）
5901202949,萬隆大藥局,臺北市文山區羅斯福路５段２１８巷１５號,121.538,25.00203,(02)29334580,羅氏家用新冠病毒抗原自我檢測套組,87,2022/05/08 14:30:02,9：00~23：00
5901203062,大樹文山藥局,臺北市文山區興隆路３段１３號（１、２、３樓）,121.555,25.00088,(02)29342226,羅氏家用新冠病毒抗原自我檢測套組,78,2022/05/08 14:30:02,快篩實名制，每天16:00開始販售，售完為止。
5901203366,大樹木柵藥局,臺北市文山區木柵路３段１０８號、１１０號（１樓、２樓）,121.5676,24.98866,(02)22340110,羅氏家用新冠病毒抗原自我檢測套組,78,2022/05/08 14:30:02,快篩實名制，每天16:00開始販售，售完為止。
5901203375,大樹景美藥局,臺北市文山區羅斯福路６段２３４之１號,121.5404,24.99244,(02)29322951,羅氏家用新冠病毒抗原自我檢測套組,78,2022/05/08 14:30:02,快篩實名制，每天16:00開始販售，售完為止。
5901203400,富康活力睦新藥局,臺北市文山區木新路３段２１６號,121.5595,24.98153,(02)29393666,羅氏家用新冠病毒抗原自我檢測套組,20,2022/05/08 14:30:02,無
5901203419,康宜庭興隆藥局,臺北市文山區興隆路３段２００號１樓,121.559,24.99779,(02)22304866,羅氏家用新冠病毒抗原自我檢測套組,3,2022/05/08 14:30:02,無
5901203446,景華盛康藥局,臺北市文山區景華街６９號１樓,121.545,24.99524,(02)29310188,羅氏家用新冠病毒抗原自我檢測套組,77,2022/05/08 14:30:02,快篩販售時間:下午3點開賣，現場發送號碼牌
5901203482,健康家藥局,臺北市文山區興隆路２段１３３號１樓,121.5481,25.00011,(02)29330858,羅氏家用新冠病毒抗原自我檢測套組,1,2022/05/08 14:30:02,實名制快篩下午一點開始販售，5／1店休
5902030287,慈德藥局,高雄市左營區重愛路５３號,120.3186,22.68308,(07)3416212,羅氏家用新冠病毒抗原自我檢測套組,49,2022/05/08 14:30:02,快篩發放時間:週一至周六:上午9點至12點.週日下午2點半至5點；請自備剛好的錢.不用找錢.以利流程
5902030643,新高橋藥局,高雄市左營區民族一路１０２８號,120.3201,22.68255,(07)3100696,羅氏家用新冠病毒抗原自我檢測套組,68,2022/05/08 14:30:02,依快篩配送時間滾動式調整（5／6早10:00），請備妥當日可領買之健保卡與現金500元購買，不找零，0號是雙號，謝謝配合
5902050565,澄和藥局,高雄市三民區澄和路６６號,120.3445,22.64474,(07)3923111,羅氏家用新冠病毒抗原自我檢測套組,4,2022/05/08 14:30:02,快篩試劑- 販售時間自下午14:00起至售完為止
5902051240,明皇藥局,高雄市三民區寶國里義華路１８１號,120.3399,22.64276,(07)3860121,羅氏家用新冠病毒抗原自我檢測套組,77,2022/05/08 14:30:02,藥局販售口罩時間，依藥局門口公告時間為主（售完為止）
5902085308,幸福藥師藥局,高雄市苓雅區青年一路１６７－３號,120.3079,22.62172,(07)5368701,羅氏家用新冠病毒抗原自我檢測套組,39,2022/05/08 14:30:02,1: 自111／5／1起：快篩販售時間為14:00開始。2: 販售方式依現場公告為主，售完為止。
5902090827,博平藥局,高雄市前鎮區草衙二路３７７號,120.3224,22.57808,(07)8311814,羅氏家用新冠病毒抗原自我檢測套組,3,2022/05/08 14:30:02,下午2點開始販售快篩.售完為止
5902092910,健家藥局,高雄市前鎮區二聖二路４５號,120.3165,22.61293,(07)3389986,羅氏家用新冠病毒抗原自我檢測套組,1,2022/05/08 14:30:02,早上9:30營業，售完為止
5903010127,友誠藥局,臺中市豐原區豐東路４０１號１樓,120.7336,24.25457,(04)25132371,羅氏家用新冠病毒抗原自我檢測套組,22,2022/05/08 14:30:02,禮拜一至禮拜日快篩發放時間下午兩點開始販售，售完為止。
5903010261,豐原西勢藥局,臺中市豐原區西勢路２００號１樓,120.7067,24.24379,(04)25262330,羅氏家用新冠病毒抗原自我檢測套組,32,2022/05/08 14:30:02,今日快篩下午2:00開賣，1:50發號碼牌，因疫情無法店內排隊，不便之處敬請見諒。
5903010485,大樹圓環藥局,臺中市豐原區圓環東路６１７號１樓,120.7283,24.25084,(04)25122212,羅氏家用新冠病毒抗原自我檢測套組,78,2022/05/08 14:30:02,口罩販售時間：14:00 - 16:00
5903010547,佑全豐原中正藥局,臺中市豐原區中正路２２３、２２５號１、２樓,120.7175,24.25179,(04)25152886,羅氏家用新冠病毒抗原自我檢測套組,25,2022/05/08 14:30:02,實名制快篩販售時間:下午2點開始（13:50發號碼牌）
5903010556,升禾和大藥局,臺中市豐原區育英路２６號１樓,120.7163,24.24346,(04)25293099,羅氏家用新冠病毒抗原自我檢測套組,78,2022/05/08 14:30:02,快篩試劑18:00領取.採現場排隊.售完為止
5903010583,林居藥局,臺中市豐原區源豐路１１４號１樓,120.7173,24.25367,(04)25159168,羅氏家用新冠病毒抗原自我檢測套組,5,2022/05/08 14:30:02,快篩依當天物流送貨時間， 會在 FB林居藥局 公告販售時間， 謝謝
5903020034,國良豐藥局,臺中市東勢區豐勢路２１號１樓,120.8318,24.24779,(04)25885778,羅氏家用新冠病毒抗原自我檢測套組,2,2022/05/08 14:30:02,快篩試劑下午2:00開始
5903060092,佑全梧棲文化藥局,臺中市梧棲區文化路二段１５０號１樓,120.531,24.25526,(04)26566433,羅氏家用新冠病毒抗原自我檢測套組,1,2022/05/08 14:30:02,實名快篩下午1：50發號碼牌；14：00開始販售
5903070169,佑全后里甲后藥局,臺中市后里區甲后路一段７２８號１、２樓,120.7193,24.30951,(04)25583116,羅氏家用新冠病毒抗原自我檢測套組,21,2022/05/08 14:30:02,實名制快篩每日14:00販售。13:50發放號碼牌。
5903080138,佑全神岡中山藥局,臺中市神岡區中山路５４９、５４９之１、５４９之２號１樓,120.6842,24.24638,(04)25634677,羅氏家用新冠病毒抗原自我檢測套組,1,2022/05/08 14:30:02,每日下午1點50分發號碼牌2點開賣
5903090429,佑全潭子中山藥局,臺中市潭子區中山路一段９之１號,120.7023,24.18847,(04)25356140,羅氏家用新冠病毒抗原自我檢測套組,6,2022/05/08 14:30:02,營業時間:09:00-21:00／健保實聯制購買時間:14:00開始販售，13:50開始發號碼牌，售完為止。
5903100046,躍獅佑仁藥局,臺中市大雅區雅環路２段２８７號,120.6488,24.22919,(04)25608256,羅氏家用新冠病毒抗原自我檢測套組,78,2022/05/08 14:30:02,家用快篩販售-星期一~星期五 晚上7點（19:00）開始.時間更新異動請參閱粉專
5903100135,大雅安德藥局,臺中市大雅區中清東路２２９號１樓,120.6469,24.22459,(04)25604133,羅氏家用新冠病毒抗原自我檢測套組,1,2022/05/08 14:30:02,5／8（日）。實名制快篩13:30領取號碼牌，14:00販賣，不找零，每張卡隔一個月買一次，限每人一卡一份
5903100215,佑全大雅雅環藥局,臺中市大雅區雅環路二段８８號１樓,120.653,24.22634,(04)25605942,羅氏家用新冠病毒抗原自我檢測套組,11,2022/05/08 14:30:02,營業時間:09:00~21:00；實名制快篩於每日13:50發放號碼牌，14:00開始販售。
5903150144,佑全台中烏日藥局,臺中市烏日區中山路一段３５４號１樓,120.6386,24.10816,(04)23367756,羅氏家用新冠病毒抗原自我檢測套組,2,2022/05/08 14:30:02,實名制快篩販售時間：下午2點（請準備剛好500元，謝謝配合）
5903150153,溪南藥局,臺中市烏日區溪南路一段５６５號１樓,120.6431,24.07523,(04)23353666,羅氏家用新冠病毒抗原自我檢測套組,78,2022/05/08 14:30:02,快篩實名制，每天16:00開始販售，售完為止。
5903150180,九德藥局,臺中市烏日區中山路一段４３８、４４０號１樓,120.6365,24.10748,(04)23385456,羅氏家用新冠病毒抗原自我檢測套組,78,2022/05/08 14:30:02,快篩實名制，每天16:00開始販售，售完為止。
5903160088,必安藥局,臺中市大肚區沙田路二段６３４號,120.5455,24.15084,(04)26992116,羅氏家用新冠病毒抗原自我檢測套組,79,2022/05/08 14:30:02,**限購1份**早上8點販售**每天固定78份，非156**
5903170119,開心果藥局,臺中市龍井區新興路１１２號１樓,120.5835,24.18225,(04)26315252,羅氏家用新冠病毒抗原自我檢測套組,77,2022/05/08 14:30:02,週一到週六: 晚上6點半開賣，週日: 下午3點開賣，現場排隊。
5903180142,峰正藥局,臺中市霧峰區中正路８３０號１樓,120.6987,24.06244,(04)23303353,羅氏家用新冠病毒抗原自我檢測套組,78,2022/05/08 14:30:02,快篩實名制，每天16:00開始販售，售完為止。
5903190148,亞洲藥師連鎖大藥局,臺中市太平區中山路２段４５８號,120.7253,24.14984,(04)23921681,羅氏家用新冠病毒抗原自我檢測套組,77,2022/05/08 14:30:02,實名制快篩，每天14:30開賣，一人一卡，請自備500元
5903190362,太平中山藥局,臺中市太平區中山路４段１１號,120.7139,24.14931,(04)23959200,羅氏家用新冠病毒抗原自我檢測套組,78,2022/05/08 14:30:02,快篩實名制，每天16:00開始販售，售完為止。
5903200176,聖康藥局,臺中市大里區立仁路７９號１樓,120.7036,24.1078,(04)22700625,羅氏家用新冠病毒抗原自我檢測套組,7,2022/05/08 14:30:02,星期一到六 早上9點營業 星期日下午2點營業
5903200229,信元藥局,臺中市大里區益民路２段３７２號１樓,120.684,24.11545,(04)24876051,羅氏家用新冠病毒抗原自我檢測套組,38,2022/05/08 14:30:02,下午5點發號碼牌並依序販賣
5903200514,大明永欣藥局,臺中市大里區大明路５３９號１樓、５４１號１樓,120.6735,24.11478,(04)24068864,羅氏家用新冠病毒抗原自我檢測套組,12,2022/05/08 14:30:02,實名制快篩每天下午2點開始發號碼牌
5903200541,大里康媞藥局,臺中市大里區塗城路４９４號,120.7024,24.08867,(04)24966627,羅氏家用新冠病毒抗原自我檢測套組,7,2022/05/08 14:30:02,快篩下午兩點開始
5903200596,大樹大里藥局,臺中市大里區中興路二段１０１號,120.6885,24.10305,(04)24861133,羅氏家用新冠病毒抗原自我檢測套組,78,2022/05/08 14:30:02,快篩實名制，每天16:00開始販售，售完為止。
5903200621,德芳東榮藥局,臺中市大里區東榮路８號,120.6893,24.1102,(04)24863898,羅氏家用新冠病毒抗原自我檢測套組,78,2022/05/08 14:30:02,快篩販售時間：下午3點~6點，現場排隊，完售即停
5903200685,塗城藥局,臺中市大里區中興路一段１８７、１８９、１９１號１樓,120.6933,24.09008,(04)24967234,羅氏家用新冠病毒抗原自我檢測套組,78,2022/05/08 14:30:02,快篩實名制，每天16:00開始販售，售完為止。
5903200701,大益藥局,臺中市大里區益民路二段３３５號１、２樓,120.6837,24.11311,(04)24811551,羅氏家用新冠病毒抗原自我檢測套組,78,2022/05/08 14:30:02,快篩實名制，每天16:00開始販售，售完為止。
5903200756,佑全大里大明藥局,臺中市大里區大明路３６０、３６２號,120.6787,24.11511,(04)24818633,羅氏家用新冠病毒抗原自我檢測套組,38,2022/05/08 14:30:02,實名制快篩，開賣時間:下午14:00，售完為止
5903240447,大樹五權藥局,臺中市西區五權路９７－１號１樓,120.6717,24.14626,(04)22022910,羅氏家用新冠病毒抗原自我檢測套組,78,2022/05/08 14:30:02,快篩實名制，每天16:00開始販售，售完為止。
5903240474,佑全台中向上藥局,臺中市西區向上路一段３８６、３８８號１樓,120.6559,24.14688,(04)23204732,羅氏家用新冠病毒抗原自我檢測套組,6,2022/05/08 14:30:02,因政府配貨時間不一，依照門市現場公告時間為主
5903250381,大樹美村藥局,臺中市南區美村南路１２４號,120.667,24.11499,(04)22621113,羅氏家用新冠病毒抗原自我檢測套組,78,2022/05/08 14:30:02,口罩販售時間：14:00 - 16:00
5903250443,千美台安藥局,臺中市南區美村南路２６３號,120.6666,24.11426,(04)22602101,羅氏家用新冠病毒抗原自我檢測套組,71,2022/05/08 14:30:02,周一到周日，下午2:30開始販售居家快篩
5903260341,台中漢口藥局,臺中市北區漢口路３段１８３號,120.6711,24.16703,(04)22936166,羅氏家用新冠病毒抗原自我檢測套組,2,2022/05/08 14:30:02,實名制快篩販售時間每天下午2點~售完為止
5903260476,康媞藥局,臺中市北區北平路二段１２８號１樓,120.6774,24.17124,(04)22925388,羅氏家用新冠病毒抗原自我檢測套組,12,2022/05/08 14:30:02,無
5903260663,佑全台中五權藥局,臺中市北區五權路４９６號,120.6833,24.15329,(04)22080702,羅氏家用新冠病毒抗原自我檢測套組,2,2022/05/08 14:30:02,因政府配貨時間不一，依照門市現場公告時間為主
5903260958,健康達人藥局,臺中市北區北平路２段５６號１樓,120.6735,24.17153,(04)22994866,羅氏家用新冠病毒抗原自我檢測套組,12,2022/05/08 14:30:02,快篩實名制，每天中午2:00開始販售，售完為止。
5903261008,台中大樹藥局,臺中市北區漢口路三段２６１號,120.6726,24.16703,(04)22981113,羅氏家用新冠病毒抗原自我檢測套組,78,2022/05/08 14:30:02,快篩實名制，每天16:00開始販售，售完為止。
5903270614,至善德侑藥局,臺中市西屯區至善路６０號,120.6395,24.17141,(04)24518729,羅氏家用新冠病毒抗原自我檢測套組,37,2022/05/08 14:30:02,實名制快篩下午14:00開始發號碼牌.14:15開始販售
5903270883,祥和大藥局,臺中市西屯區青海路二段２４０－９號,120.6418,24.17323,(04)27000122,羅氏家用新冠病毒抗原自我檢測套組,3,2022/05/08 14:30:02,快篩下午1:00發放
5903271022,西屯藥局,臺中市西屯區西屯路三段１５０－４５號１樓,120.621,24.18716,(04)24621822,羅氏家用新冠病毒抗原自我檢測套組,78,2022/05/08 14:30:02,快篩實名制，每天16:00開始販售，售完為止。
5903271175,維康中榮藥局,臺中市西屯區東大路一段１３號１樓,120.6022,24.18315,(04)23593195,羅氏家用新冠病毒抗原自我檢測套組,78,2022/05/08 14:30:02,無
5903271193,何安藥局,臺中市西屯區西屯路二段１０１號Ｂ棟１樓,120.6531,24.16616,(04)23161110,羅氏家用新冠病毒抗原自我檢測套組,78,2022/05/08 14:30:02,快篩實名制，每天16:00開始販售，售完為止。
5903271291,西屯長安藥局,臺中市西屯區成都路３６８號１樓,120.6641,24.17322,(04)22981221,羅氏家用新冠病毒抗原自我檢測套組,78,2022/05/08 14:30:02,快篩實名制，每天16:00開始販售，售完為止。
5903280325,亞洲連鎖大藥局,臺中市南屯區黎明路２段１３３、１３５號,120.6336,24.15977,(04)23812886,羅氏家用新冠病毒抗原自我檢測套組,33,2022/05/08 14:30:02,下午1 : 50 前發放號碼牌， 2:00 開始發放快篩， 售完為止!
5903280576,佑全黎明藥局,臺中市南屯區黎明路２段２６６號,120.6359,24.14816,(04)23805560,羅氏家用新冠病毒抗原自我檢測套組,2,2022/05/08 14:30:02,實名制快篩販售時間為每日下午兩點，一點50分發放號碼牌
5903280585,康得藥局,臺中市南屯區向上路三段４５號,120.6354,24.14623,(04)23820981,羅氏家用新冠病毒抗原自我檢測套組,78,2022/05/08 14:30:02,.5／8（日）下午3點開始販售實名制快篩試劑
5903280807,大樹南屯藥局,臺中市南屯區向上路一段６４３號１樓,120.6486,24.14659,(04)24758887,羅氏家用新冠病毒抗原自我檢測套組,77,2022/05/08 14:30:02,快篩實名制，每天16:00開始販售，售完為止。
5903290661,康博中西健保藥局,臺中市北屯區后庄一街７號１樓,120.6644,24.1865,(04)24252468,羅氏家用新冠病毒抗原自我檢測套組,1,2022/05/08 14:30:02,快篩下午01:00發售53份；晚上06:00銷售25份.週六.日及假日下午06:30開始依配送滾動調整
5903290803,英全藥局,臺中市北屯區北平路三段３４號,120.6803,24.17105,(04)22345179,羅氏家用新冠病毒抗原自我檢測套組,2,2022/05/08 14:30:02,營業時間早上8點到晚上11點  快篩試劑購買時間下午14點
5903290876,北屯軍功藥局,臺中市北屯區軍功路一段７５２號,120.7193,24.17513,(04)24375111,羅氏家用新冠病毒抗原自我檢測套組,78,2022/05/08 14:30:02,快篩實名制，每天16:00開始販售，售完為止。
5903290929,微笑藥局,臺中市北屯區昌平路一段３１８號１樓,120.6907,24.17344,(04)22432699,羅氏家用新冠病毒抗原自我檢測套組,77,2022/05/08 14:30:02,【快篩試劑】下午2:30起~現場排隊~
5903290947,德寶健保藥局,臺中市北屯區熱河路一段７０號１樓,120.687,24.1674,(04)22325511,羅氏家用新冠病毒抗原自我檢測套組,22,2022/05/08 14:30:02,下午二點開始販賣快篩試劑
5903290983,祥和藥局,臺中市北屯區太原路三段１４７號１樓,120.6901,24.16507,(04)22369603,羅氏家用新冠病毒抗原自我檢測套組,24,2022/05/08 14:30:02,快篩販售：下午2點開始
5903291042,全成北屯藥局,臺中市北屯區北屯路４３９－１１號１樓,120.7004,24.17913,(04)22463518,羅氏家用新冠病毒抗原自我檢測套組,76,2022/05/08 14:30:02,快篩每日下午3:00開始販售
5903291060,大樹北屯藥局,臺中市北屯區松竹路二段４１１號１樓,120.6895,24.18192,(04)22422262,羅氏家用新冠病毒抗原自我檢測套組,78,2022/05/08 14:30:02,快篩實名制，每天16:00開始販售，售完為止。
5903291131,兩隻老虎藥局,臺中市北屯區崇德路２段１２號１樓,120.6855,24.16869,(04)22364635,羅氏家用新冠病毒抗原自我檢測套組,20,2022/05/08 14:30:02,營業時間早上九點到晚上九點半（快篩下午兩點開賣）
5903291140,興安藥局,臺中市北屯區興安路二段５２號１、２樓,120.6949,24.1762,(04)22460369,羅氏家用新冠病毒抗原自我檢測套組,78,2022/05/08 14:30:02,快篩實名制，每天16:00開始販售，售完為止。
5903291220,佑全台中四平藥局,臺中市北屯區四平路３６０號１樓,120.682,24.19324,(04)24212792,羅氏家用新冠病毒抗原自我檢測套組,78,2022/05/08 14:30:02,無
5905010250,大樹新營藥局,臺南市新營區民權路７４、７６、７８號１樓,120.3127,23.30615,(06)6328300,羅氏家用新冠病毒抗原自我檢測套組,78,2022/05/08 14:30:02,快篩實名制，每天16:00開始販售，售完為止。
5905030092,大樹白河藥局,臺南市白河區中山路１５３號１樓,120.417,23.35255,(06)6830006,羅氏家用新冠病毒抗原自我檢測套組,78,2022/05/08 14:30:02,快篩實名制，每天16:00開始販售，售完為止。
5905040141,大樹麻豆藥局,臺南市麻豆區中山路４８、５０號１樓,120.2469,23.18382,(06)5716556,羅氏家用新冠病毒抗原自我檢測套組,78,2022/05/08 14:30:02,快篩實名制，每天16:00開始販售，售完為止。
5905050058,佳里啄木鳥藥局,臺南市佳里區延平路７６號１樓,120.1795,23.15507,(06)7236396,羅氏家用新冠病毒抗原自我檢測套組,15,2022/05/08 14:30:02,下午2點-售完為止（若當天配送延誤，時間另行公布）
5905050165,德昌藥局佳里店,臺南市佳里區光復路２３３號,120.1746,23.16095,(06)7232388,羅氏家用新冠病毒抗原自我檢測套組,60,2022/05/08 14:30:02,固定周一至周六14:30開始販售口罩，售完為止
5905050209,大樹佳里藥局,臺南市佳里區延平路２３７號１樓,120.1783,23.1599,(06)7231323,羅氏家用新冠病毒抗原自我檢測套組,78,2022/05/08 14:30:02,快篩實名制，每天16:00開始販售，售完為止。
5905060198,大樹新化藥局,臺南市新化區中正路５３１號１樓,120.3072,23.03764,(06)5901331,羅氏家用新冠病毒抗原自我檢測套組,78,2022/05/08 14:30:02,快篩實名制，每天16:00開始販售，售完為止。
5905070050,晶德昌藥局,臺南市善化區文光里中山路８５號,120.3034,23.13298,(06)5856141,羅氏家用新冠病毒抗原自我檢測套組,52,2022/05/08 14:30:02,14:30-16:00.依號碼牌售完為止
5905070121,大樹善化藥局,臺南市善化區民權路５４、５６、５８號１樓,120.3034,23.1322,(06)5830550,羅氏家用新冠病毒抗原自我檢測套組,78,2022/05/08 14:30:02,快篩實名制，每天16:00開始販售，售完為止。
5905080056,大樹學甲藥局,臺南市學甲區中正路１３５號１樓,120.1793,23.23029,(06)7820001,羅氏家用新冠病毒抗原自我檢測套組,78,2022/05/08 14:30:02,快篩實名制，每天16:00開始販售，售完為止。
5905140011,振安藥局,臺南市官田區隆田里中山路一段６０號,120.3178,23.1929,(06)5791810,羅氏家用新冠病毒抗原自我檢測套組,59,2022/05/08 14:30:02,無
5905140039,安安藥局隆田店,臺南市官田區中山路一段１５號１樓,120.3186,23.1927,(06)5795705,羅氏家用新冠病毒抗原自我檢測套組,80,2022/05/08 14:30:02,全日口罩販賣
5905200085,大樹新市藥局,臺南市新市區中正路４９、５１號１樓,120.2916,23.07223,(06)5892552,羅氏家用新冠病毒抗原自我檢測套組,78,2022/05/08 14:30:02,快篩實名制，每天16:00開始販售，售完為止。
5905270176,大樹仁德藥局,臺南市仁德區中正路二段１１５２號１樓,120.2519,22.97062,(06)2797466,羅氏家用新冠病毒抗原自我檢測套組,78,2022/05/08 14:30:02,快篩實名制，每天16:00開始販售，售完為止。
5905290034,大樹關廟藥局,臺南市關廟區中央路２６３號１樓,120.3272,22.96109,(06)5965889,羅氏家用新冠病毒抗原自我檢測套組,78,2022/05/08 14:30:02,快篩實名制，每天16:00開始販售，售完為止。
5905310755,德昌藥局永康店,臺南市永康區中華路４６２號,120.2327,23.01082,(06)3020628,羅氏家用新冠病毒抗原自我檢測套組,78,2022/05/08 14:30:02,快篩販售時間：星期一~星期日14:30~16:00
5905311074,中華長億藥局,臺南市永康區中華路７３４、７３６號１樓,120.2288,23.0167,(06)3022322,羅氏家用新冠病毒抗原自我檢測套組,78,2022/05/08 14:30:02,快篩實名制，每天16:00開始販售，售完為止。
5905320635,晉大藥局,臺南市東區東平路１３４號１樓,120.2298,22.99522,(06)2092580,羅氏家用新冠病毒抗原自我檢測套組,72,2022/05/08 14:30:02,快篩實名制下午3點開始販售
5905320797,大樹自由藥局,臺南市東區自由路三段３８２號１樓,120.2373,22.98241,(06)2890800,羅氏家用新冠病毒抗原自我檢測套組,78,2022/05/08 14:30:02,快篩實名制，每天16:00開始販售，售完為止。
5905320804,大樹大同藥局,臺南市東區大同路二段２２７、２２９號１樓,120.2143,22.97567,(06)2158700,羅氏家用新冠病毒抗原自我檢測套組,78,2022/05/08 14:30:02,快篩實名制，每天16:00開始販售，售完為止。
5905320868,大樹東寧藥局,臺南市東區東寧路４３６號１樓,120.2291,22.9895,(06)2360006,羅氏家用新冠病毒抗原自我檢測套組,78,2022/05/08 14:30:02,快篩實名制，每天16:00開始販售，售完為止。
5905320886,中華崇德藥局,臺南市東區中華東路三段１８１、１８３號１樓,120.2259,22.97667,(06)2880800,羅氏家用新冠病毒抗原自我檢測套組,78,2022/05/08 14:30:02,快篩實名制，每天16:00開始販售，售完為止。
5905320911,大樹崇道藥局,臺南市東區崇道路６３號１樓,120.2272,22.97227,(06)2680456,羅氏家用新冠病毒抗原自我檢測套組,78,2022/05/08 14:30:02,快篩實名制，每天16:00開始販售，售完為止。
5905330284,大樹佳華藥局,臺南市南區金華路二段１２９號１樓,120.1911,22.98035,(06)2641238,羅氏家用新冠病毒抗原自我檢測套組,78,2022/05/08 14:30:02,快篩實名制，每天16:00開始販售，售完為止。
5905370304,大樹安南藥局,臺南市安南區安和路四段５５７號１樓,120.2185,23.06181,(06)3563370,羅氏家用新冠病毒抗原自我檢測套組,78,2022/05/08 14:30:02,快篩實名制，每天16:00開始販售，售完為止。
5905370466,大樹北安藥局,臺南市安南區北安路三段１５８號１樓,120.2036,23.04256,(06)2553633,羅氏家用新冠病毒抗原自我檢測套組,78,2022/05/08 14:30:02,快篩實名制，每天16:00開始販售，售完為止。
5905370484,安中台安藥局,臺南市安南區北安路２段３６３之２４號１樓,120.2022,23.039,(06)2470015,羅氏家用新冠病毒抗原自我檢測套組,20,2022/05/08 14:30:02,實名制快篩劑:周1-周日下午:2:30開賣（如遇物流供貨異動，請電話詢問.不便處請見諒）
5907011095,鳳山五甲藥局,高雄市鳳山區正義里五甲二路１３９號１樓,120.3409,22.6014,(07)7269899,羅氏家用新冠病毒抗原自我檢測套組,78,2022/05/08 14:30:02,快篩實名制，每天16:00開始販售，售完為止。
5907011148,大樹國泰藥局,高雄市鳳山區興仁里五甲一路２９２號,120.3539,22.61698,(07)7407234,羅氏家用新冠病毒抗原自我檢測套組,78,2022/05/08 14:30:02,快篩實名制，每天16:00開始販售，售完為止。
5907011228,鳳山青年藥局,高雄市鳳山區文德里青年路二段３９９號１樓,120.3513,22.64292,(07)7678383,羅氏家用新冠病毒抗原自我檢測套組,78,2022/05/08 14:30:02,口罩販售時間：14:00 - 16:00
5907011291,桂林活力藥師藥局鳳山店,高雄市鳳山區中正里瑞興路４８８號１樓,120.3719,22.63089,(07)7012827,羅氏家用新冠病毒抗原自我檢測套組,5,2022/05/08 14:30:02,早上9點發放號碼牌，發完號碼牌即售完
5907011317,凱旋藥局,高雄市鳳山區國隆里新富路３７３號１樓,120.3475,22.61494,(07)7671181,羅氏家用新冠病毒抗原自我檢測套組,78,2022/05/08 14:30:02,快篩實名制，每天16:00開始販售，售完為止。
5907011362,佑全鳳山藥局,高雄市鳳山區文德里青年路二段４６３號１－２樓,120.3498,22.64513,(07)7801568,羅氏家用新冠病毒抗原自我檢測套組,24,2022/05/08 14:30:02,實名制快篩14:00~18:00
5907011371,大樹五甲藥局,高雄市鳳山區福祥里五甲三路２４號１－２樓．２６號１－２樓,120.3278,22.59317,(07)8224926,羅氏家用新冠病毒抗原自我檢測套組,79,2022/05/08 14:30:02,快篩實名制，每天16:00開始販售，售完為止。
5907020030,鑫德昌藥局,高雄市岡山區溪東路３８號１樓,120.2915,22.79249,(07)6233338,羅氏家用新冠病毒抗原自我檢測套組,1,2022/05/08 14:30:02,實名制快篩 販售時間 14:30-16:00
5907020085,大德藥局,高雄市岡山區大德一路９８號,120.3025,22.79689,(07)6221456,羅氏家用新冠病毒抗原自我檢測套組,78,2022/05/08 14:30:02,快篩實名制，每天16:00開始販售，售完為止。
5907020094,大樹岡山藥局,高雄市岡山區岡山路１３６號,120.2967,22.78913,(07)6219477,羅氏家用新冠病毒抗原自我檢測套組,78,2022/05/08 14:30:02,快篩實名制，每天16:00開始販售，售完為止。
5907030152,旗山藥局,高雄市旗山區中華路２３號,120.4841,22.88027,(07)6621158,羅氏家用新冠病毒抗原自我檢測套組,78,2022/05/08 14:30:02,快篩實名制，每天16:00開始販售，售完為止。
5907050092,林園啄木鳥藥局,高雄市林園區鳳林路二段８０３號１樓,120.3957,22.5135,(07)6414772,羅氏家用新冠病毒抗原自我檢測套組,14,2022/05/08 14:30:02,快篩實名制領取時間下午2點（若當天配送延誤，時間另行公布）
5907050109,林園藥局,高雄市林園區仁愛路１３號１樓,120.3928,22.50418,(07)6425855,羅氏家用新冠病毒抗原自我檢測套組,78,2022/05/08 14:30:02,快篩實名制，每天16:00開始販售，售完為止。
5907080189,德昌藥局仁雄店,高雄市仁武區灣內里仁雄路３８、３８－１、３８－２號,120.3506,22.68074,(07)3749166,羅氏家用新冠病毒抗原自我檢測套組,69,2022/05/08 14:30:02,固定週一至週日14:30~16:00開始發放號碼牌並依序販售快篩.售完為止
5907080269,興德昌藥局,高雄市仁武區文武里中華路２３２號,120.3516,22.69985,(07)3757005,羅氏家用新冠病毒抗原自我檢測套組,73,2022/05/08 14:30:02,固定週一至週日14:30~16:00開始發放號碼牌並依序販售快篩.售完為止
5907090087,安泰專業藥師藥局,高雄市大社區中山路２６７號１樓,120.3492,22.73194,(07)3553715,羅氏家用新冠病毒抗原自我檢測套組,37,2022/05/08 14:30:02,快篩每日14:20發號碼牌，14:30準時發放 請準備現金500元 不找錢
5907090167,大樹大社藥局,高雄市大社區中山路３０８號１樓,120.3503,22.73145,(07)3531682,羅氏家用新冠病毒抗原自我檢測套組,78,2022/05/08 14:30:02,快篩實名制，每天16:00開始販售，售完為止。
5907110048,和德藥局橋頭店,高雄市橋頭區橋南路１１６－１號,120.3125,22.75441,(07)6113580,羅氏家用新冠病毒抗原自我檢測套組,78,2022/05/08 14:30:02,因天氣炎熱 排隊冗長 阻礙交通 提早14:45開賣   售完為止
5907140108,德昌藥局阿蓮店,高雄市阿蓮區阿蓮里中正路４５６號,120.3321,22.88075,(07)6318868,羅氏家用新冠病毒抗原自我檢測套組,60,2022/05/08 14:30:02,固定周一至周日14:30-16:00販售快篩，售完為止
5907150220,天德藥局路竹店,高雄市路竹區忠孝路２６－２、２６－３號１樓,120.2601,22.86059,(07)6975656,羅氏家用新冠病毒抗原自我檢測套組,75,2022/05/08 14:30:02,下午三點發放快篩
5907150257,大樹大立藥局,高雄市路竹區國昌路５１號,120.26,22.85409,(07)6961663,羅氏家用新冠病毒抗原自我檢測套組,78,2022/05/08 14:30:02,快篩實名制，每天16:00開始販售，售完為止。
5907160093,保生藥局,高雄市湖內區葉厝里保生路３４０．３４２號,120.2195,22.90733,(07)6990800,羅氏家用新冠病毒抗原自我檢測套組,79,2022/05/08 14:30:02,快篩實名制，每天16:00開始販售，售完為止。
5907200047,永恒健康生活藥局,高雄市梓官區智蚵里通安路１７６號１樓,120.252,22.7307,(07)6102755,羅氏家用新冠病毒抗原自我檢測套組,38,2022/05/08 14:30:02,營業時間週一到週日早上8:30至晚上9:30  實名制快篩 每天下午3:00 開始
5907280036,七賢藥局,高雄市鹽埕區七賢三路１６２號１樓,120.2829,22.62712,(07)5330616,羅氏家用新冠病毒抗原自我檢測套組,78,2022/05/08 14:30:02,快篩實名制，每天16:00開始販售，售完為止。
5907290023,明倫藥局,高雄市鼓山區明倫路１５０號１樓,120.2979,22.66507,(07)5520736,羅氏家用新冠病毒抗原自我檢測套組,78,2022/05/08 14:30:02,無
5907290112,新高橋藥局華榮店,高雄市鼓山區華榮路２８７號１樓,120.2967,22.66616,(07)5534727,羅氏家用新冠病毒抗原自我檢測套組,77,2022/05/08 14:30:02,無
5907300239,左野藥局,高雄市左營區崇德路２２２號,120.3052,22.675,(07)3486883,羅氏家用新冠病毒抗原自我檢測套組,75,2022/05/08 14:30:02,每日9時開始營業．實名制快篩販售時間15:00-20:00售完為止! 14:50發號碼牌
5907300613,新高橋藥局河堤店,高雄市左營區裕誠路１４４號１樓及地下１樓,120.3095,22.66423,(07)5582806,羅氏家用新冠病毒抗原自我檢測套組,64,2022/05/08 14:30:02,下午1:30開始販售口罩至下午5:30
5907300631,大樹孟子藥局,高雄市左營區孟子路２２６、２２８號,120.3112,22.67415,(07)3461772,羅氏家用新冠病毒抗原自我檢測套組,78,2022/05/08 14:30:02,快篩實名制，每天16:00開始販售，售完為止。
5907300784,新高橋藥局博正店,高雄市左營區忠言路１８０號,120.3038,22.65841,(07)5509810,羅氏家用新冠病毒抗原自我檢測套組,78,2022/05/08 14:30:02,下午2:30開始販售口罩
5907300800,元大藥師健保藥局,高雄市左營區榮德街３２７號,120.3211,22.68636,(07)3507531,羅氏家用新冠病毒抗原自我檢測套組,3,2022/05/08 14:30:02,無
5907300926,高鐵藥局,高雄市左營區華夏路１３２２．１３２６號,120.312,22.68587,(07)3452797,羅氏家用新冠病毒抗原自我檢測套組,78,2022/05/08 14:30:02,快篩實名制，每天16:00開始販售，售完為止。
5907300980,大路藥局,高雄市左營區左營大路５５－２號１樓,120.2877,22.6813,(07)5851001,羅氏家用新冠病毒抗原自我檢測套組,78,2022/05/08 14:30:02,快篩實名制，每天16:00開始販售，售完為止。
5907301049,新高橋藥局裕誠店,高雄市左營區裕誠路２９１號１樓,120.3078,22.66511,(07)5573857,羅氏家用新冠病毒抗原自我檢測套組,64,2022/05/08 14:30:02,無
5907310262,大樹楠梓藥局,高雄市楠梓區軍校路９０８號,120.2919,22.71246,(07)3632322,羅氏家用新冠病毒抗原自我檢測套組,78,2022/05/08 14:30:02,快篩實名制，每天16:00開始販售，售完為止。
5907310379,德昌藥局,高雄市楠梓區德賢路２１５號,120.3053,22.72632,(07)3619998,羅氏家用新冠病毒抗原自我檢測套組,70,2022/05/08 14:30:02,實名制快篩販售時間：周一至週日，14:30至16:00，售完為止。
5907310404,藍田藥局,高雄市楠梓區藍田路１號,120.2953,22.72643,(07)3601236,羅氏家用新冠病毒抗原自我檢測套組,78,2022/05/08 14:30:02,快篩實名制，每天16:00開始販售，售完為止。
5907320428,東京藥局,高雄市三民區建工路６８５號,120.3173,22.6478,(07)3874567,羅氏家用新冠病毒抗原自我檢測套組,57,2022/05/08 14:30:02,實名制快篩販售時間: 每日15:00-晚上20:00
5907320697,鄰好藥師藥局,高雄市三民區褒揚街２８７號,120.3398,22.64097,(07)3909589,羅氏家用新冠病毒抗原自我檢測套組,11,2022/05/08 14:30:02,購買實名制快篩時間下午14:00-16:00，各類防疫用品販售中
5907321032,三民明誠藥局,高雄市三民區明誠一路５００號１－２Ｆ及５０２號,120.3223,22.66046,(07)3493137,羅氏家用新冠病毒抗原自我檢測套組,15,2022/05/08 14:30:02,快篩試劑下午2:00販售
5907321069,桂林活力藥局九如店,高雄市三民區懷安街１１２號１樓,120.3176,22.64095,(07)3981009,羅氏家用新冠病毒抗原自我檢測套組,78,2022/05/08 14:30:02,每天15:30發號碼牌，於18:00前兌換完畢，逾期棄權，剩餘則繼續發放
5907321103,自由藥局,高雄市三民區自由一路７８號,120.3089,22.64422,(07)3223113,羅氏家用新冠病毒抗原自我檢測套組,78,2022/05/08 14:30:02,快篩實名制，每天16:00開始販售，售完為止。
5907350346,武廟幸福藥局,高雄市苓雅區武廟路３５號,120.3316,22.62999,(07)7170085,羅氏家用新冠病毒抗原自我檢測套組,1,2022/05/08 14:30:02,1: 自111／5／1起：快篩販售時間為13:40開始。2: 販售方式依現場公告為主，售完為止。
5907350499,鑫美健保特約藥局,高雄市苓雅區光華一路１４８－５８號１樓,120.3158,22.62389,(07)7715088,羅氏家用新冠病毒抗原自我檢測套組,34,2022/05/08 14:30:02,14:00開賣實名制快篩，馨田診所配合公費快篩，慢箋免費領藥，防疫物資特賣
5907350506,大樹苓雅藥局,高雄市苓雅區中華四路１５３號,120.3001,22.61783,(07)5353111,羅氏家用新冠病毒抗原自我檢測套組,78,2022/05/08 14:30:02,快篩實名制，每天16:00開始販售，售完為止。
5907350631,三多藥局,高雄市苓雅區三多二路２９２號１樓,120.3173,22.61838,(07)3365889,羅氏家用新冠病毒抗原自我檢測套組,78,2022/05/08 14:30:02,快篩實名制，每天16:00開始販售，售完為止。
5907360379,金服安藥局,高雄市前鎮區鎮興路１９１號,120.3115,22.59249,(07)8150061,羅氏家用新冠病毒抗原自我檢測套組,1,2022/05/08 14:30:02,每日下午2-4點販賣快篩試劑
5907360664,忠純藥局,高雄市前鎮區中華五路１００９號１樓,120.3056,22.60341,(07)3366886,羅氏家用新冠病毒抗原自我檢測套組,78,2022/05/08 14:30:02,快篩實名制，每天16:00開始販售，售完為止。
5907380264,大樹孔鳳藥局,高雄市小港區孔鳳路５１９、５２１號,120.3587,22.5828,(07)7918521,羅氏家用新冠病毒抗原自我檢測套組,78,2022/05/08 14:30:02,快篩實名制，每天16:00開始販售，售完為止。
5907380424,大樹小港藥局,高雄市小港區康莊路７５號１樓,120.3559,22.56853,(07)8068328,羅氏家用新冠病毒抗原自我檢測套組,78,2022/05/08 14:30:02,快篩實名制，每天16:00開始販售，售完為止。
5911010015,喬寶藥局,基隆市中正區義二路６６號１樓,121.7461,25.13187,(02)24202827,羅氏家用新冠病毒抗原自我檢測套組,24,2022/05/08 14:30:02,下午2點開賣
5911011478,天康新豐藥局,基隆市中正區新豐街２５１巷４弄９號１樓,121.7885,25.13594,(02)24695168,羅氏家用新冠病毒抗原自我檢測套組,8,2022/05/08 14:30:02,無
5911011638,中正藥局,基隆市中正區新豐街３８５號１、２樓,121.7856,25.13537,(02)24690660,羅氏家用新冠病毒抗原自我檢測套組,78,2022/05/08 14:30:02,快篩實名制，每天16:00開始販售，售完為止。
5911030035,陸記藥局,基隆市暖暖區源遠路２４１號,121.7543,25.09882,(02)24576712,羅氏家用新冠病毒抗原自我檢測套組,1,2022/05/08 14:30:02,每日下午兩點販售快篩試劑
5911040228,大田大藥局,基隆市仁愛區仁二路５號,121.7507,25.12744,(02)24258762,羅氏家用新冠病毒抗原自我檢測套組,4,2022/05/08 14:30:02,下午2:00發號碼牌並販售
5911051409,順豐藥局,基隆市中山區中華路４號,121.7388,25.14545,(02)24369176,羅氏家用新冠病毒抗原自我檢測套組,12,2022/05/08 14:30:02,家用快篩每日下午2點起隨到隨領售完為止。
5911071572,元登藥局,基隆市信義區深溪路１４９號,121.7826,25.13475,(02)24663826,羅氏家用新冠病毒抗原自我檢測套組,2,2022/05/08 14:30:02,無
5911071590,基隆藥局,基隆市信義區東信路１６６、１６８號１、２樓,121.7646,25.12821,(02)24680955,羅氏家用新冠病毒抗原自我檢測套組,78,2022/05/08 14:30:02,快篩實名制，每天16:00開始販售，售完為止。
5912013494,田美藥局,新竹市東區田美三街３５之１號１樓,120.9767,24.81572,(03)5350233,羅氏家用新冠病毒抗原自我檢測套組,78,2022/05/08 14:30:02,快篩實名制，每天16:00開始販售，售完為止。
5912013672,關東藥局,新竹市東區光復路１段３３２、３３４號１至２樓,121.0187,24.78289,(03)5777077,羅氏家用新冠病毒抗原自我檢測套組,78,2022/05/08 14:30:02,快篩實名制，每天16:00開始販售，售完為止。
5912013681,仁春藥局,新竹市東區慈濟路２５２號１樓,121.0153,24.79245,(03)6686718,羅氏家用新冠病毒抗原自我檢測套組,78,2022/05/08 14:30:02,5／8 實名制快篩 於16:00開始販售
5912040222,保健藥局,新竹市北區中山路１５３號１樓,120.9635,24.80324,(03)5242088,羅氏家用新冠病毒抗原自我檢測套組,5,2022/05/08 14:30:02,快篩販賣時段：下午2:00現場排隊至售完為止。
5917010082,仁壽藥局,臺中市中區東墩里三民路三段１號,120.6817,24.14482,(04)22228058,羅氏家用新冠病毒抗原自我檢測套組,1,2022/05/08 14:30:02,週一至週日上午9時30分起販售快篩劑
5917011934,一安堂藥局,臺中市中區臺灣大道一段２０號１樓,120.6847,24.13819,(04)22259616,羅氏家用新冠病毒抗原自我檢測套組,11,2022/05/08 14:30:02,14:00開始領取實名制快篩劑
5917011945,正三吉藥局,臺中市中區臺灣大道一段９５號,120.6831,24.13911,(04)22207700,羅氏家用新冠病毒抗原自我檢測套組,78,2022/05/08 14:30:02,快篩販售時間 14:00~17:00
5917030271,國良藥局,臺中市西區西屯路１段２２０號,120.6707,24.15344,(04)22018772,羅氏家用新冠病毒抗原自我檢測套組,9,2022/05/08 14:30:02,快篩試劑，下午2點開始販售，售完為止。星期日照常販售。
5917030995,麗新健保大藥局,臺中市西區向上路一段１６２號,120.6612,24.1469,(04)23017100,羅氏家用新冠病毒抗原自我檢測套組,63,2022/05/08 14:30:02,週一至週日下午15:00至售完為止
5917032800,壹藥局,臺中市西區美村路１段７７５號１樓,120.6618,24.13306,(04)23721998,羅氏家用新冠病毒抗原自我檢測套組,22,2022/05/08 14:30:02,星期一到星期日每天下午二點開始販售快篩試劑售完為止謝謝
5917032908,佑恩藥師藥局,臺中市西區精誠路６７號１樓,120.6553,24.15224,(04)23100058,羅氏家用新冠病毒抗原自我檢測套組,31,2022/05/08 14:30:02,實名制快篩周一到周六，早上9:00，周日下午2:10開始販賣
5917040464,陳信安藥局,臺中市南區永興里高工路３４９號,120.6665,24.11425,(04)22619560,羅氏家用新冠病毒抗原自我檢測套組,8,2022/05/08 14:30:02,實名制快篩 周一至六14:00開賣，庫存依現場為準，周日依政府配送調整
5917041836,健康人生藥局,臺中市南區美村南路１３１號,120.6666,24.11725,(04)22633936,羅氏家用新冠病毒抗原自我檢測套組,16,2022/05/08 14:30:02,實名制快篩 14:00開賣!     因政府配貨時間不一，若貨運有延後配送，依照門市現場公告時間為主!
5917053756,中心旗艦藥局,臺中市北區五權路４０４號,120.6821,24.15288,(04)22068113,羅氏家用新冠病毒抗原自我檢測套組,22,2022/05/08 14:30:02,每日下午2:00開始賣快篩（實名制）.周一至周日都有營業
5917062988,廣安大藥局,臺中市西屯區青海路一段一Ｏ一、一Ｏ三號,120.6536,24.16485,(04)23118572,羅氏家用新冠病毒抗原自我檢測套組,22,2022/05/08 14:30:02,週一~日10AM販售口罩售完為止，無發放號碼牌.
5917063065,達康藥局,臺中市西屯區中工三路１３９號,120.6186,24.17779,(04)23586332,羅氏家用新冠病毒抗原自我檢測套組,3,2022/05/08 14:30:02,週一~周日下午2點販售快篩售完為止，無發放號碼牌.
5917063350,天立專業藥師藥局,臺中市西屯區太原路１段２０７號１樓,120.6617,24.16318,(04)23160455,羅氏家用新冠病毒抗原自我檢測套組,50,2022/05/08 14:30:02,週一~週六快篩9:00售完為止，週日中午12：00售完為止
5917070382,得安藥局,臺中市南屯區溝墘里大墩路５９６號,120.6495,24.15136,(04)23234168,羅氏家用新冠病毒抗原自我檢測套組,30,2022/05/08 14:30:02,下午2:00開始現場購買快篩試劑，售完為止。
5917070462,長映藥局,臺中市南屯區黎明路二段４３２號１樓,120.6355,24.15166,(04)22510951,羅氏家用新冠病毒抗原自我檢測套組,2,2022/05/08 14:30:02,實名制快篩每日下午2點開賣，售完為止（庫存以現場為主）
5917072724,百芳大藥局,臺中市南屯區向上路二段４２１號,120.6377,24.1469,(04)23818307,羅氏家用新冠病毒抗原自我檢測套組,78,2022/05/08 14:30:02,晚上7:00開始販賣快篩，不發號碼牌。
5917080619,永佳藥局,臺中市北屯區昌平路１段１０５－５號１樓,120.6904,24.17362,(04)22438886,羅氏家用新冠病毒抗原自我檢測套組,5,2022/05/08 14:30:02,快篩下午2點販售
5921060385,樂成藥局,臺南市安南區安和路一段１５９巷８３號,120.2115,23.03032,(06)2568576,羅氏家用新冠病毒抗原自我檢測套組,5,2022/05/08 14:30:02,無
5922012383,振安藥局,嘉義市東區王田里林森東路３００號１樓,120.464,23.48889,(05)2756541,羅氏家用新冠病毒抗原自我檢測套組,9,2022/05/08 14:30:02,實名制快篩:周一至周日14:00開始販售，售完為止
5922012945,大明藥局,嘉義市東區大雅路二段６８２號,120.4663,23.47719,(05)2760958,羅氏家用新冠病毒抗原自我檢測套組,4,2022/05/08 14:30:02,5／8（日）號碼牌已經分發完畢
5922013068,佑全嘉義吳鳳南藥局,嘉義市東區吳鳳南路５８５、５８７號,120.459,23.45639,(05)2399311,羅氏家用新冠病毒抗原自我檢測套組,4,2022/05/08 14:30:02,領取快篩14:00
5922013102,後庄藥局,嘉義市東區吳鳳南路６４９號,120.4594,23.45511,(05)2391233,羅氏家用新冠病毒抗原自我檢測套組,78,2022/05/08 14:30:02,快篩實名制，每天16:00開始販售，售完為止。
5922013166,忠孝啄木鳥藥局,嘉義市東區忠孝北街１８５號,120.444,23.51618,(05)2204948,羅氏家用新冠病毒抗原自我檢測套組,20,2022/05/08 14:30:02,有收到配量即每日下午2:00販售
5922013193,民權藥局,嘉義市東區民權路１５５號１樓、１５７號１樓,120.4604,23.48374,(05)2775322,羅氏家用新冠病毒抗原自我檢測套組,78,2022/05/08 14:30:02,快篩實名制，每天16:00開始販售，售完為止。
5922021006,竹圍藥局,嘉義市西區友愛路２７０、２７２號,120.4339,23.4837,(05)2811233,羅氏家用新冠病毒抗原自我檢測套組,78,2022/05/08 14:30:02,快篩實名制，每天16:00開始販售，售完為止。
5931010235,友祥藥局,新北市板橋區裕民街１０７號,121.4599,25.02773,(02)22544666,羅氏家用新冠病毒抗原自我檢測套組,8,2022/05/08 14:30:02,無
5931014046,欣安藥局,新北市板橋區懷德街１０９號１樓,121.4786,25.03147,(02)82570296,羅氏家用新冠病毒抗原自我檢測套組,9,2022/05/08 14:30:02,目前快篩送貨時間不定，發放時間依現場公告為主。
5931015909,向康藥局,新北市板橋區實踐路１４７號１樓,121.4643,25.00437,(02)29637248,羅氏家用新冠病毒抗原自我檢測套組,21,2022/05/08 14:30:02,下午2點開始販售實名制快篩
5931015981,立安中西藥局,新北市板橋區後埔街８３號１樓,121.4607,25.00523,(02)29582241,羅氏家用新冠病毒抗原自我檢測套組,76,2022/05/08 14:30:02,無
5931016273,湯明藥局,新北市板橋區中山路２段３１９號１樓,121.479,25.01866,(02)29571980,羅氏家用新冠病毒抗原自我檢測套組,67,2022/05/08 14:30:02,週一到週五 下午四點  六日時間未定 排隊不發號碼
5931016880,漢民藥局,新北市板橋區漢生東路３４６號（１樓）,121.472,25.00734,(02)29598168,羅氏家用新冠病毒抗原自我檢測套組,19,2022/05/08 14:30:02,暫定1400實名制快篩（依配送滾動式調整╮（╯_╰）╭）
5931017341,台安藥局,新北市板橋區中正路２０４號１樓、２樓、３樓,121.4561,25.01804,(02)29663600,羅氏家用新冠病毒抗原自我檢測套組,44,2022/05/08 14:30:02,無
5931017636,福澤藥局,新北市板橋區南雅南路１段８５號（１樓）,121.4556,25.00543,(02)29690013,羅氏家用新冠病毒抗原自我檢測套組,98,2022/05/08 14:30:02,口罩代售9:00-23:00
5931017645,松立藥局,新北市板橋區四川路２段９９之１０號（１樓）,121.4521,24.99448,(02)89670100,羅氏家用新冠病毒抗原自我檢測套組,1,2022/05/08 14:30:02,無
5931017789,明翠藥局,新北市板橋區四維路１４６、１４８號１、２樓,121.4651,25.02555,(02)22550201,羅氏家用新冠病毒抗原自我檢測套組,78,2022/05/08 14:30:02,快篩實名制，每天16:00開始販售，售完為止。
5931017994,後埔藥局,新北市板橋區華興街９號（１樓）,121.459,25.00457,(02)89510306,羅氏家用新冠病毒抗原自我檢測套組,17,2022/05/08 14:30:02,5／8 快篩試劑今日已完售*確保作業流暢請自備500元*每天 78 份晚上10 點以前領取完畢（過卡時間差異剩餘數量僅供參考）
5931020044,唯安藥局,新北市三重區五華街１３０號,121.4916,25.08358,(02)29875750,羅氏家用新冠病毒抗原自我檢測套組,78,2022/05/08 14:30:02,無
5931024088,美滿藥局,新北市三重區中華路１６號,121.4834,25.0606,(02)89824272,羅氏家用新冠病毒抗原自我檢測套組,78,2022/05/08 14:30:02,滾動式調整
5931024971,欽勝藥局,新北市三重區重陽路４段６號２樓,121.4906,25.06894,(02)29857389,羅氏家用新冠病毒抗原自我檢測套組,73,2022/05/08 14:30:02,販售快篩需現場排隊，無預約無號碼牌，販售時間依到貨時間為主。
5931025567,閎安藥局,新北市三重區重新路２段８５號１樓、２樓,121.4962,25.06181,(02)29881968,羅氏家用新冠病毒抗原自我檢測套組,79,2022/05/08 14:30:02,快篩代售時間:每日14:00發號碼牌（以在場者為主），15:00發快篩，當日領取至21:00
5931025914,仁美藥局,新北市三重區慈愛街５１號１、２樓,121.4861,25.07908,(02)22805150,羅氏家用新冠病毒抗原自我檢測套組,78,2022/05/08 14:30:02,快篩實名制，每天16:00開始販售，售完為止。
5931025987,忠孝德榮藥局,新北市三重區忠孝路２段９７號１樓,121.4842,25.07005,(02)29800297,羅氏家用新冠病毒抗原自我檢測套組,78,2022/05/08 14:30:02,現場排隊不發號碼牌*實名制快篩* 週一至週日晚間19:00開始代售. 週六&周日中午12:00開始營業
5931026073,重陽藥局,新北市三重區重陽路４段３６、３８號１樓,121.4913,25.06975,(02)29880456,羅氏家用新冠病毒抗原自我檢測套組,78,2022/05/08 14:30:02,快篩實名制，每天16:00開始販售，售完為止。
5931026082,大有藥局,新北市三重區中正北路２１３號１、２樓及２１５號１、２樓,121.4763,25.07013,(02)29885771,羅氏家用新冠病毒抗原自我檢測套組,78,2022/05/08 14:30:02,快篩實名制，每天16:00開始販售，售完為止。
5931026091,重新藥局,新北市三重區重新路４段１２號１樓,121.4888,25.05775,(02)29742700,羅氏家用新冠病毒抗原自我檢測套組,78,2022/05/08 14:30:02,快篩實名制，每天16:00開始販售，售完為止。
5931032759,友辰藥局,新北市永和區中正路３８０號１樓,121.5177,25.00123,(02)29267131,羅氏家用新冠病毒抗原自我檢測套組,2,2022/05/08 14:30:02,無
5931033541,大欣安藥局,新北市永和區得和路３７０號１樓,121.5244,24.99928,(02)29450808,羅氏家用新冠病毒抗原自我檢測套組,8,2022/05/08 14:30:02,5／3起快篩試劑PAM14:00開始發號碼牌跟販售
5931033863,欣安大藥局,新北市永和區福和路２２１號１樓,121.5189,25.00749,(02)22326685,羅氏家用新冠病毒抗原自我檢測套組,1,2022/05/08 14:30:02,快篩試劑pm13:30發號碼牌暨銷售，售完為止。
5931040297,信隆大藥局,新北市中和區安樂路６號１至２樓,121.5118,24.99168,(02)29426196,羅氏家用新冠病毒抗原自我檢測套組,78,2022/05/08 14:30:02,無
5931042648,恩溢藥局,新北市中和區復興路７９號１樓.２樓,121.5035,24.9902,(02)22452450,羅氏家用新冠病毒抗原自我檢測套組,2,2022/05/08 14:30:02,無
5931044848,和霖生活藥局,新北市中和區復興路２８９號１樓,121.5018,24.99015,(02)22458227,羅氏家用新冠病毒抗原自我檢測套組,10,2022/05/08 14:30:02,無
5931044884,壹品藥局,新北市中和區福祥路５５號１樓,121.4992,25.00474,(02)22481818,羅氏家用新冠病毒抗原自我檢測套組,6,2022/05/08 14:30:02,實名制快篩下午1點發放號碼牌
5931045505,順儷民享藥局,新北市中和區民享街５３號１樓,121.4742,25.00265,(02)22222825,羅氏家用新冠病毒抗原自我檢測套組,5,2022/05/08 14:30:02,無
5931052091,康宜庭大坪林藥局,新北市新店區北新路３段１２７號１樓,121.5412,24.9826,(02)89116029,羅氏家用新冠病毒抗原自我檢測套組,15,2022/05/08 14:30:02,實名制快篩14:00發放號碼牌同步販售，每人限持1卡購買1份，請備妥零鈔
5931052251,昇育健康藥局,新北市新店區中正路７６巷１８號１樓,121.5443,24.97085,(02)86679631,羅氏家用新冠病毒抗原自我檢測套組,78,2022/05/08 14:30:02,每日 16:00 販售 請依序排隊 無發號碼牌
5931053347,健詮藥局,新北市新店區建國路１１９號１樓,121.5398,24.97777,(02)29116312,羅氏家用新冠病毒抗原自我檢測套組,4,2022/05/08 14:30:02,11點發號碼牌，12點半-3點過卡買快篩。最新消息會公佈在臉書「健詮藥局」
5931060342,十安藥局,新北市新莊區中港路３１６號,121.4524,25.04544,(02)29922859,羅氏家用新冠病毒抗原自我檢測套組,80,2022/05/08 14:30:02,自111／04／01起不再販賣實名制口罩
5931060557,一安藥局,新北市新莊區立德里新泰路２６８號,121.446,25.04029,(02)29941618,羅氏家用新冠病毒抗原自我檢測套組,78,2022/05/08 14:30:02,實名制快篩發放時間為15:00  其他詳情請上FB查詢
5931060619,蘇藥局,新北市新莊區中平路６巷３７號,121.446,25.04284,(02)29917818,羅氏家用新冠病毒抗原自我檢測套組,78,2022/05/08 14:30:02,販售快篩時間  固定每日下午3點發放!!!售完為止
5931068599,建昌藥局,新北市新莊區福營里中正路５５７號,121.435,25.03254,(02)29015422,羅氏家用新冠病毒抗原自我檢測套組,58,2022/05/08 14:30:02,快篩代售時間:週一至週日14:30現場排隊購買，售完為止。（物流配送不及則例外，以門市公告為主）
5931068819,東京大藥局,新北市新莊區民安路１７６號１樓,121.4251,25.02392,(02)22063806,羅氏家用新冠病毒抗原自我檢測套組,66,2022/05/08 14:30:02,口罩代售時間為9:30開始現場排隊販售
5931069792,宏泰藥局,新北市新莊區自信街３７號１樓,121.4543,25.04863,(02)29964649,羅氏家用新冠病毒抗原自我檢測套組,44,2022/05/08 14:30:02,無
593106A771,新佑康健保藥局,新北市新莊區中華路１段３５號１樓,121.4519,25.03765,(02)29947490,羅氏家用新冠病毒抗原自我檢測套組,5,2022/05/08 14:30:02,無
593106A897,陽光豐年藥局,新北市新莊區豐年街１４號１樓,121.4463,25.03287,(02)22060665,羅氏家用新冠病毒抗原自我檢測套組,81,2022/05/08 14:30:02,無
593106A931,建安藥局,新北市新莊區建安街１１７號、１１９號１樓,121.4262,25.02406,(02)22051969,羅氏家用新冠病毒抗原自我檢測套組,78,2022/05/08 14:30:02,快篩實名制，每天16:00開始販售，售完為止。
593106B036,家嘉藥局,新北市新莊區自立街１０３號（１樓）,121.4553,25.04549,(02)89926488,羅氏家用新冠病毒抗原自我檢測套組,49,2022/05/08 14:30:02,今天號碼牌都已發放完畢
593106B090,依都勇藥局,新北市新莊區自信街６３號（１樓）,121.4554,25.04829,(02)29901516,羅氏家用新冠病毒抗原自我檢測套組,1,2022/05/08 14:30:02,無
593106B287,盛弘藥局,新北市新莊區中平路２９５號１樓,121.4447,25.05099,(02)22763336,羅氏家用新冠病毒抗原自我檢測套組,16,2022/05/08 14:30:02,政府快篩於平日下午13:50發放號碼牌，下午14:00準時販售，假日視政府配量（販售時間相同）
5931071658,大慶藥局,新北市樹林區鎮前街４２－１號,121.4258,24.99271,(02)26759212,羅氏家用新冠病毒抗原自我檢測套組,4,2022/05/08 14:30:02,實名制快篩每日下午2:00開始販售， 現場排隊， 帶500元鈔票／ 健保卡
5931071881,盛立藥局,新北市樹林區大雅路２８５號１樓,121.3795,24.94735,(02)35018218,羅氏家用新冠病毒抗原自我檢測套組,14,2022/05/08 14:30:02,政府快篩平日下午1:50發號碼牌，下午2:00準時販售，假日視政府配量（販售時間相同）
5931072431,樹林大樹藥局,新北市樹林區育英街５４號１－２樓,121.4213,24.98928,(02)26815488,羅氏家用新冠病毒抗原自我檢測套組,78,2022/05/08 14:30:02,快篩實名制，每天16:00開始販售，售完為止。
5931072459,健康人生藥局,新北市樹林區博愛一街２６號１樓,121.4256,24.99091,(02)26814394,羅氏家用新冠病毒抗原自我檢測套組,32,2022/05/08 14:30:02,實名制快篩販售時間下午2點起.售完為止
5931081289,唯新示範藥局,新北市鶯歌區建國路１６１號１樓,121.3503,24.95345,(02)86775363,羅氏家用新冠病毒抗原自我檢測套組,78,2022/05/08 14:30:02,實名制快篩購買時段下午2:50-4:00
5931081510,鶯歌藥局,新北市鶯歌區鶯桃路２段１１號１樓,121.3258,24.97205,(02)86778778,羅氏家用新冠病毒抗原自我檢測套組,78,2022/05/08 14:30:02,快篩實名制，每天16:00開始販售，售完為止。
5931091892,三峽藥局,新北市三峽區介壽路１段２７號１樓,121.3757,24.93321,(02)26738868,羅氏家用新冠病毒抗原自我檢測套組,79,2022/05/08 14:30:02,快篩實名制，每天16:00開始販售，售完為止。
5931092219,北大藥局,新北市三峽區大義路９號１樓,121.3788,24.94372,(02)26738535,羅氏家用新冠病毒抗原自我檢測套組,48,2022/05/08 14:30:02,快篩發放依政府實際到貨時間為主會公告在臉書粉專
5931102292,佑全淡水淡金藥局,新北市淡水區淡金路５５號、５７號１樓,121.4559,25.16127,(02)26228040,羅氏家用新冠病毒抗原自我檢測套組,24,2022/05/08 14:30:02,實名制快篩每日兩點開賣（售完為止）
5931102434,西雅圖聯合藥局,新北市淡水區新市一路３段１０１巷１６弄２０號１樓,121.4471,25.18403,(02)26200910,羅氏家用新冠病毒抗原自我檢測套組,78,2022/05/08 14:30:02,無
5931112145,汐止健康人生藥局,新北市汐止區忠孝東路２６９號,121.6633,25.06809,(02)86421820,羅氏家用新冠病毒抗原自我檢測套組,29,2022/05/08 14:30:02,快篩代售時間 14:00~售完為止 ；現場排隊
5931112645,健成藥局,新北市汐止區新興路２０號１樓,121.6564,25.06456,(02)26428989,羅氏家用新冠病毒抗原自我檢測套組,1,2022/05/08 14:30:02,無
5931113071,蒲公英藥局,新北市汐止區連興街１２６號（１樓）,121.6538,25.06188,(02)26907770,羅氏家用新冠病毒抗原自我檢測套組,78,2022/05/08 14:30:02,實名制快篩銷售時間:下午17:00-19:00（無發放號碼牌）
5931113160,社后藥局,新北市汐止區康寧街４２４號１樓,121.6307,25.06801,(02)26956321,羅氏家用新冠病毒抗原自我檢測套組,78,2022/05/08 14:30:02,快篩實名制，每天16:00開始販售，售完為止。
5931113188,汐止藥局,新北市汐止區福德二路７０號１樓,121.6331,25.06651,(02)86932587,羅氏家用新冠病毒抗原自我檢測套組,78,2022/05/08 14:30:02,快篩實名制，每天16:00開始販售，售完為止。
5931121466,瑞芳藥局,新北市瑞芳區明燈路３段５９之１及５９之２號,121.8057,25.10812,(02)24966588,羅氏家用新冠病毒抗原自我檢測套組,78,2022/05/08 14:30:02,快篩實名制，每天16:00開始販售，售完為止。
5931130152,博惠藥局,新北市土城區中央路１段２４９巷２０號,121.4463,24.98538,(02)22618337,羅氏家用新冠病毒抗原自我檢測套組,27,2022/05/08 14:30:02,14:00開始販售政府快篩，不發號碼牌
5931132405,小倉藥局,新北市土城區青雲路１９０號１樓,121.4591,24.98221,(02)22744257,羅氏家用新冠病毒抗原自我檢測套組,36,2022/05/08 14:30:02,快篩發放早上八點領號碼牌，一人卡限一張號碼牌，隨即憑號碼牌購買快篩，賣完為止。
5931132538,宏奇藥局,新北市土城區延吉街１２６號１樓,121.4695,24.98586,(02)82619585,羅氏家用新冠病毒抗原自我檢測套組,27,2022/05/08 14:30:02,無
5931133340,大欣藥局,新北市土城區裕民路２５１號,121.4546,24.98305,(02)22653208,羅氏家用新冠病毒抗原自我檢測套組,21,2022/05/08 14:30:02,公費快篩販賣時段:下午2:00至售完為止
5931133546,宏林保健藥局,新北市土城區裕民路１３４號（１樓）,121.4515,24.98622,(02)82615919,羅氏家用新冠病毒抗原自我檢測套組,16,2022/05/08 14:30:02,無
5931133653,家泰藥局,新北市土城區青雲路１８１號１、２樓,121.4593,24.98285,(02)22749490,羅氏家用新冠病毒抗原自我檢測套組,1,2022/05/08 14:30:02,上午9：00發號碼牌14：00-21：00攜帶號碼牌及費用領快篩
5931143275,集賢藥局,新北市蘆洲區信義路２２２巷６１號１、２樓,121.4813,25.08535,(02)22882400,羅氏家用新冠病毒抗原自我檢測套組,78,2022/05/08 14:30:02,快篩實名制，每天16:00開始販售，售完為止。
5931151302,宏安藥局,新北市五股區成泰路２段１３６號,121.4382,25.08369,(02)22915932,羅氏家用新冠病毒抗原自我檢測套組,79,2022/05/08 14:30:02,口罩販售時間:每日08:15~23:00售完為止 星期日如果前一日還有庫存，當日照常販售
5931151473,百成中西藥師藥局,新北市五股區五福里五福路２０號１樓,121.4343,25.08881,(02)22915531,羅氏家用新冠病毒抗原自我檢測套組,3,2022/05/08 14:30:02,口罩代售時間為09:10-22:00；如有餘額，週日亦有販售
5931151713,五股藥局,新北市五股區成泰路１段２３５之２號（１樓）,121.4363,25.07968,(02)22951150,羅氏家用新冠病毒抗原自我檢測套組,78,2022/05/08 14:30:02,快篩實名制，每天16:00開始販售，售完為止。
5931161353,台灣藥局,新北市泰山區明志路１段２８２－２８６號,121.4319,25.06002,(02)22971969,羅氏家用新冠病毒抗原自我檢測套組,65,2022/05/08 14:30:02,下午2:20發號碼牌2:30販售實名制快篩試劑
5931171868,林口藥局,新北市林口區文化三路２段６９號１樓,121.374,25.08006,(02)26001899,羅氏家用新冠病毒抗原自我檢測套組,78,2022/05/08 14:30:02,快篩販售時間：下午02:40發號碼牌，03:00開始販售
5931231323,佑全八里中山藥局,新北市八里區中山路２段２７８號、２８０號１樓,121.405,25.15099,(02)86301613,羅氏家用新冠病毒抗原自我檢測套組,78,2022/05/08 14:30:02,實名制快篩代售時間：週一至週日15:00開始販售，現場排隊購買，售完為止。（物流配送不及則例外，以門市公告為主）
5931250042,信芳藥局,新北市雙溪區中華路５０號,121.866,25.03761,(02)24931301,羅氏家用新冠病毒抗原自我檢測套組,2,2022/05/08 14:30:02,無
5932010631,新華興清溪藥局,桃園市桃園區東門里中山東路１０號１樓,121.3136,24.99548,(03)3330011,羅氏家用新冠病毒抗原自我檢測套組,74,2022/05/08 14:30:02,實名制快篩週一~週日14:30，不發號碼牌請依序排隊購買
5932012813,桃園大興藥局,桃園市桃園區大興西路二段７６巷３號,121.2984,25.01183,(03)3013222,羅氏家用新冠病毒抗原自我檢測套組,96,2022/05/08 14:30:02,快篩實名制，每天16:00開始販售，售完為止。
5932013392,桃園中正藥局,桃園市桃園區中正路３７３號,121.3079,24.99955,(03)3381600,羅氏家用新冠病毒抗原自我檢測套組,91,2022/05/08 14:30:02,快篩實名制，每天16:00開始販售，售完為止。
5932013687,桃園春日藥局,桃園市桃園區春日路８７８號,121.3096,25.01561,(03)3580101,羅氏家用新冠病毒抗原自我檢測套組,80,2022/05/08 14:30:02,快篩實名制，每天16:00開始販售，售完為止。
5932013721,桃園民光藥局,桃園市桃園區中正路５６９號,121.3049,25.0041,(03)3364888,羅氏家用新冠病毒抗原自我檢測套組,78,2022/05/08 14:30:02,快篩實名制，每天16:00開始販售，售完為止。
5932013749,桃園寶山藥局,桃園市桃園區寶山街７２號,121.3175,25.01291,(03)3250562,羅氏家用新冠病毒抗原自我檢測套組,78,2022/05/08 14:30:02,快篩實名制，每天16:00開始販售，售完為止。
5932013918,益壽藥局,桃園市桃園區中山路８２８、８３０、８３２、８３４、８３６號,121.2902,24.99093,(03)3693100,羅氏家用新冠病毒抗原自我檢測套組,78,2022/05/08 14:30:02,快篩實名制，每天16:00開始販售，售完為止。
5932013990,福澤大業藥局,桃園市桃園區大業路１段４２２號１樓,121.3118,25.01473,(03)3563865,羅氏家用新冠病毒抗原自我檢測套組,78,2022/05/08 14:30:02,家用快篩販賣時段15:30至售完為止
5932014059,桃園南平藥局,桃園市桃園區南平路３０２－１號１樓,121.2989,25.01855,(03)3165222,羅氏家用新冠病毒抗原自我檢測套組,78,2022/05/08 14:30:02,快篩實名制，每天16:00開始販售，售完為止。
5932014273,藝文藥局,桃園市桃園區大興西路１段１６５號,121.3049,25.01414,(03)3261789,羅氏家用新冠病毒抗原自我檢測套組,78,2022/05/08 14:30:02,快篩實名制，每天16:00開始販售，售完為止。
5932014326,闔新藥局,桃園市桃園區中正路５７６號１樓,121.3054,25.00388,(03)3317279,羅氏家用新冠病毒抗原自我檢測套組,30,2022/05/08 14:30:02,營業時間:9:00-21:00，實名制快篩領取時間14:30開始，現場排隊
5932014424,桃園中山藥局,桃園市桃園區中山路７０７號,121.2914,24.99079,(03)2207168,羅氏家用新冠病毒抗原自我檢測套組,78,2022/05/08 14:30:02,快篩實名制，每天16:00開始販售，售完為止。
5932014460,桃鶯藥局,桃園市桃園區桃鶯路１０２號,121.318,24.98516,(03)3675100,羅氏家用新冠病毒抗原自我檢測套組,78,2022/05/08 14:30:02,快篩實名制，每天16:00開始販售，售完為止。
5932021438,全球永美大藥局,桃園市中壢區中山東路二段５３０號１至２樓,121.2454,24.9468,(03)4661839,羅氏家用新冠病毒抗原自我檢測套組,2,2022/05/08 14:30:02,營業時間:9:00-22:00
5932022631,中壢中正藥局,桃園市中壢區中正路３６３、３６５號,121.2163,24.95532,(03)4014100,羅氏家用新冠病毒抗原自我檢測套組,78,2022/05/08 14:30:02,快篩實名制，每天16:00開始販售，售完為止。
5932023094,中壢民權藥局,桃園市中壢區民權路３２６、３２８號,121.2054,25.0001,(03)4014961,羅氏家用新冠病毒抗原自我檢測套組,1,2022/05/08 14:30:02,實聯制快篩每天78份週一至週六下午1350拿取號碼牌1400開始販售.依序入場販售.過號視同放棄
5932023325,新資生榮民大藥局,桃園市中壢區興仁里榮民路１０３號,121.2608,24.9682,(03)4516644,羅氏家用新冠病毒抗原自我檢測套組,8,2022/05/08 14:30:02,實名制快篩販賣時段：下午2點起
5932023656,思琁藥師藥局,桃園市中壢區中北路二段４３０號,121.2331,24.95448,(03)4162189,羅氏家用新冠病毒抗原自我檢測套組,1,2022/05/08 14:30:02,週一~週五早上10:30發快篩..週六公休..週日看到貨狀況再另行公告
5932023889,華勛藥局,桃園市中壢區華勛街１１２、１１４號,121.2597,24.95065,(03)4161881,羅氏家用新冠病毒抗原自我檢測套組,1,2022/05/08 14:30:02,快篩實名制，每天16:00開始販售，售完為止。
5932024260,新資生福州大藥局,桃園市中壢區福州二街４０９號,121.232,24.96789,(03)3606180,羅氏家用新冠病毒抗原自我檢測套組,19,2022/05/08 14:30:02,營業時間：星期六 日 上午0900至下午1000
5932024279,中壢環東藥局,桃園市中壢區中山東路２段１９３號,121.2404,24.95171,(03)4562345,羅氏家用新冠病毒抗原自我檢測套組,78,2022/05/08 14:30:02,快篩實名制，每天16:00開始販售，售完為止。
5932031729,德安堂藥局,桃園市大溪區介壽路８９２號,121.2837,24.90016,(03)3808173,羅氏家用新冠病毒抗原自我檢測套組,78,2022/05/08 14:30:02,快篩實名制，每天16:00開始販售，售完為止。
5932031907,福澤大溪藥局,桃園市大溪區復興路１０５號１樓,121.2911,24.87917,(03)3884886,羅氏家用新冠病毒抗原自我檢測套組,1,2022/05/08 14:30:02,家用快篩販賣時段15:30至售完為止
5932043336,楊梅藥局,桃園市楊梅區大成路１４８、１５０號,121.1458,24.91148,(03)4880776,羅氏家用新冠病毒抗原自我檢測套組,78,2022/05/08 14:30:02,快篩實名制，每天16:00開始販售，售完為止。
5932052228,大竹藥師藥局,桃園市蘆竹區南竹路五段二五九號,121.2594,25.02454,(03)3232508,羅氏家用新冠病毒抗原自我檢測套組,45,2022/05/08 14:30:02,快篩販賣時段：14:30起可購買至售完為止
5932052826,青新藥師藥局,桃園市蘆竹區南竹路五段２５１之１號,121.2597,25.0247,(03)3134328,羅氏家用新冠病毒抗原自我檢測套組,1,2022/05/08 14:30:02,無
5932052853,奇安藥局,桃園市蘆竹區南昌路２６９號,121.2921,25.03999,(03)2120207,羅氏家用新冠病毒抗原自我檢測套組,76,2022/05/08 14:30:02,無
5932052924,青青藥師藥局,桃園市蘆竹區南山路三段３１３號１樓,121.2861,25.08533,(03)3240338,羅氏家用新冠病毒抗原自我檢測套組,26,2022/05/08 14:30:02,口罩販賣時段：週一至週日09:00起
5932052979,南崁藥局,桃園市蘆竹區中正路２５１、２５３、２５５號,121.2921,25.04695,(03)3522022,羅氏家用新冠病毒抗原自我檢測套組,157,2022/05/08 14:30:02,快篩實名制，每天16:00開始販售，售完為止。
5932062439,青埔長青藥師藥局,桃園市大園區新生路四段２５１號,121.2134,25.0081,(03)3815097,羅氏家用新冠病毒抗原自我檢測套組,11,2022/05/08 14:30:02,快篩販賣時段 : 14:00開賣，現場排隊，售完為止
5932076255,安得福藥局,桃園市龜山區萬壽路一段２８１號,121.4035,25.01723,(02)82001467,羅氏家用新冠病毒抗原自我檢測套組,16,2022/05/08 14:30:02,口罩販賣時段：13：00開始發號碼牌排隊領取過號重排
5932076862,和信藥局,桃園市龜山區南祥路５８號１樓,121.2979,25.04629,(03)2124028,羅氏家用新冠病毒抗原自我檢測套組,2,2022/05/08 14:30:02,快篩販賣時段：每日中午12點，5／8（日）母親節公休一日。
5932077056,桃園龜山藥局,桃園市龜山區萬壽路二段８９６號,121.3394,24.99586,(03)3203312,羅氏家用新冠病毒抗原自我檢測套組,78,2022/05/08 14:30:02,快篩實名制，每天16:00開始販售，售完為止。
5932077305,全興藥局,桃園市龜山區光峰路１５３號１樓,121.3427,25.0026,(03)3597901,羅氏家用新冠病毒抗原自我檢測套組,2,2022/05/08 14:30:02,上午8:30開始販售實名制快篩試劑，禮拜日公休。
5932077510,左外野藥局,桃園市龜山區文光街６號１樓,121.3802,25.05471,(03)3271503,羅氏家用新冠病毒抗原自我檢測套組,75,2022/05/08 14:30:02,快篩販售:晚上19:30至20:30（週五公休）*不發號碼牌 請直接排隊購買
5932077627,文興藥局,桃園市龜山區復興一路１０２號１、２、３樓,121.368,25.0592,(03)3285330,羅氏家用新冠病毒抗原自我檢測套組,78,2022/05/08 14:30:02,快篩實名制，每天16:00開始販售，售完為止。
5932080455,日鴻藥局,桃園市八德區義勇街１７５號,121.3065,24.96335,(03)3763304,羅氏家用新冠病毒抗原自我檢測套組,78,2022/05/08 14:30:02,口罩販賣時段：早上9:00 發號碼牌下午4:00~6:00領取
5932083714,佳美大藥局,桃園市八德區介壽路一段六八八號,121.3006,24.96636,(03)3772239,羅氏家用新冠病毒抗原自我檢測套組,11,2022/05/08 14:30:02,營業時間:9:00-22:00，快篩14:00販售
5932084319,新寶樹藥局,桃園市八德區介壽路一段９６６號,121.2991,24.95818,(03)3770000,羅氏家用新冠病毒抗原自我檢測套組,78,2022/05/08 14:30:02,快篩試劑  禮拜一至六 1430開始販售，週日1500開始販售
5932084462,興豐丁丁藥局,桃園市八德區興豐路４３５號,121.2895,24.92983,(03)3689287,羅氏家用新冠病毒抗原自我檢測套組,13,2022/05/08 14:30:02,無
5932099927,大心聯合藥局,桃園市龍潭區中興路３９０號,121.2313,24.87337,(03)4897998,羅氏家用新冠病毒抗原自我檢測套組,78,2022/05/08 14:30:02,快篩實名制：週一至週日下午15:30開始販售
5932099954,新資生龍潭中正大藥局,桃園市龍潭區中正路１４０—１號１樓,121.2212,24.85382,(03)3606180,羅氏家用新冠病毒抗原自我檢測套組,15,2022/05/08 14:30:02,下午2時開始售完為止
5932100934,崴皓藥師藥局,桃園市平鎮區平東路１３２號,121.2506,24.91727,(03)4500915,羅氏家用新冠病毒抗原自我檢測套組,55,2022/05/08 14:30:02,實名制快篩販售時間『下午14:30開始』，一人一張健保卡，請自備500元，不收銅板。售完為止
5932101137,平鎮延平藥局,桃園市平鎮區延平路二段４３０巷７９—１６號,121.206,24.94458,(03)4918187,羅氏家用新冠病毒抗原自我檢測套組,166,2022/05/08 14:30:02,周一~周六，下午1點~3點販售公費快篩，12:58發放號碼牌，每日30份，請自備500元，不找零
5932101253,新大賀藥局,桃園市平鎮區新榮路２５９號１樓,121.2135,24.94617,(03)4927100,羅氏家用新冠病毒抗原自我檢測套組,7,2022/05/08 14:30:02,下午兩點開始發號碼牌販售快篩
5933031698,好好藥局,新竹縣竹東鎮中興路三段２７６號,121.0542,24.76925,(03)5830678,羅氏家用新冠病毒抗原自我檢測套組,7,2022/05/08 14:30:02,販賣時段：星期一至星期日下午2:00開始購買
5933031769,竹東朝陽藥局,新竹縣竹東鎮朝陽路１號１、２樓,121.0852,24.74199,(03)5111166,羅氏家用新冠病毒抗原自我檢測套組,78,2022/05/08 14:30:02,快篩實名制，每天16:00開始販售，售完為止。
5933031885,東林藥局,新竹縣竹東鎮東林路８０號,121.0913,24.73683,(03)5961321,羅氏家用新冠病毒抗原自我檢測套組,78,2022/05/08 14:30:02,快篩實名制，每天16:00開始販售，售完為止。
5933053407,方米藥局,新竹縣竹北市博愛街５１１號,121.0106,24.8393,(03)5510015,羅氏家用新冠病毒抗原自我檢測套組,15,2022/05/08 14:30:02,實名制快篩，下午兩點發號碼牌並開賣
5933053489,十興藥局,新竹縣竹北市莊敬五街７５號,121.0268,24.82346,(03)6684889,羅氏家用新冠病毒抗原自我檢測套組,78,2022/05/08 14:30:02,快篩實名制，每天16:00開始販售，售完為止。
5933053550,六家藥局,新竹縣竹北市六家一路一段１６３號,121.0289,24.80958,(03)6578456,羅氏家用新冠病毒抗原自我檢測套組,78,2022/05/08 14:30:02,快篩實名制，每天16:00開始販售，售完為止。
5933053596,中華藥局,新竹縣竹北市中華路２２６號１、２樓,121.0028,24.83118,(03)5513031,羅氏家用新冠病毒抗原自我檢測套組,78,2022/05/08 14:30:02,快篩實名制，每天16:00開始販售，售完為止。
5933081536,昌昌藥局,新竹縣新豐鄉新市路１９３號,120.9846,24.90465,(03)5598077,羅氏家用新冠病毒抗原自我檢測套組,24,2022/05/08 14:30:02,5／8（日）取得號碼牌者→隨時取貨。5／9（一）上午8:00開始發放號碼牌。
5933081607,新豐藥局,新竹縣新豐鄉中興路２０８、２１０號,120.9949,24.87571,(03)5575005,羅氏家用新冠病毒抗原自我檢測套組,78,2022/05/08 14:30:02,快篩實名制，每天16:00開始販售，售完為止。
5934012473,宜蘭藥局,宜蘭縣宜蘭市泰山路３６號,121.7485,24.75524,(03)9365168,羅氏家用新冠病毒抗原自我檢測套組,78,2022/05/08 14:30:02,快篩實名制，每天16:00開始販售，售完為止。
5934022175,公正藥局,宜蘭縣羅東鎮興東路１３７、１３９號,121.769,24.6802,(03)9560543,羅氏家用新冠病毒抗原自我檢測套組,78,2022/05/08 14:30:02,快篩實名制，每天16:00開始販售，售完為止。
5935011783,芳鄰國際連鎖藥局,苗栗縣苗栗市中山路５６７號,120.8201,24.55826,(037)330580,羅氏家用新冠病毒抗原自我檢測套組,68,2022/05/08 14:30:02,快篩販賣時段：14:00開始發放號碼牌 16:00-18:00領取快篩
5935012413,苗栗藥局,苗栗縣苗栗市光復路５５號,120.8165,24.5532,(037)360789,羅氏家用新冠病毒抗原自我檢測套組,78,2022/05/08 14:30:02,快篩實名制，每天16:00開始販售，售完為止。
5935021412,信和大心藥局,苗栗縣苑裡鎮為公路３４－３號,120.654,24.44252,(037)861352,羅氏家用新冠病毒抗原自我檢測套組,78,2022/05/08 14:30:02,本周開賣時間 下午三點整
5935021430,苑裡藥局,苗栗縣苑裡鎮為公路３２－１號,120.6541,24.44247,(037)851331,羅氏家用新冠病毒抗原自我檢測套組,78,2022/05/08 14:30:02,快篩實名制，每天16:00開始販售，售完為止。
5935021458,沐安藥局,苗栗縣苑裡鎮客庄里信義路１－１０號１樓,120.653,24.43873,(037)868600,羅氏家用新冠病毒抗原自我檢測套組,75,2022/05/08 14:30:02,星期天快篩14點發號碼牌，販售為15-18點、19-21點；星期1至6的快篩8點開始發號碼牌。販售時間8-12點、15-18點、19-21點
5935030171,立安藥局,苗栗縣通霄鎮信義路１０７號,120.6804,24.48877,(037)760100,羅氏家用新冠病毒抗原自我檢測套組,1,2022/05/08 14:30:02,快篩實名制 週一到週六下午15:00開始販售  售完為止
5935030180,通霄藥局,苗栗縣通霄鎮中山路１３１號,120.678,24.48903,(037)755155,羅氏家用新冠病毒抗原自我檢測套組,64,2022/05/08 14:30:02,快篩實名制，每天16:00開始販售，售完為止。
5935041914,合康連鎖藥局,苗栗縣竹南鎮博愛街２７０號,120.8725,24.68724,(037)474987,羅氏家用新冠病毒抗原自我檢測套組,78,2022/05/08 14:30:02,販售快篩時間為下午17:00開始販售
5935061452,後龍藥局,苗栗縣後龍鎮中山路２０９號１樓,120.7931,24.6127,(037)723660,羅氏家用新冠病毒抗原自我檢測套組,78,2022/05/08 14:30:02,快篩實名制，每天16:00開始販售，售完為止。
5935090015,永信藥局,苗栗縣公館鄉館中村榮光街１６號,120.8271,24.50226,(037)223597,羅氏家用新冠病毒抗原自我檢測套組,67,2022/05/08 14:30:02,每日下午3點開始販售快篩
5935091245,芳鄰藥局,苗栗縣公館鄉玉泉村玉泉３６８之１１號,120.8267,24.50749,(037)223727,羅氏家用新冠病毒抗原自我檢測套組,14,2022/05/08 14:30:02,口罩販賣時段：13:00~售完
5936010628,協安大藥局,臺中市豐原區府前街６３號,120.7184,24.24957,(04)25200808,羅氏家用新冠病毒抗原自我檢測套組,28,2022/05/08 14:30:02,實名制快篩販售時間為每日下午兩點。
5936010780,復生藥局,臺中市豐原區田心路２段２６９號,120.7226,24.23821,(04)25261803,羅氏家用新冠病毒抗原自我檢測套組,23,2022/05/08 14:30:02,營業時間９：００～２１：３０，實名制快篩每日下午２：００販售
5936051441,永富藥局,臺中市沙鹿區中山路２８６號,120.5602,24.23833,(04)26625339,羅氏家用新冠病毒抗原自我檢測套組,1,2022/05/08 14:30:02,*每日14:00開始販賣防疫快篩試劑
5936102998,妙昌藥局學府店,臺中市大雅區學府路２９９號,120.6491,24.22479,(04)25689841,羅氏家用新冠病毒抗原自我檢測套組,53,2022/05/08 14:30:02,無
5936111148,荷仕康藥局,臺中市新社區興安路１８－３３號,120.8078,24.24042,(04)25826258,羅氏家用新冠病毒抗原自我檢測套組,18,2022/05/08 14:30:02,快篩下午2點開始販售
5936150305,吳藥局,臺中市烏日區烏日里中山路二段２２４號,120.6219,24.1066,(04)23381148,羅氏家用新冠病毒抗原自我檢測套組,16,2022/05/08 14:30:02,早上如有配送 下午2:00販售
5936171402,上華藥局,臺中市龍井區新興路３７號,120.5882,24.18084,(04)26320433,羅氏家用新冠病毒抗原自我檢測套組,18,2022/05/08 14:30:02,周一至周日快篩販賣時間下午2點開始販售，賣完為止
5936180152,祥暘藥局,臺中市霧峰區中正路１１６２號,120.6996,24.07068,(04)23391346,羅氏家用新冠病毒抗原自我檢測套組,78,2022/05/08 14:30:02,快篩實名制，每天16:00開始販售，售完為止。
5936190710,東亞藥師大藥局,臺中市太平區中興路６６號,120.7167,24.12806,(04)22787987,羅氏家用新冠病毒抗原自我檢測套組,2,2022/05/08 14:30:02,每日早上9:00先領號碼牌下午2:00~10:00領快篩試劑
5936192312,安麗兒藥局太平店,臺中市太平區太平路１９０號,120.7204,24.12088,(04)22798819,羅氏家用新冠病毒抗原自我檢測套組,76,2022/05/08 14:30:02,快篩販售時間下午3點（15:00）開始.售完為止
5936209287,德芳大藥局,臺中市大里區益民路二段３０４號１、２樓,120.684,24.11183,(04)24815932,羅氏家用新冠病毒抗原自我檢測套組,3,2022/05/08 14:30:02,快篩販售時間:下午3點~6點
593620B138,聯生中西健保藥局,臺中市大里區現岱路１５８巷１１號,120.6919,24.10295,(04)24834058,羅氏家用新冠病毒抗原自我檢測套組,9,2022/05/08 14:30:02,早上八點半領號碼牌下午四點到六點領口罩W6W日早七點
5937013436,大埔藥局,彰化縣彰化市大埔路４０６、４０８、４１０、４１２號,120.5439,24.06298,(04)7117511,羅氏家用新冠病毒抗原自我檢測套組,78,2022/05/08 14:30:02,快篩實名制，每天16:00開始販售，售完為止。
5937013570,彰化藥局,彰化縣彰化市永安街２７８、２８０號,120.5438,24.08977,(04)7287877,羅氏家用新冠病毒抗原自我檢測套組,78,2022/05/08 14:30:02,快篩實名制，每天16:00開始販售，售完為止。
5937013767,民族藥局,彰化縣彰化市民族路２１２號１樓,120.5393,24.071,(04)7261221,羅氏家用新冠病毒抗原自我檢測套組,78,2022/05/08 14:30:02,快篩實名制，每天16:00開始販售，售完為止。
5937021849,大樹鹿港藥局,彰化縣鹿港鎮中正路１９３號,120.4405,24.05491,(04)7772226,羅氏家用新冠病毒抗原自我檢測套組,78,2022/05/08 14:30:02,快篩實名制，每天16:00開始販售，售完為止。
5937031747,大樹和美藥局,彰化縣和美鎮道周路５０１號,120.494,24.10896,(04)7550090,羅氏家用新冠病毒抗原自我檢測套組,78,2022/05/08 14:30:02,快篩實名制，每天16:00開始販售，售完為止。
5937041369,北斗福倫藥局,彰化縣北斗鎮西德里斗苑路１段４２５、４２７號,120.5177,23.87305,(04)8886618,羅氏家用新冠病毒抗原自我檢測套組,78,2022/05/08 14:30:02,星期一~星期日每天下午3:00開始販售.人多同時間於2:50發號碼牌.取牌後保留10分鐘
5937050135,信昇藥局,彰化縣員林市大同路二段１８２－１號,120.575,23.96908,(04)8358827,羅氏家用新冠病毒抗原自我檢測套組,38,2022/05/08 14:30:02,快篩試劑販售時間-每日下午2點半開始.售完為止
5937050377,廣生堂藥局,彰化縣員林市中山里中山路一段７４３、７４５號,120.5706,23.95915,(04)8320627,羅氏家用新冠病毒抗原自我檢測套組,2,2022/05/08 14:30:02,下午2點發放快篩.不發號碼牌
5937051794,愛康生活保健中西藥局,彰化縣員林市靜修東路３４號,120.5753,23.96302,(04)8328826,羅氏家用新冠病毒抗原自我檢測套組,73,2022/05/08 14:30:02,星期一到星期日~下午2:30開始販售政府快篩，售完為止。（全年無休）
5937052264,醫聯藥師藥局,彰化縣員林市三條里員東路二段４１０號１樓,120.5811,23.95898,(04)8360617,羅氏家用新冠病毒抗原自我檢測套組,9,2022/05/08 14:30:02,無
5937052335,大樹三民藥局,彰化縣員林市三民東街３５６號,120.5825,23.96065,(04)8372837,羅氏家用新冠病毒抗原自我檢測套組,76,2022/05/08 14:30:02,快篩實名制，每天16:00開始販售，售完為止。
5937052479,莒光藥局,彰化縣員林市莒光路３１６號１樓,120.5669,23.95942,(04)8361388,羅氏家用新冠病毒抗原自我檢測套組,79,2022/05/08 14:30:02,快篩實名制，每天16:00開始販售，售完為止。
5937052488,大樹員林藥局,彰化縣員林市大同路二段２０７號,120.5745,23.96891,(04)8331353,羅氏家用新冠病毒抗原自我檢測套組,78,2022/05/08 14:30:02,快篩實名制，每天16:00開始販售，售完為止。
5937052504,佑全員林中正藥局,彰化縣員林市中正路１３５，１３７號１樓,120.5714,23.96324,(04)8368669,羅氏家用新冠病毒抗原自我檢測套組,2,2022/05/08 14:30:02,無
5937061718,東環藥局,彰化縣溪湖鎮湖東街８１巷７０－３、７０－４、７０－５號,120.4833,23.95861,(04)8820001,羅氏家用新冠病毒抗原自我檢測套組,78,2022/05/08 14:30:02,快篩實名制，每天16:00開始販售，售完為止。
5937070191,仁春藥局,彰化縣田中鎮員集路二段４５３、４５５號,120.5861,23.86559,(04)8742409,羅氏家用新冠病毒抗原自我檢測套組,46,2022/05/08 14:30:02,5月1日起下午兩點開始發放號碼牌販售快篩劑
5937071474,田中藥局,彰化縣田中鎮新生街１５０巷２號,120.5862,23.8621,(04)8761988,羅氏家用新冠病毒抗原自我檢測套組,78,2022/05/08 14:30:02,快篩實名制，每天16:00開始販售，售完為止。
5937081596,二林藥局,彰化縣二林鎮斗苑路五段３９號,120.3709,23.89951,(04)8950010,羅氏家用新冠病毒抗原自我檢測套組,78,2022/05/08 14:30:02,快篩實名制，每天16:00開始販售，售完為止。
5937101253,佑全伸港新港藥局,彰化縣伸港鄉新港路１６６、１６８號,120.487,24.1459,(04)7980979,羅氏家用新冠病毒抗原自我檢測套組,23,2022/05/08 14:30:02,疫情期間營業時間改為早上9點至晚上9點，快篩試劑如果有貨，下午2點開賣
5937181304,永靖藥局,彰化縣永靖鄉瑚璉路１１６號,120.5505,23.92624,(04)8230220,羅氏家用新冠病毒抗原自我檢測套組,78,2022/05/08 14:30:02,快篩實名制，每天16:00開始販售，售完為止。
5937201105,安利藥局,彰化縣二水鄉光化村員集路４段３號,120.6159,23.81147,(04)8794933,羅氏家用新冠病毒抗原自我檢測套組,60,2022/05/08 14:30:02,快篩下午3點現場販售 不發號碼牌 身障.醫護可優先購買
5938010546,福倫藥局,南投縣南投市南陽路３４５號,120.6835,23.91306,(049)2202918,羅氏家用新冠病毒抗原自我檢測套組,58,2022/05/08 14:30:02,每日下午3點開始發放號碼牌並販售
5938011909,彰南藥局,南投縣南投市彰南路二段２１號,120.6845,23.90847,(049)2230005,羅氏家用新冠病毒抗原自我檢測套組,78,2022/05/08 14:30:02,無
5938021683,埔里啄木鳥藥局,南投縣埔里鎮中山路三段４６７號,120.9537,23.96959,(049)2914510,羅氏家用新冠病毒抗原自我檢測套組,78,2022/05/08 14:30:02,實名制快篩 當天下午3點開賣＜請排隊購買＞5／11及5／25提早下午2點賣
5938021781,幸福藥局,南投縣埔里鎮中正路５４８號,120.9643,23.96946,(049)2999800,羅氏家用新冠病毒抗原自我檢測套組,17,2022/05/08 14:30:02,無
5938022064,大樹埔里藥局,南投縣埔里鎮中正路４３８號,120.9632,23.97263,(049)2980805,羅氏家用新冠病毒抗原自我檢測套組,78,2022/05/08 14:30:02,快篩實名制，每天16:00開始販售，售完為止。
5938032480,草屯藥局,南投縣草屯鎮碧山路１４５、１４７號,120.6834,23.9778,(049)2362992,羅氏家用新冠病毒抗原自我檢測套組,78,2022/05/08 14:30:02,快篩實名制，每天16:00開始販售，售完為止。
5938032524,佑全草屯中興藥局,南投縣草屯鎮中興路７８號,120.6821,23.97413,(049)2323440,羅氏家用新冠病毒抗原自我檢測套組,10,2022/05/08 14:30:02,快篩試劑販售時間:下午2點後
5938032560,祥陽藥局,南投縣草屯鎮中正路８２２、８２４號,120.6854,23.98276,(049)2353393,羅氏家用新冠病毒抗原自我檢測套組,78,2022/05/08 14:30:02,快篩實名制，每天16:00開始販售，售完為止。
5938041916,大明藥局,南投縣竹山鎮大明路４８２號,120.6798,23.759,(049)2652500,羅氏家用新冠病毒抗原自我檢測套組,78,2022/05/08 14:30:02,快篩實名制，每天16:00開始販售，售完為止。
5938110078,立特藥局,南投縣水里鄉中央村中正路６８號,120.8543,23.81587,(049)2775837,羅氏家用新冠病毒抗原自我檢測套組,2,2022/05/08 14:30:02,每天早上8點現場排隊持健保卡領號碼牌，中午12點至晚上9點半持號碼牌領快篩劑.
5939011850,明真西藥局,雲林縣斗六市自由路１號,120.5447,23.70513,(05)5321605,羅氏家用新冠病毒抗原自我檢測套組,9,2022/05/08 14:30:02,口罩販售:早上0800-1200中午1200-1400休息下午1400到2100賣完為止
5939012240,究安藥局,雲林縣斗六市雲林路二段２０２號,120.5311,23.70307,(05)5375697,羅氏家用新冠病毒抗原自我檢測套組,63,2022/05/08 14:30:02,5／7星期六快篩早上九點發貨，請到現場拿貨.，不要電話諮詢，人力不夠
5939012615,佑全斗六慶生藥局,雲林縣斗六市慶生路２６號,120.5402,23.71281,(05)5372736,羅氏家用新冠病毒抗原自我檢測套組,1,2022/05/08 14:30:02,快篩實名制，下午兩點販售。
5939021543,惠宏藥局,雲林縣斗南鎮延平路２段２６４號,120.4786,23.67841,(05)5953727,羅氏家用新冠病毒抗原自我檢測套組,5,2022/05/08 14:30:02,快篩販售時間為下午2:00
5939021614,斗南藥局,雲林縣斗南鎮南昌路１１２號,120.4791,23.67321,(05)5960102,羅氏家用新冠病毒抗原自我檢測套組,78,2022/05/08 14:30:02,無
5939031576,良方藥局,雲林縣虎尾鎮中山路５７號,120.4344,23.70764,(05)6312106,羅氏家用新冠病毒抗原自我檢測套組,78,2022/05/08 14:30:02,周日休息.5／9（一）上午8點開賣78份，另下午2點半開賣78份.現場排隊!!
5939031996,端發藥局,雲林縣虎尾鎮林森路一段３２９號,120.4368,23.71237,(05)6314168,羅氏家用新冠病毒抗原自我檢測套組,49,2022/05/08 14:30:02,販賣快篩時間:每日14:30-售完為止請提早排隊
5939032546,惠眾藥局,雲林縣虎尾鎮林森路二段１６９號,120.4289,23.70476,(05)6363350,羅氏家用新冠病毒抗原自我檢測套組,1,2022/05/08 14:30:02,實名制快篩每日下午兩點開始健保卡兌換（視現場人數提前發號碼牌，發完即止）
5939032564,林森瑞安藥局,雲林縣虎尾鎮林森路二段８９號,120.43,23.70645,(05)6328034,羅氏家用新冠病毒抗原自我檢測套組,4,2022/05/08 14:30:02,販賣口罩時間:星期一~日 下午1400-售完為止
5939041849,西螺藥局,雲林縣西螺鎮光復西路１２３、１２５號,120.4612,23.79675,(05)5872112,羅氏家用新冠病毒抗原自我檢測套組,78,2022/05/08 14:30:02,快篩實名制，每天16:00開始販售，售完為止。
5939051238,天愛藥局,雲林縣土庫鎮中山路８０號,120.3903,23.6749,(05)6629923,羅氏家用新冠病毒抗原自我檢測套組,72,2022/05/08 14:30:02,無
5939061949,大樹北港藥局,雲林縣北港鎮華勝路９９號,120.2986,23.57559,(05)7830783,羅氏家用新冠病毒抗原自我檢測套組,78,2022/05/08 14:30:02,快篩實名制，每天16:00開始販售，售完為止。
5939071276,慈生藥局,雲林縣古坑鄉麻園村平和２２號,120.5203,23.6351,(05)5828222,羅氏家用新冠病毒抗原自我檢測套組,15,2022/05/08 14:30:02,週三.四.六.日下午3-5點販售實名制快篩
5939131482,麥津藥局,雲林縣麥寮鄉中山路３１３、３１５號,120.2527,23.74947,(05)6932258,羅氏家用新冠病毒抗原自我檢測套組,78,2022/05/08 14:30:02,快篩實名制，每天16:00開始販售，售完為止。
5939171093,和平藥局,雲林縣元長鄉下寮村東興路３３號,120.334,23.61849,(05)7862551,羅氏家用新冠病毒抗原自我檢測套組,15,2022/05/08 14:30:02,販賣口罩時間：0800開賣，賣完為止
5940011777,朴子啄木鳥藥局,嘉義縣朴子市永和里應菜埔２９－３號,120.2323,23.46336,(05)3208028,羅氏家用新冠病毒抗原自我檢測套組,11,2022/05/08 14:30:02,平日13:00販售快篩.六日14:00販售快篩
5940031386,大樹大林藥局,嘉義縣大林鎮祥和路１９２號,120.4527,23.60447,(05)2641800,羅氏家用新冠病毒抗原自我檢測套組,78,2022/05/08 14:30:02,快篩實名制，每天16:00開始販售，售完為止。
5940040170,健安藥局,嘉義縣民雄鄉興南村頭橋４５號,120.439,23.52336,(05)2211797,羅氏家用新冠病毒抗原自我檢測套組,76,2022/05/08 14:30:02,營業:上午9點至下午9點.週日休-下午6點售快篩
5940041622,大順藥局,嘉義縣民雄鄉福樂村埤角１３９號,120.44,23.52429,(05)2201138,羅氏家用新冠病毒抗原自我檢測套組,20,2022/05/08 14:30:02,快篩領取:星期一至日下午2點，售完為止
5940041739,民雄藥局,嘉義縣民雄鄉東榮村００５鄰建國路一段１１７號,120.4333,23.55681,(05)2264566,羅氏家用新冠病毒抗原自我檢測套組,78,2022/05/08 14:30:02,快篩實名制，每天16:00開始販售，售完為止。
5940041784,福興瑞安藥局,嘉義縣民雄鄉東榮村東榮路１０號,120.4332,23.55743,(05)2265396,羅氏家用新冠病毒抗原自我檢測套組,37,2022/05/08 14:30:02,因物流配送時間不確定，每日實名制快篩販售時間請見Facebook粉絲專頁或goole maps貼文公告
5940121376,水上弘安藥局,嘉義縣水上鄉寬士村崎子頭１號附１２５,120.4292,23.45,(05)2858000,羅氏家用新冠病毒抗原自我檢測套組,28,2022/05/08 14:30:02,08:00-22:00營業 快篩實名制因配送時間不定、販售時間將於本店群組公告
5940121394,水上藥局,嘉義縣水上鄉水頭村中興路２６６號,120.4029,23.43014,(05)2601121,羅氏家用新冠病毒抗原自我檢測套組,78,2022/05/08 14:30:02,快篩實名制，每天16:00開始販售，售完為止。
5940131283,一心藥局,嘉義縣中埔鄉富收村頂中下街３１、３１－１號１樓,120.4885,23.45077,(05)2303553,羅氏家用新冠病毒抗原自我檢測套組,60,2022/05/08 14:30:02,無
5940141305,東義藥局,嘉義縣竹崎鄉獅埜村東義２０－１８號,120.4898,23.51273,(05)2110957,羅氏家用新冠病毒抗原自我檢測套組,5,2022/05/08 14:30:02,無
5941040049,安安藥局,臺南市麻豆區興中路８８號,120.2507,23.18354,(06)5727475,羅氏家用新冠病毒抗原自我檢測套組,29,2022/05/08 14:30:02,營業時間：上午8:00-晚上10:00
5941061342,安麗兒藥局新化店,臺南市新化區忠孝路１１６之３號,120.3045,23.03802,(06)5986029,羅氏家用新冠病毒抗原自我檢測套組,1,2022/05/08 14:30:02,實名制快篩販售時間:星期一~星期日下午2點~售完
5941080016,世酆藥局,臺南市學甲區仁得里成功路１１－１號,120.1805,23.23176,(06)7838779,羅氏家用新冠病毒抗原自我檢測套組,49,2022/05/08 14:30:02,口罩販售時間：07:30-120 份  15:00-80份
5941201161,安麗兒藥局新市店,臺南市新市區新和里中正路２６０號,120.2919,23.07716,(06)5012699,羅氏家用新冠病毒抗原自我檢測套組,5,2022/05/08 14:30:02,星期一至星期日下午2:00後至售完
5941270163,太子藥局,臺南市仁德區太子里太子路３３８號,120.2577,22.99146,(06)2729906,羅氏家用新冠病毒抗原自我檢測套組,1,2022/05/08 14:30:02,5／8快篩.已售完.
5941281488,德昌藥師藥局,臺南市歸仁區中山路一段５１６、５１８號,120.2951,22.96743,(06)3303533,羅氏家用新冠病毒抗原自我檢測套組,69,2022/05/08 14:30:02,14:30~售完
5942013797,北京藥局,高雄市鳳山區一甲里五甲二路３４２號１樓,120.3377,22.59963,(07)7117100,羅氏家用新冠病毒抗原自我檢測套組,6,2022/05/08 14:30:02,營業時間早上8點到下午11點，下午2點開始販售快篩
5942050085,福安藥局,高雄市林園區東林里東林西路５１號,120.3953,22.50359,(07)6438833,羅氏家用新冠病毒抗原自我檢測套組,1,2022/05/08 14:30:02,下午14:00開始販售實名制快篩
5942061739,安泰專業藥局,高雄市大寮區鳳林三路８３５號,120.3901,22.61282,(07)7819515,羅氏家用新冠病毒抗原自我檢測套組,73,2022/05/08 14:30:02,每日14:45開始發號碼牌算人數至售完為止
5942081302,奇美藥局,高雄市仁武區文武里中華路４０號,120.3481,22.69788,(07)3757869,羅氏家用新冠病毒抗原自我檢測套組,19,2022/05/08 14:30:02,實名制快篩劑、14:00開始販售、售完為止。
5943010432,億泰藥局,屏東縣屏東市勝利里自由路５８２號,120.4857,22.68355,(08)7324005,羅氏家用新冠病毒抗原自我檢測套組,63,2022/05/08 14:30:02,實名制快篩每日下午3點販售（周日也有）
5943010496,惠恩藥局,屏東縣屏東市空翔里勝利路２０２號,120.4798,22.67914,(08)7664830,羅氏家用新冠病毒抗原自我檢測套組,15,2022/05/08 14:30:02,防疫快篩:5／2起15:00開始販售，售完為止.
5943013362,福安新藥局,屏東縣屏東市華山里大連路４０－１５號,120.5051,22.68312,(08)7377999,羅氏家用新冠病毒抗原自我檢測套組,78,2022/05/08 14:30:02,實名制快篩販售時間週一至週日 下午3:00開始 售完為止
5943013951,大林藥師藥局,屏東縣屏東市平和里仁愛路５９號１樓,120.4924,22.67133,(08)7320680,羅氏家用新冠病毒抗原自我檢測套組,1,2022/05/08 14:30:02,平日14:00~21:00為販賣快篩時間，售完為止
5943014145,廣東藥局,屏東縣屏東市廣東路６８２－２．６８４號,120.4966,22.68527,(08)7362210,羅氏家用新冠病毒抗原自我檢測套組,78,2022/05/08 14:30:02,快篩實名制，每天16:00開始販售，售完為止。
5943014332,千甲台安藥局,屏東縣屏東市武廟里逢甲路９２號,120.4867,22.67045,(08)7330663,羅氏家用新冠病毒抗原自我檢測套組,67,2022/05/08 14:30:02,因政府物流不穩定 每日塊篩販售時間公告於LINE社群https:／／reurl.cc／M0b5VX
5943021480,芳林藥局,屏東縣潮州鎮三和里中正路１９９號,120.54,22.55391,(08)7801919,羅氏家用新冠病毒抗原自我檢測套組,27,2022/05/08 14:30:02,快篩實名制販賣時間為營業日14:00起，售完為止
5943021720,潮州藥局,屏東縣潮州鎮介壽路１－１號,120.536,22.54448,(08)7894000,羅氏家用新冠病毒抗原自我檢測套組,78,2022/05/08 14:30:02,快篩實名制，每天16:00開始販售，售完為止。
5943031833,東港啄木鳥藥局,屏東縣東港鎮興東二街１６號,120.4642,22.47816,(08)8327125,羅氏家用新冠病毒抗原自我檢測套組,10,2022/05/08 14:30:02,下午2:00 （若當天配送延誤，時間另行公布）
5943031851,大眾藥局,屏東縣東港鎮朝隆路７６號,120.4463,22.46862,(08)8354752,羅氏家用新冠病毒抗原自我檢測套組,78,2022/05/08 14:30:02,實名制快篩下午三點開始販售
5943031897,欣大眾藥局,屏東縣東港鎮中正路一段９２號,120.4569,22.47272,(08)8351177,羅氏家用新冠病毒抗原自我檢測套組,78,2022/05/08 14:30:02,無
5943041357,西門藥局,屏東縣恆春鎮西門路１０８號,120.7437,22.00793,(08)8896980,羅氏家用新冠病毒抗原自我檢測套組,78,2022/05/08 14:30:02,快篩實名制，每天16:00開始販售，販售完為止
5943061091,瑞安藥局,屏東縣長治鄉瑞源路１１號,120.5117,22.66511,(08)7237236,羅氏家用新冠病毒抗原自我檢測套組,35,2022/05/08 14:30:02,營業日08；00開始.12點到2點休息
5943091188,里港寶康藥局,屏東縣里港鄉仁和路２４號,120.4938,22.77725,(08)7721189,羅氏家用新冠病毒抗原自我檢測套組,1,2022/05/08 14:30:02,快篩下午13:30開始領取號碼牌
5945012087,信康藥局,花蓮縣花蓮市中華路２９５號,121.5996,23.97499,(03)8320358,羅氏家用新冠病毒抗原自我檢測套組,2,2022/05/08 14:30:02,每日下午1:50領號碼牌，下午2:00整開賣到下午3:00整
5945021086,安康鳳林藥局,花蓮縣鳳林鎮仁愛街１０號１樓,121.4503,23.74937,(03)8762227,羅氏家用新冠病毒抗原自我檢測套組,11,2022/05/08 14:30:02,快篩發放時間，依現場公告為主，售完為止。
5945051646,花蓮建國藥局,花蓮縣吉安鄉建國路１段１３７－１號,121.5915,23.98574,(03)8461699,羅氏家用新冠病毒抗原自我檢測套組,4,2022/05/08 14:30:02,快篩實名制，每天16:00開始販售，售完為止。
5946012367,回春藥局,臺東縣台東市光明路１９６號,121.1507,22.75422,(089)322534,羅氏家用新冠病毒抗原自我檢測套組,1,2022/05/08 14:30:02,領取實名快篩時間 下午2點開始販售
5990010695,百泰藥局,金門縣金城鎮西海路１段１號,118.2864,24.41566,(082)312832,羅氏家用新冠病毒抗原自我檢測套組,156,2022/05/08 14:30:02,快篩實名制，每天16:00開始販售，售完為止。
