醫事機構代碼,醫事機構名稱,醫事機構地址,經度,緯度,醫事機構電話,廠牌項目,快篩試劑截至目前結餘存貨數量,來源資料時間,備註
2336210034,臺中市和平區梨山衛生所,臺中市和平區中正路１２號１樓、６８號１樓,121.2592,24.25678,(04)25989540,羅氏家用新冠病毒抗原自我檢測套組,78,2022/05/08 09:02:03,提供24小時急診待診服務，111年4月28日起，快篩試劑販售時段為周一至周五0900-12:00，六日及國定假日為0900-1100
2340170016,嘉義縣大埔鄉衛生所,嘉義縣大埔鄉大埔村５３－１號,120.5928,23.29397,(05)2521214,羅氏家用新冠病毒抗原自我檢測套組,78,2022/05/08 09:02:03,無
2340180012,嘉義縣阿里山鄉衛生所,嘉義縣阿里山鄉樂野村３鄰９７－２號,120.7019,23.4666,(05)2561573,羅氏家用新冠病毒抗原自我檢測套組,14,2022/05/08 09:02:03,無
2342270019,高雄市那瑪夏區衛生所,高雄市那瑪夏區瑪雅里６鄰平和巷２５２號,120.7024,23.24708,(07)6701142,羅氏家用新冠病毒抗原自我檢測套組,240,2022/05/08 09:02:03,春節期間正常門診
2343290015,屏東縣泰武鄉衛生所,屏東縣泰武鄉佳平村１７９號,120.6327,22.59212,(08)7832059,羅氏家用新冠病毒抗原自我檢測套組,17,2022/05/08 09:02:03,4／2-4／5門診照常
2343310012,屏東縣春日鄉衛生所,屏東縣春日鄉春日村春日路１７６號,120.6251,22.37008,(08)8780358,羅氏家用新冠病毒抗原自我檢測套組,71,2022/05/08 09:02:03,無
2343320018,屏東縣獅子鄉衛生所,屏東縣獅子鄉楓林村楓林二巷３１號,120.7057,22.18402,(08)8771324,羅氏家用新冠病毒抗原自我檢測套組,75,2022/05/08 09:02:03,特休日：每年農曆除夕、初一
2343330014,屏東縣牡丹鄉衛生所,屏東縣牡丹鄉石門村１９號,120.7469,22.10105,(08)8831013,羅氏家用新冠病毒抗原自我檢測套組,67,2022/05/08 09:02:03,無
2344011036,澎湖縣馬公市第三衛生所,澎湖縣馬公市西文里１１８之２號,119.5836,23.56813,(06)9211723,羅氏家用新冠病毒抗原自我檢測套組,137,2022/05/08 09:02:03,本所快篩試劑只提供離島衛生室（虎井、桶盤）販售，時間週一至週五08:30-17:00售完為止，星期六、日國定假日09:00-12:00。
2344030022,澎湖縣白沙鄉鳥嶼衛生所,澎湖縣白沙鄉鳥嶼村漁港新村３號,119.6599,23.66008,(06)9916092,羅氏家用新冠病毒抗原自我檢測套組,116,2022/05/08 09:02:03,非上班時間提供急診服務
2344030031,澎湖縣白沙鄉吉貝衛生所,澎湖縣白沙鄉吉貝村８－１３號,119.6138,23.74056,(06)9911430,羅氏家用新冠病毒抗原自我檢測套組,132,2022/05/08 09:02:03,無
2344050015,澎湖縣望安鄉衛生所,澎湖縣望安鄉西安村３６－７號,119.4972,23.36161,(06)9991036,羅氏家用新冠病毒抗原自我檢測套組,90,2022/05/08 09:02:03,夜間急診。口罩、快篩試劑販售時間為:每日08:00-12:00、13:30-17:30售完為止，如有餘數為離島未售出（東嶼坪、花嶼）。
2344050024,澎湖縣望安鄉將軍衛生所,澎湖縣望安鄉將軍村１２鄰將軍澳１之３號,119.5216,23.3615,(06)9902066,羅氏家用新冠病毒抗原自我檢測套組,133,2022/05/08 09:02:03,24小時急診
2344060011,澎湖縣七美鄉衛生所,澎湖縣七美鄉中和村埔內５４號,119.431,23.2041,(06)9971005,羅氏家用新冠病毒抗原自我檢測套組,116,2022/05/08 09:02:03,無
2345080017,衛生福利部花蓮醫院豐濱原住民分院,花蓮縣豐濱鄉豐濱村光豐路４１號,121.5215,23.60195,(03)8358141,羅氏家用新冠病毒抗原自我檢測套組,78,2022/05/08 09:02:03,*本院口罩每天販售，時間自上午8點至晚上9點  *本院週一至週五上下午皆有門診，星期六隔週提供門診，及24小時急診。
5901010174,仁弘藥局,臺北市松山區民生東路３段１１３巷２５弄６號１樓,121.5466,25.05948,(02)27136764,羅氏家用新冠病毒抗原自我檢測套組,61,2022/05/08 09:02:03,5／8（星期日）早上九點開始發售.不發號碼牌
5901010192,益華藥局,臺北市松山區民生東路５段１３８巷６號,121.5615,25.05827,(02)27624898,羅氏家用新冠病毒抗原自我檢測套組,74,2022/05/08 09:02:03,無
5901011975,萬泰藥局,臺北市松山區敦化北路２２２巷３８號,121.5471,25.05994,(02)27135891,羅氏家用新冠病毒抗原自我檢測套組,85,2022/05/08 09:02:03,每日早上9.00販售快篩試劑
5901012749,躍獅松和藥局,臺北市松山區八德路四段６６６－１號,121.5761,25.04979,(02)27492569,羅氏家用新冠病毒抗原自我檢測套組,78,2022/05/08 09:02:03,實名制快篩販售時段，每日下午4點販售，售完為止
5901012767,晨新藥局,臺北市松山區八德路４段９１巷１－１號,121.5608,25.04894,(02)27422951,羅氏家用新冠病毒抗原自我檢測套組,66,2022/05/08 09:02:03,本店星期一不販售快篩，其餘時間為下午2點至5點。若有修正依店內公告為主。
5901012918,躍獅京華藥局,臺北市松山區南京東路５段７１號,121.5596,25.05172,(02)27666508,羅氏家用新冠病毒抗原自我檢測套組,77,2022/05/08 09:02:03,實名制快篩販售時間：每日早上09:00，無發放號碼牌
5901013362,啄木鳥藥局,臺北市松山區八德路４段２０９號、２１１號（１、２層）,121.564,25.04894,(02)27422413,羅氏家用新冠病毒抗原自我檢測套組,1,2022/05/08 09:02:03,每日早上10點開始販售實名制快篩
5901020616,龍護大藥局,臺北市大安區大安路１段２２４巷７號１Ｆ,121.5454,25.03401,(02)23250686,羅氏家用新冠病毒抗原自我檢測套組,68,2022/05/08 09:02:03,無
5901024178,誠心藥局,臺北市大安區忠孝東路３段１９９－１號,121.5389,25.04188,(02)27527520,羅氏家用新冠病毒抗原自我檢測套組,2,2022/05/08 09:02:03,全年無休 0830-2230
5901024481,微笑藥師藥局,臺北市大安區信義路３段３１巷４號,121.5345,25.03401,(02)27009655,羅氏家用新冠病毒抗原自我檢測套組,75,2022/05/08 09:02:03,9點發放號碼牌，12點前過卡完畢
5901024490,明星大藥局,臺北市大安區光復南路４３０之１號,121.5574,25.03618,(02)27023747,羅氏家用新冠病毒抗原自我檢測套組,2,2022/05/08 09:02:03,無
5901024954,佑全大安敦南藥局,臺北市大安區敦化南路２段６３巷４６號,121.5512,25.03089,(02)23257579,羅氏家用新冠病毒抗原自我檢測套組,78,2022/05/08 09:02:03,早上10點發放號碼牌，同時開始販賣實名制快篩
5901025004,早安藥局,臺北市大安區建國南路２段１５１巷４２號１樓,121.5396,25.02865,(02)27002209,羅氏家用新冠病毒抗原自我檢測套組,50,2022/05/08 09:02:03,快篩早上9點發號碼牌留卡下午2點領取
5901025059,博醫仁愛藥局,臺北市大安區仁愛路４段８巷２號１樓,121.5443,25.0375,(02)27019107,羅氏家用新冠病毒抗原自我檢測套組,78,2022/05/08 09:02:03,每天11:30發號碼牌，12:00~15:00憑號碼牌與健保卡購買實名制快篩
5901025068,鎮安中西安和藥局,臺北市大安區安和路１段１２３號１樓,121.5527,25.03488,(02)27015201,羅氏家用新冠病毒抗原自我檢測套組,61,2022/05/08 09:02:03,無
5901090154,柯藥局,臺北市大同區重慶北路３段３３５巷６號,121.5144,25.07452,(02)25948515,羅氏家用新冠病毒抗原自我檢測套組,129,2022/05/08 09:02:03,库存已零如何歸零
5901090181,時春藥局,臺北市大同區赤峰街４號,121.5191,25.05356,(02)25597918,羅氏家用新冠病毒抗原自我檢測套組,72,2022/05/08 09:02:03,上午9點發號碼牌
5901091624,健康美藥局,臺北市大同區民族西路１６５號,121.5155,25.06872,(02)25976707,羅氏家用新冠病毒抗原自我檢測套組,73,2022/05/08 09:02:03,無
5901091820,富康藥局,臺北市大同區延平北路２段１２６號,121.5115,25.05733,(02)25537782,羅氏家用新冠病毒抗原自我檢測套組,77,2022/05/08 09:02:03,代售快篩早上9:00開始售完為止
5901091884,躍獅雙蓮藥局,臺北市大同區涼州街４號,121.5147,25.06078,(02)25537551,羅氏家用新冠病毒抗原自我檢測套組,108,2022/05/08 09:02:03,實名制快篩：平日週一～五 下午３點開賣 （六、日停售）
5901100155,大信藥局,臺北市中山區林森北路１５９巷６號,121.5255,25.0517,(02)25719080,羅氏家用新冠病毒抗原自我檢測套組,1,2022/05/08 09:02:03,無
5901100628,貢玄藥局,臺北市中山區錦州街２０７號,121.532,25.06039,(02)25637847,羅氏家用新冠病毒抗原自我檢測套組,60,2022/05/08 09:02:03,早上10點~11點領口罩
5901101161,晏晟藥局,臺北市中山區林森北路６２５號,121.5259,25.06703,(02)25851445,羅氏家用新冠病毒抗原自我檢測套組,36,2022/05/08 09:02:03,每日早上九點開始發放號碼牌 （營業時間 星期一至六 9:00-21:00， 星期日9:00-10:30）
5901102631,金生藥局,臺北市中山區長安東路２段１６７－１號,121.5407,25.04843,(02)87729808,羅氏家用新冠病毒抗原自我檢測套組,24,2022/05/08 09:02:03,販售實名制快篩時間為週一~週六早上09:00開始（售完為止）
5901103110,大直健康藥局,臺北市中山區北安路５９１號,121.5486,25.08194,(02)25323310,羅氏家用新冠病毒抗原自我檢測套組,111,2022/05/08 09:02:03,發號碼牌時間:09:00   販售時間:12:00-17:00
5901103558,佳頤中西藥局,臺北市中山區長春路１４７之１號,121.5323,25.05495,(02)25641479,羅氏家用新冠病毒抗原自我檢測套組,87,2022/05/08 09:02:03,實名制快篩販售時間為下午1點起，售完為止，其他販售細節以店內公告為主
5901103772,興耀生活藥局,臺北市中山區林森北路４０５號（１樓）,121.5257,25.05943,(02)25818210,羅氏家用新冠病毒抗原自我檢測套組,1,2022/05/08 09:02:03,國定假日仍執行調劑業務
5901103781,龍江台安藥局,臺北市中山區龍江路２４７號（１樓）,121.5408,25.05862,(02)25091007,羅氏家用新冠病毒抗原自我檢測套組,78,2022/05/08 09:02:03,實名制快篩下午2:00開始拿號碼牌
5901110311,永安藥局,臺北市內湖區文德路２１０巷３０弄４８號,121.5852,25.07723,(02)26586658,羅氏家用新冠病毒抗原自我檢測套組,73,2022/05/08 09:02:03,口罩販售時間早上10點開始發號碼牌  同時販售
5901110393,明湖藥局,臺北市內湖區東湖路７巷２７號１Ｆ,121.6125,25.0697,(02)26313515,羅氏家用新冠病毒抗原自我檢測套組,37,2022/05/08 09:02:03,快篩實名制，早上九點販售。
5901113018,桔子藥局,臺北市內湖區內湖路２段３３３號,121.5917,25.08319,(02)27930052,羅氏家用新冠病毒抗原自我檢測套組,78,2022/05/08 09:02:03,早0900-1200，午1400-1700，晚1900-2100
5901113250,大內湖藥局,臺北市內湖區成功路３段１６４號１樓,121.5903,25.08035,(02)27956286,羅氏家用新冠病毒抗原自我檢測套組,78,2022/05/08 09:02:03,5／5-5／7下午16:00開始發售，5／8（日）起早上9:30開始發售
5901113296,喜越藥局,臺北市內湖區內湖路１段２８５巷５９弄７號,121.5673,25.08377,(02)26271955,羅氏家用新冠病毒抗原自我檢測套組,1,2022/05/08 09:02:03,無
5901113652,加一藥師藥局,臺北市內湖區星雲街２４號１樓,121.5908,25.07804,(02)87912653,羅氏家用新冠病毒抗原自我檢測套組,167,2022/05/08 09:02:03,無
5901113732,富康活力誠功藥局,臺北市內湖區成功路４段３０巷２０號１樓,121.5916,25.08235,(02)27960222,羅氏家用新冠病毒抗原自我檢測套組,1,2022/05/08 09:02:03,正常供應的話都是每日16:00開始販售快篩，建議來現場加入**LINE社群**，可以獲得最新第一手資訊
5901121583,健園藥局,臺北市南港區研究院路１段１９號１樓,121.6166,25.05401,(02)27851567,羅氏家用新冠病毒抗原自我檢測套組,40,2022/05/08 09:02:03,早上8點開賣 （政府有配送的狀況下） 沒發放號碼牌售完為止
5901121841,泓安藥局,臺北市南港區興華路７５號,121.6061,25.05517,(02)27861083,羅氏家用新冠病毒抗原自我檢測套組,78,2022/05/08 09:02:03,星期一至星期日早上10:00開賣快篩試劑
5901121850,健涵藥局,臺北市南港區舊莊街１段１４７號,121.6205,25.03985,(02)27837285,羅氏家用新冠病毒抗原自我檢測套組,79,2022/05/08 09:02:03,發快篩時間：每日下午一點
5901121985,勝安藥局,臺北市南港區舊莊街１段１６５號,121.6211,25.03949,(02)27828450,羅氏家用新冠病毒抗原自我檢測套組,36,2022/05/08 09:02:03,實名制快篩晚上21:00提供，倘提早額滿且經現場排隊者全體同意，則即時銷售 5／8正常
5901122062,躍獅忠孝藥局,臺北市南港區成福路１６號,121.586,25.04561,(02)27862829,羅氏家用新冠病毒抗原自我檢測套組,2,2022/05/08 09:02:03,無
5901122080,成福大藥局,臺北市南港區成福路８號,121.5859,25.04578,(02)27859221,羅氏家用新冠病毒抗原自我檢測套組,78,2022/05/08 09:02:03,無
5901152471,得安藥局,臺北市士林區文林路１４０號,121.5267,25.08878,(02)28836336,羅氏家用新冠病毒抗原自我檢測套組,78,2022/05/08 09:02:03,星期三五六下午3:30---10:00   星期二 四日下午5:00--10:00
5901152686,三光藥局,臺北市士林區延平北路５段３２０號１樓,121.5096,25.08628,(02)28123786,羅氏家用新冠病毒抗原自我檢測套組,12,2022/05/08 09:02:03,無
5901153825,太和堂中西藥局,臺北市士林區大東路７４號（實際使用：１樓）,121.5257,25.09037,(02)28814122,羅氏家用新冠病毒抗原自我檢測套組,1,2022/05/08 09:02:03,上午8:30現場領號碼牌。週日公休
5901153905,躍獅芝山藥局,臺北市士林區福華路１５４號（實際使用：１樓）,121.5227,25.10357,(02)28365822,羅氏家用新冠病毒抗原自我檢測套組,12,2022/05/08 09:02:03,無
5901154000,文昌大藥局,臺北市士林區文昌路７２號１樓,121.5213,25.09634,(02)28376196,羅氏家用新冠病毒抗原自我檢測套組,74,2022/05/08 09:02:03,1.周一至周日下午15:00販售實名制快篩，請自備零錢 2.每日提供18份，讓醫護警消憑證購買，請pm14:30前來
5901154028,向宇藥局,臺北市士林區德行東路２１７號１樓,121.5328,25.10935,(02)88661101,羅氏家用新冠病毒抗原自我檢測套組,71,2022/05/08 09:02:03,無
5901154055,天母盛康藥局,臺北市士林區天母東路８巷８４號１樓,121.5304,25.11483,(02)28720208,羅氏家用新冠病毒抗原自我檢測套組,67,2022/05/08 09:02:03,實名制快篩每日14:00開始，賣完為止。
5901154073,中山盛康藥局,臺北市士林區中山北路７段１６２號１樓,121.5327,25.12416,(02)28771887,羅氏家用新冠病毒抗原自我檢測套組,155,2022/05/08 09:02:03,實名制快篩早上9:00-12:00發放號碼牌
5901160044,石牌藥局,臺北市北投區石牌路１段４９號,121.5106,25.1133,(02)28214986,羅氏家用新冠病毒抗原自我檢測套組,78,2022/05/08 09:02:03,5／2當日快篩尚未收到，請別9點就來排隊，發放時間請電話詢問
5901160704,明華藥局,臺北市北投區清江路８號（實際使用：１樓）,121.5015,25.13156,(02)28971056,羅氏家用新冠病毒抗原自我檢測套組,63,2022/05/08 09:02:03,實名制快篩上午9:00現場販售
5901163563,躍獅光明藥局,臺北市北投區光明路５１號、５３號（實際使用：１樓）,121.4998,25.13286,(02)28915993,羅氏家用新冠病毒抗原自我檢測套組,1,2022/05/08 09:02:03,今日快篩已全數販售完畢，請不要再打電話詢問，謝謝
5901170184,臺陽藥局,臺北市信義區大道路６１號,121.5823,25.04136,(02)27283403,羅氏家用新冠病毒抗原自我檢測套組,78,2022/05/08 09:02:03,快篩試劑早上9:30現場販售，週日沒有販售
5901170648,立信藥局,臺北市信義區松山路４０３號,121.578,25.04144,(02)27687754,羅氏家用新冠病毒抗原自我檢測套組,2,2022/05/08 09:02:03,快篩試劑販賣時間:晚上七點至九點
5901172213,華泰藥局,臺北市信義區虎林街８２巷５號,121.5769,25.04335,(02)27601992,羅氏家用新冠病毒抗原自我檢測套組,44,2022/05/08 09:02:03,快篩 ／ 早上 8:30  開始販售 . 售完為止 .
5901172651,康杏藥局,臺北市信義區福德街３０６號１樓,121.5874,25.03931,(02)27591510,羅氏家用新冠病毒抗原自我檢測套組,5,2022/05/08 09:02:03,無
5901172964,榮泰藥局,臺北市信義區光復南路４１９巷１９號,121.5582,25.03659,(02)77296777,羅氏家用新冠病毒抗原自我檢測套組,7,2022/05/08 09:02:03,早上9:00開始發放實名制快篩號碼牌
5901173372,新永春藥局,臺北市信義區忠孝東路５段４２３巷１號,121.5753,25.04126,(02)27667385,羅氏家用新冠病毒抗原自我檢測套組,63,2022/05/08 09:02:03,快篩販售時間:每日13:00開始，售完為止
5901173390,馨馨藥局,臺北市信義區虎林街８２巷１９號,121.5764,25.04336,(02)27491208,羅氏家用新冠病毒抗原自我檢測套組,15,2022/05/08 09:02:03,無
5901173872,柏愛藥局,臺北市信義區基隆路２段１３１之９號,121.5567,25.02788,(02)27325472,羅氏家用新冠病毒抗原自我檢測套組,1,2022/05/08 09:02:03,國定假日營業時間為09:30-17:30；實名制快篩09:30開賣
5901174084,市政藥局,臺北市信義區忠孝東路５段１６９號１樓、１７１號１樓,121.5688,25.0412,(02)27560050,羅氏家用新冠病毒抗原自我檢測套組,78,2022/05/08 09:02:03,快篩實名制，每天16:00開始販售，售完為止。
5901180215,上海聯合藥局,臺北市中正區衡陽路３２號１樓,121.5126,25.04221,(02)23117744,羅氏家用新冠病毒抗原自我檢測套組,55,2022/05/08 09:02:03,無
5901180322,南昌大藥局,臺北市中正區南昌路１段８６號１樓,121.5174,25.03086,(02)23510322,羅氏家用新冠病毒抗原自我檢測套組,78,2022/05/08 09:02:03,早上10點發號碼牌，下午2點前來購買，逾期作廢。
5901182228,合泰大藥局,臺北市中正區衡陽路２６號,121.5129,25.04221,(02)23899977,羅氏家用新冠病毒抗原自我檢測套組,71,2022/05/08 09:02:03,快篩代售時間自09:00；現場排隊
5901183645,大愛生活藥局,臺北市中正區汀州路２段２３２號,121.5243,25.02189,(02)23661155,羅氏家用新冠病毒抗原自我檢測套組,109,2022/05/08 09:02:03,下午14:30開始發放快篩（不發號碼牌直接買）~~不要太早開始排隊啊啊啊啊
5901184080,活力健康藥妝藥局,臺北市中正區中華路２段３１５巷１號,121.5062,25.02795,(02)23392625,羅氏家用新冠病毒抗原自我檢測套組,2,2022/05/08 09:02:03,快篩14:00-15:00， 建議提早排隊
5901184106,信康藥局,臺北市中正區南昌路１段１４３號,121.5186,25.02953,(02)23961979,羅氏家用新冠病毒抗原自我檢測套組,3,2022/05/08 09:02:03,14:00開始販售實名制快篩
5901184535,桐心藥局,臺北市中正區金華街１８之６號１樓,121.5202,25.03175,(02)23581663,羅氏家用新冠病毒抗原自我檢測套組,4,2022/05/08 09:02:03,無
5901184633,躍獅東門藥局,臺北市中正區金山南路１段１０８之１號（１樓）,121.5273,25.03538,(02)23920339,羅氏家用新冠病毒抗原自我檢測套組,110,2022/05/08 09:02:03,5／8起早上9點開始販售，不提早發放號碼牌
5901184713,建祥武昌藥局,臺北市中正區武昌街１段２９號１樓,121.5121,25.04416,(02)23314038,羅氏家用新冠病毒抗原自我檢測套組,78,2022/05/08 09:02:03,無
5901190024,長泰藥局,臺北市萬華區西園路２段２８０號,121.4942,25.02753,(02)23012869,羅氏家用新冠病毒抗原自我檢測套組,70,2022/05/08 09:02:03,快篩販賣時段，依貨運配送時間而訂
5901190079,建和藥局,臺北市萬華區青年路１６８巷４４號,121.5016,25.01987,(02)23010838,羅氏家用新冠病毒抗原自我檢測套組,21,2022/05/08 09:02:03,春節期間看診時段請電洽
5901193301,富安藥局,臺北市萬華區萬大路４２６號,121.4981,25.02096,(02)23377878,羅氏家用新冠病毒抗原自我檢測套組,106,2022/05/08 09:02:03,快篩實名制：一人一卡，現場排隊，售完為止。【5／3早上暫停販售，販售時間待更新！】
5901193338,艾米力藥師藥局,臺北市萬華區西藏路１０７－２號１樓,121.5035,25.02955,(02)23036583,羅氏家用新冠病毒抗原自我檢測套組,61,2022/05/08 09:02:03,實名制快篩：周一~周五 晚上7:00販售；周末（六日）早上9:00販售
5901201568,康宜庭生活藥局,臺北市文山區興隆路４段６４號,121.5613,24.98514,(02)29385363,羅氏家用新冠病毒抗原自我檢測套組,6,2022/05/08 09:02:03,實名快篩14:00開賣 現場排隊
5901203062,大樹文山藥局,臺北市文山區興隆路３段１３號（１、２、３樓）,121.555,25.00088,(02)29342226,羅氏家用新冠病毒抗原自我檢測套組,78,2022/05/08 09:02:03,快篩實名制，每天16:00開始販售，售完為止。
5901203455,全球萬芳藥局,臺北市文山區興隆路３段６３號（１樓）,121.5562,25.00024,(02)89352147,羅氏家用新冠病毒抗原自我檢測套組,69,2022/05/08 09:02:03,營業時間9:00~22:00
5902011308,昇安藥局,高雄市鹽埕區瀨南街２２５號１樓,120.284,22.62797,(07)5216438,羅氏家用新冠病毒抗原自我檢測套組,30,2022/05/08 09:02:03,快篩試劑早上8:4 0開始發號碼牌
5902021233,崧柏藥局,高雄市鼓山區華榮路５４３號,120.2937,22.66969,(07)5542027,羅氏家用新冠病毒抗原自我檢測套組,14,2022/05/08 09:02:03,藥局販售快篩試劑時間每天8點40發號碼牌，9點開始。每天78份
5902022794,定國藥局,高雄市鼓山區九如四路１１３５號,120.2791,22.65936,(07)5815858,羅氏家用新冠病毒抗原自我檢測套組,18,2022/05/08 09:02:03,無
5902032487,必健藥局,高雄市左營區自由二路９０號,120.309,22.65954,(07)5584259,羅氏家用新冠病毒抗原自我檢測套組,62,2022/05/08 09:02:03,快篩試劑配送時間不定.販售時間滾動
5902032647,健智美藥局,高雄市左營區富國路９８號,120.3068,22.6591,(07)5580888,羅氏家用新冠病毒抗原自我檢測套組,18,2022/05/08 09:02:03,早上08:40開賣，自備零錢，售完止。
5902040112,丁丁楠梓藥局,高雄市楠梓區建楠路１３０、１３２、１３４號,120.3247,22.72731,(07)3533743,羅氏家用新冠病毒抗原自我檢測套組,66,2022/05/08 09:02:03,5／2快篩尚未到貨，貨到立即開賣
5902040498,順明藥局,高雄市楠梓區和光街６５號,120.2939,22.70717,(07)3615574,羅氏家用新冠病毒抗原自我檢測套組,66,2022/05/08 09:02:03,快篩劑販售時間早上 8:30～晚上9:30
5902042492,合德中西藥師藥局,高雄市楠梓區楠梓路４８６號,120.3244,22.73812,(07)3581291,羅氏家用新冠病毒抗原自我檢測套組,73,2022/05/08 09:02:03,快篩實名制09:00開始販售
5902042563,天健藥局,高雄市楠梓區後昌路１０８７號,120.2922,22.71718,(07)3634179,羅氏家用新冠病毒抗原自我檢測套組,67,2022/05/08 09:02:03,早上九點販售快篩
5902050412,春仁藥局,高雄市三民區覺民路２２５號,120.3391,22.63944,(07)3962341,羅氏家用新冠病毒抗原自我檢測套組,12,2022/05/08 09:02:03,5／1-5／301時間自9:00-22:30現場排隊.（賣完為止）
5902051222,利民藥局,高雄市三民區孝順街７４號,120.3128,22.6431,(07)3125436,羅氏家用新冠病毒抗原自我檢測套組,78,2022/05/08 09:02:03,快篩實名制下午3點30分開始販售，發號碼牌           **5／6（五）快篩實名制上午9點30分開始販售，發號碼牌
5902051268,上正藥師藥局,高雄市三民區憲政路２５５號,120.3185,22.63647,(07)2223355,羅氏家用新冠病毒抗原自我檢測套組,1,2022/05/08 09:02:03,周一至周五下午2點販售實名制快篩試劑，周末六日早上8點半至10點販售實名制快篩試劑
5902051786,億生藥局,高雄市三民區南台路２００號,120.2982,22.63706,(07)2873436,羅氏家用新冠病毒抗原自我檢測套組,12,2022/05/08 09:02:03,「藥局販售口罩時間，依藥局門口公告時間為主（售完為止）」
5902053833,建銘藥局,高雄市三民區吉林街２６２號,120.3068,22.64818,(07)3133460,羅氏家用新冠病毒抗原自我檢測套組,73,2022/05/08 09:02:03,0900營業時間販賣口罩.售完為止
5902054689,善全藥局,高雄市三民區義華路３９１號,120.3332,22.64339,(07)3960269,羅氏家用新冠病毒抗原自我檢測套組,59,2022/05/08 09:02:03,開始營業即販售，售完為止，其它看休息公告.
5902056807,長慶藥局,高雄市三民區金鼎路３１０號,120.3207,22.66513,(07)3105835,羅氏家用新冠病毒抗原自我檢測套組,77,2022/05/08 09:02:03,無
5902057126,民安藥局,高雄市三民區嫩江街７０號,120.2985,22.64282,(07)3121381,羅氏家用新冠病毒抗原自我檢測套組,56,2022/05/08 09:02:03,販賣快篩09:00~12:00_16:00~18:00_19:00~21:00（售完為止）
5902057484,永勝藥局,高雄市三民區褒忠街１１４號,120.334,22.64262,(07)3814643,羅氏家用新冠病毒抗原自我檢測套組,26,2022/05/08 09:02:03,無
5902080474,弘宗藥局,高雄市苓雅區武智街２號,120.3356,22.62303,(07)7211088,羅氏家用新冠病毒抗原自我檢測套組,6,2022/05/08 09:02:03,家用實名制快篩試劑，早上8時開始販售。
5902080518,福海藥局,高雄市苓雅區武慶三路５８號,120.332,22.61958,(07)7618855,羅氏家用新冠病毒抗原自我檢測套組,35,2022/05/08 09:02:03,早上09:00開始代售快篩，現場排隊售完為止，售出不退換。
5902080858,福興藥局,高雄市苓雅區成功一路５２號,120.2983,22.6131,(07)3331862,羅氏家用新冠病毒抗原自我檢測套組,66,2022/05/08 09:02:03,每日上午九點販賣快篩試劑售完止.營業時間9-21時.
5902081328,東信藥局,高雄市苓雅區三多一路１８９號,120.3313,22.62258,(07)7613309,羅氏家用新冠病毒抗原自我檢測套組,24,2022/05/08 09:02:03,早上8:30開始發送號碼牌販售口罩，售完為止，假日正常販售
5902083591,晨安藥局,高雄市苓雅區興中一路１６０號,120.3096,22.61753,(07)3365463,羅氏家用新冠病毒抗原自我檢測套組,64,2022/05/08 09:02:03,每日上午9開始販賣快篩.售完為止
5902084785,新良安藥局,高雄市苓雅區苓雅二路１０６號,120.2987,22.61731,(07)3386980,羅氏家用新冠病毒抗原自我檢測套組,25,2022/05/08 09:02:03,早上9點開始代售實名制快篩.星期天早上有代售實名制快篩
5902090167,勝惠藥局,高雄市前鎮區忠孝里三多三路７１號,120.3122,22.6163,(07)3354766,羅氏家用新冠病毒抗原自我檢測套組,73,2022/05/08 09:02:03,快篩發放時間早上9點
5902090765,家安大藥局,高雄市前鎮區崗山南街３４２巷２１號,120.3323,22.6021,(07)7137711,羅氏家用新冠病毒抗原自我檢測套組,72,2022/05/08 09:02:03,販售快篩實名制:週一~週日（上午9點）、除了週四為（晚上7點），實際依藥局門口公告時間及快篩送達時間為主
5902092205,百宏中西大藥局,高雄市前鎮區復興三路１９４號,120.3117,22.61311,(07)3386719,羅氏家用新冠病毒抗原自我檢測套組,78,2022/05/08 09:02:03,無
5902092410,旺盛藥局,高雄市前鎮區永豐路１０８號,120.3337,22.6065,(07)7512899,羅氏家用新冠病毒抗原自我檢測套組,3,2022/05/08 09:02:03,過年期間 111／01／31下午至111／02／03  休診
5902092492,元生藥局,高雄市前鎮區鎮興路２２６號１樓,120.3117,22.59305,(07)8156356,羅氏家用新冠病毒抗原自我檢測套組,61,2022/05/08 09:02:03,無
5902092910,健家藥局,高雄市前鎮區二聖二路４５號,120.3165,22.61293,(07)3389986,羅氏家用新冠病毒抗原自我檢測套組,69,2022/05/08 09:02:03,早上9:30營業，售完為止
5902092956,慈濟健保藥局,高雄市前鎮區鎮州路２１１號,120.3082,22.58819,(07)8159788,羅氏家用新冠病毒抗原自我檢測套組,42,2022/05/08 09:02:03,每天早上8點開始賣.售完為止藥局販售口罩時間，依藥局門口公告時間為主（售完為止）
5902100042,千佑藥局,高雄市旗津區復興里中洲三路５１３號,120.2736,22.60608,(07)5712619,羅氏家用新冠病毒抗原自我檢測套組,10,2022/05/08 09:02:03,5月1日-5月31日早上0831至1030為販賣快篩時間
5902110066,文祺藥局,高雄市小港區正苓里平治街１１２號,120.3543,22.56743,(07)8014066,羅氏家用新冠病毒抗原自我檢測套組,11,2022/05/08 09:02:03,自2／11日~2／29日，6:00發號碼牌，14:00為販賣口罩時間.售完為止
5902110422,臨生藥局,高雄市小港區鳳鳴路１４６－４號,120.3588,22.51445,(07)8711290,羅氏家用新冠病毒抗原自我檢測套組,2,2022/05/08 09:02:03,上午9時開始販售快篩劑售完為止。
5902111670,桂林活力藥師藥局,高雄市小港區桂陽路４０號,120.3575,22.58194,(07)7931248,羅氏家用新冠病毒抗原自我檢測套組,75,2022/05/08 09:02:03,營業日09:00發放實名制快篩號碼牌.售完為止
5902111938,丁丁藥局小港店,高雄市小港區宏平路８５號,120.3635,22.57096,(07)8603388,羅氏家用新冠病毒抗原自我檢測套組,65,2022/05/08 09:02:03,營業時間9-23，實名制快篩9點開始賣
5903010350,甲蒂健保藥局,臺中市豐原區豐東路３０８號,120.7331,24.25093,(04)25256028,羅氏家用新冠病毒抗原自我檢測套組,66,2022/05/08 09:02:03,9點30分開始發號碼牌購買
5903020052,東勢福倫藥局,臺中市東勢區豐勢路４３８號,120.829,24.25586,(04)25876118,羅氏家用新冠病毒抗原自我檢測套組,7,2022/05/08 09:02:03,＜快篩＞ 5／7，5／8，5／9 早上08:30開賣.
5903020089,新明通藥局,臺中市東勢區豐勢路２３２號１樓,120.8302,24.25113,(04)25873969,羅氏家用新冠病毒抗原自我檢測套組,18,2022/05/08 09:02:03,5月9-14日  早上8:30  若有異動於門口公告
5903030067,甲尚藥局,臺中市大甲區順天路１２９號１樓,120.622,24.3446,(04)26760885,羅氏家用新冠病毒抗原自我檢測套組,42,2022/05/08 09:02:03,實名制 快篩 早0800 開賣 （依經驗 約莫 0830 前完售）
5903040107,佑全清水中山三藥局,臺中市清水區中山路２４、２６、２８號１樓,120.572,24.26043,(04)26224469,羅氏家用新冠病毒抗原自我檢測套組,78,2022/05/08 09:02:03,5／8（日）實名制快篩發放時間更改為早上9:30，9:20發號碼牌，敬請注意。請關注本藥局臉書。慢箋牙科箋領藥全年無休。
5903050087,仁暉健保處方藥局,臺中市沙鹿區向上路７段１３０號,120.5643,24.20637,(04)26365626,羅氏家用新冠病毒抗原自我檢測套組,66,2022/05/08 09:02:03,實名制快篩，星期一到六晚上9點開始販售，星期日早上10點。
5903050256,大安心藥局,臺中市沙鹿區星河路１２－１號１樓,120.5679,24.25208,(04)26620082,羅氏家用新冠病毒抗原自我檢測套組,109,2022/05/08 09:02:03,快篩實名制每日上午9時開始販售，周日也有販售
5903070105,后里藥局,臺中市后里區文明路１３３號１樓,120.7164,24.30682,(04)25590119,羅氏家用新冠病毒抗原自我檢測套組,27,2022/05/08 09:02:03,販售中 請勿排隊群聚 注意身體健康
5903070169,佑全后里甲后藥局,臺中市后里區甲后路一段７２８號１、２樓,120.7193,24.30951,(04)25583116,羅氏家用新冠病毒抗原自我檢測套組,27,2022/05/08 09:02:03,實名制快篩每日14:00販售。13:50發放號碼牌。
5903080030,捷達藥局,臺中市神岡區大漢街２５號,120.6974,24.25352,(04)25225207,羅氏家用新冠病毒抗原自我檢測套組,75,2022/05/08 09:02:03,周一到周六上午8:00開始販售，售完為止。
5903090223,均安藥局,臺中市潭子區興華一路５０３號１樓,120.7014,24.21401,(04)25310998,羅氏家用新冠病毒抗原自我檢測套組,18,2022/05/08 09:02:03,早上 8:30開始販售
5903090367,成記藥局,臺中市潭子區潭興路三段９３號１樓,120.7024,24.21151,(04)25358076,羅氏家用新冠病毒抗原自我檢測套組,78,2022/05/08 09:02:03,早上10點發放，但快篩供貨時間不穩定時，發放時間滾動調整
5903100046,躍獅佑仁藥局,臺中市大雅區雅環路２段２８７號,120.6488,24.22919,(04)25608256,羅氏家用新冠病毒抗原自我檢測套組,78,2022/05/08 09:02:03,家用快篩販售-星期一~星期五 晚上7點（19:00）開始.時間更新異動請參閱粉專
5903130026,博翔欣大藥局,臺中市外埔區重光路３３－１９號,120.6521,24.33128,(04)26833312,羅氏家用新冠病毒抗原自我檢測套組,76,2022/05/08 09:02:03,無
5903150019,統元藥局,臺中市烏日區中華路５８３號,120.6342,24.10755,(04)23377588,羅氏家用新冠病毒抗原自我檢測套組,73,2022/05/08 09:02:03,快篩販售時間:早上9:00至12:00或（售完即止）.
5903160088,必安藥局,臺中市大肚區沙田路二段６３４號,120.5455,24.15084,(04)26992116,羅氏家用新冠病毒抗原自我檢測套組,79,2022/05/08 09:02:03,**限購1份**早上8點販售**每天固定78份，非156**
5903190139,劍橋藥局,臺中市太平區宜昌路５５２號１樓,120.7157,24.14758,(04)22776619,羅氏家用新冠病毒抗原自我檢測套組,31,2022/05/08 09:02:03,星期一到星期日
5903190157,春長藥局,臺中市太平區太平路１４７號,120.7212,24.12003,(04)22799286,羅氏家用新冠病毒抗原自我檢測套組,74,2022/05/08 09:02:03,快篩代售時間:早上9點，現場排隊
5903190335,育賢德侑藥局,臺中市太平區育賢路１０７號、１０９號,120.7219,24.15768,(04)23920696,羅氏家用新冠病毒抗原自我檢測套組,113,2022/05/08 09:02:03,實名制快篩販售時間：星期一~星期日 早上8:30點開賣（售完為止）
5903190737,精武丁丁藥局,臺中市太平區中山路四段１３２－１號,120.7044,24.14856,(04)23957235,羅氏家用新冠病毒抗原自我檢測套組,72,2022/05/08 09:02:03,無
5903200096,仁化藥局,臺中市大里區仁化路５４０號,120.7012,24.09623,(04)24915902,羅氏家用新冠病毒抗原自我檢測套組,78,2022/05/08 09:02:03,W1-W5  下午1800發放.現場排隊    W6 休息  W日中午12:30
5903200229,信元藥局,臺中市大里區益民路２段３７２號１樓,120.684,24.11545,(04)24876051,羅氏家用新冠病毒抗原自我檢測套組,54,2022/05/08 09:02:03,下午5點發號碼牌並依序販賣
5903200372,國光丁丁藥局,臺中市大里區國光路２段５５１－１號１樓,120.6788,24.11241,(04)24069711,羅氏家用新冠病毒抗原自我檢測套組,73,2022/05/08 09:02:03,星期一至星期日早上9點依排隊順序直接領取
5903200587,大里安德健保藥局,臺中市大里區大明路１１７號,120.6861,24.11527,(04)24875607,羅氏家用新冠病毒抗原自我檢測套組,68,2022/05/08 09:02:03,早上9點開始發放
5903200667,永欣東榮藥局,臺中市大里區東榮路３７０號１樓,120.6836,24.11032,(04)24810599,羅氏家用新冠病毒抗原自我檢測套組,6,2022/05/08 09:02:03,快篩發放無特定時間.收到貨即發放.營業時間早上08:30至晚上10:00
5903220114,鄧博士藥局,臺中市中區中山路３２５號１樓,120.6756,24.14434,(04)22256851,羅氏家用新冠病毒抗原自我檢測套組,4,2022/05/08 09:02:03,24小時營業。
5903220196,日安藥局,臺中市中區臺灣大道一段３３０號１樓,120.6801,24.1422,(04)22234246,羅氏家用新冠病毒抗原自我檢測套組,78,2022/05/08 09:02:03,週一至週六 下午2:30開始販售快篩   週日 早上9:30開始販售
5903230209,東京藥師藥局,臺中市東區復興路五段１４９號１樓,120.6893,24.14543,(04)22132278,羅氏家用新冠病毒抗原自我檢測套組,4,2022/05/08 09:02:03,無
5903240152,陽光藥局,臺中市西區中美街３０５號１樓,120.6601,24.14977,(04)23020711,羅氏家用新冠病毒抗原自我檢測套組,45,2022/05/08 09:02:03,5／8（日）有賣快篩，庫存正確，直接來買，售完為止。
5903250103,忠孝德侑健保藥局,臺中市南區正義街１５９號,120.6806,24.12919,(04)22851400,羅氏家用新冠病毒抗原自我檢測套組,74,2022/05/08 09:02:03,實名制快篩:早上九點販售（售完為止，一人一卡）以現場庫存為主）
5903260734,立得藥局,臺中市北區忠太西路１１號１樓,120.6678,24.15997,(04)22080013,羅氏家用新冠病毒抗原自我檢測套組,43,2022/05/08 09:02:03,固定周一到周六，早上9:00開始販賣防疫口罩
5903260814,杏一北區文心藥局,臺中市北區文心路４段２１０－８號１、２樓,120.678,24.1729,(04)22993847,羅氏家用新冠病毒抗原自我檢測套組,71,2022/05/08 09:02:03,實名制快篩下午16:00開始販售
5903260896,中清丁丁藥局,臺中市北區中清路一段５３１號１樓,120.6728,24.1678,(04)22919866,羅氏家用新冠病毒抗原自我檢測套組,76,2022/05/08 09:02:03,快篩實名制到貨後開始販售  facebook公告 賣完為止
5903270392,瑞德大藥局,臺中市西屯區中清西二街８４號,120.6671,24.17511,(04)22939820,羅氏家用新冠病毒抗原自我檢測套組,72,2022/05/08 09:02:03,固定周一至周日早上9:00開始販售口罩.售完為止
5903270614,至善德侑藥局,臺中市西屯區至善路６０號,120.6395,24.17141,(04)24518729,羅氏家用新冠病毒抗原自我檢測套組,2,2022/05/08 09:02:03,實名制快篩下午14:00開始發號碼牌.14:15開始販售
5903270776,河南丁丁藥局,臺中市西屯區河南路４段１９１號,120.6367,24.15565,(04)22511658,羅氏家用新冠病毒抗原自我檢測套組,74,2022/05/08 09:02:03,周一至周日每天上午9:00開始販售口罩[有口罩庫存時]
5903270847,分子藥局,臺中市西屯區惠來路二段２３６－１號,120.6421,24.16318,(04)22513080,羅氏家用新冠病毒抗原自我檢測套組,42,2022/05/08 09:02:03,發放時間週一至週日早上10點起售完為止
5903270892,杏林堂藥局,臺中市西屯區黎明路三段１４８號１樓,120.6376,24.17729,(04)24528967,羅氏家用新冠病毒抗原自我檢測套組,13,2022/05/08 09:02:03,週一至週六11:00販售 週日08:30販售
5903270963,源興大藥局,臺中市西屯區西屯路二段１２號,120.6622,24.16387,(04)23143045,羅氏家用新冠病毒抗原自我檢測套組,1,2022/05/08 09:02:03,口罩販售時間：每日下午2點至售完為止。
5903280334,長益藥局,臺中市南屯區忠勇路９９號,120.6155,24.14971,(04)23899383,羅氏家用新冠病毒抗原自我檢測套組,2,2022/05/08 09:02:03,週一至週六下午13點開始開始販售口罩（當場排隊，不發號碼牌售完為止）
5903280923,南屯丁丁藥局,臺中市南屯區五權西路二段２１８號１樓,120.6503,24.14035,(04)36015077,羅氏家用新冠病毒抗原自我檢測套組,54,2022/05/08 09:02:03,無
5903290661,康博中西健保藥局,臺中市北屯區后庄一街７號１樓,120.6644,24.1865,(04)24252468,羅氏家用新冠病毒抗原自我檢測套組,1,2022/05/08 09:02:03,快篩下午01:00發售53份；晚上06:00銷售25份.週六.日及假日下午06:30開始依配送滾動調整
5903291006,五和健保藥局,臺中市北屯區崇德路二段４６０號１樓,120.6863,24.18001,(04)22415533,羅氏家用新冠病毒抗原自我檢測套組,49,2022/05/08 09:02:03,週六公休 。周一至周五 14:30 發號碼牌 14:40販售； 週日 8:30發號碼牌 隨後販售
5903291202,好心情藥局,臺中市北屯區昌平路一段１７之３號,120.6941,24.16607,(04)22335663,羅氏家用新冠病毒抗原自我檢測套組,1,2022/05/08 09:02:03,快篩販售時間 14:30 ~售完為止 ， 12:30~13:30 請勿來電，謝謝配合
5905070121,大樹善化藥局,臺南市善化區民權路５４、５６、５８號１樓,120.3034,23.1322,(06)5830550,羅氏家用新冠病毒抗原自我檢測套組,78,2022/05/08 09:02:03,快篩實名制，每天16:00開始販售，售完為止。
5905130042,人大聯合藥局,臺南市六甲區中山路８號１樓,120.3513,23.23087,(06)6987822,羅氏家用新冠病毒抗原自我檢測套組,1,2022/05/08 09:02:03,快篩販售時間：星期一-日07:30-售完
5905140039,安安藥局隆田店,臺南市官田區中山路一段１５號１樓,120.3186,23.1927,(06)5795705,羅氏家用新冠病毒抗原自我檢測套組,2,2022/05/08 09:02:03,全日口罩販賣
5905280092,元康保健藥局,臺南市歸仁區中山路二段２２９號,120.2888,22.96721,(06)2309055,羅氏家用新冠病毒抗原自我檢測套組,51,2022/05/08 09:02:03,快篩販售時間星期一至五下午1點開始至售完.5／6（六）不販售.5／7（日）早上9點半販售（不分單雙）
5905310264,仁安藥師藥局,臺南市永康區崑山里大仁街６１號,120.2566,23.00183,(06)2056055,羅氏家用新冠病毒抗原自我檢測套組,67,2022/05/08 09:02:03,快篩實名制中午12點開始販售  藥局營業時間早上8點半到晚上9點
5905310871,晶辰藥局,臺南市永康區大灣里民族路３９６巷１號、３號１樓、３９８號１樓,120.2661,23.00825,(06)2733368,羅氏家用新冠病毒抗原自我檢測套組,42,2022/05/08 09:02:03,周一~周五早上10點開始售完為止，周六日10點開始售完為止
5905311092,永大丁丁藥局,臺南市永康區永大路二段１５１６號１樓,120.2611,23.02493,(06)2013690,羅氏家用新冠病毒抗原自我檢測套組,76,2022/05/08 09:02:03,9點開始
5905320466,佑全中華藥局,臺南市東區中華東路三段２１５號,120.2253,22.97603,(06)2906386,羅氏家用新冠病毒抗原自我檢測套組,1,2022/05/08 09:02:03,星期一-六08:00-21:00
5905320797,大樹自由藥局,臺南市東區自由路三段３８２號１樓,120.2373,22.98241,(06)2890800,羅氏家用新冠病毒抗原自我檢測套組,78,2022/05/08 09:02:03,快篩實名制，每天16:00開始販售，售完為止。
5905340155,東北藥局,臺南市中西區福安里西門路二段１４號１樓,120.1981,22.99075,(06)2226753,羅氏家用新冠病毒抗原自我檢測套組,46,2022/05/08 09:02:03,早上9點開始販售，售完為止
5905340226,楊藥局,臺南市中西區西和路３３號１樓,120.1926,23.00336,(06)2806353,羅氏家用新冠病毒抗原自我檢測套組,40,2022/05/08 09:02:03,販售時間:周一至周六:9:00--12:30； 14:30--22:30售完為止，周日9:00開始販售，售完為止
5905340262,瑞城藥局,臺南市中西區赤嵌里忠義路二段１７６號１樓,120.2043,22.99649,(06)2215810,羅氏家用新冠病毒抗原自我檢測套組,2,2022/05/08 09:02:03,週四公休 週一二三五六日09:30販售快篩 FB公告最新販售訊息 歡迎追蹤 居隔常備藥販售中
5905370180,安南啄木鳥藥局,臺南市安南區安和路一段１０７號,120.2143,23.02826,(06)2821265,羅氏家用新冠病毒抗原自我檢測套組,76,2022/05/08 09:02:03,5／7早上9:00
5907010098,建明藥局,高雄市鳳山區海洋一路１２２號,120.3449,22.60985,(07)7668550,羅氏家用新冠病毒抗原自我檢測套組,32,2022/05/08 09:02:03,實名制快篩試劑9:30開始販售，售完為止
5907010730,鳳山啄木鳥藥局,高雄市鳳山區善美里保泰路３３６號１樓,120.3348,22.60287,(07)7162314,羅氏家用新冠病毒抗原自我檢測套組,77,2022/05/08 09:02:03,營業日08:50發號碼牌，發完立即販售，售完為止
5907011200,和成藥局,高雄市鳳山區南成里和成路６５號１樓,120.3379,22.58986,(07)7961566,羅氏家用新冠病毒抗原自我檢測套組,9,2022/05/08 09:02:03,自2／11日~2／29日，營業日08:00~10:00為販賣口罩時間
5907011291,桂林活力藥師藥局鳳山店,高雄市鳳山區中正里瑞興路４８８號１樓,120.3719,22.63089,(07)7012827,羅氏家用新冠病毒抗原自我檢測套組,74,2022/05/08 09:02:03,早上9點發放號碼牌，發完號碼牌即售完
5907011371,大樹五甲藥局,高雄市鳳山區福祥里五甲三路２４號１－２樓．２６號１－２樓,120.3278,22.59317,(07)8224926,羅氏家用新冠病毒抗原自我檢測套組,1,2022/05/08 09:02:03,快篩實名制，每天16:00開始販售，售完為止。
5907060034,化春藥師藥局,高雄市大寮區中庄里中庄路３７號,120.3964,22.63453,(07)7037275,羅氏家用新冠病毒抗原自我檢測套組,69,2022/05/08 09:02:03,快篩實名制星期一至星期五早上8:00開始，六.日9:00開始
5907060098,佳和健保藥局,高雄市大寮區鳳林三路５１２號,120.3954,22.60616,(07)7821500,羅氏家用新冠病毒抗原自我檢測套組,2,2022/05/08 09:02:03,自2／11日~2／29日，營業日8:30~12:00、15:00-21:00為販賣口罩時間，售完為止。
5907060267,加嘉藥局,高雄市大寮區山頂里內厝路１９１號１樓,120.3901,22.60793,(07)7860683,羅氏家用新冠病毒抗原自我檢測套組,4,2022/05/08 09:02:03,無
5907080125,仁武丁丁藥局,高雄市仁武區仁和里鳳仁路２１之８號,120.3558,22.6802,(07)3721896,羅氏家用新冠病毒抗原自我檢測套組,73,2022/05/08 09:02:03,自5月1日~5月31日，營業日9:00起為販賣快篩時間，售完為止。
5907080303,群邦藥局,高雄市仁武區八德東路１８０號１樓,120.3422,22.68538,(07)3745985,羅氏家用新冠病毒抗原自我檢測套組,14,2022/05/08 09:02:03,每日下午2:00開始販售公費快篩（售完為止），星期日藥局早上8:30-9:30賣公費快篩
5907080321,德杏藥局,高雄市仁武區永仁街２０號１樓,120.3297,22.68191,(07)3735936,羅氏家用新冠病毒抗原自我檢測套組,68,2022/05/08 09:02:03,FB粉絲專頁會有即時公告喔@DEXINGPHARMACY   一~六預計13:00開賣 周日9:00開賣 賣完為止~
5907160093,保生藥局,高雄市湖內區葉厝里保生路３４０．３４２號,120.2195,22.90733,(07)6990800,羅氏家用新冠病毒抗原自我檢測套組,1,2022/05/08 09:02:03,快篩實名制，每天16:00開始販售，售完為止。
5907290274,明誠丁丁藥局,高雄市鼓山區明誠三路４６５號,120.3011,22.66097,(07)5520120,羅氏家用新冠病毒抗原自我檢測套組,75,2022/05/08 09:02:03,無
5907290336,丁丁藥局,高雄市鼓山區美術東二路７號,120.2877,22.65167,(07)3854991,羅氏家用新冠病毒抗原自我檢測套組,74,2022/05/08 09:02:03,無
5907300168,金元藥局,高雄市左營區重愛路２２０號,120.3156,22.68562,(07)3458378,羅氏家用新冠病毒抗原自我檢測套組,9,2022/05/08 09:02:03,快篩試劑郵差配送，約10點至11點左右會送到藥局，即開始販售，星期四，六營業時間至中午12點
5907300177,人尚大藥局,高雄市左營區榮總路１０９號１樓,120.3217,22.67927,(07)3100000,羅氏家用新冠病毒抗原自我檢測套組,29,2022/05/08 09:02:03,星期一到星期六 早上7:40開始銷售，星期日早上8:40，售完為止
5907300659,維康藥局高榮店,高雄市左營區榮總路１６３號、１６５號,120.3216,22.6809,(07)3494540,羅氏家用新冠病毒抗原自我檢測套組,78,2022/05/08 09:02:03,平常日0900-1700為快篩販賣時間賣完為止！假日1000-1800
5907300766,悠仁藥局,高雄市左營區自由三路１７０號,120.3113,22.67165,(07)3457979,羅氏家用新冠病毒抗原自我檢測套組,75,2022/05/08 09:02:03,今日快篩0900開始販售。如提前一天配送，則為早上0900販售。不便之處，敬請見諒
5907300908,明自丁丁藥局,高雄市左營區自由二路１５２號１樓,120.3089,22.66223,(07)5568902,羅氏家用新冠病毒抗原自我檢測套組,65,2022/05/08 09:02:03,無
5907300953,翔生藥局,高雄市左營區左營大路５１４號,120.2953,22.68921,(07)5827329,羅氏家用新冠病毒抗原自我檢測套組,78,2022/05/08 09:02:03,快篩實名制早上9點開賣
5907301030,丁丁藥局北高雄店,高雄市左營區自由三路１４８號,120.311,22.6707,(07)3453680,羅氏家用新冠病毒抗原自我檢測套組,75,2022/05/08 09:02:03,快篩實名制早上9點開始販售
5907310431,興楠丁丁藥局,高雄市楠梓區興楠路２６２號１樓,120.3329,22.7301,(07)3559668,羅氏家用新冠病毒抗原自我檢測套組,72,2022/05/08 09:02:03,每日快篩於早上 9 點開門即開賣，賣完為止，謝謝!!
5907320704,建工台安藥局,高雄市三民區建工路４９９號之１,120.3224,22.64884,(07)3807521,羅氏家用新冠病毒抗原自我檢測套組,69,2022/05/08 09:02:03,實名制快篩每日9:00開始販售，售完為止。
5907320964,森心藥局,高雄市三民區自強一路２１６號１樓,120.2917,22.63527,(07)2818580,羅氏家用新冠病毒抗原自我檢測套組,73,2022/05/08 09:02:03,快篩購買時間星期一至五中午12點，售完為止。 星期六、日早上九點販售。
5907321078,振源藥局,高雄市三民區熱河一街３５５號１樓,120.3061,22.64365,(07)3112541,羅氏家用新冠病毒抗原自我檢測套組,11,2022/05/08 09:02:03,4／30起15:00開始販售快篩，六日皆有營業
5907330040,維康藥局,高雄市新興區中正三路６５號,120.3078,22.63077,(07)2615396,羅氏家用新冠病毒抗原自我檢測套組,64,2022/05/08 09:02:03,快篩代售時間:星期一至星期六15:00-18:00，星期日9:00-12:00
5907350195,健順藥局,高雄市苓雅區自強三路１４０號,120.2986,22.61724,(07)2695832,羅氏家用新冠病毒抗原自我檢測套組,12,2022/05/08 09:02:03,自2／6起，營業日0830~22:00為口罩販售時間，售完為止
5907350597,武廟台安藥局,高雄市苓雅區武廟路１３３－１號,120.3266,22.63106,(07)7228893,羅氏家用新冠病毒抗原自我檢測套組,65,2022/05/08 09:02:03,實名制快篩販售時間：（一）~（六） 9:00~17:00
5907360459,聯合藥局,高雄市前鎮區一心一路２８１號１樓,120.3141,22.60955,(07)3391535,羅氏家用新冠病毒抗原自我檢測套組,1,2022/05/08 09:02:03,中午12:00開賣快篩
5907360520,大樹瑞福藥局,高雄市前鎮區瑞隆路１７０號１樓、２樓,120.3357,22.60598,(07)7271170,羅氏家用新冠病毒抗原自我檢測套組,78,2022/05/08 09:02:03,快篩實名制，每天16:00開始販售，售完為止。
5907360600,桂林活力藥師藥局草衙店,高雄市前鎮區草衙二路３６０號,120.323,22.57801,(07)8131819,羅氏家用新冠病毒抗原自我檢測套組,77,2022/05/08 09:02:03,9:00發放實名制快篩號碼牌.售完為止
5907360655,民權丁丁藥局,高雄市前鎮區民權二路３４５號１－３樓,120.3128,22.61005,(07)9650177,羅氏家用新冠病毒抗原自我檢測套組,72,2022/05/08 09:02:03,快篩實名制早上9點開始販售
5907370053,瑞康藥師藥局,高雄市旗津區中洲三路５９７號,120.2724,22.60775,(07)5718985,羅氏家用新冠病毒抗原自我檢測套組,44,2022/05/08 09:02:03,藥局販售口罩時間，依藥局門口公告時間為主（售完為止）
5907380184,桂林活力藥師藥局孔鳳店,高雄市小港區孔鳳路５６１號１樓,120.3586,22.58393,(07)7912331,羅氏家用新冠病毒抗原自我檢測套組,68,2022/05/08 09:02:03,無
5907380353,桂林活力藥師藥局漢民店,高雄市小港區漢民路６９１－１及６９１－２號１樓,120.3614,22.56762,(07)8010636,羅氏家用新冠病毒抗原自我檢測套組,77,2022/05/08 09:02:03,無
5907380380,祐昇健保藥局,高雄市小港區漢民路３３３號１樓,120.3551,22.56704,(07)8070976,羅氏家用新冠病毒抗原自我檢測套組,69,2022/05/08 09:02:03,快篩販售時間 每周一~周六中午12:30開始；週日早上9:00開始販售
5911011469,維元社區藥局,基隆市中正區新豐街４４８號,121.7859,25.13568,(02)24601388,羅氏家用新冠病毒抗原自我檢測套組,58,2022/05/08 09:02:03,無
5911011521,禎宸藥局,基隆市中正區中正路１７５號１樓,121.7605,25.14233,(02)24620366,羅氏家用新冠病毒抗原自我檢測套組,79,2022/05/08 09:02:03,無
5911011576,百福義一藥師藥局,基隆市中正區義一路４８號１樓,121.7458,25.13279,(02)24268288,羅氏家用新冠病毒抗原自我檢測套組,67,2022/05/08 09:02:03,周一至周六08:00開門，周日09:00開門
5911030053,杏福藥局,基隆市暖暖區暖暖街１７８號,121.7357,25.09953,(02)24572427,羅氏家用新冠病毒抗原自我檢測套組,74,2022/05/08 09:02:03,無
5911041510,聯安藥局,基隆市仁愛區仁二路２５１號２樓,121.7428,25.1296,(02)24288809,羅氏家用新冠病毒抗原自我檢測套組,2,2022/05/08 09:02:03,安東耳鼻喉科二樓循環站正對面 快篩販售時間更改8:20-11:50， 假日8:20-11:00 售完為止
5911041949,捷登藥局,基隆市仁愛區孝三路９２號１樓,121.7399,25.1309,(02)24237888,羅氏家用新冠病毒抗原自我檢測套組,43,2022/05/08 09:02:03,國定假日有提供藥事調劑服務
5911041958,百福仁愛專業藥局,基隆市仁愛區仁四路５０號１樓,121.7413,25.12829,(02)24266699,羅氏家用新冠病毒抗原自我檢測套組,1,2022/05/08 09:02:03,4／30起，早上8:00販售快篩
5911051392,寶慷藥局,基隆市中山區復興路１９１號１樓,121.7263,25.14611,(02)24362338,羅氏家用新冠病毒抗原自我檢測套組,10,2022/05/08 09:02:03,08:30開始販賣快篩
5911051409,順豐藥局,基隆市中山區中華路４號,121.7388,25.14545,(02)24369176,羅氏家用新冠病毒抗原自我檢測套組,78,2022/05/08 09:02:03,家用快篩每日下午2點起隨到隨領售完為止。
5911051481,仁登藥局,基隆市中山區復興路１２２號,121.7262,25.14453,(02)24375789,羅氏家用新冠病毒抗原自我檢測套組,11,2022/05/08 09:02:03,無
5911060051,濟生藥局,基隆市安樂區基金三路８２－２號,121.6956,25.15706,(02)24310884,羅氏家用新冠病毒抗原自我檢測套組,69,2022/05/08 09:02:03,無
5911070011,信安藥局,基隆市信義區信二路９９號,121.7548,25.12912,(02)24238551,羅氏家用新冠病毒抗原自我檢測套組,11,2022/05/08 09:02:03,快篩實名制-早上9點開始販售-售完為止-
5911071607,家安藥師藥局,基隆市信義區信二路２５７、２５９號１樓,121.7478,25.1301,(02)24223917,羅氏家用新冠病毒抗原自我檢測套組,18,2022/05/08 09:02:03,星期一 ~ 星期六14:00開始銷售。
5912010528,華安中西藥局,新竹市東區振興里南大路６４８號一樓,120.9627,24.79286,(03)5610088,羅氏家用新冠病毒抗原自我檢測套組,43,2022/05/08 09:02:03,. 5／8（日） 早上9:00販售快篩試劑.  快篩試劑實名制販售時間 早上 9:00
5912012139,康博中西藥局,新竹市東區明湖里明湖路四四六之四號,120.9724,24.77008,(03)5191010,羅氏家用新冠病毒抗原自我檢測套組,22,2022/05/08 09:02:03,口罩販售時間:星期一~ 五:上午8:40，星期六:上午9:00，星期日:上午8:40
5912012157,東海藥局,新竹市東區光復路一段２１３號１樓,121.0214,24.78169,(03)5772831,羅氏家用新冠病毒抗原自我檢測套組,67,2022/05/08 09:02:03,口罩販售時段：上午9:00開始至售完
5912012988,杏康健保特約藥局,新竹市東區光復路一段５２５巷２３號１樓,121.0135,24.78384,(03)5772966,羅氏家用新冠病毒抗原自我檢測套組,74,2022/05/08 09:02:03,週一至五09:00-21:00 （週六公休） 週日09:00-18:00
5912013547,佑全新竹光復藥局,新竹市東區仙水里光復路１段３５３號１樓,121.0176,24.78315,(03)6661826,羅氏家用新冠病毒抗原自我檢測套組,78,2022/05/08 09:02:03,（5／6開始恢復上午販售）上午9:30開賣，9:20發號碼牌
5912013592,康妍藥局,新竹市東區西大路１２６號１樓,120.9703,24.79667,(03)5622476,羅氏家用新冠病毒抗原自我檢測套組,60,2022/05/08 09:02:03,無
5912013609,丁丁藥局,新竹市東區中華路二段９１號,120.9812,24.80794,(03)6117888,羅氏家用新冠病毒抗原自我檢測套組,74,2022/05/08 09:02:03,無
5912013654,七二八藥局,新竹市東區明湖路１２４５號１樓,120.979,24.76774,(03)5200530,羅氏家用新冠病毒抗原自我檢測套組,79,2022/05/08 09:02:03,5／8政府快篩，12:30開始販售。
5912040553,新廣德中西藥局,新竹市北區民富里延平路１段１６６號,120.9564,24.80464,(03)5225386,羅氏家用新冠病毒抗原自我檢測套組,54,2022/05/08 09:02:03,快篩劑販售時間：08:00起，售完為止；每日08:00起至21:00為止
5912042208,芳里藥局,新竹市北區延平路一段214巷2號,120.9544,24.80528,(03)5222989,羅氏家用新冠病毒抗原自我檢測套組,75,2022/05/08 09:02:03,星期日營業時間調整為9:00-18:00。快篩販售時間為早上8點，禮拜天為9點
5912042637,中福藥局,新竹市北區中福路８３號,120.9327,24.8408,(03)5366996,羅氏家用新冠病毒抗原自我檢測套組,78,2022/05/08 09:02:03,快篩販售時間：上午09:00
5912042717,好鄰居健保藥局,新竹市北區西門街１２３號（１樓）,120.9635,24.80146,(03)5400538,羅氏家用新冠病毒抗原自我檢測套組,53,2022/05/08 09:02:03,9:00開始販售~售完
5912042922,四維丁丁藥局,新竹市北區四維路１９－２號１樓,120.9626,24.79843,(03)5251371,羅氏家用新冠病毒抗原自我檢測套組,78,2022/05/08 09:02:03,無
5912051421,牛埔丁丁藥局,新竹市香山區牛埔東路２４７號１樓,120.9442,24.79613,(03)5384612,羅氏家用新冠病毒抗原自我檢測套組,78,2022/05/08 09:02:03,無
5917011945,正三吉藥局,臺中市中區臺灣大道一段９５號,120.6831,24.13911,(04)22207700,羅氏家用新冠病毒抗原自我檢測套組,78,2022/05/08 09:02:03,快篩販售時間 14:00~17:00
5917030128,太信藥局,臺中市西區三民路一段９５－１號１樓,120.6698,24.13322,(04)23718318,羅氏家用新冠病毒抗原自我檢測套組,21,2022/05/08 09:02:03,健保卡快篩請0900自備500元／份
5917030520,林西藥局,臺中市西區向上路一段４６－１號,120.6661,24.14688,(04)23014023,羅氏家用新冠病毒抗原自我檢測套組,69,2022/05/08 09:02:03,每日早上9點開始依序當場領口罩，售完為止。
5917030646,華隆藥局,臺中市西區樂群街６之２號,120.6735,24.14025,(04)22243785,羅氏家用新冠病毒抗原自我檢測套組,61,2022/05/08 09:02:03,上午09:00開始販售快篩試劑，售完為止
5917032462,名亨藥局,臺中市西區五權路２９號１樓,120.6696,24.14423,(04)22201089,羅氏家用新冠病毒抗原自我檢測套組,40,2022/05/08 09:02:03,每日上午8:20至12，下午3至6時販售.周 日  . 周 六    下 午 休 息 .
5917032613,向日睽藥局,臺中市西區林森路９８－２號１樓,120.6707,24.1379,(04)23731893,羅氏家用新冠病毒抗原自我檢測套組,64,2022/05/08 09:02:03,快篩.每天早上9點開賣
5917032908,佑恩藥師藥局,臺中市西區精誠路６７號１樓,120.6553,24.15224,(04)23100058,羅氏家用新冠病毒抗原自我檢測套組,39,2022/05/08 09:02:03,實名制快篩周一到周六，早上9:00，周日下午2:10開始販賣
5917040099,義興配藥局,臺中市南區西川里忠明南路６２８號,120.6571,24.13072,(04)23751551,羅氏家用新冠病毒抗原自我檢測套組,48,2022/05/08 09:02:03,週一至週日上午9點販賣防疫快篩試劑
5917040106,侑民藥局,臺中市南區興大路３９６巷４９號１樓,120.6712,24.11564,(04)22860146,羅氏家用新冠病毒抗原自我檢測套組,38,2022/05/08 09:02:03,週一至週日上午9點販賣防疫快篩試劑
5917041765,荃大藥局,臺中市南區臺中路１５４號,120.6843,24.13114,(04)22858850,羅氏家用新冠病毒抗原自我檢測套組,62,2022/05/08 09:02:03,防疫快篩販售，早上09:10~10:00止...若貨運延誤，依門市公告販售時間
5917050577,東生藥局,臺中市北區永興街１１２－１號１樓,120.6825,24.16152,(04)22358880,羅氏家用新冠病毒抗原自我檢測套組,78,2022/05/08 09:02:03,周一到周六上午8:30到晚上10:00開始販售口罩，周日公休
5917053514,學士藥局,臺中市北區學士路１３號之１樓,120.6823,24.15372,(04)22015008,羅氏家用新冠病毒抗原自我檢測套組,78,2022/05/08 09:02:03,固定周一到周日，早上09:50開始發放號碼牌及販賣快篩
5917060322,瑞康藥局,臺中市西屯區長安路二段２號１樓,120.6612,24.1724,(04)22914046,羅氏家用新冠病毒抗原自我檢測套組,14,2022/05/08 09:02:03,營業時間8:30~21:30 （家用快篩，酒精及防疫口罩）
5917060644,大東藥局,臺中市西屯區西墩里黎明路三段５７號,120.6369,24.1726,(04)27020418,羅氏家用新冠病毒抗原自我檢測套組,69,2022/05/08 09:02:03,5／8上午9點開賣。
5917061150,裕和藥局,臺中市西屯區大墩路９５１號１Ｆ,120.652,24.15929,(04)23252629,羅氏家用新冠病毒抗原自我檢測套組,57,2022/05/08 09:02:03,實名制快篩W1-W6 14:00開始販售；星期日9:00開始
5917062353,典安大藥局,臺中市西屯區西屯路３段１５９－６０號,120.6177,24.18807,(04)24616571,羅氏家用新冠病毒抗原自我檢測套組,132,2022/05/08 09:02:03,每天10:00發放快篩
5917062559,德康藥局,臺中市西屯區福和里中工三路１５６號,120.6181,24.17737,(04)23583373,羅氏家用新冠病毒抗原自我檢測套組,64,2022/05/08 09:02:03,每天早上9:00開始，不發號碼牌，現場排隊領口罩
5917063725,永旭大藥局,臺中市西屯區逢甲路９２號１樓,120.6439,24.17883,(04)27087952,羅氏家用新冠病毒抗原自我檢測套組,1,2022/05/08 09:02:03,5／6起實名快篩，星期一到五早上10點開始，星期六日中午12點開始排隊販售。
5917070346,吉田藥局,臺中市南屯區大同里大墩六街１５４號,120.6506,24.14276,(04)24756816,羅氏家用新冠病毒抗原自我檢測套組,5,2022/05/08 09:02:03,近日到貨時間不定.到貨後.依一進一出.排隊先後序販售口罩，售完為止。
5917070417,康元藥局,臺中市南屯區黎明路２段２８１號１樓,120.6355,24.14863,(04)22548622,羅氏家用新冠病毒抗原自我檢測套組,8,2022/05/08 09:02:03,星期一~星期六早上九點發放號碼牌  星期日早上9:50現場排隊不發號碼牌
5917070515,裕登藥局,臺中市南屯區大墩二街９１號１Ｆ,120.6515,24.13873,(04)24715280,羅氏家用新冠病毒抗原自我檢測套組,57,2022/05/08 09:02:03,固定周一到周日早上9:00開始販賣防疫口罩。
5917072724,百芳大藥局,臺中市南屯區向上路二段４２１號,120.6377,24.1469,(04)23818307,羅氏家用新冠病毒抗原自我檢測套組,1,2022/05/08 09:02:03,晚上7:00開始販賣快篩，不發號碼牌。
5917080771,大生大藥局,臺中市北屯區三光里北屯路３３７號,120.6974,24.1703,(04)22337059,羅氏家用新冠病毒抗原自我檢測套組,2,2022/05/08 09:02:03,快篩試劑-周一至周日每天早上8:30開始販售，無發放號碼牌，每天即時現場販售服務，售完為止。（週日正常販售服務）
5917082364,慈慧藥師藥局,臺中市北屯區平田里昌平路１段１７８號１Ｆ,120.6887,24.17108,(04)22389846,羅氏家用新冠病毒抗原自我檢測套組,61,2022/05/08 09:02:03,星期一到星期日早上9點開始販售，5／6已販售完
5917083334,瑞東大藥局,臺中市北屯區東山路一段２４６之３號,120.7179,24.17542,(04)24373799,羅氏家用新冠病毒抗原自我檢測套組,154,2022/05/08 09:02:03,5／6 快篩 已售完
5917083343,豋盛藥局,臺中市北屯區北平路三段１０７號,120.6827,24.17117,(04)22373863,羅氏家用新冠病毒抗原自我檢測套組,78,2022/05/08 09:02:03,實名制快篩販賣時間:5／8日上午10點開賣
5921010232,大家藥局,臺南市東區大同路二段１７５號,120.214,22.97682,(06)2153777,羅氏家用新冠病毒抗原自我檢測套組,34,2022/05/08 09:02:03,快篩實名制:星期一到星期日早上8:30開始營業  以當日配送到達時間開始販售
5921021780,國山健保特約藥局,臺南市南區大同路２段４７８號,120.2145,22.97307,(06)2159570,羅氏家用新冠病毒抗原自我檢測套組,71,2022/05/08 09:02:03,無
5921040221,好鄰居藥局,臺南市北區西華里公園路１２８號２樓７室,120.2076,22.99889,(06)2219015,羅氏家用新冠病毒抗原自我檢測套組,125,2022/05/08 09:02:03,固定星期一至星期六8:30開始販賣快篩，星期天早上9:00開始販賣快篩
5921060385,樂成藥局,臺南市安南區安和路一段１５９巷８３號,120.2115,23.03032,(06)2568576,羅氏家用新冠病毒抗原自我檢測套組,5,2022/05/08 09:02:03,無
5922010361,壽生堂藥局,嘉義市東區府路里延平街２８０號,120.4502,23.47683,(05)2225058,羅氏家用新冠病毒抗原自我檢測套組,37,2022/05/08 09:02:03,周一至周日上午09:00起，至20:00或售鑿為止。
5922012856,民族弘安藥局,嘉義市東區朝陽里民族路１６５號,120.4571,23.47653,(05)2240101,羅氏家用新冠病毒抗原自我檢測套組,49,2022/05/08 09:02:03,周一至周日快篩到貨開始販售快篩，至售完為止.
5922020125,照安藥局,嘉義市西區福全里博愛路２段３６１號,120.435,23.47573,(05)2332883,羅氏家用新冠病毒抗原自我檢測套組,1,2022/05/08 09:02:03,口罩代售時間於08：00開始販售；現場。
5922020358,泰春藥局,嘉義市西區學圃里民生北路６６號,120.4468,23.47543,(05)2224118,羅氏家用新冠病毒抗原自我檢測套組,1,2022/05/08 09:02:03,快篩試劑販售時間：早上9點至晚上9點
5922020518,永安藥局,嘉義市西區西平里信義路４９之１號,120.4344,23.47431,(05)2358368,羅氏家用新冠病毒抗原自我檢測套組,55,2022/05/08 09:02:03,口罩：星期一至星期日9點販售，售完為止，現場排隊
5922020581,杏安藥局,嘉義市西區書院里民族路７８６號,120.4409,23.47535,(05)2271727,羅氏家用新冠病毒抗原自我檢測套組,70,2022/05/08 09:02:03,無
5922020858,大統藥局,嘉義市西區慶安里北興街１３６號,120.4421,23.48389,(05)2330230,羅氏家用新冠病毒抗原自我檢測套組,70,2022/05/08 09:02:03,5月8日預約登記已滿.有預約的民眾請於上午9:00-12:00領取
5922020956,國同藥局,嘉義市西區八德路１０１號１樓,120.4305,23.48528,(05)2327336,羅氏家用新冠病毒抗原自我檢測套組,75,2022/05/08 09:02:03,快篩早上9點販售.售完為止
5922020992,昭安藥局,嘉義市西區民生南路４７９號１樓,120.4437,23.45821,(05)2842240,羅氏家用新冠病毒抗原自我檢測套組,14,2022/05/08 09:02:03,無
5922028783,勝成藥局,嘉義市西區南京路１２６巷１９號,120.4406,23.45687,(05)2360247,羅氏家用新冠病毒抗原自我檢測套組,54,2022/05/08 09:02:03,4月28日起9:30至12:00販賣快篩試劑，請於現場排隊，售完為止
592202A349,力健藥局,嘉義市西區文化路５９１號,120.4443,23.49355,(05)2323217,羅氏家用新冠病毒抗原自我檢測套組,2,2022/05/08 09:02:03,營業時間為早上8:00至中午13:00，下午2:30至晚上9:30，口罩發放從早上8:30至售完為止
5931010646,人民藥局,新北市板橋區仁愛路５９號,121.4604,24.99965,(02)89533956,羅氏家用新冠病毒抗原自我檢測套組,72,2022/05/08 09:02:03,1.依政府規定當日配送，當日販售。2.因每日郵局配送時間不一定，詳看現場公告。.
5931011045,進發大藥局,新北市板橋區民治街１０１號,121.479,25.0315,(02)22528361,羅氏家用新冠病毒抗原自我檢測套組,76,2022/05/08 09:02:03,快篩08:00先收卡，排隊請不要擋到攤販，中午就可以領，開放80歲長者前天寄卡，謝謝。
5931011223,民侑藥局,新北市板橋區大觀路２段３７巷３１０號,121.45,25.00221,(02)22755938,羅氏家用新冠病毒抗原自我檢測套組,74,2022/05/08 09:02:03,快篩號碼牌發放時間為早上9點。12點前須拿號碼牌完成購買。
5931011250,錦龍藥局,新北市板橋區長安街１３８巷１弄１１４號,121.4743,25.0103,(02)29522290,羅氏家用新冠病毒抗原自我檢測套組,77,2022/05/08 09:02:03,週一至周日早上8:30~開始發售， 售完為止。
5931011438,萬壽藥局,新北市板橋區四川路１段２５１號,121.4599,25.00256,(02)29617476,羅氏家用新冠病毒抗原自我檢測套組,53,2022/05/08 09:02:03,快篩販售時間:星期一~星期日早上9:00
5931011938,正吉藥局,新北市板橋區莊敬路２４１號（１樓）,121.473,25.02154,(02)22595183,羅氏家用新冠病毒抗原自我檢測套組,44,2022/05/08 09:02:03,快篩早上9點開始，有配送就有，沒配送就沒有
5931013361,長欣藥師藥局,新北市板橋區中山路２段５０５巷３６號,121.4821,25.02246,(02)29585308,羅氏家用新冠病毒抗原自我檢測套組,78,2022/05/08 09:02:03,無
5931014831,詠濟藥局,新北市板橋區幸福路２３號,121.4618,25.02023,(02)22536951,羅氏家用新冠病毒抗原自我檢測套組,72,2022/05/08 09:02:03,無
5931015721,新進發大藥局,新北市板橋區大同街２４號１樓,121.4787,25.0275,(02)22593926,羅氏家用新冠病毒抗原自我檢測套組,44,2022/05/08 09:02:03,快篩上午10點開門即賣，排隊不發號碼
5931016915,微笑藥局,新北市板橋區中正路２１１號,121.4561,25.0175,(02)29655811,羅氏家用新冠病毒抗原自我檢測套組,78,2022/05/08 09:02:03,每天早上9點發放號碼牌並開始販售實名制快篩，請提早排隊
5931017001,聯康藥局,新北市板橋區南雅南路２段１３６號（１樓）,121.4518,24.99656,(02)89674888,羅氏家用新冠病毒抗原自我檢測套組,78,2022/05/08 09:02:03,快篩上午9:30開始發放
5931017396,美康四維藥局,新北市板橋區四維路１２２號１樓,121.4654,25.02499,(02)22506616,羅氏家用新冠病毒抗原自我檢測套組,76,2022/05/08 09:02:03,每天提供78份快篩 星期一.三.五單號 二.四.六雙號 星期日不限
5931017449,順儷長安藥局,新北市板橋區長安街１３８巷１弄５２號（１樓）,121.474,25.0101,(02)29509615,羅氏家用新冠病毒抗原自我檢測套組,15,2022/05/08 09:02:03,每天早上9點開賣請自備500元
5931017814,順儷新板藥局,新北市板橋區漢生東路１８７號１樓,121.4698,25.01181,(02)29512590,羅氏家用新冠病毒抗原自我檢測套組,71,2022/05/08 09:02:03,5／8快篩早上9點販售
5931017869,躍獅國慶藥局,新北市板橋區國慶路１７９號（１樓）,121.4626,24.99636,(02)29641548,羅氏家用新冠病毒抗原自我檢測套組,156,2022/05/08 09:02:03,快篩實名制，每天14:00開始販售，售完為止
5931017903,吉發藥局,新北市板橋區文化路１段１８８巷５弄１５號（１樓）,121.4674,25.01986,(02)22577381,羅氏家用新冠病毒抗原自我檢測套組,24,2022/05/08 09:02:03,無
5931017994,後埔藥局,新北市板橋區華興街９號（１樓）,121.459,25.00457,(02)89510306,羅氏家用新冠病毒抗原自我檢測套組,78,2022/05/08 09:02:03,5／7 下午2點發放號碼牌*確保作業流暢請自備500元*每天 78 份晚上10 點以前領取完畢（過卡時間差異剩餘數量僅供參考）
5931018017,有田藥局,新北市板橋區忠孝路１８１號（１樓）,121.4642,25.00262,(02)29598095,羅氏家用新冠病毒抗原自我檢測套組,128,2022/05/08 09:02:03,早上十點開始販售，售完為止
5931018106,力安藥局,新北市板橋區莒光路１９６巷８號（１樓）,121.4738,25.02255,(02)22503349,羅氏家用新冠病毒抗原自我檢測套組,63,2022/05/08 09:02:03,快篩實名制，早上9點依現場順序開始販售快篩，售完為止。
5931020400,新迪化中西藥局,新北市三重區三陽路２７號１樓,121.4855,25.05893,(02)29884755,羅氏家用新冠病毒抗原自我檢測套組,78,2022/05/08 09:02:03,快篩實名制中午12點開始販售，發號碼牌
5931020688,厚德藥局,新北市三重區大智街１７５號１樓,121.4898,25.07265,(02)29717277,羅氏家用新冠病毒抗原自我檢測套組,51,2022/05/08 09:02:03,防疫口罩於早上0830發放，售完為止
5931020866,裕福藥局,新北市三重區長壽西街１４４號,121.4939,25.06661,(02)29831769,羅氏家用新冠病毒抗原自我檢測套組,27,2022/05/08 09:02:03,快篩代售等貨到才販售；現場排隊
5931020991,久洲藥局,新北市三重區長元街５１－９號,121.5009,25.06616,(02)29783515,羅氏家用新冠病毒抗原自我檢測套組,2,2022/05/08 09:02:03,快篩八點半發號碼牌12點至1點領快篩
5931021416,國星藥局,新北市三重區溪尾街１０９號,121.4898,25.07867,(02)29859203,羅氏家用新冠病毒抗原自我檢測套組,2,2022/05/08 09:02:03,無
5931022959,名成藥局,新北市三重區力行路１段１８２號,121.4819,25.0716,(02)29847828,羅氏家用新冠病毒抗原自我檢測套組,63,2022/05/08 09:02:03,快篩實名制，星期1--6下午2點30開始領，5月1日星期日，九點開始領
5931023018,重德藥局,新北市三重區正義北路２４６號２樓,121.496,25.06827,(02)89816164,羅氏家用新冠病毒抗原自我檢測套組,4,2022/05/08 09:02:03,無
5931024168,合康健保藥局,新北市三重區三和路４段３８４號１樓,121.4824,25.0789,(02)22869999,羅氏家用新冠病毒抗原自我檢測套組,105,2022/05/08 09:02:03,快篩試劑販售時間每日早上0845
5931024588,陽光藥師藥局,新北市三重區三和路２段１８２號１樓,121.4987,25.06886,(02)29788120,羅氏家用新冠病毒抗原自我檢測套組,130,2022/05/08 09:02:03,無
5931024962,建祥三和藥局,新北市三重區三和路２段１６０號１樓,121.4992,25.06853,(02)29703379,羅氏家用新冠病毒抗原自我檢測套組,78,2022/05/08 09:02:03,實名制快篩10:00發放號碼牌
5931025567,閎安藥局,新北市三重區重新路２段８５號１樓、２樓,121.4962,25.06181,(02)29881968,羅氏家用新冠病毒抗原自我檢測套組,4,2022/05/08 09:02:03,每日皆執行調劑業務，快篩代售時間每日下午三點發號碼牌並領取
5931025807,永福藥局,新北市三重區永福街３號１樓,121.4827,25.07837,(02)22861161,羅氏家用新冠病毒抗原自我檢測套組,76,2022/05/08 09:02:03,15:00排隊拿號碼牌買快篩
5931025898,新宜安中西藥局,新北市三重區三陽路３０號１樓,121.4854,25.05867,(02)29883693,羅氏家用新冠病毒抗原自我檢測套組,77,2022/05/08 09:02:03,【實名制快篩試劑】依每日物流到貨狀況，請加LINE ID：「@692qferj」或FB：新宜安中西藥局公告告知。
5931025996,信義忠孝藥局,新北市三重區忠孝路２段４０號１樓,121.4854,25.07056,(02)89813529,羅氏家用新冠病毒抗原自我檢測套組,57,2022/05/08 09:02:03,早上8:30發放號碼牌 自備500+健保卡 12:00以後領取快篩歸還健保卡
5931026028,宏欣藥局,新北市三重區仁愛街５１７號２樓,121.4878,25.08227,(02)29811234,羅氏家用新冠病毒抗原自我檢測套組,129,2022/05/08 09:02:03,一~五16:00，日09:30，六不發
5931032099,德和便利藥局,新北市永和區得和路１９４號１樓,121.5201,24.99963,(02)89431417,羅氏家用新冠病毒抗原自我檢測套組,75,2022/05/08 09:02:03,營業時間為9：00~22：00（下午1點~3點休息）實名制快篩9:00販售
5931033461,常安中西藥局,新北市永和區保平路２６號１樓,121.5122,25.00749,(02)29283530,羅氏家用新冠病毒抗原自我檢測套組,2,2022/05/08 09:02:03,每日下午三點開始實名制快篩
5931033621,永正健康人生藥局,新北市永和區中正路１９１、１９３號１樓、１９７號２樓,121.5171,24.99931,(02)29467351,羅氏家用新冠病毒抗原自我檢測套組,156,2022/05/08 09:02:03,實名制快篩9點開賣
5931034039,叁品藥局,新北市永和區秀朗路２段１１８號１樓,121.5244,25.00152,(02)29208800,羅氏家用新冠病毒抗原自我檢測套組,77,2022/05/08 09:02:03,實名制快篩 下午一點發放號碼牌
5931034128,富康活力永和藥局,新北市永和區中和路４２９號１樓,121.5094,25.00093,(02)29263191,羅氏家用新冠病毒抗原自我檢測套組,83,2022/05/08 09:02:03,無
5931034137,永杏中西藥局,新北市永和區竹林路１１８號１樓,121.5198,25.01141,(02)89210338,羅氏家用新冠病毒抗原自我檢測套組,1,2022/05/08 09:02:03,實名制快篩下午一點開賣，請留意FB官方訊息
5931034146,亮點藥局,新北市永和區竹林路７１號１樓,121.5186,25.01355,(02)89253895,羅氏家用新冠病毒抗原自我檢測套組,66,2022/05/08 09:02:03,快篩發放時段 下午16:30-18:00
5931040215,華新藥局,新北市中和區華新街７３號,121.5082,24.98392,(02)29448345,羅氏家用新冠病毒抗原自我檢測套組,64,2022/05/08 09:02:03,無
5931040224,欣祥藥局,新北市中和區民德路７４－１號,121.4687,25.00163,(02)29646442,羅氏家用新冠病毒抗原自我檢測套組,57,2022/05/08 09:02:03,每日早上9點，販售快篩。若有異動以現場公告為主 .
5931042326,璟福藥局,新北市中和區安平路７６號１樓,121.511,24.99652,(02)29408669,羅氏家用新冠病毒抗原自我檢測套組,18,2022/05/08 09:02:03,無
5931042371,真成大藥局,新北市中和區光華街３８號,121.5048,25.00389,(02)22447008,羅氏家用新冠病毒抗原自我檢測套組,77,2022/05/08 09:02:03,實名快篩平日 早上9:30發放號碼牌 當日早上10點~12點前領完 週日無販售
5931042648,恩溢藥局,新北市中和區復興路７９號１樓.２樓,121.5035,24.9902,(02)22452450,羅氏家用新冠病毒抗原自我檢測套組,2,2022/05/08 09:02:03,無
5931044044,宥元藥局,新北市中和區德光路６２號１樓,121.4696,25.00398,(02)89535473,羅氏家用新冠病毒抗原自我檢測套組,7,2022/05/08 09:02:03,週一至周六10:30-22:00發放口罩
5931044133,康富力藥局,新北市中和區仁愛街３２號１樓,121.5109,24.98843,(02)29429896,羅氏家用新冠病毒抗原自我檢測套組,78,2022/05/08 09:02:03,快篩代售時間：周一至周五9:30、週六14:00
5931044393,躍獅康銓藥局,新北市中和區莒光路１４６號１樓,121.4725,25.00088,(02)29646452,羅氏家用新冠病毒抗原自我檢測套組,25,2022/05/08 09:02:03,實名制快篩 每日上午09:10開始販售，週日店休
5931044580,躍獅天晴藥局,新北市中和區和平街９號１樓,121.5095,24.99025,(02)29491931,羅氏家用新冠病毒抗原自我檢測套組,154,2022/05/08 09:02:03,無
5931044660,吉佑藥局,新北市中和區大勇街３４號１樓,121.5174,24.99345,(02)89416539,羅氏家用新冠病毒抗原自我檢測套組,131,2022/05/08 09:02:03,無
5931044884,壹品藥局,新北市中和區福祥路５５號１樓,121.4992,25.00474,(02)22481818,羅氏家用新冠病毒抗原自我檢測套組,74,2022/05/08 09:02:03,實名制快篩下午1點發放號碼牌
5931044982,萊恩藥局,新北市中和區景安路２０９號１樓,121.5046,24.99192,(02)29468395,羅氏家用新冠病毒抗原自我檢測套組,83,2022/05/08 09:02:03,每週星期一到星期六（星期天依店內公告），早上9點發號碼牌押健保卡，12點後領取快篩
5931045210,廣來藥師藥局,新北市中和區員山路３９３號１樓,121.4811,25.00293,(02)32340393,羅氏家用新冠病毒抗原自我檢測套組,78,2022/05/08 09:02:03,代為販售實名制快篩，販售時間：每天上午11點到中午12點為止。
5931045372,伍品藥局,新北市中和區莊敬路３５號１樓,121.5007,25.00503,(02)82456789,羅氏家用新冠病毒抗原自我檢測套組,67,2022/05/08 09:02:03,實名制快篩下午14:00點發號碼牌，請自備500元紙鈔　－　15:00後取回健保卡 感謝！（週日）停止販售快篩！
5931045461,富康活力遠東藥局,新北市中和區建八路１０之１號１樓,121.4865,24.99805,(02)82262299,羅氏家用新冠病毒抗原自我檢測套組,156,2022/05/08 09:02:03,因屬園區大樓，販售時間請依LINE社群公告
5931050417,世明藥局,新北市新店區北新路３段１２０號１樓,121.5417,24.98174,(02)29122139,羅氏家用新冠病毒抗原自我檢測套組,1,2022/05/08 09:02:03,快篩實名制販售時間：下午13:00~14:00
5931052288,躍獅正新藥局,新北市新店區中正路５７之１號１樓,121.5443,24.96989,(02)89145930,羅氏家用新冠病毒抗原自我檢測套組,81,2022/05/08 09:02:03,星期一至六9:00為領取快篩號碼牌，20:00以前帶號碼牌來取快篩
5931052715,陽光健康藥局,新北市新店區安民街２１４號,121.5174,24.9722,(02)22123919,羅氏家用新冠病毒抗原自我檢測套組,156,2022/05/08 09:02:03,實名制快篩於早上9點開始販售  以現場排隊為主
5931053070,美康中正藥局,新北市新店區中正路２１５號１、２樓,121.5397,24.97284,(02)29112669,羅氏家用新冠病毒抗原自我檢測套組,78,2022/05/08 09:02:03,無號牌.自主排隊.自主管理.快篩 1430-2200 唷~
5931053169,貳品藥局,新北市新店區新和街７５號１樓,121.5205,24.98612,(02)89418890,羅氏家用新冠病毒抗原自我檢測套組,78,2022/05/08 09:02:03,實名制快篩下午一點半依排隊順序發售
5931053178,長照藥局,新北市新店區如意街１６號１樓,121.4944,24.94838,(02)22153325,羅氏家用新冠病毒抗原自我檢測套組,78,2022/05/08 09:02:03,請注意5／8快篩上午10:00開賣 現場自主排隊不發號碼牌（請勿再來電詢問了）
5931053383,大豐藥局,新北市新店區北新路３段５３號之１（１樓）,121.5417,24.9807,(02)89113196,羅氏家用新冠病毒抗原自我檢測套組,1,2022/05/08 09:02:03,每日下午2點發號碼牌同步販售實名制快篩試劑 請自備500元
5931060217,富國藥局,新北市新莊區富國路３１號,121.4189,25.02645,(02)29039334,羅氏家用新冠病毒抗原自我檢測套組,78,2022/05/08 09:02:03,即日期實名制快篩早上9:00販售，現場排隊，不發號碼牌
5931060262,明生藥局,新北市新莊區福樂街１３號,121.4578,25.04504,(02)29913260,羅氏家用新冠病毒抗原自我檢測套組,58,2022/05/08 09:02:03,無
5931060628,錄新藥局,新北市新莊區後港一路７６巷１０弄１號,121.427,25.02604,(02)22051849,羅氏家用新冠病毒抗原自我檢測套組,156,2022/05/08 09:02:03,無
5931060682,勝安藥局,新北市新莊區中正路３３４巷２３號１樓,121.4456,25.03585,(02)29963394,羅氏家用新冠病毒抗原自我檢測套組,67,2022/05/08 09:02:03,無
5931067403,建嘉藥局,新北市新莊區中誠街４２號１樓,121.4513,25.04812,(02)29925261,羅氏家用新冠病毒抗原自我檢測套組,1,2022/05/08 09:02:03,無
5931067412,幸寧藥局,新北市新莊區福壽街８４巷１２號１樓,121.4588,25.04985,(02)29971150,羅氏家用新冠病毒抗原自我檢測套組,7,2022/05/08 09:02:03,快篩上午8點半開賣
5931068624,瑞豐大藥局,新北市新莊區建福里後港一路１０５號,121.4283,25.02717,(02)22049932,羅氏家用新冠病毒抗原自我檢測套組,77,2022/05/08 09:02:03,快篩每日9:00開始銷售，售完為止!星期日暫停銷售
5931069201,招安藥師藥局,新北市新莊區西盛街３３８號１樓,121.428,25.01436,(02)22085138,羅氏家用新冠病毒抗原自我檢測套組,16,2022/05/08 09:02:03,5／1 5／2 並無快篩試劑到貨 請勿來電或來店購買
5931069603,中信藥師藥局,新北市新莊區中信街８０號１樓,121.448,25.05311,(02)29969811,羅氏家用新冠病毒抗原自我檢測套組,61,2022/05/08 09:02:03,AM 07:30 開始
593106A584,記安大藥局,新北市新莊區天祥街４６號１樓,121.4169,25.02893,(02)22095331,羅氏家用新冠病毒抗原自我檢測套組,2,2022/05/08 09:02:03,無
593106A637,薇妮藥妝藥局,新北市新莊區民安路９９號１樓,121.4245,25.02524,(02)82010817,羅氏家用新冠病毒抗原自我檢測套組,70,2022/05/08 09:02:03,無
593106A646,薇妮雙鳳藥局,新北市新莊區雙鳳路２１號１樓,121.4167,25.02677,(02)29076993,羅氏家用新冠病毒抗原自我檢測套組,76,2022/05/08 09:02:03,實名制快篩每日早上9:00現場排隊購買，無發號碼牌
593106A897,陽光豐年藥局,新北市新莊區豐年街１４號１樓,121.4463,25.03287,(02)22060665,羅氏家用新冠病毒抗原自我檢測套組,81,2022/05/08 09:02:03,無
593106A995,美德心藥局,新北市新莊區中平路３６７號１樓,121.4446,25.05226,(02)29989025,羅氏家用新冠病毒抗原自我檢測套組,67,2022/05/08 09:02:03,快篩實名制，每天14:30發號碼牌，持號碼牌依現場順序排隊購買，售完為止。（如物流配送不及，則另行公告）
593106B036,家嘉藥局,新北市新莊區自立街１０３號（１樓）,121.4553,25.04549,(02)89926488,羅氏家用新冠病毒抗原自我檢測套組,1,2022/05/08 09:02:03,今天號碼牌都已發放完畢
593106B214,微笑埔銓藥局,新北市新莊區中平路７７號（１樓、２樓）,121.4447,25.04507,(02)29901680,羅氏家用新冠病毒抗原自我檢測套組,74,2022/05/08 09:02:03,無
5931070062,鴻真藥局,新北市樹林區保安街１段２０巷６號,121.4277,24.99363,(02)26828977,羅氏家用新冠病毒抗原自我檢測套組,37,2022/05/08 09:02:03,無
5931071523,蔚海藥局,新北市樹林區鎮前街１７號１樓,121.4259,24.99263,(02)86754203,羅氏家用新冠病毒抗原自我檢測套組,83,2022/05/08 09:02:03,固定每日早上8點45分發放快篩， 發完為止
5931071881,盛立藥局,新北市樹林區大雅路２８５號１樓,121.3795,24.94735,(02)35018218,羅氏家用新冠病毒抗原自我檢測套組,78,2022/05/08 09:02:03,政府快篩平日下午1:50發號碼牌，下午2:00準時販售，假日視政府配量（販售時間相同）
5931072299,小蜜蜂中西健保藥局,新北市樹林區東榮街１１８號１樓,121.4154,24.9823,(02)86853677,羅氏家用新冠病毒抗原自我檢測套組,38,2022/05/08 09:02:03,快篩試劑發售時間：基本為早上八點   PS：如政府配送不及，發售時間會現場另行公告。
5931081510,鶯歌藥局,新北市鶯歌區鶯桃路２段１１號１樓,121.3258,24.97205,(02)86778778,羅氏家用新冠病毒抗原自我檢測套組,78,2022/05/08 09:02:03,快篩實名制，每天16:00開始販售，售完為止。
5931081547,信義健保藥局,新北市鶯歌區信義街６３號１樓,121.3534,24.95571,(02)86775563,羅氏家用新冠病毒抗原自我檢測套組,39,2022/05/08 09:02:03,發放時間以現場公告為主
5931091865,大新藥局,新北市三峽區大義路２５９號１樓,121.3774,24.94638,(02)86713204,羅氏家用新冠病毒抗原自我檢測套組,3,2022/05/08 09:02:03,實名制快篩下午2:50開始發號碼牌 3:00販售
5931091892,三峽藥局,新北市三峽區介壽路１段２７號１樓,121.3757,24.93321,(02)26738868,羅氏家用新冠病毒抗原自我檢測套組,1,2022/05/08 09:02:03,快篩實名制，每天16:00開始販售，售完為止。
5931091990,欣美大藥局,新北市三峽區大同路５２號１樓,121.377,24.92864,(02)86712269,羅氏家用新冠病毒抗原自我檢測套組,71,2022/05/08 09:02:03,營業時間:9:00-22:00
5931092022,瑞達美藥局,新北市三峽區民權街１８０號１樓,121.3678,24.92983,(02)86741627,羅氏家用新冠病毒抗原自我檢測套組,75,2022/05/08 09:02:03,若政府有配送則早上9點10分開始發號碼牌，拿到號碼牌要離開請先寄卡付費，否則視同放棄
5931092068,益銘藥師藥局,新北市三峽區大德路１８１號１樓,121.3753,24.94573,(02)26723662,羅氏家用新冠病毒抗原自我檢測套組,79,2022/05/08 09:02:03,無
5931092095,禾雅藥局,新北市三峽區文化路１３０號（１樓）,121.3709,24.93626,(02)26718621,羅氏家用新冠病毒抗原自我檢測套組,70,2022/05/08 09:02:03,無
5931092219,北大藥局,新北市三峽區大義路９號１樓,121.3788,24.94372,(02)26738535,羅氏家用新冠病毒抗原自我檢測套組,48,2022/05/08 09:02:03,快篩發放依政府實際到貨時間為主會公告在臉書粉專
5931101937,文川藥局,新北市淡水區中山北路１段９３號１樓,121.4423,25.17631,(02)86319033,羅氏家用新冠病毒抗原自我檢測套組,10,2022/05/08 09:02:03,星期一-六下午14:50開始販售快篩試劑:星期日早上8:30開始販售
5931102103,四季寶健保藥局,新北市淡水區新市一路３段１１７－１號（含夾層）,121.4468,25.18314,(02)26283199,羅氏家用新冠病毒抗原自我檢測套組,1,2022/05/08 09:02:03,無
5931102336,淡大郭藥局,新北市淡水區英專路３２號１樓,121.4456,25.17008,(02)26229966,羅氏家用新冠病毒抗原自我檢測套組,78,2022/05/08 09:02:03,如前日有收到快篩，隔日販售時間為上午10點。（以現場公告為主）
5931102372,日揚藥局,新北市淡水區民族路３０巷５號,121.4612,25.13623,(02)26242059,羅氏家用新冠病毒抗原自我檢測套組,52,2022/05/08 09:02:03,5／7（六）下午1:00快篩實名制。5／8（日）公休無代售快篩實名制。
5931112270,汐心藥局,新北市汐止區福德一路１５０號,121.6366,25.06687,(02)86932859,羅氏家用新冠病毒抗原自我檢測套組,128,2022/05/08 09:02:03,無
5931112314,杏光藥局,新北市汐止區建成路５９巷１９號１樓,121.6617,25.07287,(02)26411340,羅氏家用新冠病毒抗原自我檢測套組,78,2022/05/08 09:02:03,快篩每日早上十點販售  不發號碼牌
5931112510,汐興藥局,新北市汐止區中興路１１３號１樓、２樓,121.632,25.06494,(02)26927733,羅氏家用新冠病毒抗原自我檢測套組,78,2022/05/08 09:02:03,無
5931113133,祐欣藥局,新北市汐止區中興路２４０號１樓,121.6296,25.06805,(02)26950778,羅氏家用新冠病毒抗原自我檢測套組,78,2022/05/08 09:02:03,實名制快篩-每日早上9點開始發放號碼牌，發完78張號碼即=售完!! 請不要看帳面庫存!!
5931121411,長興堂藥局,新北市瑞芳區明燈路３段６９號１樓,121.8055,25.10824,(02)24972050,羅氏家用新冠病毒抗原自我檢測套組,23,2022/05/08 09:02:03,無
5931130214,崇愛藥局,新北市土城區永豐路１７號,121.4626,24.98825,(02)22665506,羅氏家用新冠病毒抗原自我檢測套組,60,2022/05/08 09:02:03,無
5931130349,祥發藥局,新北市土城區青雲路２５５號,121.4592,24.9809,(02)22655056,羅氏家用新冠病毒抗原自我檢測套組,61,2022/05/08 09:02:03,快篩周一~周六上午8:點發放號碼牌，下午2點後憑號碼牌購買!週日上午9點現場購買
5931130483,學安藥師藥局,新北市土城區學府路１段２１１號１樓,121.4516,24.98447,(02)22610565,羅氏家用新冠病毒抗原自我檢測套組,46,2022/05/08 09:02:03,早上9點00分開始賣快篩，售完為止
5931132307,廣昇健保藥師藥局,新北市土城區明德路１段５３號,121.4653,24.98476,(02)22638300,羅氏家用新冠病毒抗原自我檢測套組,1,2022/05/08 09:02:03,無
5931132389,凱一藥局,新北市土城區裕民路９２巷２１弄８號１樓,121.4501,24.98629,(02)22707679,羅氏家用新冠病毒抗原自我檢測套組,78,2022/05/08 09:02:03,服務時間10:00~21:00，每週二休息。實名制快篩皆於營業日的10:00開賣。
5931132405,小倉藥局,新北市土城區青雲路１９０號１樓,121.4591,24.98221,(02)22744257,羅氏家用新冠病毒抗原自我檢測套組,36,2022/05/08 09:02:03,快篩發放早上八點領號碼牌，一人卡限一張號碼牌，隨即憑號碼牌購買快篩，賣完為止。
5931132610,久安藥局,新北市土城區廣明街７０號１樓,121.455,24.9938,(02)89671097,羅氏家用新冠病毒抗原自我檢測套組,85,2022/05/08 09:02:03,每日依現場排隊於9:30開始販售，售完為止。5／1號勞動節 無販售
5931133037,國安健保藥局,新北市土城區延和路１０９號１樓,121.4678,24.99033,(02)22614933,羅氏家用新冠病毒抗原自我檢測套組,23,2022/05/08 09:02:03,無
5931133564,城恩藥局,新北市土城區學成路３４號１樓,121.4527,24.9873,(02)22735808,羅氏家用新冠病毒抗原自我檢測套組,1,2022/05/08 09:02:03,無
5931133671,升立藥局,新北市土城區明德路２段１９５號１樓,121.4471,24.98333,(02)22605158,羅氏家用新冠病毒抗原自我檢測套組,65,2022/05/08 09:02:03,政府快篩早上9點開始販售，售完為止，請自備零錢500。 如有變動會再公告
5931140238,謚安中西藥局,新北市蘆洲區永平街６號,121.4596,25.09055,(02)22836375,羅氏家用新冠病毒抗原自我檢測套組,78,2022/05/08 09:02:03,無
5931142018,福您安中西藥局,新北市蘆洲區長安街２４６巷６號１樓,121.458,25.08615,(02)82858322,羅氏家用新冠病毒抗原自我檢測套組,73,2022/05/08 09:02:03,無
5931143051,萊康中華健保藥局,新北市蘆洲區中華街４５－１號１樓,121.4628,25.08114,(02)28486787,羅氏家用新冠病毒抗原自我檢測套組,46,2022/05/08 09:02:03,早上9點開門販售實名制快篩 鐵門有快篩公告 請先看好
5931143275,集賢藥局,新北市蘆洲區信義路２２２巷６１號１、２樓,121.4813,25.08535,(02)22882400,羅氏家用新冠病毒抗原自我檢測套組,78,2022/05/08 09:02:03,快篩實名制，每天16:00開始販售，售完為止。
5931151302,宏安藥局,新北市五股區成泰路２段１３６號,121.4382,25.08369,(02)22915932,羅氏家用新冠病毒抗原自我檢測套組,79,2022/05/08 09:02:03,口罩販售時間:每日08:15~23:00售完為止 星期日如果前一日還有庫存，當日照常販售
5931151606,陽光樂活藥局,新北市五股區成泰路２段１０１－２號１樓,121.4383,25.08436,(02)22928799,羅氏家用新冠病毒抗原自我檢測套組,71,2022/05/08 09:02:03,5／7快篩已售罄 5／8快篩於早上9點販售 !!!!!!!!請提早排隊!!!!!!!!!!!!!不分號請持健保卡依序排隊購買
5931161353,台灣藥局,新北市泰山區明志路１段２８２－２８６號,121.4319,25.06002,(02)22971969,羅氏家用新冠病毒抗原自我檢測套組,76,2022/05/08 09:02:03,下午2:20發號碼牌2:30販售實名制快篩試劑
5931161433,仁安藥局,新北市泰山區明志路３段１７４號１樓,121.4242,25.03906,(02)29015586,羅氏家用新冠病毒抗原自我檢測套組,3,2022/05/08 09:02:03,無
5931161602,全成藥局,新北市泰山區明志路１段８３號１樓,121.4336,25.06434,(02)29093039,羅氏家用新冠病毒抗原自我檢測套組,18,2022/05/08 09:02:03,實聯制快篩: 早上8:30開始販售
5931161620,華特藥局,新北市泰山區明志路１段２６０號１樓,121.4321,25.06052,(02)29095662,羅氏家用新冠病毒抗原自我檢測套組,108,2022/05/08 09:02:03,5／7（六）-5／8（日）人力調度停止販售快篩 大家辛苦了 多多關心身邊的家人 加油 我們星期一再繼續奮鬥!!
5931170165,龍點藥局,新北市林口區民族路６７號１樓,121.3655,25.07532,(02)26080636,羅氏家用新冠病毒抗原自我檢測套組,60,2022/05/08 09:02:03,（代售實名制快篩時間: 星期二至星期日:9:00， 星期一:15:00）
5931171644,蛋寶寶藥局,新北市林口區民有街１５８號１樓,121.3725,25.07595,(02)26097371,羅氏家用新冠病毒抗原自我檢測套組,73,2022/05/08 09:02:03,5／21起 周六不販售快篩
5931171779,全球忠孝藥局,新北市林口區忠孝路４９７號１樓,121.3708,25.07028,(02)26092139,羅氏家用新冠病毒抗原自我檢測套組,73,2022/05/08 09:02:03,營業時間:9:00-22:00
5931181257,福康藥粧藥局,新北市深坑區北深路３段１７５號１樓,121.6017,25.00351,(02)26646529,羅氏家用新冠病毒抗原自我檢測套組,18,2022/05/08 09:02:03,無
5931231207,大愛嘉安藥局,新北市八里區中山路２段４２２號１樓,121.3999,25.1476,(02)26107790,羅氏家用新冠病毒抗原自我檢測套組,75,2022/05/08 09:02:03,無
5931250042,信芳藥局,新北市雙溪區中華路５０號,121.866,25.03761,(02)24931301,羅氏家用新冠病毒抗原自我檢測套組,2,2022/05/08 09:02:03,無
5932010019,家佳藥局,桃園市桃園區瑞慶里莊一街８０號,121.2937,25.02199,(03)3175618,羅氏家用新冠病毒抗原自我檢測套組,74,2022/05/08 09:02:03,藥局不看診，周休二日
5932010337,明欣藥局,桃園市桃園區南平路２０６之３號,121.3013,25.01948,(03)3165639,羅氏家用新冠病毒抗原自我檢測套組,12,2022/05/08 09:02:03,實名快篩0840開始，一日就是78份（其中10份診所藥局防疫），不發號碼牌，請自行算人數.
5932011692,正安藥局,桃園市桃園區東山里安東街５８號,121.3158,24.99265,(03)3329461,羅氏家用新冠病毒抗原自我檢測套組,73,2022/05/08 09:02:03,營業時間 09:00~21:30
5932012813,桃園大興藥局,桃園市桃園區大興西路二段７６巷３號,121.2984,25.01183,(03)3013222,羅氏家用新冠病毒抗原自我檢測套組,18,2022/05/08 09:02:03,快篩實名制，每天16:00開始販售，售完為止。
5932013374,芳鄰藥局,桃園市桃園區昆明路３９號,121.3173,24.98372,(03)3679498,羅氏家用新冠病毒抗原自我檢測套組,35,2022/05/08 09:02:03,無
5932013392,桃園中正藥局,桃園市桃園區中正路３７３號,121.3079,24.99955,(03)3381600,羅氏家用新冠病毒抗原自我檢測套組,91,2022/05/08 09:02:03,快篩實名制，每天16:00開始販售，售完為止。
5932013687,桃園春日藥局,桃園市桃園區春日路８７８號,121.3096,25.01561,(03)3580101,羅氏家用新冠病毒抗原自我檢測套組,80,2022/05/08 09:02:03,快篩實名制，每天16:00開始販售，售完為止。
5932013721,桃園民光藥局,桃園市桃園區中正路５６９號,121.3049,25.0041,(03)3364888,羅氏家用新冠病毒抗原自我檢測套組,78,2022/05/08 09:02:03,快篩實名制，每天16:00開始販售，售完為止。
5932013829,春日丁丁藥局,桃園市桃園區春日路６９０號,121.3105,25.01124,(03)3570966,羅氏家用新冠病毒抗原自我檢測套組,71,2022/05/08 09:02:03,實名制快篩試劑已政府物流到貨時間為主販售
5932013865,全球龍安藥局,桃園市桃園區龍安街１１１號,121.2798,24.9897,(03)3609639,羅氏家用新冠病毒抗原自我檢測套組,76,2022/05/08 09:02:03,營業時間:9:00-22:00
5932014059,桃園南平藥局,桃園市桃園區南平路３０２－１號１樓,121.2989,25.01855,(03)3165222,羅氏家用新冠病毒抗原自我檢測套組,78,2022/05/08 09:02:03,快篩實名制，每天16:00開始販售，售完為止。
5932014077,新資生民安大藥局,桃園市桃園區民安路９８號１樓,121.2997,24.99691,(03)3310098,羅氏家用新冠病毒抗原自我檢測套組,29,2022/05/08 09:02:03,每日14:00開賣.售完為止.臉書粉專會公告最新訊息.可關注
5932014120,尚禾藥局,桃園市桃園區大業路１段２９２號１樓,121.3148,25.00932,(03)3256998,羅氏家用新冠病毒抗原自我檢測套組,39,2022/05/08 09:02:03,無
5932014148,躍獅興業藥局,桃園市桃園區大業路２段１５號１樓,121.3112,25.01628,(03)3163569,羅氏家用新冠病毒抗原自我檢測套組,78,2022/05/08 09:02:03,快篩下午一點販售，現場排隊
5932014166,華康中西藥局,桃園市桃園區中埔六街３號１號,121.2964,25.01549,(03)3166920,羅氏家用新冠病毒抗原自我檢測套組,78,2022/05/08 09:02:03,營業時間:週一~周六:9:00-21:30。週日10:00-18:30 （5／7快篩已售完）（5／8實名快篩早上10:20領號碼牌）
5932014184,浤安藥局,桃園市桃園區慈德街１號１樓,121.3019,25.00685,(03)3577665,羅氏家用新冠病毒抗原自我檢測套組,78,2022/05/08 09:02:03,14:00開始發放實名制快篩
5932014273,藝文藥局,桃園市桃園區大興西路１段１６５號,121.3049,25.01414,(03)3261789,羅氏家用新冠病毒抗原自我檢測套組,78,2022/05/08 09:02:03,快篩實名制，每天16:00開始販售，售完為止。
593201A506,永忻藥局,桃園市桃園區大興路一九三號一樓,121.312,25.01564,(03)3585569,羅氏家用新冠病毒抗原自我檢測套組,65,2022/05/08 09:02:03,口罩販賣時段：週一~週六 15:00~1700
5932020324,回生藥局,桃園市中壢區福州二街４０８號,121.232,24.9676,(03)4616483,羅氏家用新冠病毒抗原自我檢測套組,45,2022/05/08 09:02:03,口罩販賣時段：早上9點，以藥局當日公告為主
5932020548,生富藥師藥局,桃園市中壢區新明里中央西路二段７６號,121.2162,24.95848,(03)4941475,羅氏家用新冠病毒抗原自我檢測套組,61,2022/05/08 09:02:03,快篩劑販賣時段：
5932021269,優良藥局,桃園市中壢區長春路２０號,121.2499,24.97907,(03)4612336,羅氏家用新冠病毒抗原自我檢測套組,1,2022/05/08 09:02:03,快篩販售時間10:00
5932021401,懷仁藥師健保藥局,桃園市中壢區中北路９３號１樓,121.238,24.95653,(03)4378466,羅氏家用新冠病毒抗原自我檢測套組,53,2022/05/08 09:02:03,實名制快篩銷售\5月7號更改時間為下午5:00\星期日沒有販售
5932021689,立康專業藥局,桃園市中壢區莊敬路８６５號,121.2543,24.96376,(03)4553121,羅氏家用新冠病毒抗原自我檢測套組,78,2022/05/08 09:02:03,快篩實名制販售時間週一到週五下午14:00販售 週六週日早上10:00販售 現場排隊
5932022257,星康生活藥局,桃園市中壢區中美路二段94號,121.2218,24.96005,(03)4252869,羅氏家用新冠病毒抗原自我檢測套組,2,2022/05/08 09:02:03,5／7-5／9 實名制快篩14:00販售  5／10之後另行公佈販賣時間
5932022524,家佳聯合藥局,桃園市中壢區中光路１４號,121.2256,24.95717,(03)4273960,羅氏家用新冠病毒抗原自我檢測套組,95,2022/05/08 09:02:03,實名制快篩:12：00販賣，售完為止
5932022631,中壢中正藥局,桃園市中壢區中正路３６３、３６５號,121.2163,24.95532,(03)4014100,羅氏家用新冠病毒抗原自我檢測套組,78,2022/05/08 09:02:03,快篩實名制，每天16:00開始販售，售完為止。
5932023012,鴻安中西藥局,桃園市中壢區新中北路二段１９１號１樓,121.2625,24.95597,(03)4520615,羅氏家用新冠病毒抗原自我檢測套組,71,2022/05/08 09:02:03,快篩1030-1130。週一到周日都有。
5932023656,思琁藥師藥局,桃園市中壢區中北路二段４３０號,121.2331,24.95448,(03)4162189,羅氏家用新冠病毒抗原自我檢測套組,1,2022/05/08 09:02:03,週一~週五早上10:30發快篩..週六公休..週日看到貨狀況再另行公告
5932023727,大崙大藥局,桃園市中壢區內厝里中正路４段１１３號,121.1798,24.98888,(03)4983597,羅氏家用新冠病毒抗原自我檢測套組,78,2022/05/08 09:02:03,營業時間皆可買口罩
5932023889,華勛藥局,桃園市中壢區華勛街１１２、１１４號,121.2597,24.95065,(03)4161881,羅氏家用新冠病毒抗原自我檢測套組,1,2022/05/08 09:02:03,快篩實名制，每天16:00開始販售，售完為止。
5932024260,新資生福州大藥局,桃園市中壢區福州二街４０９號,121.232,24.96789,(03)3606180,羅氏家用新冠病毒抗原自我檢測套組,21,2022/05/08 09:02:03,營業時間：星期六 日 上午0900至下午1000
5932028311,千福藥局,桃園市中壢區高鐵站前西路二段８７號,121.2203,25.00709,(03)4533789,羅氏家用新冠病毒抗原自我檢測套組,63,2022/05/08 09:02:03,實名制快篩販售時段-上午九時至售完為止
5932029676,中日大藥局,桃園市中壢區中北路二段７８號,121.225,24.95063,(03)4285068,羅氏家用新冠病毒抗原自我檢測套組,78,2022/05/08 09:02:03,快篩11點前到貨，11點開始販售；11點後到貨，到貨開始販售
5932030080,吉壽藥局,桃園市大溪區員林路三段４２號,121.2648,24.88175,(03)3802049,羅氏家用新冠病毒抗原自我檢測套組,35,2022/05/08 09:02:03,快篩試劑販賣時段：星期一~五晚上7:00起及星期六、日上午8:30起。由於近日進貨庫存異常，另78份為隔日販售！請諒解。
5932031863,大溪啄木鳥藥局,桃園市大溪區員林路１段１７３號１、２樓,121.2792,24.89706,(03)3809116,羅氏家用新冠病毒抗原自我檢測套組,78,2022/05/08 09:02:03,12:30開始發號碼牌
5932031890,福生藥局,桃園市大溪區民權東路１０３號１樓,121.2919,24.88209,(03)3873533,羅氏家用新冠病毒抗原自我檢測套組,7,2022/05/08 09:02:03,早上八點開始發放快篩試劑
5932031907,福澤大溪藥局,桃園市大溪區復興路１０５號１樓,121.2911,24.87917,(03)3884886,羅氏家用新冠病毒抗原自我檢測套組,69,2022/05/08 09:02:03,家用快篩販賣時段15:30至售完為止
5932040246,龍泰藥局,桃園市楊梅區民族路五段１４７巷２號,121.1736,24.9586,(03)4901525,羅氏家用新冠病毒抗原自我檢測套組,1,2022/05/08 09:02:03,快篩販售時間:早上7:30領號碼牌下午2點至4點領快篩（當日有效） 六日中午10點至12點領快篩
5932042124,佑健藥師藥局,桃園市楊梅區中山北路二段一Ｏ八號一樓,121.1699,24.90855,(03)4315478,羅氏家用新冠病毒抗原自我檢測套組,102,2022/05/08 09:02:03,快篩販賣時段上午9點開始現場排隊， 售完為止
5932042339,德美藥局,桃園市楊梅區中正路８號,121.0829,24.93497,(03)2821668,羅氏家用新冠病毒抗原自我檢測套組,7,2022/05/08 09:02:03,口罩販售時間：售完為止
5932042820,合康美藥局,桃園市楊梅區中山北路二段７９號,121.169,24.90815,(03)4812598,羅氏家用新冠病毒抗原自我檢測套組,65,2022/05/08 09:02:03,快篩早上9點開賣
5932043309,資生楊梅大藥局,桃園市楊梅區楊新路１００號,121.1449,24.91341,(03)2889590,羅氏家用新冠病毒抗原自我檢測套組,6,2022/05/08 09:02:03,每日快篩代售時間14:00-21:00
5932043327,全球埔心大藥局,桃園市楊梅區永美路３９５號,121.1797,24.91488,(03)4824839,羅氏家用新冠病毒抗原自我檢測套組,78,2022/05/08 09:02:03,營業時間:9:00-22:00
5932043425,躍獅祥筠藥局,桃園市楊梅區萬大路１３５號,121.1786,24.90987,(03)4817458,羅氏家用新冠病毒抗原自我檢測套組,1,2022/05/08 09:02:03,5／6快篩試劑18:00發放（我不知道幾點排隊喔）
5932050215,九德藥局,桃園市蘆竹區中山路６９號,121.3003,25.05242,(03)3116868,羅氏家用新冠病毒抗原自我檢測套組,107,2022/05/08 09:02:03,口罩販賣時段：中午12點
5932052979,南崁藥局,桃園市蘆竹區中正路２５１、２５３、２５５號,121.2921,25.04695,(03)3522022,羅氏家用新冠病毒抗原自我檢測套組,157,2022/05/08 09:02:03,快篩實名制，每天16:00開始販售，售完為止。
5932053010,辰安藥局,桃園市蘆竹區上興路２１６號１樓,121.2601,25.01896,(03)3136631,羅氏家用新冠病毒抗原自我檢測套組,1,2022/05/08 09:02:03,5／7號碼牌已發完；08:00AM 發號碼牌；系統進貨已含隔日庫存*本藥局實名制快篩規則統一公告臉書
5932062528,全球菓林藥局,桃園市大園區菓林路２４８號,121.1791,25.02585,(03)3831247,羅氏家用新冠病毒抗原自我檢測套組,78,2022/05/08 09:02:03,營業時間:9:00-22:00
5932070253,高田藥師藥局,桃園市龜山區山鶯路７６號,121.3237,24.99004,(03)3336363,羅氏家用新冠病毒抗原自我檢測套組,4,2022/05/08 09:02:03,口罩販賣時段：早上11:00-早上11:30
5932076862,和信藥局,桃園市龜山區南祥路５８號１樓,121.2979,25.04629,(03)2124028,羅氏家用新冠病毒抗原自我檢測套組,2,2022/05/08 09:02:03,快篩販賣時段：每日中午12點，5／8（日）母親節公休一日。
5932077298,家和藥局,桃園市龜山區建國東路９７號,121.3252,24.98754,(03)3196416,羅氏家用新冠病毒抗原自我檢測套組,3,2022/05/08 09:02:03,快篩販賣時段：週一至週日15:00-17:00
5932077305,全興藥局,桃園市龜山區光峰路１５３號１樓,121.3427,25.0026,(03)3597901,羅氏家用新冠病毒抗原自我檢測套組,2,2022/05/08 09:02:03,上午8:30開始販售實名制快篩試劑，禮拜日公休。
5932077510,左外野藥局,桃園市龜山區文光街６號１樓,121.3802,25.05471,(03)3271503,羅氏家用新冠病毒抗原自我檢測套組,75,2022/05/08 09:02:03,快篩販售:晚上19:30至20:30（週五公休）*不發號碼牌 請直接排隊購買
5932077574,樂樂聯合藥局,桃園市龜山區萬壽路１段１０９號１、２樓,121.4091,25.01886,(02)82000560,羅氏家用新冠病毒抗原自我檢測套組,78,2022/05/08 09:02:03,實名制快篩於每日9點開始發放號碼牌，發完為止。 中午12點至14點半為藥局休息時間
5932077618,大山藥局,桃園市龜山區中興路１段１８、２２、２４號１樓,121.3379,24.99376,(03)3191057,羅氏家用新冠病毒抗原自我檢測套組,32,2022/05/08 09:02:03,無
5932080035,慶昇藥局,桃園市八德區桃鶯路一Ｏ二號,121.3279,24.97006,(03)3648037,羅氏家用新冠病毒抗原自我檢測套組,1,2022/05/08 09:02:03,口罩販賣時段：9:00~12:00
5932084435,康健藥局,桃園市八德區介壽路ㄧ段８６３號,121.2999,24.96109,(03)3617226,羅氏家用新冠病毒抗原自我檢測套組,35,2022/05/08 09:02:03,無
5932084613,健民大藥局,桃園市八德區介壽路２段２８２號,121.2978,24.95003,(03)3666639,羅氏家用新冠病毒抗原自我檢測套組,76,2022/05/08 09:02:03,營業時間:9:00-22:00
5932084739,元冠大藥局,桃園市八德區豐德路１７號,121.295,24.92466,(03)3657868,羅氏家用新冠病毒抗原自我檢測套組,84,2022/05/08 09:02:03,無
5932084800,瑞豐藥局,桃園市八德區興豐路５７７號１樓,121.2935,24.93075,(03)3681456,羅氏家用新冠病毒抗原自我檢測套組,1,2022/05/08 09:02:03,快篩實名制，每天16:00開始販售，售完為止。
5932098073,全球藥局,桃園市龍潭區龍潭里北龍路１８５號,121.2154,24.86699,(03)4802710,羅氏家用新冠病毒抗原自我檢測套組,70,2022/05/08 09:02:03,營業時間:9:00-22:00
5932099972,全球龍正藥局,桃園市龍潭區中正路２３１號１樓,121.2172,24.86388,(03)4899639,羅氏家用新冠病毒抗原自我檢測套組,78,2022/05/08 09:02:03,營業時間:9:00-22:00
5932100845,全球和平藥局,桃園市平鎮區和平路１６０號１、２樓,121.2199,24.94671,(03)4683247,羅氏家用新冠病毒抗原自我檢測套組,78,2022/05/08 09:02:03,營業時間:9:00-22:00
5932100925,譽達藥局,桃園市平鎮區育達路２４０號１樓,121.2072,24.95155,(03)4922990,羅氏家用新冠病毒抗原自我檢測套組,42,2022/05/08 09:02:03,快篩星期一到六下午三點開始，現場領取，口罩地圖不準，以現場門口公告為主（星期日無販售）
5932100952,家樂藥局,桃園市平鎮區中豐路山頂段２１號１樓,121.2121,24.90367,(03)4191468,羅氏家用新冠病毒抗原自我檢測套組,72,2022/05/08 09:02:03,周一至周六早上8點開始發放快篩（星期日早上9點），請依序排隊，一人限領一份並請準備好500避免找零，謝謝
5932101137,平鎮延平藥局,桃園市平鎮區延平路二段４３０巷７９—１６號,121.206,24.94458,(03)4918187,羅氏家用新冠病毒抗原自我檢測套組,166,2022/05/08 09:02:03,周一~周六，下午1點~3點販售公費快篩，12:58發放號碼牌，每日30份，請自備500元，不找零
5932101191,譽達文化藥局,桃園市平鎮區文化街８巷２號１樓,121.2027,24.95667,(03)4919660,羅氏家用新冠病毒抗原自我檢測套組,1,2022/05/08 09:02:03,星期一至星期六.早上10點發放（無預先發放號碼牌）-現場排隊購買.需自備零錢不找零
5932101235,樂興藥局,桃園市平鎮區義興街２３號,121.2096,24.95077,(03)4923885,羅氏家用新冠病毒抗原自我檢測套組,7,2022/05/08 09:02:03,無
593210A078,康健複合式連鎖藥局,桃園市平鎮區金陵路三段９１號,121.2276,24.92882,(03)4684601,羅氏家用新冠病毒抗原自我檢測套組,1,2022/05/08 09:02:03,實名制快篩試劑13:00開始，不發號碼牌，現場排隊售完為止，一人一卡，自備500元，恕不找零，不收銅板，謝謝配合
593210A238,美樂蒂藥局,桃園市平鎮區民族路二三七號二樓,121.2091,24.95658,(03)4023131,羅氏家用新冠病毒抗原自我檢測套組,49,2022/05/08 09:02:03,以調劑為主  所以開賣時間不固定 勿提早排隊
5932120098,金永生藥局,桃園市觀音區觀音里甘泉街７號,121.0814,25.03696,(03)4732072,羅氏家用新冠病毒抗原自我檢測套組,2,2022/05/08 09:02:03,全年無休，口罩販賣時段：週一至週日14:00起17:00
5933031652,合康藥局,新竹縣竹東鎮興農街１１號,121.0861,24.73988,(03)5103818,羅氏家用新冠病毒抗原自我檢測套組,13,2022/05/08 09:02:03,實名制快篩時段：下午17:00~22:30
5933031741,國豐大藥局,新竹縣竹東鎮長春路三段６號,121.0847,24.73678,(03)5960360,羅氏家用新冠病毒抗原自我檢測套組,6,2022/05/08 09:02:03,無
5933031830,順佳藥局,新竹縣竹東鎮東寧路二段２００號３樓,121.0886,24.73365,(03)5957908,羅氏家用新冠病毒抗原自我檢測套組,73,2022/05/08 09:02:03,實名制快篩販售，每日上午9:00（依當日到貨時間可能略有延遲）
5933050317,林保郎藥師藥局,新竹縣竹北市光明一路３９２號,121.0124,24.83101,(03)5586879,羅氏家用新冠病毒抗原自我檢測套組,12,2022/05/08 09:02:03,營業時間正常，口罩早上8點到晚上8點，口罩照常發放
5933052875,健樹藥局,新竹縣竹北市莊敬三路３９號１樓,121.0249,24.82242,(03)5505262,羅氏家用新冠病毒抗原自我檢測套組,78,2022/05/08 09:02:03,如期收到快篩時，每日早上10點開始販售，可追蹤啄木鳥耳鼻喉科臉書公告
5933052955,仁里藥局,新竹縣竹北市勝利二路１２５號,121.0278,24.82236,(03)6673878,羅氏家用新冠病毒抗原自我檢測套組,78,2022/05/08 09:02:03,實名制快篩販賣時段：星期一~日 上午10:00至售完為止
5933053023,禾坊藥局,新竹縣竹北市科大一路８５號,121.0095,24.82142,(03)5588797,羅氏家用新冠病毒抗原自我檢測套組,28,2022/05/08 09:02:03,快篩販賣時段：每日09:00，營業時間9:00~22:00，除週六9:00~18:00
5933081536,昌昌藥局,新竹縣新豐鄉新市路１９３號,120.9846,24.90465,(03)5598077,羅氏家用新冠病毒抗原自我檢測套組,74,2022/05/08 09:02:03,5／8（日）號碼牌已發放完畢。5／9（一）上午8:00開始發放號碼牌。
5934010077,華大藥局,宜蘭縣宜蘭市新民路６４號,121.7568,24.75682,(03)9356412,羅氏家用新冠病毒抗原自我檢測套組,21,2022/05/08 09:02:03,上午8點30分賣出
5934011403,中興藥局,宜蘭縣宜蘭市中山路３段２０９號,121.7533,24.76081,(03)9369769,羅氏家用新冠病毒抗原自我檢測套組,13,2022/05/08 09:02:03,早上9點販售實名制快篩.
5934012240,東成藥局,宜蘭縣宜蘭市東港路２段３０６號１樓,121.7643,24.75315,(03)9380353,羅氏家用新冠病毒抗原自我檢測套組,73,2022/05/08 09:02:03,實名制快篩9點販售，現場排隊
5934022031,大菖藥局,宜蘭縣羅東鎮公正路８８號１樓,121.7715,24.67827,(03)9559898,羅氏家用新冠病毒抗原自我檢測套組,76,2022/05/08 09:02:03,星期一到六上午10:00販售，不發號碼牌，現場排隊售完為止。星期日上午9:00販售
5934022059,宏安藥局,宜蘭縣羅東鎮賢文里純精路２段２２５巷１０號１樓,121.7635,24.67976,(03)9518696,羅氏家用新冠病毒抗原自我檢測套組,75,2022/05/08 09:02:03,快篩9；00開賣
5934080015,佳恩藥局,宜蘭縣冬山鄉義成路３段４０１號,121.7679,24.66718,(03)9586065,羅氏家用新冠病毒抗原自我檢測套組,77,2022/05/08 09:02:03,5／5快篩試劑已賣完.5／6（五）以後早上9:00開賣
5934081165,合康藥局,宜蘭縣冬山鄉廣興路２１３號,121.7488,24.66966,(03)9616457,羅氏家用新冠病毒抗原自我檢測套組,63,2022/05/08 09:02:03,快篩實名制星期一至星期五下午2點，星期六日早上9點販售，售完為止
5935010017,永佳藥局,苗栗縣苗栗市玉苗里光復路１５６號,120.8165,24.55566,(037)331860,羅氏家用新冠病毒抗原自我檢測套組,48,2022/05/08 09:02:03,口罩販賣時段：09:00-售完
5935011738,佳禾藥局,苗栗縣苗栗市青苗里建台街7號,120.821,24.55742,(037)373041,羅氏家用新冠病毒抗原自我檢測套組,14,2022/05/08 09:02:03,快篩試劑7：30發號碼牌8：00開始販賣，販賣時段：營業時間至售完為止
5935011925,廷安藥局,苗栗縣苗栗市府前路133號,120.8186,24.5606,(037)356839,羅氏家用新冠病毒抗原自我檢測套組,16,2022/05/08 09:02:03,口罩販賣時段：0900-售完  星期日休息
5935012351,錦岳大藥局,苗栗縣苗栗市民族路１４０號１樓,120.8158,24.56409,(037)353046,羅氏家用新冠病毒抗原自我檢測套組,10,2022/05/08 09:02:03,營業時間:：8:30 A.M　～　9:30 P.M
5935020077,源益藥局,苗栗縣苑裡鎮社苓里８４之５號,120.6756,24.40204,(037)742533,羅氏家用新冠病毒抗原自我檢測套組,61,2022/05/08 09:02:03,口罩販賣時段：12:00-售完。8:00-21:00 家庭式若無外出即營業
5935020111,大眾藥局,苗栗縣苑裡鎮山腳里１０鄰２４８號,120.6854,24.41556,(037)741587,羅氏家用新冠病毒抗原自我檢測套組,13,2022/05/08 09:02:03,快篩販售時段：上午8點30分-售完為止；現場排隊，視物流狀況調整。庫存數量依系統為準，勿在電話詢問，感謝配合。
5935030171,立安藥局,苗栗縣通霄鎮信義路１０７號,120.6804,24.48877,(037)760100,羅氏家用新冠病毒抗原自我檢測套組,1,2022/05/08 09:02:03,快篩實名制 週一到週六下午15:00開始販售  售完為止
5935030180,通霄藥局,苗栗縣通霄鎮中山路１３１號,120.678,24.48903,(037)755155,羅氏家用新冠病毒抗原自我檢測套組,2,2022/05/08 09:02:03,快篩實名制，每天16:00開始販售，售完為止。
5935030199,佑全通霄中山藥局,苗栗縣通霄鎮通西里中山路７５號１樓,120.6775,24.48765,(037)750958,羅氏家用新冠病毒抗原自我檢測套組,76,2022/05/08 09:02:03,實名制快篩9點開始販售！慢籤牙科籤領藥全年無休！
5935040266,鴻仁大藥局,苗栗縣竹南鎮竹南里博愛街１８１號,120.8741,24.68686,(037)462396,羅氏家用新冠病毒抗原自我檢測套組,2,2022/05/08 09:02:03,無
5935040328,明志藥局,苗栗縣竹南鎮照南里博愛街４號,120.8797,24.68677,(037)472341,羅氏家用新冠病毒抗原自我檢測套組,1,2022/05/08 09:02:03,快篩賣時間:早上6:30~22:00。週六，周日照常。
5935041745,瑞士藥師藥局,苗栗縣竹南鎮和平街59號,120.8775,24.68543,(037)552708,羅氏家用新冠病毒抗原自我檢測套組,75,2022/05/08 09:02:03,無
5935041987,杏一竹南中正藥局,苗栗縣竹南鎮中正路２５７號１樓,120.873,24.68344,(037)480602,羅氏家用新冠病毒抗原自我檢測套組,31,2022/05/08 09:02:03,快篩販賣時段：08:30-售完（發號碼牌統計數量，人需在現場等候結帳。逾時不候）
5935042037,康壯藥局,苗栗縣竹南鎮博愛街４３９號,120.8655,24.68894,(037)463732,羅氏家用新冠病毒抗原自我檢測套組,14,2022/05/08 09:02:03,口罩販賣時段：07:30-售完
5935051867,惠祐藥局,苗栗縣頭份市中正路１６５號,120.9103,24.68682,(037)668933,羅氏家用新冠病毒抗原自我檢測套組,36,2022/05/08 09:02:03,防疫快篩販賣時段：9:00起（周日中午起休息）
5935060053,鴻輝大藥局,苗栗縣後龍鎮北龍里中華路６４－１號,120.7879,24.61557,(037)721952,羅氏家用新冠病毒抗原自我檢測套組,67,2022/05/08 09:02:03,AM07:50~PM10:00
5935061434,千江大藥局,苗栗縣後龍鎮忠孝路５９號,120.7908,24.61298,(037)037728208,羅氏家用新冠病毒抗原自我檢測套組,6,2022/05/08 09:02:03,無
5935071216,萊恩藥局,苗栗縣卓蘭鎮上新里上新7之1號,120.83,24.30719,(04)25899369,羅氏家用新冠病毒抗原自我檢測套組,31,2022/05/08 09:02:03,快篩販賣時段：開門就賣-售完
5935071243,卓蘭千百岳大藥局,苗栗縣卓蘭鎮中山路８２號,120.8264,24.31205,(04)25895473,羅氏家用新冠病毒抗原自我檢測套組,39,2022/05/08 09:02:03,早上8:30開始領取口罩，直到發放完畢為止。
5935090015,永信藥局,苗栗縣公館鄉館中村榮光街１６號,120.8271,24.50226,(037)223597,羅氏家用新冠病毒抗原自我檢測套組,78,2022/05/08 09:02:03,每日下午3點開始販售快篩
5935120027,裕祥藥局,苗栗縣頭屋鄉頭屋村尖豐路８５號,120.8522,24.57524,(037)253553,羅氏家用新冠病毒抗原自我檢測套組,74,2022/05/08 09:02:03,快篩試劑:星期1~5早上8:30分開始，六.日早上9點開始，
5936010628,協安大藥局,臺中市豐原區府前街６３號,120.7184,24.24957,(04)25200808,羅氏家用新冠病毒抗原自我檢測套組,4,2022/05/08 09:02:03,實名制快篩販售時間為每日下午兩點。
5936012097,林芳泉藥局,臺中市豐原區中正路二二八號,120.7173,24.25196,(04)25222308,羅氏家用新冠病毒抗原自我檢測套組,18,2022/05/08 09:02:03,每日 9:30 排隊方式販售。
5936021327,千百岳大藥局,臺中市東勢區豐勢路８５號１樓,120.8312,24.24891,(04)25887639,羅氏家用新冠病毒抗原自我檢測套組,23,2022/05/08 09:02:03,周一至周日早上8:40販售。若有時間異動，詳情關注FB:千百岳大藥局
5936040135,德厚藥局,臺中市清水區慷榔里慷榔２街５０號,121.4874,25.07275,(04)26560733,羅氏家用新冠病毒抗原自我檢測套組,32,2022/05/08 09:02:03,實名制快篩試劑於週一至週日10:00開始發送號碼牌，請勿離開現場，售完為止。
5936070124,福美藥局,臺中市后里區墩北村四村路１０３號,120.7131,24.30545,(04)25562058,羅氏家用新冠病毒抗原自我檢測套組,30,2022/05/08 09:02:03,每日早上7:30開始販售防疫口罩，售完為止
5936071158,保仁藥局,臺中市后里區甲后路一段５８５號,120.7191,24.30932,(04)25573342,羅氏家用新冠病毒抗原自我檢測套組,31,2022/05/08 09:02:03,周一到周六早上8:00開始領取口罩；周日不販售口罩
5936091534,潭子福倫藥局,臺中市潭子區中山路１段１９之８號,120.7023,24.19076,(04)25350918,羅氏家用新冠病毒抗原自我檢測套組,77,2022/05/08 09:02:03,無
5936171457,德康藥局,臺中市龍井區新興路１３７號,120.5829,24.1822,(04)26320137,羅氏家用新冠病毒抗原自我檢測套組,122,2022/05/08 09:02:03,週一~週六早上9點15分開始販售-現場排隊~全年無休 慢簽領藥.母嬰用品.營養保健.嬰幼兒奶粉尿布
5936190078,愛心藥局,臺中市太平區光華里中山路二段４１２－７號,120.7253,24.15023,(04)23929396,羅氏家用新冠病毒抗原自我檢測套組,4,2022/05/08 09:02:03,0830-1330...1530-2000營業配售口罩及家用快篩..
5936190336,仁和藥局,臺中市太平區新仁路一段１６０號,120.7034,24.11124,(04)22783239,羅氏家用新冠病毒抗原自我檢測套組,72,2022/05/08 09:02:03,口罩販賣時間詳情，請見藥局粉絲團專頁
5936192018,和康藥局,臺中市太平區樹孝路４６２號,120.7203,24.15716,(04)23917355,羅氏家用新冠病毒抗原自我檢測套組,60,2022/05/08 09:02:03,實名制快篩販售星期一至六 發號碼牌 晚上七點開始銷售售完為止! 5／8（日）加開早上9:00販售，售完為止
5936200177,天霖藥局,臺中市大里區大里路３９之９號１樓,120.6882,24.10608,(04)24832481,羅氏家用新冠病毒抗原自我檢測套組,29,2022/05/08 09:02:03,快篩劑於每日08:40開始販售。
5936200373,永隆藥局,臺中市大里區永隆一街３５號,120.68,24.10548,(04)24067388,羅氏家用新冠病毒抗原自我檢測套組,67,2022/05/08 09:02:03,周一~周日早上9點起開始發放號碼牌販售實名制快篩（售完為止）
593620B138,聯生中西健保藥局,臺中市大里區現岱路１５８巷１１號,120.6919,24.10295,(04)24834058,羅氏家用新冠病毒抗原自我檢測套組,18,2022/05/08 09:02:03,早上八點半領號碼牌下午四點到六點領口罩W6W日早七點
593620B316,華信藥局,臺中市大里區益民路２段１２號１樓,120.6889,24.10649,(04)24872992,羅氏家用新冠病毒抗原自我檢測套組,1,2022/05/08 09:02:03,上午8:40開賣，賣完為止
5937010613,榮源藥局,彰化縣彰化市忠權里辭修路１２８巷９號,120.5374,24.08608,(04)7229432,羅氏家用新冠病毒抗原自我檢測套組,78,2022/05/08 09:02:03,快篩實名制每日早上8:00開賣
5937013196,彰化啄木鳥藥局,彰化縣彰化市茄南里金馬路２段２７號,120.5483,24.09616,(04)7330661,羅氏家用新冠病毒抗原自我檢測套組,78,2022/05/08 09:02:03,無
5937013516,丁丁藥局彰化店,彰化縣彰化市曉陽路２１９號,120.5365,24.07293,(04)7236140,羅氏家用新冠病毒抗原自我檢測套組,35,2022/05/08 09:02:03,固定周一到周日9點開始發號碼牌販賣防疫口罩
5937013570,彰化藥局,彰化縣彰化市永安街２７８、２８０號,120.5438,24.08977,(04)7287877,羅氏家用新冠病毒抗原自我檢測套組,78,2022/05/08 09:02:03,快篩實名制，每天16:00開始販售，售完為止。
5937013749,中央啄木鳥藥局,彰化縣彰化市中央路２０６號,120.5285,24.06637,(04)7639581,羅氏家用新冠病毒抗原自我檢測套組,1,2022/05/08 09:02:03,13:30開始販售，若未收到配送，則以收到時間開始
5937021509,老信和藥局,彰化縣鹿港鎮頂番里鹿和路四段４０號,120.4811,24.08594,(04)7711098,羅氏家用新冠病毒抗原自我檢測套組,63,2022/05/08 09:02:03,周一至周五09:00~21:30  周六周日09:00~12:00
5937021885,康好藥局鹿港店,彰化縣鹿港鎮民權路１３４號,120.4359,24.05718,(04)7772877,羅氏家用新冠病毒抗原自我檢測套組,5,2022/05/08 09:02:03,5／7  5／8  上午8:00開始販售，售完為止 047772877
5937021894,淳安藥局,彰化縣鹿港鎮民族路５３號,120.4367,24.05603,(04)7783989,羅氏家用新冠病毒抗原自我檢測套組,19,2022/05/08 09:02:03,無
5937031434,和美和田藥局,彰化縣和美鎮和線路５９號,120.4931,24.11421,(04)7560377,羅氏家用新冠病毒抗原自我檢測套組,68,2022/05/08 09:02:03,周一~周日，營業時間09:00開始即開賣公費快篩，售完為止。
5937031667,丁丁藥局和美店,彰化縣和美鎮道周路３１２號,120.4971,24.10759,(04)7576322,羅氏家用新冠病毒抗原自我檢測套組,78,2022/05/08 09:02:03,固定周一至周日上午9:00開始發放號碼牌，發完後即開始販賣快篩。
5937031747,大樹和美藥局,彰化縣和美鎮道周路５０１號,120.494,24.10896,(04)7550090,羅氏家用新冠病毒抗原自我檢測套組,78,2022/05/08 09:02:03,快篩實名制，每天16:00開始販售，售完為止。
5937040148,北斗仁和藥局,彰化縣北斗鎮光復里光復路１８２號,120.5243,23.87364,(04)8880163,羅氏家用新冠病毒抗原自我檢測套組,62,2022/05/08 09:02:03,周一至周日0900當場排隊發放號碼牌，售完為止
5937041172,九和藥局,彰化縣北斗鎮西德里斗苑路一段２９０號,120.5211,23.87211,(04)8875039,羅氏家用新冠病毒抗原自我檢測套組,52,2022/05/08 09:02:03,早上09:00代售實名制快篩
5937050279,廣信藥局,彰化縣員林市三信里中山路二段２０１號,120.5711,23.96517,(04)8337085,羅氏家用新冠病毒抗原自我檢測套組,6,2022/05/08 09:02:03,早上10點開始販賣快篩試劑
5937051847,天一藥局,彰化縣員林市光明里中正路４４１號,120.5724,23.95817,(04)8384875,羅氏家用新冠病毒抗原自我檢測套組,12,2022/05/08 09:02:03,固定周一到周六，早上14:30開始販賣防疫口罩（現場排隊）。
5937051963,東山永安藥局,彰化縣員林市南東里山腳路４段３１號,120.5988,23.96424,(04)8311471,羅氏家用新冠病毒抗原自我檢測套組,6,2022/05/08 09:02:03,快篩試劑販賣，上午8點30分開賣.
5937052246,新義藥局,彰化縣員林市南平里新義街２８８號,120.5678,23.96254,(04)8396788,羅氏家用新冠病毒抗原自我檢測套組,73,2022/05/08 09:02:03,每天早上10點販賣
5937052282,丁丁藥局員林店,彰化縣員林市中山路二段８９號,120.5707,23.96247,(04)8373508,羅氏家用新冠病毒抗原自我檢測套組,72,2022/05/08 09:02:03,*星期一-日每日上午9點開始.售完為止。（全年無休）
5937052424,員林啄木鳥藥局,彰化縣員林市新生路１２１、１２３號,120.5686,23.95904,(04)8339483,羅氏家用新冠病毒抗原自我檢測套組,14,2022/05/08 09:02:03,無
5937052451,統信藥局,彰化縣員林市正興街３７２號,120.5722,23.95997,(04)8367089,羅氏家用新冠病毒抗原自我檢測套組,9,2022/05/08 09:02:03,無
5937052479,莒光藥局,彰化縣員林市莒光路３１６號１樓,120.5669,23.95942,(04)8361388,羅氏家用新冠病毒抗原自我檢測套組,1,2022/05/08 09:02:03,快篩實名制，每天16:00開始販售，售完為止。
5937052540,莒光啄木鳥藥局,彰化縣員林市中山路一段４５４號１樓,120.5668,23.95171,(04)8399625,羅氏家用新冠病毒抗原自我檢測套組,17,2022/05/08 09:02:03,無
5937052559,知心健康藥局,彰化縣員林市三民東街１９６號１樓,120.5788,23.95965,(04)8396161,羅氏家用新冠病毒抗原自我檢測套組,70,2022/05/08 09:02:03,無
5937061567,凱侖藥局,彰化縣溪湖鎮西溪里員鹿路２段臨１號,120.4936,23.95386,(04)8812278,羅氏家用新冠病毒抗原自我檢測套組,57,2022/05/08 09:02:03,依政府配送時間販售，5／8週日早上9點販售!!
5937070164,安鑠藥局,彰化縣田中鎮中潭里和平路７６０號,120.5879,23.8685,(04)8748728,羅氏家用新冠病毒抗原自我檢測套組,5,2022/05/08 09:02:03,每日早上9點至11點發放號碼牌並開始販售貨（全年無休）
5937071330,祥品藥局,彰化縣田中鎮北路里福安路３０８號,120.5874,23.86373,(04)8762311,羅氏家用新冠病毒抗原自我檢測套組,70,2022/05/08 09:02:03,口罩9點發號碼牌，持號碼牌和健保卡領口罩
5937081434,二林福倫藥局,彰化縣二林鎮豐田里斗苑路４段６６９、６７１號,120.372,23.89925,(04)8956818,羅氏家用新冠病毒抗原自我檢測套組,15,2022/05/08 09:02:03,早上0830開始，賣完為止
5937081470,尚禾藥局,彰化縣二林鎮西平里中山路２３０號,120.3646,23.89936,(04)8963810,羅氏家用新冠病毒抗原自我檢測套組,46,2022/05/08 09:02:03,固定周一至周六
5937081541,康好藥局二林店,彰化縣二林鎮南光里大成路一段５６１號,120.3636,23.89337,(04)8966015,羅氏家用新冠病毒抗原自我檢測套組,62,2022/05/08 09:02:03,快篩實名制，早上09:00開始販售，售完為止。
5937081587,嘉信藥局,彰化縣二林鎮中山路１４０號,120.3667,23.8998,(04)8954029,羅氏家用新冠病毒抗原自我檢測套組,73,2022/05/08 09:02:03,每天早上9點開始，賣完為止
5937101271,信義藥局,彰化縣伸港鄉新港村信義路７１號,120.4859,24.14681,(04)7982232,羅氏家用新冠病毒抗原自我檢測套組,1,2022/05/08 09:02:03,快篩實名制，每天16:00開始販售，售完為止。
5937121184,伸豐藥局,彰化縣秀水鄉福安村彰水路二段６６３號,120.4977,24.03204,(04)7697482,羅氏家用新冠病毒抗原自我檢測套組,24,2022/05/08 09:02:03,5／1起因物流當日到貨時間不定，販售時間請查詢伸豐藥局FB公告
5937131171,祥安藥局,彰化縣花壇鄉彰員路３段８９號,120.5463,24.04459,(04)7863460,羅氏家用新冠病毒抗原自我檢測套組,22,2022/05/08 09:02:03,實名制快篩早上8:20開始現場販售
5937140027,金宏恩藥局,彰化縣芬園鄉社口村彰南路４段１０８巷１２號,120.6289,24.01385,(049)2522391,羅氏家用新冠病毒抗原自我檢測套組,36,2022/05/08 09:02:03,每日早上07:00發放號碼牌，8:00開始販賣口罩（全年無休）
5937181304,永靖藥局,彰化縣永靖鄉瑚璉路１１６號,120.5505,23.92624,(04)8230220,羅氏家用新冠病毒抗原自我檢測套組,78,2022/05/08 09:02:03,快篩實名制，每天16:00開始販售，售完為止。
5937190063,新保和藥局,彰化縣社頭鄉社頭村員集路２段２２４號,120.5878,23.89874,(04)8732330,羅氏家用新冠病毒抗原自我檢測套組,1,2022/05/08 09:02:03,本星期日有販售快篩..早上8點起
5937221198,祐幼藥局,彰化縣埤頭鄉合興村彰水路3段496號,120.4594,23.89158,(04)8911910,羅氏家用新冠病毒抗原自我檢測套組,77,2022/05/08 09:02:03,無
5937230053,彰芳藥局,彰化縣芳苑鄉和平村芳漢路王功段３９１號,120.3382,23.96268,(04)8932321,羅氏家用新冠病毒抗原自我檢測套組,73,2022/05/08 09:02:03,每日上午9點至12點 下午2點半至5點半開始販售 若配送延遲則延至送達整理後即開賣 星期日下午休息
5937261236,溪州貓頭鷹藥局,彰化縣溪州鄉中山路三段臨２９１號、２９３號,120.4933,23.85328,(04)8890101,羅氏家用新冠病毒抗原自我檢測套組,75,2022/05/08 09:02:03,無
5938011838,愛馨藥局,南投縣南投市中山街１４巷１５號,120.687,23.90573,(049)2206006,羅氏家用新冠病毒抗原自我檢測套組,68,2022/05/08 09:02:03,周一至周六14:30開始販售，周日9:00販售
5938020079,仁和藥局,南投縣埔里鎮薰化里中山路三段９７號,120.9631,23.96619,(049)2985470,羅氏家用新冠病毒抗原自我檢測套組,66,2022/05/08 09:02:03,固定周一至周日上午10.00快篩開賣，售完為止
5938020088,佳民藥局,南投縣埔里鎮薰化里南昌街２８７號,120.9629,23.96716,(049)2987151,羅氏家用新冠病毒抗原自我檢測套組,24,2022/05/08 09:02:03,無
5938020257,德林藥局,南投縣埔里鎮大城路２０６號,120.9517,23.97306,(049)2915293,羅氏家用新冠病毒抗原自我檢測套組,1,2022/05/08 09:02:03,每日10點開始販售快篩試劑，直至當日應售數量完畢或店休為止。
5938021914,好安心藥局,南投縣埔里鎮中山路二段３２７號,120.9669,23.96458,(049)2990377,羅氏家用新冠病毒抗原自我檢測套組,5,2022/05/08 09:02:03,快篩販售時間: 8:30起~售完為止
5938022117,埔里福倫健保藥局,南投縣埔里鎮中山路二段３６７號,120.9662,23.96385,(049)2999118,羅氏家用新冠病毒抗原自我檢測套組,60,2022/05/08 09:02:03,無
5938022171,博今藥局,南投縣埔里鎮東潤路２０號,120.9942,23.93519,(049)2926689,羅氏家用新冠病毒抗原自我檢測套組,32,2022/05/08 09:02:03,無
5938030280,易生藥局,南投縣草屯鎮明正里芬草路一段１５３號,120.6816,23.98459,(049)2323350,羅氏家用新冠病毒抗原自我檢測套組,46,2022/05/08 09:02:03,每日上午09:00開始販售
5938032300,康好藥局,南投縣草屯鎮太平路一段２２５號,120.6813,23.96097,(049)2358838,羅氏家用新冠病毒抗原自我檢測套組,41,2022/05/08 09:02:03,週一至週六13:00-18:00賣口罩，週日沒販售口罩
5938041667,竹山啄木鳥藥局,南投縣竹山鎮集山路三段１０１１號,120.681,23.75509,(049)2655345,羅氏家用新冠病毒抗原自我檢測套組,64,2022/05/08 09:02:03,每日12:30-9:00販賣口罩（全年無休）
5938041756,集山啄木鳥藥局,南投縣竹山鎮集山路３段４０５號,120.696,23.76179,(049)2659287,羅氏家用新冠病毒抗原自我檢測套組,69,2022/05/08 09:02:03,口罩代售時間無限制
5938110078,立特藥局,南投縣水里鄉中央村中正路６８號,120.8543,23.81587,(049)2775837,羅氏家用新冠病毒抗原自我檢測套組,2,2022/05/08 09:02:03,每天早上8點現場排隊持健保卡領號碼牌，下午3點至晚上9點半持號碼牌領快篩劑.5／7（六）休息.5／8（日）正常販售
5939011850,明真西藥局,雲林縣斗六市自由路１號,120.5447,23.70513,(05)5321605,羅氏家用新冠病毒抗原自我檢測套組,45,2022/05/08 09:02:03,口罩販售:早上0800-1200中午1200-1400休息下午1400到2100賣完為止
5939012133,鎮東藥局,雲林縣斗六市中華路４６０號,120.5516,23.70846,(05)5332449,羅氏家用新冠病毒抗原自我檢測套組,121,2022/05/08 09:02:03,星期二. 五 下午及晚上休息  星期六全天休息 （國定假日 星期日 9:00開始 晚上7:30 休息 ）
5939012179,保健藥局,雲林縣斗六市梅林路２８３號,120.5996,23.70252,(05)5576037,羅氏家用新冠病毒抗原自我檢測套組,40,2022/05/08 09:02:03,1~5，六日休，8點賣（如果有到貨）
5939012428,德昌藥局,雲林縣斗六市明德路１０１號,120.5374,23.69834,(05)5340870,羅氏家用新冠病毒抗原自我檢測套組,78,2022/05/08 09:02:03,快篩每日9點30至11點30現場排隊.當日有剩.下午3點30至售完
5939012464,二水鄭家藥局,雲林縣斗六市文化路２３４號,120.5513,23.71129,(05)5323788,羅氏家用新冠病毒抗原自我檢測套組,59,2022/05/08 09:02:03,5／8（日）5／9（一）早上9點開始販售
5939012571,上好藥局,雲林縣斗六市永安路７２號,120.5478,23.70901,(05)5331780,羅氏家用新冠病毒抗原自我檢測套組,13,2022/05/08 09:02:03,快篩試劑  目前為上午8：30販售  售完為止
5939021294,玲津藥局,雲林縣斗南鎮中山路１７之２號,120.4801,23.67372,(05)5972889,羅氏家用新冠病毒抗原自我檢測套組,75,2022/05/08 09:02:03,5月8日.星期日營業時間為上午9點
5939021445,杏元藥局,雲林縣斗南鎮東仁里１３鄰中山路６號,120.4805,23.67356,(05)5963998,羅氏家用新冠病毒抗原自我檢測套組,10,2022/05/08 09:02:03,每日早上10點開始，售完為止，現場排隊
5939021490,庚辛藥局,雲林縣斗南鎮中正路１３９－１號,120.478,23.67642,(05)5953776,羅氏家用新冠病毒抗原自我檢測套組,75,2022/05/08 09:02:03,因為配送時間不一定，以當日配送到店時間安排販售時段。
5939031576,良方藥局,雲林縣虎尾鎮中山路５７號,120.4344,23.70764,(05)6312106,羅氏家用新冠病毒抗原自我檢測套組,78,2022/05/08 09:02:03,周日休息.5／9（一）上午8點開賣78份，另下午2點半開賣78份.現場排隊!!
5939031996,端發藥局,雲林縣虎尾鎮林森路一段３２９號,120.4368,23.71237,(05)6314168,羅氏家用新冠病毒抗原自我檢測套組,64,2022/05/08 09:02:03,販賣快篩時間:每日14:30-售完為止請提早排隊
5939041732,一生藥局,雲林縣西螺鎮延平路２３４號,120.4594,23.80118,(05)5862222,羅氏家用新冠病毒抗原自我檢測套組,77,2022/05/08 09:02:03,販賣口罩時間:0800~2000
5939041901,佑全西螺建興藥局,雲林縣西螺鎮建興路２４９號,120.4593,23.80042,(05)5883161,羅氏家用新冠病毒抗原自我檢測套組,70,2022/05/08 09:02:03,無
5939051238,天愛藥局,雲林縣土庫鎮中山路８０號,120.3903,23.6749,(05)6629923,羅氏家用新冠病毒抗原自我檢測套組,83,2022/05/08 09:02:03,無
5939060111,慶輝藥局,雲林縣北港鎮華勝里大同路２３２號,120.3012,23.57199,(05)7835078,羅氏家用新冠病毒抗原自我檢測套組,11,2022/05/08 09:02:03,依健保卡購買實名制快篩試劑。服務時間AM8:30至PM8:30，周日無休。《每天78盒賣完為止》
5939060120,民生藥局,雲林縣北港鎮民生路７０號,120.3027,23.56495,(05)7822476,羅氏家用新冠病毒抗原自我檢測套組,10,2022/05/08 09:02:03,上午8:30-晚上9:30，週末請先電話洽詢
5939060317,益安大藥局,雲林縣北港鎮華勝里公園路１８之２號,120.3028,23.57434,(05)7730779,羅氏家用新冠病毒抗原自我檢測套組,69,2022/05/08 09:02:03,篩劑...每天貨到販售..賣完為止
5939061583,大元藥局,雲林縣北港鎮民樂路７２號,120.2972,23.57494,(05)7833636,羅氏家用新冠病毒抗原自我檢測套組,45,2022/05/08 09:02:03,販賣口罩時間:如營業時間
5939061805,宜康藥局,雲林縣北港鎮公園路１５９號,120.3011,23.57754,(05)7820685,羅氏家用新冠病毒抗原自我檢測套組,31,2022/05/08 09:02:03,販賣口罩時間:0830-2200
5939061921,北港啄木鳥藥局,雲林縣北港鎮華勝路２５０號,120.2982,23.57877,(05)7822795,羅氏家用新冠病毒抗原自我檢測套組,72,2022/05/08 09:02:03,固定周一至週日09:00開始發放並依序販售口罩售完
5939071276,慈生藥局,雲林縣古坑鄉麻園村平和２２號,120.5203,23.6351,(05)5828222,羅氏家用新冠病毒抗原自我檢測套組,116,2022/05/08 09:02:03,週三.四.六.日下午3-5點販售實名制快篩
5939071285,振明藥局,雲林縣古坑鄉中山路１７０號,120.5619,23.64612,(05)5821229,羅氏家用新冠病毒抗原自我檢測套組,1,2022/05/08 09:02:03,無
5939071329,光明藥局,雲林縣古坑鄉東和村文化路１３９－９號,120.5675,23.68493,(05)5263736,羅氏家用新冠病毒抗原自我檢測套組,6,2022/05/08 09:02:03,快篩試劑販賣時間：11點
5939091278,大美社區藥局,雲林縣莿桐鄉大美村２３－１號,120.5134,23.73695,(05)5848579,羅氏家用新冠病毒抗原自我檢測套組,75,2022/05/08 09:02:03,早上九點營業即開始販售 ； 周日早上九點至十二點有發售
5939121164,立洲藥局,雲林縣崙背鄉正義路２９１、２９３號,120.355,23.76155,(05)6969331,羅氏家用新冠病毒抗原自我檢測套組,12,2022/05/08 09:02:03,快篩待售時間自9:00至售完為止
5939171093,和平藥局,雲林縣元長鄉下寮村東興路３３號,120.334,23.61849,(05)7862551,羅氏家用新冠病毒抗原自我檢測套組,15,2022/05/08 09:02:03,販賣口罩時間：0800開賣，賣完為止
5939191326,順生藥局,雲林縣口湖鄉口湖村口湖路３２４號,120.1811,23.58524,(05)7895799,羅氏家用新冠病毒抗原自我檢測套組,78,2022/05/08 09:02:03,早上10點開放購買快篩試劑 賣完為止（星期六休息）
5939201354,玉璽藥局,雲林縣水林鄉水南村水林路１１５號之１,120.2466,23.57223,(05)7856019,羅氏家用新冠病毒抗原自我檢測套組,11,2022/05/08 09:02:03,實名制快篩早上8:30 開賣，售完為止
5940011302,開元藥局,嘉義縣朴子市開元路１５４號,120.2446,23.46725,(05)3700014,羅氏家用新冠病毒抗原自我檢測套組,10,2022/05/08 09:02:03,週一至週五08:30~售完為止，週六、週日到貨即賣~售完為止。
5940021157,康富藥師藥局,嘉義縣布袋鎮博愛二街２２號,120.1676,23.37901,(05)3470511,羅氏家用新冠病毒抗原自我檢測套組,66,2022/05/08 09:02:03,快篩：星期一至星期六下午5點起售完為止中午12-14點休息星期日10點起
5940030058,萬有藥局,嘉義縣大林鎮平林里民權路３６號,120.4599,23.60009,(05)2654246,羅氏家用新冠病毒抗原自我檢測套組,60,2022/05/08 09:02:03,周一～周六 08:00-21:30週日 08:00-12:00
5940040170,健安藥局,嘉義縣民雄鄉興南村頭橋４５號,120.439,23.52336,(05)2211797,羅氏家用新冠病毒抗原自我檢測套組,3,2022/05/08 09:02:03,營業:上午9點至下午9點.週日休-下午6點售快篩
5940040321,上安藥局,嘉義縣民雄鄉西安路４６－２３號,120.4259,23.55737,(05)2261216,羅氏家用新冠病毒抗原自我檢測套組,16,2022/05/08 09:02:03,上午0830開賣-售罄為止
5940041480,安生藥局,嘉義縣民雄鄉昇平路１２號,120.43,23.55676,(05)2262053,羅氏家用新冠病毒抗原自我檢測套組,1,2022/05/08 09:02:03,周一~周日 08:30-售罄
5940041551,佳佑藥師藥局,嘉義縣民雄鄉福樂村埤角４０８－１０號,120.4415,23.52703,(05)2218806,羅氏家用新冠病毒抗原自我檢測套組,73,2022/05/08 09:02:03,快篩實名制週一~週六上午9點至完售，週日上午9點~上午10點
5940041622,大順藥局,嘉義縣民雄鄉福樂村埤角１３９號,120.44,23.52429,(05)2201138,羅氏家用新冠病毒抗原自我檢測套組,1,2022/05/08 09:02:03,快篩領取:星期一至日下午2點，售完為止
5940041828,民雄丁丁藥局,嘉義縣民雄鄉文化路３－７號,120.4282,23.55087,(05)2260990,羅氏家用新冠病毒抗原自我檢測套組,6,2022/05/08 09:02:03,無
5940051100,滋元藥局,嘉義縣溪口鄉中正路１０９之３號,120.3966,23.60433,(05)2696287,羅氏家用新冠病毒抗原自我檢測套組,2,2022/05/08 09:02:03,周一 ～ 周六（0800~1930）、周日（0800~1200）
5940121349,照安藥局,嘉義縣水上鄉水頭村中興路４０８號,120.4003,23.4311,(05)2687897,羅氏家用新冠病毒抗原自我檢測套組,2,2022/05/08 09:02:03,領快篩時間:早上8:00~售馨
5940131283,一心藥局,嘉義縣中埔鄉富收村頂中下街３１、３１－１號１樓,120.4885,23.45077,(05)2303553,羅氏家用新冠病毒抗原自我檢測套組,60,2022/05/08 09:02:03,無
5940141305,東義藥局,嘉義縣竹崎鄉獅埜村東義２０－１８號,120.4898,23.51273,(05)2110957,羅氏家用新冠病毒抗原自我檢測套組,5,2022/05/08 09:02:03,無
5940141314,竹崎啄木鳥藥師藥局,嘉義縣竹崎鄉竹崎村中華路９２號,120.5481,23.52055,(05)2617786,羅氏家用新冠病毒抗原自我檢測套組,75,2022/05/08 09:02:03,09:00~售罄
5941011708,兆豐藥局,臺南市新營區忠政里中正路５７之１６號,120.3162,23.31681,(06)6352205,羅氏家用新冠病毒抗原自我檢測套組,53,2022/05/08 09:02:03,口罩販售時間：星期一~六08:00至售完為止
5941030114,協宏藥局,臺南市白河區竹門里９８之３號,120.4466,23.37697,(06)6852961,羅氏家用新冠病毒抗原自我檢測套組,1,2022/05/08 09:02:03,快篩  08 : 30-20:00
5941131161,竹軒大藥局,臺南市六甲區甲南里民生街１５８號,120.3533,23.23001,(06)6982258,羅氏家用新冠病毒抗原自我檢測套組,77,2022/05/08 09:02:03,週日一至周日，上午10開始販售
5941270163,太子藥局,臺南市仁德區太子里太子路３３８號,120.2577,22.99146,(06)2729906,羅氏家用新冠病毒抗原自我檢測套組,2,2022/05/08 09:02:03,5／8快篩.已售完.
5941280043,道仁藥局,臺南市歸仁區許厝里中山路一段４７８號,120.2973,22.96654,(06)2301967,羅氏家用新冠病毒抗原自我檢測套組,13,2022/05/08 09:02:03,08:00開始.12:00-13:30午休.售完為止
5941291215,明義藥師藥局,臺南市關廟區山西里武聖路２６號１樓,120.3266,22.96169,(06)5959290,羅氏家用新冠病毒抗原自我檢測套組,15,2022/05/08 09:02:03,於中午12:00~13:00及18:00~代售實名制防疫家用快篩試劑服務!
5941310484,慈惠藥師保健藥局,臺南市永康區國光七街７１號,120.26,23.00943,(06)2718968,羅氏家用新冠病毒抗原自我檢測套組,32,2022/05/08 09:02:03,快篩實名制，預計早上9:00開始販賣
5941310715,都都藥局,臺南市永康區中山南路１２８號,120.2302,23.01319,(06)2037887,羅氏家用新冠病毒抗原自我檢測套組,78,2022/05/08 09:02:03,快篩實名制:每日11:00開始販售
5941312755,佑健康藥師藥局,臺南市永康區文化路２０２之３號,120.2559,23.0154,(06)2316257,羅氏家用新冠病毒抗原自我檢測套組,13,2022/05/08 09:02:03,快篩販售時間：星期一~星期六08:30~售完
5942011480,頂好藥師藥局,高雄市鳳山區光華東路１５號,120.3565,22.61923,(07)7430834,羅氏家用新冠病毒抗原自我檢測套組,11,2022/05/08 09:02:03,自2／11日~2／29日，營業日10:00~21:00為販賣口罩時間，售完為止
5942011819,鳳山丁丁藥局,高雄市鳳山區協和里自由路１５１號１樓,120.3517,22.62565,(07)7101080,羅氏家用新冠病毒抗原自我檢測套組,1,2022/05/08 09:02:03,自5／01日~12／31日，營業日09:00發號碼牌~22:00為販賣實名制快篩劑時間，售完為止，
5942013331,泰安藥局,高雄市鳳山區仁愛路６－１號,120.3731,22.6226,(07)7037838,羅氏家用新冠病毒抗原自我檢測套組,28,2022/05/08 09:02:03,自4月起，中午時間（12：30~2：30）不販售實名制口罩。
5942013699,新怡安藥局,高雄市鳳山區海洋里新富路５１２號,120.3474,22.61403,(07)7633565,羅氏家用新冠病毒抗原自我檢測套組,1,2022/05/08 09:02:03,快篩如果送貨正常一般都早上九點販售  如果供貨時間異常就下午兩點
5942013804,長喜連鎖藥局,高雄市鳳山區鳳甲路４９２號,120.3462,22.59758,(07)7961070,羅氏家用新冠病毒抗原自我檢測套組,57,2022/05/08 09:02:03,快篩販賣周一~周六下午2:00 周日上午9:00~10:00
5942021735,長青連鎖藥局,高雄市岡山區碧紅里維新東街３３號,120.2977,22.79349,(07)6232566,羅氏家用新冠病毒抗原自我檢測套組,67,2022/05/08 09:02:03,營業日上午9:00~晚上09:30為販賣快篩時間，售完為止
5942031366,辰安藥局,高雄市旗山區延平一路５４５號,120.4833,22.88713,(07)6623545,羅氏家用新冠病毒抗原自我檢測套組,65,2022/05/08 09:02:03,營業日09:00起為販賣快篩試劑時間，售完為止
5942060027,福民藥局,高雄市大寮區鳳林三路４０８號之１,120.3964,22.6036,(07)7816570,羅氏家用新冠病毒抗原自我檢測套組,23,2022/05/08 09:02:03,8:15發口罩號碼牌售完為止
5942060385,義和藥局,高雄市大寮區義和里義和路１６１號,120.4205,22.64125,(07)6527206,羅氏家用新冠病毒抗原自我檢測套組,62,2022/05/08 09:02:03,無
5942190039,立達藥局,高雄市彌陀區中正西路２５９－２號,120.2453,22.785,(07)6179277,羅氏家用新冠病毒抗原自我檢測套組,99,2022/05/08 09:02:03,5／8（日） 上午11:00開賣，不分單雙，一人一卡。
5942200030,順成藥局,高雄市梓官區梓官路城隍巷３１號,120.2681,22.75929,(07)6172407,羅氏家用新冠病毒抗原自我檢測套組,2,2022/05/08 09:02:03,週一至週五快篩銷售時間★下午4點，六、日★早上8點30
5942240043,光輝藥局,高雄市內門區鄉觀亭里南屏路２３０號,120.4547,22.92305,(07)6671106,羅氏家用新冠病毒抗原自我檢測套組,13,2022/05/08 09:02:03,自3／01日~3／31日，營業日8:30起為販賣口罩時間，售完為止
5943010101,正欣藥局,屏東縣屏東市前進里清進巷１０７號,120.4644,22.64938,(08)7524138,羅氏家用新冠病毒抗原自我檢測套組,34,2022/05/08 09:02:03,自3／01日~3／31日，營業日09:00~21:30銷售，發完為止
5943010156,新東洋藥局,屏東縣屏東市民生路２３８號,120.4924,22.67014,(08)7323388,羅氏家用新冠病毒抗原自我檢測套組,78,2022/05/08 09:02:03,營業日上午9:10至 晚上21:30為販賣快篩時間，售完為止
5943012892,立健藥局,屏東縣屏東市勝利里廣東路９６２號,120.4862,22.68773,(08)7328039,羅氏家用新冠病毒抗原自我檢測套組,77,2022/05/08 09:02:03,快篩每日早上9:00開始銷售~
5943013639,屏東啄木鳥藥局,屏東縣屏東市民生路７９－２４號,120.4983,22.66705,(08)7210684,羅氏家用新冠病毒抗原自我檢測套組,74,2022/05/08 09:02:03,早上8:30開始販賣口罩，售完為止
5943013951,大林藥師藥局,屏東縣屏東市平和里仁愛路５９號１樓,120.4924,22.67133,(08)7320680,羅氏家用新冠病毒抗原自我檢測套組,1,2022/05/08 09:02:03,平日14:00~21:00為販賣快篩時間，售完為止
5943014074,大林崇蘭藥局,屏東縣屏東市大同北路９８號,120.4749,22.68145,(08)7323738,羅氏家用新冠病毒抗原自我檢測套組,8,2022/05/08 09:02:03,平日下午兩點開賣快篩，5／8（日）不販售公費快篩，如有不便敬請見諒
5943014298,萬年啄木鳥藥局,屏東縣屏東市建南路１８２號１樓,120.482,22.66275,(08)7516458,羅氏家用新冠病毒抗原自我檢測套組,17,2022/05/08 09:02:03,無
5943014332,千甲台安藥局,屏東縣屏東市武廟里逢甲路９２號,120.4867,22.67045,(08)7330663,羅氏家用新冠病毒抗原自我檢測套組,67,2022/05/08 09:02:03,因政府物流不穩定 每日塊篩販售時間公告於LINE社群https:／／reurl.cc／M0b5VX
5943021506,潮州啄木鳥藥局,屏東縣潮州鎮介壽路７６號,120.5364,22.54438,(08)7890466,羅氏家用新冠病毒抗原自我檢測套組,62,2022/05/08 09:02:03,實名快篩於早上10:00開始販售（若當天配送延誤，時間另行公布）
5943021515,鈺康藥局,屏東縣潮州鎮四維路２１３號,120.5473,22.55472,(08)7800921,羅氏家用新冠病毒抗原自我檢測套組,6,2022/05/08 09:02:03,自3／2日~3／31日，周一至周五營業日8:30~為販賣口罩時間，售完為止，周六09:30~為販賣口罩時間，售完為止
5943030103,保生藥局,屏東縣東港鎮中山路５６號,120.4505,22.46674,(08)8322818,羅氏家用新冠病毒抗原自我檢測套組,22,2022/05/08 09:02:03,上午8:10開始發號碼牌，發完等同售完.
5943031851,大眾藥局,屏東縣東港鎮朝隆路７６號,120.4463,22.46862,(08)8354752,羅氏家用新冠病毒抗原自我檢測套組,78,2022/05/08 09:02:03,實名制快篩下午三點開始販售
5943031897,欣大眾藥局,屏東縣東港鎮中正路一段９２號,120.4569,22.47272,(08)8351177,羅氏家用新冠病毒抗原自我檢測套組,78,2022/05/08 09:02:03,無
5943031904,東港丁丁藥局,屏東縣東港鎮長春一路９７號,120.4594,22.47158,(08)8336068,羅氏家用新冠病毒抗原自我檢測套組,71,2022/05/08 09:02:03,快篩實名制早上九點開始販售
5943041348,恆春啄木鳥藥局,屏東縣恆春鎮恒南路２８號,120.7476,21.99145,(08)8883990,羅氏家用新冠病毒抗原自我檢測套組,78,2022/05/08 09:02:03,自2／11日~2／29日，營業日8:30~21:00，為販賣口罩時間，若11:00過後仍有剩餘口罩則16:00-18:00繼續販賣，賣完為止
5943071168,麟洛藥局,屏東縣麟洛鄉麟趾村中山路３９１－３９３號,120.5262,22.65114,(08)7222617,羅氏家用新冠病毒抗原自我檢測套組,68,2022/05/08 09:02:03,快篩販賣以到貨為主，請關注麟洛丁丁臉書
5943100011,宏大藥局,屏東縣鹽埔鄉新二村彭厝路３８－５號,120.5564,22.74229,(08)7935513,羅氏家用新冠病毒抗原自我檢測套組,29,2022/05/08 09:02:03,5／6實名制快篩早上8點半開始販售，售完為止。
5943110062,永昌藥局,屏東縣高樹鄉產業路１６３號,120.6133,22.78963,(08)7956087,羅氏家用新冠病毒抗原自我檢測套組,78,2022/05/08 09:02:03,販賣快篩時間下午1:30開始
5943131436,東東藥局,屏東縣內埔鄉內田村廣濟路４９號,120.5653,22.61005,(08)7780183,羅氏家用新冠病毒抗原自我檢測套組,78,2022/05/08 09:02:03,05／08早上10:00開始販售，05／09起改為早上08:30開始，不發號碼牌
5943161121,永明藥局,屏東縣枋寮鄉安樂村中山路１１９－１號,120.5976,22.36351,(08)8781481,羅氏家用新冠病毒抗原自我檢測套組,60,2022/05/08 09:02:03,販賣口罩時間早上08:00，售完為止。
5943170077,健安藥局,屏東縣新園鄉中洲村南興路１７０號,120.4586,22.4872,(08)8322649,羅氏家用新冠病毒抗原自我檢測套組,64,2022/05/08 09:02:03,自4／11~4／30日，販賣口罩時間至8:00起，售完為止。
5943170095,長安中西藥局,屏東縣新園鄉中洲村南興路１９４號,120.4586,22.48776,(08)8336986,羅氏家用新冠病毒抗原自我檢測套組,2,2022/05/08 09:02:03,自2／11~2／29日，販賣口罩時間9:00起，售完為止。
5943221051,明德藥局,屏東縣琉球鄉本福村中山路１５１號,120.3818,22.35203,(08)8611278,羅氏家用新冠病毒抗原自我檢測套組,78,2022/05/08 09:02:03,8:30 發放號碼牌  10:00-12:00 販賣實名制快篩
5944010043,新見安藥局,澎湖縣馬公市光明里光復路９５號,119.5703,23.57152,(06)9277346,羅氏家用新冠病毒抗原自我檢測套組,68,2022/05/08 09:02:03,販賣口罩時間:早上7:30-12:30，下午2:30-6:00，晚上7:00-9:30。
5945011795,晉嘉藥局,花蓮縣花蓮市明禮路７１－９號１樓,121.6082,23.98242,(03)8347329,羅氏家用新冠病毒抗原自我檢測套組,1,2022/05/08 09:02:03,販售快篩時間，星期一到星期日，早上09:30開始，售完為止
5945012863,承祐藥局,花蓮縣花蓮市建國路２６６號,121.5994,23.98438,(03)8338261,羅氏家用新冠病毒抗原自我檢測套組,6,2022/05/08 09:02:03,販售時間：早上8:30-11:00  晚上19:00-21:00。周六晚上19:00-20:30
5945012970,東大藥局,花蓮縣花蓮市富吉路４號,121.599,23.99447,(03)8463231,羅氏家用新冠病毒抗原自我檢測套組,1,2022/05/08 09:02:03,實名制快篩販賣時間：早上10；00至售完為止
5945013048,幸福花蓮藥局,花蓮縣花蓮市中正路１７９號,121.5987,23.97165,(03)8361412,羅氏家用新冠病毒抗原自我檢測套組,32,2022/05/08 09:02:03,快篩販售時間週一至週六下午2點開始.售完為止.周日彈性販售.
5945013244,花蓮丁丁藥局,花蓮縣花蓮市中山路５５３號,121.6009,23.98754,(03)8360312,羅氏家用新冠病毒抗原自我檢測套組,74,2022/05/08 09:02:03,快篩販售時間早上9點開賣
5945021040,人和藥局,花蓮縣鳳林鎮中正路２００號,121.45,23.74899,(03)8762712,羅氏家用新冠病毒抗原自我檢測套組,4,2022/05/08 09:02:03,無
5945031297,莊藥局,花蓮縣玉里鎮中城里２７鄰成功街９５號,121.314,23.33083,(03)8882328,羅氏家用新冠病毒抗原自我檢測套組,6,2022/05/08 09:02:03,口罩販售時間8:00-9:00
5945051388,荃安藥局,花蓮縣吉安鄉建國路二段２７７－１號,121.5743,23.99297,(03)8579317,羅氏家用新冠病毒抗原自我檢測套組,58,2022/05/08 09:02:03,口罩每日早上九點開賣
5945051646,花蓮建國藥局,花蓮縣吉安鄉建國路１段１３７－１號,121.5915,23.98574,(03)8461699,羅氏家用新冠病毒抗原自我檢測套組,4,2022/05/08 09:02:03,快篩實名制，每天16:00開始販售，售完為止。
5945051664,吉安丁丁藥局,花蓮縣吉安鄉中華路二段１１號,121.5871,23.97358,(03)8536772,羅氏家用新冠病毒抗原自我檢測套組,76,2022/05/08 09:02:03,每日9點營業即開始販售實名制快篩劑
5945061106,志成藥局,花蓮縣壽豐鄉志學村中正路３７號,121.5307,23.90699,(03)8661303,羅氏家用新冠病毒抗原自我檢測套組,146,2022/05/08 09:02:03,上午９：００開胎販售快篩試劑， 每人限購買二份試劑（含代購）。.5／7有販售試劑
5946011780,禾安藥局,臺東縣臺東市四維路３段２號、８號,121.1452,22.76606,(089)223111,羅氏家用新冠病毒抗原自我檢測套組,75,2022/05/08 09:02:03,週一至週日9點快篩依序販售.
5990010524,康總藥局,金門縣金城鎮西門里莒光路１５６號,118.3163,24.43355,(082)316053,羅氏家用新冠病毒抗原自我檢測套組,1,2022/05/08 09:02:03,快篩試劑販售時段：每日早上08:30分開始販售，售完為止。
5990010695,百泰藥局,金門縣金城鎮西海路１段１號,118.2864,24.41566,(082)312832,羅氏家用新冠病毒抗原自我檢測套組,78,2022/05/08 09:02:03,快篩實名制，每天16:00開始販售，售完為止。
