醫事機構代碼,醫事機構名稱,醫事機構地址,經度,緯度,醫事機構電話,廠牌項目,快篩試劑截至目前結餘存貨數量,來源資料時間,備註
2331260016,新北市貢寮區衛生所,新北市貢寮區朝陽街７０巷１０號、新北市貢寮區仁愛路１２８號,121.9095,25.02258,(02)24901431,羅氏家用新冠病毒抗原自我檢測套組,234,2022/04/28 20:16:02,星期一至星期日上午8點購買防疫口罩，售完為止.
2331290014,新北市烏來區衛生所,新北市烏來區新烏路５段１０９號,121.548,24.87197,(02)26617200,羅氏家用新冠病毒抗原自我檢測套組,248,2022/04/28 20:16:02,無
2333120015,新竹縣峨眉鄉衛生所,新竹縣峨眉鄉峨眉村峨眉街２鄰５號,121.0214,24.68842,(03)5800314,羅氏家用新冠病毒抗原自我檢測套組,234,2022/04/28 20:16:02,本所星期三下午中醫門診，4月8日（五）下午眼科，販賣口罩上午12時至13時止，國定及例假日不賣口罩
2333140017,新竹縣五峰鄉衛生所,新竹縣五峰鄉大隘村六鄰９９號,121.1194,24.63184,(03)5851005,羅氏家用新冠病毒抗原自我檢測套組,234,2022/04/28 20:16:02,無
2334110013,宜蘭縣大同鄉衛生所,宜蘭縣大同鄉崙埤村朝陽４０號,121.6088,24.67785,(03)9801175,羅氏家用新冠病毒抗原自我檢測套組,25,2022/04/28 20:16:02,防疫口罩販賣時間本所（週一到週六）8:20-10:20  衛生室販賣時間為星期一、二、四、五下午，詳細事項請至本所網站查詢.
2335110017,苗栗縣南庄鄉衛生所,苗栗縣南庄鄉東村大同路１７號,121,24.59733,(037)822024,羅氏家用新冠病毒抗原自我檢測套組,234,2022/04/28 20:16:02,口罩販賣時段:週一至週五上午8:00~下午5:00
2335150011,苗栗縣造橋鄉衛生所,苗栗縣造橋鄉造橋村１４鄰８－２號,120.8643,24.63672,(037)542755,羅氏家用新冠病毒抗原自我檢測套組,234,2022/04/28 20:16:02,口罩販賣時段：08:30-售完（含假日）
2335170013,苗栗縣獅潭鄉衛生所,苗栗縣獅潭鄉新店村１３０之６號,120.9201,24.53961,(037)931309,羅氏家用新冠病毒抗原自我檢測套組,234,2022/04/28 20:16:02,口罩販賣時段：08:30-16:00
2335180019,苗栗縣泰安鄉衛生所,苗栗縣泰安鄉清安村２鄰７２號,120.9083,24.44722,(037)941054,羅氏家用新冠病毒抗原自我檢測套組,234,2022/04/28 20:16:02,口罩販賣時段：星期一~五：8:30~15：00。
2336210034,臺中市和平區梨山衛生所,臺中市和平區中正路１２號１樓、６８號１樓,121.2592,24.25678,(04)25989540,羅氏家用新冠病毒抗原自我檢測套組,274,2022/04/28 20:16:02,提供24小時急診待診服務，111年4月28日起，快篩試劑販售時段為周一至周五0900-12:00，六日及國定假日為0900-1100
2338070010,南投縣鹿谷鄉衛生所,南投縣鹿谷鄉中正路二段２０號,120.7542,23.74488,(049)2752002,羅氏家用新冠病毒抗原自我檢測套組,234,2022/04/28 20:16:02,快篩試劑販售時間 上班日（星期一至星期五）14:00~16:00
2338120015,南投縣信義鄉衛生所,南投縣信義鄉明德村玉山路４５號,120.8547,23.69653,(049)2791148,羅氏家用新冠病毒抗原自我檢測套組,234,2022/04/28 20:16:02,快篩試劑販售時間星期一至星期五上午09：00-11：00，現場排隊發售，國定假日不販賣。
2340170016,嘉義縣大埔鄉衛生所,嘉義縣大埔鄉大埔村５３－１號,120.5928,23.29397,(05)2521214,羅氏家用新冠病毒抗原自我檢測套組,234,2022/04/28 20:16:02,無
2341250013,臺南市南化區衛生所,臺南市南化區南化里２２６－１號,120.4793,23.0444,(06)5771139,羅氏家用新冠病毒抗原自我檢測套組,246,2022/04/28 20:16:02,家用快篩週一~週五 （9:30-11:30）
2342130010,高雄市田寮區衛生所,高雄市田寮區南安里崗北路３２號,120.3594,22.87301,(07)6361504,羅氏家用新冠病毒抗原自我檢測套組,51,2022/04/28 20:16:02,巡迴醫療:每星期一、四下午及每月第一個有上班的星期三下午巡迴醫療
2342250017,高雄市茂林區衛生所,高雄市茂林區茂林里茂林巷８－４號,120.6641,22.88641,(07)6801046,羅氏家用新冠病毒抗原自我檢測套組,307,2022/04/28 20:16:02,夜間急診，請先撥電話07-6801046
2342260013,高雄市桃源區衛生所,高雄市桃源區桃源里南進巷１８８－１號,120.7642,23.15845,(07)6861126,羅氏家用新冠病毒抗原自我檢測套組,262,2022/04/28 20:16:02,IDS提供24小時服務
2342270019,高雄市那瑪夏區衛生所,高雄市那瑪夏區瑪雅里６鄰平和巷２５２號,120.7024,23.24708,(07)6701142,羅氏家用新冠病毒抗原自我檢測套組,296,2022/04/28 20:16:02,春節期間正常門診
2343270013,屏東縣霧台鄉衛生所,屏東縣霧台鄉霧台村神山巷６８號,120.7261,22.74989,(08)7902232,羅氏家用新冠病毒抗原自我檢測套組,290,2022/04/28 20:16:02,無
2343290015,屏東縣泰武鄉衛生所,屏東縣泰武鄉佳平村１７９號,120.6327,22.59212,(08)7832059,羅氏家用新冠病毒抗原自我檢測套組,265,2022/04/28 20:16:02,4／2-4／5門診照常
2343300016,屏東縣來義鄉衛生所,屏東縣來義鄉古樓村中正路９０號,120.632,22.52584,(08)7850103,羅氏家用新冠病毒抗原自我檢測套組,242,2022/04/28 20:16:02,無
2343320018,屏東縣獅子鄉衛生所,屏東縣獅子鄉楓林村楓林二巷３１號,120.7057,22.18402,(08)8771324,羅氏家用新冠病毒抗原自我檢測套組,234,2022/04/28 20:16:02,特休日：每年農曆除夕、初一
2343330014,屏東縣牡丹鄉衛生所,屏東縣牡丹鄉石門村１９號,120.7469,22.10105,(08)8831013,羅氏家用新冠病毒抗原自我檢測套組,234,2022/04/28 20:16:02,無
2344011036,澎湖縣馬公市第三衛生所,澎湖縣馬公市西文里１１８之２號,119.5836,23.56813,(06)9211723,羅氏家用新冠病毒抗原自我檢測套組,234,2022/04/28 20:16:02,本所口罩販售以離島（虎井、桶盤）為主，時間星期一至星期五08:30-17:00售完為止，星期六、日國定假日09:00-12:00。
2344030013,澎湖縣白沙鄉衛生所,澎湖縣白沙鄉赤崁村３５９號,119.5982,23.66669,(06)9931044,羅氏家用新冠病毒抗原自我檢測套組,239,2022/04/28 20:16:02,星期日上午門診看診（每月最後一個星期日休診）； 星期五上午巡迴醫療
2344030022,澎湖縣白沙鄉鳥嶼衛生所,澎湖縣白沙鄉鳥嶼村漁港新村３號,119.6599,23.66008,(06)9916092,羅氏家用新冠病毒抗原自我檢測套組,260,2022/04/28 20:16:02,非上班時間提供急診服務
2344030031,澎湖縣白沙鄉吉貝衛生所,澎湖縣白沙鄉吉貝村８－１３號,119.6138,23.74056,(06)9911430,羅氏家用新冠病毒抗原自我檢測套組,288,2022/04/28 20:16:02,無
2344050015,澎湖縣望安鄉衛生所,澎湖縣望安鄉西安村３６－７號,119.4972,23.36161,(06)9991036,羅氏家用新冠病毒抗原自我檢測套組,234,2022/04/28 20:16:02,夜間急診。口罩、快篩試劑販售時間為:每日08:00-12:00、13:30-17:30售完為止，如有餘數為離島未售出（東嶼坪、花嶼衛生室）。
2344050024,澎湖縣望安鄉將軍衛生所,澎湖縣望安鄉將軍村１２鄰將軍澳１之３號,119.5216,23.3615,(06)9902066,羅氏家用新冠病毒抗原自我檢測套組,289,2022/04/28 20:16:02,24小時急診
2345080017,花蓮縣豐濱鄉衛生所,花蓮縣豐濱鄉豐濱村光豐路３９號,121.5215,23.60195,(03)8791156,羅氏家用新冠病毒抗原自我檢測套組,176,2022/04/28 20:16:02,*本院口罩每天販售，時間自上午8點至晚上9點  *本院週一至週五上下午皆有門診，星期六隔週提供門診，及24小時急診。
2345130012,花蓮縣卓溪鄉衛生所,花蓮縣卓溪鄉卓溪村中正路６５號,121.3033,23.33294,(03)8882592,羅氏家用新冠病毒抗原自我檢測套組,3,2022/04/28 20:16:02,販賣口罩服務時段每周一至周五早上8點45分至11點45分，星期一至星期四安排巡迴醫療點販售（售完即結束）
2346050013,台東縣大武鄉衛生所,臺東縣大武鄉大武村復興路２－２號,120.9078,22.36414,(089)791143,羅氏家用新冠病毒抗原自我檢測套組,236,2022/04/28 20:16:02,24小時急診服務
2346070015,臺東縣東河鄉衛生所,臺東縣東河鄉東河村南東河路１０鄰３００號,121.3031,22.96846,(089)896289,羅氏家用新冠病毒抗原自我檢測套組,234,2022/04/28 20:16:02,口罩販售時間:◆平日早上08時30分~11時30分販售，售完為止。
2346130016,台東縣海端鄉衛生所,臺東縣海端鄉海端村３鄰２９號,121.1767,23.10094,(089)931391,羅氏家用新冠病毒抗原自我檢測套組,1,2022/04/28 20:16:02,星期一至星期五口罩販售時間上午8點~12點（售完為止）
2346140012,台東縣達仁鄉衛生所,臺東縣達仁鄉安朔村復興路１２２號,120.8836,22.29488,(089)702209,羅氏家用新冠病毒抗原自我檢測套組,243,2022/04/28 20:16:02,12／31 元旦連假
2346150018,台東縣金峰鄉衛生所,臺東縣金峰鄉賓茂村１鄰１４號,120.9606,22.53248,(089)772201,羅氏家用新冠病毒抗原自我檢測套組,249,2022/04/28 20:16:02,代售口罩時間:星期一至星期五為上午8:00-12:00，下午1:30-5:30
2346160014,台東縣蘭嶼鄉衛生所,臺東縣蘭嶼鄉紅頭村３６號,121.5546,22.02493,(089)732575,羅氏家用新冠病毒抗原自我檢測套組,234,2022/04/28 20:16:02,販售口罩時間 星期一至星期五 8:00~12:00 13:30~17:30
2391020010,連江縣北竿鄉衛生所,連江縣北竿鄉塘岐村２８１－６號,119.9991,26.22617,(083)655592,羅氏家用新冠病毒抗原自我檢測套組,247,2022/04/28 20:16:02,防疫口罩每日08:30-10:00於北竿衛生所購買。
2391030016,連江縣莒光鄉西莒衛生所,連江縣莒光鄉青帆村１４－１號,119.9331,25.97157,(083)689122,羅氏家用新冠病毒抗原自我檢測套組,290,2022/04/28 20:16:02,防疫口罩星期一至五09:00-17:00、（六）09:00-12:00現場購買
2391030026,連江縣莒光鄉東莒衛生所,連江縣莒光鄉大坪村３０－１號,119.9731,25.96113,(083)689038,羅氏家用新冠病毒抗原自我檢測套組,284,2022/04/28 20:16:02,防疫口罩星期一至星期日上午10:00-12:00收取健保卡，下午3:30至本所領取口罩。
2391040012,連江縣東引鄉衛生所,連江縣東引鄉中柳村１２３號,120.4904,26.36701,(083)677206,羅氏家用新冠病毒抗原自我檢測套組,245,2022/04/28 20:16:02,防疫口罩每日10:00-12:00現場購買
5901011699,建東大藥局,臺北市松山區三民路９７號１樓,121.5634,25.05723,(02)27676237,羅氏家用新冠病毒抗原自我檢測套組,1,2022/04/28 20:16:02,無
5901012598,婕登藥局,臺北市松山區八德路４段６９９號,121.5766,25.05021,(02)27482893,羅氏家用新冠病毒抗原自我檢測套組,1,2022/04/28 20:16:02,無
5901020563,施寶藥局,臺北市大安區安東街５０－５號１樓,121.5426,25.04277,(02)27114175,羅氏家用新冠病毒抗原自我檢測套組,22,2022/04/28 20:16:02,週一至週五早上11點到下午8點.周六周日及公訂例假日公休
5901020634,新廣生藥局,臺北市大安區仁愛路４段３４號,121.5467,25.03762,(02)27071221,羅氏家用新冠病毒抗原自我檢測套組,2,2022/04/28 20:16:02,固定周日公休
5901021248,永誠藥局,臺北市大安區忠孝東路４段２１６巷２５之１號,121.5531,25.03997,(02)27520273,羅氏家用新冠病毒抗原自我檢測套組,32,2022/04/28 20:16:02,無
5901021408,生百藥局,臺北市大安區臨江街１２４號,121.5539,25.03024,(02)27371011,羅氏家用新冠病毒抗原自我檢測套組,2,2022/04/28 20:16:02,無
5901024221,安居藥局,臺北市大安區安居街１９號,121.5549,25.02085,(02)23773537,羅氏家用新冠病毒抗原自我檢測套組,36,2022/04/28 20:16:02,領快篩注意事項:週一到週五晚上7:30-9:00 週六早上8:30-12:00直接排隊購買 .週日不營業
5901090154,柯藥局,臺北市大同區重慶北路３段３３５巷６號,121.5144,25.07452,(02)25948515,羅氏家用新冠病毒抗原自我檢測套組,16,2022/04/28 20:16:02,無
5901090369,保慶藥局,臺北市大同區保安街２１號,121.5129,25.05926,(02)25538988,羅氏家用新冠病毒抗原自我檢測套組,77,2022/04/28 20:16:02,快篩販售時間:晚上9:00-10:00（週日不販售），晚上8:50發號碼牌
5901101509,永直藥局,臺北市中山區北安路５９５巷２弄６號,121.5483,25.08192,(02)85098059,羅氏家用新冠病毒抗原自我檢測套組,8,2022/04/28 20:16:02,無
5901102444,啟美藥師藥局,臺北市中山區錦州街２８２號,121.5352,25.06024,(02)25178032,羅氏家用新冠病毒抗原自我檢測套組,78,2022/04/28 20:16:02,快篩 販售時間 20點開賣到21點，星期六日公休
5901103236,誠意中西藥局,臺北市中山區林森北路６１３號,121.5258,25.06647,(02)25950951,羅氏家用新冠病毒抗原自我檢測套組,1,2022/04/28 20:16:02,無
5901103414,元宏藥局,臺北市中山區北安路４５８巷４１弄４９號,121.5465,25.0794,(02)25339728,羅氏家用新冠病毒抗原自我檢測套組,3,2022/04/28 20:16:02,早上營業08:00至12:00，下午由14:30營業至21:30
5901110133,泰成藥局,臺北市內湖區內湖路３段１３５號１樓,121.5899,25.08685,(02)27921231,羅氏家用新冠病毒抗原自我檢測套組,5,2022/04/28 20:16:02,口罩販售:上午9:00開始發號碼牌，9點同步販售.
5901110311,永安藥局,臺北市內湖區文德路２１０巷３０弄４８號,121.5852,25.07723,(02)26586658,羅氏家用新冠病毒抗原自我檢測套組,1,2022/04/28 20:16:02,口罩販售時間早上10點開始發號碼牌  同時販售
5901112995,昇龍藥局,臺北市內湖區東湖路１５１號,121.6174,25.0681,(02)26316783,羅氏家用新冠病毒抗原自我檢測套組,2,2022/04/28 20:16:02,早0800-1200，午1200-1700，晚1800-2200
5901113385,躍獅康成藥局,臺北市內湖區成功路４段６１巷１１號,121.5928,25.0814,(02)87922031,羅氏家用新冠病毒抗原自我檢測套組,2,2022/04/28 20:16:02,每日早上10:00及下午3:00，每時段各100份大人口罩，50份兒童口罩，排隊人多時會發號碼牌。
5901113509,安安藥局,臺北市內湖區康寧路１段４號１樓,121.5912,25.08057,(02)87912187,羅氏家用新冠病毒抗原自我檢測套組,1,2022/04/28 20:16:02,早上時段08:30~11:00；晚上時段19:00~21:00。周日不販售
5901121421,祥安藥局,臺北市南港區中坡南路２５號,121.5832,25.04329,(02)26547322,羅氏家用新冠病毒抗原自我檢測套組,2,2022/04/28 20:16:02,無
5901121618,新東發藥局,臺北市南港區成福路１９８號,121.5883,25.04092,(02)27855190,羅氏家用新冠病毒抗原自我檢測套組,2,2022/04/28 20:16:02,無
5901121985,勝安藥局,臺北市南港區舊莊街１段１６５號,121.6211,25.03949,(02)27828450,羅氏家用新冠病毒抗原自我檢測套組,78,2022/04/28 20:16:02,實名制快篩固定晚上21:00提供，現場排隊不分號碼牌
5901150548,田倉藥局,臺北市士林區士東路１２４號,121.5302,25.11219,(02)88662188,羅氏家用新冠病毒抗原自我檢測套組,5,2022/04/28 20:16:02,-
5901150771,天母大和藥師藥局,臺北市士林區德行東路１８９－１號１樓,121.5317,25.10897,(02)28310142,羅氏家用新冠病毒抗原自我檢測套組,2,2022/04/28 20:16:02,快篩實名制 配合營業時間  賣完為止
5901152640,仁大藥局,臺北市士林區社子街１３號１樓,121.5083,25.08769,(02)88113793,羅氏家用新冠病毒抗原自我檢測套組,43,2022/04/28 20:16:02,快篩試劑販售時間:週一至週六上午8:30-12:00
5901153905,躍獅芝山藥局,臺北市士林區福華路１５４號（實際使用：１樓）,121.5227,25.10357,(02)28365822,羅氏家用新冠病毒抗原自我檢測套組,9,2022/04/28 20:16:02,無
5901154082,德行盛康藥局,臺北市士林區德行東路２０６之１號１樓,121.532,25.1089,(02)28348756,羅氏家用新冠病毒抗原自我檢測套組,2,2022/04/28 20:16:02,無
5901160286,昌源藥局,臺北市北投區中央北路４段４８５號,121.4692,25.12843,(02)28928695,羅氏家用新冠病毒抗原自我檢測套組,1,2022/04/28 20:16:02,周日公休
5901160544,黎明藥局,臺北市北投區尊賢街２５３－１號,121.5066,25.11817,(02)28223795,羅氏家用新冠病毒抗原自我檢測套組,5,2022/04/28 20:16:02,早上900至1230 下午1600至2100
5901163296,天禧大藥局,臺北市北投區實踐街３５號,121.5087,25.11521,(02)28213558,羅氏家用新冠病毒抗原自我檢測套組,6,2022/04/28 20:16:02,實名制快篩下午1:30現場販售
5901163465,振生大藥局,臺北市北投區中央北路３段６１號,121.4847,25.13785,(02)28977292,羅氏家用新冠病毒抗原自我檢測套組,6,2022/04/28 20:16:02,剩餘數量為領號碼牌的人的
5901163581,陳藥師藥局,臺北市北投區光明路２巷１３－２號（實際使用：１樓）,121.4997,25.13132,(02)28921971,羅氏家用新冠病毒抗原自我檢測套組,1,2022/04/28 20:16:02,無
5901170059,必欣藥局,臺北市信義區松仁路２６４號,121.5696,25.02425,(02)27225060,羅氏家用新冠病毒抗原自我檢測套組,78,2022/04/28 20:16:02,無
5901170915,杏仁藥局,臺北市信義區大道路１３５號,121.5834,25.03901,(02)27262541,羅氏家用新冠病毒抗原自我檢測套組,6,2022/04/28 20:16:02,春節期間看診時段請電洽
5901172240,德康大藥局,臺北市信義區松山路５４１巷２１號,121.579,25.03794,(02)27272502,羅氏家用新冠病毒抗原自我檢測套組,1,2022/04/28 20:16:02,無
5901172268,皇佳大藥局,臺北市信義區松山路５４１巷１９號,121.5789,25.03793,(02)27269868,羅氏家用新冠病毒抗原自我檢測套組,2,2022/04/28 20:16:02,早上9:00~21:00持健保卡領取實名制口罩，請自備零錢
5901173603,松德盛康藥局,臺北市信義區松德路４０號,121.5767,25.03896,(02)87891622,羅氏家用新冠病毒抗原自我檢測套組,3,2022/04/28 20:16:02,今日號碼牌已發放完畢，請依號碼牌於今日晚上21:00前購買
5901173738,尚頤中西藥局,臺北市信義區虎林街１４５號,121.5767,25.03959,(02)27253818,羅氏家用新冠病毒抗原自我檢測套組,1,2022/04/28 20:16:02,無
5901173818,博亞藥局,臺北市信義區莊敬路４６２號,121.5677,25.02672,(02)27580506,羅氏家用新冠病毒抗原自我檢測套組,39,2022/04/28 20:16:02,平日早上8:30、晚上8:00；假日早上8:30，發放號碼牌，持號碼牌購買!
5901174057,詠晴中西藥局,臺北市信義區松山路４８４之４號（１樓含夾層）,121.5778,25.0389,(02)27266890,羅氏家用新冠病毒抗原自我檢測套組,6,2022/04/28 20:16:02,實名制快篩 - 09:10領號碼牌.當天取貨即可.避免群聚風險
5901174066,愛維喜藥局,臺北市信義區莊敬路２７８號１樓,121.5627,25.02882,(02)27586989,羅氏家用新冠病毒抗原自我檢測套組,2,2022/04/28 20:16:02,無
5901174075,信義盛康藥局,臺北市信義區永吉路２８６號（１樓）,121.5744,25.04538,(02)23460521,羅氏家用新冠病毒抗原自我檢測套組,5,2022/04/28 20:16:02,無
5901180368,古亭藥局,臺北市中正區汀州路３段１１７號,121.5301,25.01667,(02)23683618,羅氏家用新冠病毒抗原自我檢測套組,4,2022/04/28 20:16:02,無
5901183387,丞良藥局,臺北市中正區南昌路１段７８號地下１樓,121.5173,25.03099,(02)33938868,羅氏家用新冠病毒抗原自我檢測套組,77,2022/04/28 20:16:02,週一~週五 晚上9:00~9:30現場領取
5901183789,佑康大藥局,臺北市中正區汀州路２段６４號,121.5184,25.02513,(02)23683602,羅氏家用新冠病毒抗原自我檢測套組,7,2022/04/28 20:16:02,快篩下午2點開賣
5901184553,珍忻藥局,臺北市中正區南昌路１段６５號,121.5174,25.03107,(02)23965115,羅氏家用新冠病毒抗原自我檢測套組,7,2022/04/28 20:16:02,健保快篩發放:13:20及18:20分兩梯次發號碼牌
5901184599,長頸鹿藥師藥局,臺北市中正區南昌路１段１３２號,121.5183,25.02955,(02)23962120,羅氏家用新冠病毒抗原自我檢測套組,5,2022/04/28 20:16:02,無
5901190515,日昇藥局,臺北市萬華區廣州街１２４號,121.5016,25.03654,(02)23062975,羅氏家用新冠病毒抗原自我檢測套組,78,2022/04/28 20:16:02,實名制快篩晚上八點開始
5901190668,聯慶大藥局,臺北市萬華區萬大路３０６號１樓,121.5003,25.02495,(02)23039850,羅氏家用新冠病毒抗原自我檢測套組,6,2022/04/28 20:16:02,無
5901193221,正盛藥局,臺北市萬華區中華路２段４３４－１號,121.5064,25.02708,(02)23050386,羅氏家用新冠病毒抗原自我檢測套組,37,2022/04/28 20:16:02,公費快篩晚上8點依現場後位順序發放
5901200105,建興藥局,臺北市文山區木柵路２段８１號１樓,121.561,24.98889,(02)29399993,羅氏家用新冠病毒抗原自我檢測套組,1,2022/04/28 20:16:02,無
5901200114,健群藥局,臺北市文山區景興路４１號,121.5448,24.99717,(02)29328898,羅氏家用新冠病毒抗原自我檢測套組,5,2022/04/28 20:16:02,無
5901200123,瑞安藥局,臺北市文山區溪口街６９－１號１樓,121.5393,24.99512,(02)29312888,羅氏家用新冠病毒抗原自我檢測套組,2,2022/04/28 20:16:02,早上8:30起服務星期日休息
5901200490,永明大藥局,臺北市文山區興隆路１段２９７號１樓,121.5449,24.99875,(02)29314428,羅氏家用新冠病毒抗原自我檢測套組,1,2022/04/28 20:16:02,無
5901202627,杏隆藥局,臺北市文山區羅斯福路５段２６１號,121.5395,25.00115,(02)29313151,羅氏家用新冠病毒抗原自我檢測套組,13,2022/04/28 20:16:02,快篩實名制採預約登記，至5／5已登記額滿。
5901202645,永源大藥局,臺北市文山區興隆路３段３０２號,121.5588,24.99312,(02)22396166,羅氏家用新冠病毒抗原自我檢測套組,76,2022/04/28 20:16:02,口罩販售時段:8AM開始發號碼牌，發完立即開賣，請勿拿了號碼牌離開，約八點半前會發完號碼牌
5901203482,健康家藥局,臺北市文山區興隆路２段１３３號１樓,121.5481,25.00011,(02)29330858,羅氏家用新冠病毒抗原自我檢測套組,1,2022/04/28 20:16:02,無
5902022829,弘興藥局,高雄市鼓山區鼓山三路４８－１１號,120.2757,22.65468,(07)5612677,羅氏家用新冠病毒抗原自我檢測套組,1,2022/04/28 20:16:02,春節期間看診時段請電洽藥局
5902022874,康爾喜藥局,高雄市鼓山區慶豐街５０號,120.2935,22.66647,(07)5222650,羅氏家用新冠病毒抗原自我檢測套組,6,2022/04/28 20:16:02,早上9點半後開始販售口罩，營業時間為早上9:10至晚間10:00
5902022972,高雄藥局,高雄市鼓山區九如四路９２４號,120.2793,22.65466,(07)5214266,羅氏家用新冠病毒抗原自我檢測套組,5,2022/04/28 20:16:02,賣口罩時間為週一～週六晚上6點，售完為止
5902032432,威林藥局,高雄市左營區華夏路７２１號,120.3023,22.67845,(07)3414243,羅氏家用新冠病毒抗原自我檢測套組,3,2022/04/28 20:16:02,營業時間販售口罩（售完為止），星期一~五早上9:00~晚上9:00，星期六早上09:00~下午5:00執業
5902032530,杏光藥局,高雄市左營區果峰街４７巷１號１樓,120.2869,22.6703,(07)5837060,羅氏家用新冠病毒抗原自我檢測套組,7,2022/04/28 20:16:02,上午營業時間為9 :00~12:00；晚上營業至21:30
5902042661,元春中西藥師藥局,高雄市楠梓區後昌路８３７巷３７號,120.294,22.71109,(07)3605656,羅氏家用新冠病毒抗原自我檢測套組,1,2022/04/28 20:16:02,早上.9:00為口罩領取時間售完為止星期日休息
5902050350,日星藥局,高雄市三民區寶龍里惠德街３８號,120.3241,22.64741,(07)3845188,羅氏家用新冠病毒抗原自我檢測套組,1,2022/04/28 20:16:02,銷售口罩時間:星期一至五16:00-22:00；星期六09:00-11:30，售完為止
5902050636,嘉益藥局,高雄市三民區重慶街３０號,120.302,22.64223,(07)3110157,羅氏家用新冠病毒抗原自我檢測套組,1,2022/04/28 20:16:02,無
5902050798,友泰藥局,高雄市三民區中和街１６９號,120.2868,22.6388,(07)3125236,羅氏家用新冠病毒抗原自我檢測套組,42,2022/04/28 20:16:02,無
5902051786,億生藥局,高雄市三民區南台路２００號,120.2982,22.63706,(07)2873436,羅氏家用新冠病毒抗原自我檢測套組,1,2022/04/28 20:16:02,「藥局販售口罩時間，依藥局門口公告時間為主（售完為止）」
5902056754,大家藥局,高雄市三民區鼎中路２２９號１樓,120.3191,22.66421,(07)3107632,羅氏家用新冠病毒抗原自我檢測套組,1,2022/04/28 20:16:02,營業日08:30-12:00，15:30-21:00為販賣口罩時間.售完為止
5902060025,連作藥局,高雄市新興區大同一路２０３－１號,120.3003,22.62856,(07)2154716,羅氏家用新冠病毒抗原自我檢測套組,13,2022/04/28 20:16:02,快篩試紙領用時間為每日下午2點  4／29日起，28日已售完
5902061899,元盛藥局,高雄市新興區六合路１５３號,120.3149,22.63186,(07)2228183,羅氏家用新冠病毒抗原自我檢測套組,2,2022/04/28 20:16:02,無
5902080474,弘宗藥局,高雄市苓雅區武智街２號,120.3356,22.62303,(07)7211088,羅氏家用新冠病毒抗原自我檢測套組,2,2022/04/28 20:16:02,8:00~22:00（營業時段）
5902081328,東信藥局,高雄市苓雅區三多一路１８９號,120.3313,22.62258,(07)7613309,羅氏家用新冠病毒抗原自我檢測套組,1,2022/04/28 20:16:02,早上8:30開始發送號碼牌販售口罩，售完為止，假日正常販售
5902092956,慈濟健保藥局,高雄市前鎮區鎮州路２１１號,120.3082,22.58819,(07)8159788,羅氏家用新冠病毒抗原自我檢測套組,2,2022/04/28 20:16:02,每天早上8點開始賣.售完為止藥局販售口罩時間，依藥局門口公告時間為主（售完為止）
5903030012,康好藥局,臺中市大甲區三民路１３２－２號,120.622,24.34851,(04)26802149,羅氏家用新冠病毒抗原自我檢測套組,78,2022/04/28 20:16:02,每天早上8-12點.下午14:30至售完為止.星期四不銷售. 星期日只銷售前日剩餘口罩
5903030156,盈盈藥局,臺中市大甲區文武路１８號,120.626,24.34582,(04)26804212,羅氏家用新冠病毒抗原自我檢測套組,2,2022/04/28 20:16:02,08:30~21:30
5903070105,后里藥局,臺中市后里區文明路１３３號１樓,120.7164,24.30682,(04)25590119,羅氏家用新冠病毒抗原自我檢測套組,48,2022/04/28 20:16:02,20:00 才開始賣 實名制快篩
5903190077,八醫健保藥局,臺中市太平區中山路２段３５７號,120.7297,24.15021,(04)23935050,羅氏家用新冠病毒抗原自我檢測套組,1,2022/04/28 20:16:02,公發篩檢試劑時間0830開始，售完為止（1人1次限購1份）
5903200176,聖康藥局,臺中市大里區立仁路７９號１樓,120.7036,24.1078,(04)22700625,羅氏家用新冠病毒抗原自我檢測套組,1,2022/04/28 20:16:02,無
5903220196,日安藥局,臺中市中區臺灣大道一段３３０號１樓,120.6801,24.1422,(04)22234246,羅氏家用新冠病毒抗原自我檢測套組,78,2022/04/28 20:16:02,無
5903250443,千美台安藥局,臺中市南區美村南路２６３號,120.6666,24.11426,(04)22602101,羅氏家用新冠病毒抗原自我檢測套組,10,2022/04/28 20:16:02,周一到周日，下午3:00發放號碼牌，開始販售防疫口罩
5903260627,明曜藥局,臺中市北區北平路二段１９０號１樓,120.6784,24.17117,(04)22916775,羅氏家用新冠病毒抗原自我檢測套組,3,2022/04/28 20:16:02,無
5903270865,尚禾藥局,臺中市西屯區青海路一段６５號,120.6548,24.16438,(04)23147688,羅氏家用新冠病毒抗原自我檢測套組,38,2022/04/28 20:16:02,無
5903271031,美十樂中科藥局,臺中市西屯區西屯路三段１６６－６５號１樓,120.6129,24.19035,(04)24610219,羅氏家用新冠病毒抗原自我檢測套組,78,2022/04/28 20:16:02,固定周一至周日10:00開始販售口罩
5903280101,成記大藥局,臺中市南屯區大墩１７街１２３號１樓,120.648,24.15557,(04)23288877,羅氏家用新冠病毒抗原自我檢測套組,1,2022/04/28 20:16:02,實名制快篩下午一點開始販售
5903280165,南屯福倫藥局,臺中市南屯區南屯路２段３１７號,120.6456,24.13754,(04)24758018,羅氏家用新冠病毒抗原自我檢測套組,3,2022/04/28 20:16:02,無
5903280781,美十樂藥局,臺中市南屯區東興路二段２７９號１樓,120.6528,24.1437,(04)24710219,羅氏家用新冠病毒抗原自我檢測套組,2,2022/04/28 20:16:02,持健保卡現領，共200份成人，20份兒童。發完為止
5903280889,精科藥局,臺中市南屯區嶺東路３２１號１樓,120.6106,24.14513,(04)23806288,羅氏家用新冠病毒抗原自我檢測套組,1,2022/04/28 20:16:02,快篩發放～早上9：30-10：30   下午4：30-5：30
5903280914,豐樹藥局,臺中市南屯區黎明路一段６３號１樓,120.6258,24.11362,(04)24792098,羅氏家用新冠病毒抗原自我檢測套組,28,2022/04/28 20:16:02,販售快篩時間 早上9:00～10：00   晚上8：00~9:00
5903290830,齊方藥局,臺中市北屯區四平路３９號,120.6708,24.17885,(04)22912192,羅氏家用新冠病毒抗原自我檢測套組,1,2022/04/28 20:16:02,剩餘數量1是早上當機還未更正不用再打電話感謝您。快篩9點開賣。
5903290983,祥和藥局,臺中市北屯區太原路三段１４７號１樓,120.6901,24.16507,(04)22369603,羅氏家用新冠病毒抗原自我檢測套組,4,2022/04/28 20:16:02,快篩販售4／30後：下午2點開始
5903291159,均福藥局,臺中市北屯區軍福十三路１００號１樓,120.7308,24.17096,(04)24391169,羅氏家用新冠病毒抗原自我檢測套組,2,2022/04/28 20:16:02,無
5905060125,美麗安藥局,臺南市新化區護國里中山路１５０－１號１樓,120.3102,23.03714,(06)5909509,羅氏家用新冠病毒抗原自我檢測套組,16,2022/04/28 20:16:02,固定周一至周六早上8點發放號碼牌，並依序販賣口罩
5905100035,華恩藥局,臺南市後壁區菁寮里５１號１樓,120.3356,23.37883,(06)6623491,羅氏家用新冠病毒抗原自我檢測套組,234,2022/04/28 20:16:02,星期一到六上午8:00-12:00，下午2:30-7:30，星期日8:00-12:00；口罩發售時間自08:30-11:30，下午2:30-07:00
5905100062,美尚藥局後壁店,臺南市後壁區後壁里１６８－８號,120.364,23.36509,(06)6871138,羅氏家用新冠病毒抗原自我檢測套組,155,2022/04/28 20:16:02,星期天早上視狀況營
5905311010,樂丞藥局,臺南市永康區中正北路６０號１樓,120.2406,23.04138,(06)2433319,羅氏家用新冠病毒抗原自我檢測套組,3,2022/04/28 20:16:02,口罩販售時間：星期一~星期日 10:00-售完
5905311172,美日新藥局,臺南市永康區塩行里中正北路６２號１樓,120.2406,23.04138,(06)2420980,羅氏家用新冠病毒抗原自我檢測套組,9,2022/04/28 20:16:02,無
5905320608,中華台安藥局,臺南市東區中華東路一段４號１樓,120.2344,22.99818,(06)2092622,羅氏家用新冠病毒抗原自我檢測套組,3,2022/04/28 20:16:02,固定週一至周日13點-20點販售口罩，售完為止，現場為主
5905340262,瑞城藥局,臺南市中西區赤嵌里忠義路二段１７６號１樓,120.2043,22.99649,(06)2215810,羅氏家用新冠病毒抗原自我檢測套組,78,2022/04/28 20:16:02,無
5905350311,美康藥局,臺南市北區公園路３７５－５號,120.2102,23.00597,(06)2810311,羅氏家用新冠病毒抗原自我檢測套組,3,2022/04/28 20:16:02,快篩實名制販賣時間上午9:00~11:00
5905370073,宜康藥局同安店,臺南市安南區同安路２３５號１樓,120.1921,23.0425,(06)2470720,羅氏家用新冠病毒抗原自我檢測套組,5,2022/04/28 20:16:02,星期一~星期日08:10~23:00
5905370180,安南啄木鳥藥局,臺南市安南區安和路一段１０７號,120.2143,23.02826,(06)2821265,羅氏家用新冠病毒抗原自我檢測套組,3,2022/04/28 20:16:02,口罩代售時間自早上9:30---售完為止
5905370322,鳳凰平光中西藥局,臺南市安南區鳳凰里安中路一段７００巷２７號１樓,120.1967,23.04319,(06)2565635,羅氏家用新冠病毒抗原自我檢測套組,9,2022/04/28 20:16:02,除夕 傍晚以後休息
5905380293,人仁藥局,臺南市安平區怡平里慶平路２８１號１樓,120.1763,22.99668,(06)2998667,羅氏家用新冠病毒抗原自我檢測套組,2,2022/04/28 20:16:02,快篩每日下午2點開賣
5905380300,新高橋藥局台南永華店,臺南市安平區華平路２７９號１樓,120.1748,22.99031,(06)2992362,羅氏家用新冠病毒抗原自我檢測套組,1,2022/04/28 20:16:02,無
5907011399,佑家藥師藥局,高雄市鳳山區新強里新富路２８８號１樓,120.3418,22.61265,(07)7673298,羅氏家用新冠病毒抗原自我檢測套組,1,2022/04/28 20:16:02,無
5907030090,睛好活力藥局,高雄市旗山區湄洲里中山路１２７號,120.482,22.88873,(07)6625119,羅氏家用新冠病毒抗原自我檢測套組,1,2022/04/28 20:16:02,無
5907030134,旗山啄木鳥藥局,高雄市旗山區中華路１０５０號,120.4828,22.87904,(07)6625728,羅氏家用新冠病毒抗原自我檢測套組,3,2022/04/28 20:16:02,發口罩時間:09:00-19:00
5907030152,旗山藥局,高雄市旗山區中華路２３號,120.4841,22.88027,(07)6621158,羅氏家用新冠病毒抗原自我檢測套組,19,2022/04/28 20:16:02,快篩實名制，每天16:00開始販售，售完為止。
5907040023,大佳藥局,高雄市美濃區獅山里中華路５９－７號,120.5704,22.87774,(07)6852988,羅氏家用新冠病毒抗原自我檢測套組,1,2022/04/28 20:16:02,營業日 08:30 - 20:00 為口罩販售時間。
5907060221,淑德健保藥局,高雄市大寮區內坑里淑德新村１號３樓,120.3707,22.58833,(07)7923556,羅氏家用新冠病毒抗原自我檢測套組,40,2022/04/28 20:16:02,無
5907070030,久堂藥局,高雄市大樹區久堂里久堂路１３６號１樓,120.4178,22.65813,(07)6512800,羅氏家用新冠病毒抗原自我檢測套組,1,2022/04/28 20:16:02,快篩實名制，每天16:00開始販售，售完為止。
5907110093,順和藥局,高雄市橋頭區仕豐路５號,120.3087,22.75144,(07)6118688,羅氏家用新冠病毒抗原自我檢測套組,62,2022/04/28 20:16:02,自2／11日~2／29日，營業日07:00開始販賣口罩，賣完為止
5907240014,博林健保藥局,高雄市內門區觀亭里中正路１６０巷５１號,120.4539,22.9232,(07)6671883,羅氏家用新冠病毒抗原自我檢測套組,23,2022/04/28 20:16:02,自2／11日~2／29日，營業日07:40~18:00為販賣口罩時間，售完為止
5907290238,聯合藥師藥局,高雄市鼓山區中華一路９７０號１樓,120.2919,22.65515,(07)5500558,羅氏家用新冠病毒抗原自我檢測套組,3,2022/04/28 20:16:02,無
5907290327,金好藥局,高雄市鼓山區青海路４１８號１樓,120.2845,22.65177,(07)5869556,羅氏家用新冠病毒抗原自我檢測套組,1,2022/04/28 20:16:02,無
5907290354,文昇藥局,高雄市鼓山區慶豐街１２５號,120.2942,22.66724,(07)5525314,羅氏家用新冠病毒抗原自我檢測套組,4,2022/04/28 20:16:02,無
5907300211,勁好健保藥局,高雄市左營區果峰街１２巷２６號１樓,120.2881,22.67178,(07)5855767,羅氏家用新冠病毒抗原自我檢測套組,1,2022/04/28 20:16:02,無
5907300882,得孚社區藥局,高雄市左營區重立路５３３號１樓,120.3098,22.67955,(07)3410121,羅氏家用新冠病毒抗原自我檢測套組,57,2022/04/28 20:16:02,營業日上午09:30-11:30為販賣口罩時間.售完為止
5907301012,新高橋藥局華夏店,高雄市左營區華夏路１１１０號,120.3085,22.68343,(07)3410915,羅氏家用新冠病毒抗原自我檢測套組,9,2022/04/28 20:16:02,無
5907310388,宸實藥局,高雄市楠梓區後昌路４７巷２３－１號,120.3129,22.71975,(07)3642142,羅氏家用新冠病毒抗原自我檢測套組,2,2022/04/28 20:16:02,每日8:30開始發放號碼牌（當日有效），一次限領一張，當日20:00前皆可購買。
5907310468,黃藥局,高雄市楠梓區建楠路１８６號１樓,120.3261,22.72716,(07)3515700,羅氏家用新冠病毒抗原自我檢測套組,4,2022/04/28 20:16:02,無
5907320768,心樂保健藥局,高雄市三民區光裕路７８號１樓,120.3331,22.63789,(07)3855377,羅氏家用新冠病毒抗原自我檢測套組,3,2022/04/28 20:16:02,星期一到星期四上午8:30-12:00，下午15:00-18:00（口罩售完為止）. 星期五下午14:00-17:00，18:00-20:30（售完為止）
5907320848,仕康健保藥妝藥局,高雄市三民區建興路２２２號,120.325,22.6447,(07)3845050,羅氏家用新冠病毒抗原自我檢測套組,1,2022/04/28 20:16:02,營業至10點.口罩兌換至21:30
5907320982,康圓藥局,高雄市三民區大豐二路３５９．３６１號１樓,120.3343,22.6468,(07)3909978,羅氏家用新冠病毒抗原自我檢測套組,9,2022/04/28 20:16:02,無
5907321069,桂林活力藥局九如店,高雄市三民區懷安街１１２號１樓,120.3176,22.64095,(07)3981009,羅氏家用新冠病毒抗原自我檢測套組,3,2022/04/28 20:16:02,無
5907321078,振源藥局,高雄市三民區熱河一街３５５號１樓,120.3061,22.64365,(07)3112541,羅氏家用新冠病毒抗原自我檢測套組,11,2022/04/28 20:16:02,營業時間08:30-22:30，六日有營業，全年無休
5907350220,仁愛藥師藥局,高雄市苓雅區中正一路２３０號,120.3296,22.62921,(07)7222300,羅氏家用新冠病毒抗原自我檢測套組,1,2022/04/28 20:16:02,無
5907350319,御康藥局,高雄市苓雅區光華一路３５號,120.3172,22.61918,(07)3313535,羅氏家用新冠病毒抗原自我檢測套組,1,2022/04/28 20:16:02,快篩實名制，星期一到六下午1:00開始販售，現場排隊，售完為止
5907350328,安杏藥局,高雄市苓雅區四維二路９４－１７號,120.3197,22.62273,(07)7511739,羅氏家用新冠病毒抗原自我檢測套組,1,2022/04/28 20:16:02,快篩試劑代售時間自早上9:00點服務
5907350480,健森藥局,高雄市苓雅區林森二路１３８號１、２樓,120.3066,22.62054,(07)3365169,羅氏家用新冠病毒抗原自我檢測套組,1,2022/04/28 20:16:02,早上9點領牌 下午3~5點領口罩
5907350533,健群藥局,高雄市苓雅區安業路４０號,120.3231,22.62731,(07)7150097,羅氏家用新冠病毒抗原自我檢測套組,1,2022/04/28 20:16:02,無
5907350560,成功合豐藥局,高雄市苓雅區成功一路１７０號１樓,120.2972,22.61595,(07)2695657,羅氏家用新冠病毒抗原自我檢測套組,5,2022/04/28 20:16:02,早上9點開始賣口罩~晚上9點   售完為止
5907350659,北京藥局林泉店,高雄市苓雅區林泉里３鄰林泉街３５號１樓,120.3192,22.62323,(07)7263030,羅氏家用新冠病毒抗原自我檢測套組,78,2022/04/28 20:16:02,無
5907360191,欣欣藥局,高雄市前鎮區翠亨北路５７９號,120.3129,22.59226,(07)8124862,羅氏家用新冠病毒抗原自我檢測套組,18,2022/04/28 20:16:02,實名制快篩販售:周一到週六上午8點至12點，周日休息。
5907360324,有承中西藥局,高雄市前鎮區德昌路２５７號１樓,120.3155,22.5849,(07)8120880,羅氏家用新冠病毒抗原自我檢測套組,2,2022/04/28 20:16:02,政府實名制快篩販售 09:00開始
5907360628,風鈴藥局,高雄市前鎮區管仲路３７號,120.3117,22.60649,(07)5367833,羅氏家用新冠病毒抗原自我檢測套組,4,2022/04/28 20:16:02,販售口罩時間：14:00-16:00（周日公休）
5907380184,桂林活力藥師藥局孔鳳店,高雄市小港區孔鳳路５６１號１樓,120.3586,22.58393,(07)7912331,羅氏家用新冠病毒抗原自我檢測套組,2,2022/04/28 20:16:02,無
5907380353,桂林活力藥師藥局漢民店,高雄市小港區漢民路６９１－１及６９１－２號１樓,120.3614,22.56762,(07)8010636,羅氏家用新冠病毒抗原自我檢測套組,5,2022/04/28 20:16:02,無
5911011469,維元社區藥局,基隆市中正區新豐街４４８號,121.7859,25.13568,(02)24601388,羅氏家用新冠病毒抗原自我檢測套組,1,2022/04/28 20:16:02,營業時間:早上8:30-晚上10:30
5911011610,躍獅大藥局,基隆市中正區義二路３５號,121.7453,25.1312,(02)24286960,羅氏家用新冠病毒抗原自我檢測套組,78,2022/04/28 20:16:02,營業時間11時-20時假日公休
5911041618,永樂藥局,基隆市仁愛區忠二路２２號,121.7401,25.13013,(02)24214878,羅氏家用新冠病毒抗原自我檢測套組,11,2022/04/28 20:16:02,無
5911041958,百福仁愛專業藥局,基隆市仁愛區仁四路５０號１樓,121.7413,25.12829,(02)24266699,羅氏家用新冠病毒抗原自我檢測套組,7,2022/04/28 20:16:02,無
5911051507,百福安一藥局,基隆市中山區安一路８１號,121.7358,25.1314,(02)24258068,羅氏家用新冠病毒抗原自我檢測套組,2,2022/04/28 20:16:02,每天下午兩點現場代售防疫口罩，售完為止
5911070011,信安藥局,基隆市信義區信二路９９號,121.7548,25.12912,(02)24238551,羅氏家用新冠病毒抗原自我檢測套組,1,2022/04/28 20:16:02,無
5911071483,蘋果藥局,基隆市信義區東明路９７號,121.7614,25.12757,(02)24685158,羅氏家用新冠病毒抗原自我檢測套組,2,2022/04/28 20:16:02,無
5912013207,明湖健保藥局,新竹市東區明湖路３９８號,120.9675,24.78555,(03)5191788,羅氏家用新冠病毒抗原自我檢測套組,16,2022/04/28 20:16:02,無
5912040491,全禾藥局,新竹市北區潛園里集和街２５號,120.9616,24.80483,(03)5249173,羅氏家用新冠病毒抗原自我檢測套組,2,2022/04/28 20:16:02,早上9點半至12點，下午3點至9點
5912042520,盛安藥局,新竹市北區育英里３鄰中山路２８１號,120.9603,24.8012,(03)5225668,羅氏家用新冠病毒抗原自我檢測套組,11,2022/04/28 20:16:02,12:40開始販售快篩劑
5912042986,仁佑藥局,新竹市北區南寮里西濱路一段５００號１樓,120.9342,24.8422,(03)5363818,羅氏家用新冠病毒抗原自我檢測套組,13,2022/04/28 20:16:02,無
5917011945,正三吉藥局,臺中市中區臺灣大道一段９５號,120.6831,24.13911,(04)22207700,羅氏家用新冠病毒抗原自我檢測套組,4,2022/04/28 20:16:02,快篩販售時間 14:00~17:00
5917030860,振聲藥局,臺中市西區公正里向上路１段４４７號１樓,120.6541,24.14654,(04)24721100,羅氏家用新冠病毒抗原自我檢測套組,1,2022/04/28 20:16:02,週一至週六早上9:00開始販售口罩，售完為止
5917062353,典安大藥局,臺中市西屯區西屯路３段１５９－６０號,120.6177,24.18807,(04)24616571,羅氏家用新冠病毒抗原自我檢測套組,2,2022/04/28 20:16:02,每天9:30發100份成人.10份兒童口罩   18:30發100份成人.10份兒童口罩
5917063332,新利賀專業藥局,臺中市西屯區河南路２段２９５號,120.6472,24.17334,(04)24525052,羅氏家用新冠病毒抗原自我檢測套組,1,2022/04/28 20:16:02,每週日休診.快篩採領號碼牌預收健保卡.
5917070677,康得美專業藥局,臺中市南屯區忠勇路１２之２６號,120.6119,24.13555,(04)23801185,羅氏家用新冠病毒抗原自我檢測套組,3,2022/04/28 20:16:02,無
5917071727,大愛藥局,臺中市南屯區向心南路９６２．９６４號１樓,120.644,24.13718,(04)24733646,羅氏家用新冠病毒抗原自我檢測套組,35,2022/04/28 20:16:02,每日上午08:30直接發放200份，每星期一公休一天!如還有口罩庫存繼續發放
5917072251,五六藥局,臺中市南屯區南屯路２段２４０號,120.6493,24.13696,(04)24757156,羅氏家用新冠病毒抗原自我檢測套組,1,2022/04/28 20:16:02,週一 到 週六，早上 9 : 30 開始販售， 售完為止. （不發號碼牌）
5917080744,早安藥局,臺中市北屯區崇德二路一段１９９號１樓,120.693,24.17641,(04)22439411,羅氏家用新冠病毒抗原自我檢測套組,2,2022/04/28 20:16:02,3月起周一至周六18:00開始販售口罩，週日全天休息
5917080762,順泰大藥局,臺中市北屯區北屯村北屯路１１５號,120.6939,24.165,(04)22341477,羅氏家用新冠病毒抗原自我檢測套組,33,2022/04/28 20:16:02,周三及周日公休，其餘時間每日上午9:00開賣，不需發號碼牌
5917083101,北屯德康藥局,臺中市北屯區四平路４６９號１樓,120.681,24.19161,(04)24223378,羅氏家用新冠病毒抗原自我檢測套組,2,2022/04/28 20:16:02,每天早上9點30分發售口罩；前往領藥前先電話洽詢
5917083334,瑞東大藥局,臺中市北屯區東山路一段２４６之３號,120.7179,24.17542,(04)24373799,羅氏家用新冠病毒抗原自我檢測套組,2,2022/04/28 20:16:02,一~五9:00~14:00、15:00~22:00；六日 9:00~14:00、15:00~18:00
5921010705,華興藥局,臺南市東區崇善路５６２號,120.2302,22.97076,(06)2683757,羅氏家用新冠病毒抗原自我檢測套組,2,2022/04/28 20:16:02,星期日 休假  111／4／29 111／4／30  早上10點開始
5921012094,王瑞敏藥師藥局,臺南市東區崇德路７３９號,120.2277,22.96801,(06)2896888,羅氏家用新冠病毒抗原自我檢測套組,1,2022/04/28 20:16:02,無
5921020185,安心藥局,臺南市南區喜東里喜樹路１５１巷３３號,120.18,22.94099,(06)2622570,羅氏家用新冠病毒抗原自我檢測套組,46,2022/04/28 20:16:02,快篩服務時間 星期一至星期五 上午8時至10時
5921020194,鹽埕藥局,臺南市南區白雪里鹽埕路６８號,120.1869,22.96696,(06)2651961,羅氏家用新冠病毒抗原自我檢測套組,1,2022/04/28 20:16:02,口罩時間星期一~六 08:00–售完
5921040392,宏吉藥局,臺南市北區大港里大興街２２４號,120.1879,23.01085,(06)2589692,羅氏家用新冠病毒抗原自我檢測套組,9,2022/04/28 20:16:02,無
5921060198,平光藥局,臺南市安南區安中路１段８２２號,120.1947,23.0437,(06)2459641,羅氏家用新冠病毒抗原自我檢測套組,1,2022/04/28 20:16:02,無
5921061757,宏恩藥局,臺南市安南區長溪路１段５２號,120.2118,23.03457,(06)2474513,羅氏家用新冠病毒抗原自我檢測套組,6,2022/04/28 20:16:02,無
5922012285,聖安藥局,嘉義市東區仁武里民權路３６５號１樓,120.4506,23.48235,(05)2222941,羅氏家用新冠病毒抗原自我檢測套組,78,2022/04/28 20:16:02,每日8:30開始發放口罩，每週四休息.
5922020509,全德藥局,嘉義市西區福民里興業西路２８９號,120.4392,23.46776,(05)2854263,羅氏家用新冠病毒抗原自我檢測套組,7,2022/04/28 20:16:02,營業時間請電話洽詢，口罩販售：19點~21點
5922028596,一安藥局,嘉義市西區福民里興業西路３１１號,120.4387,23.4677,(05)2859275,羅氏家用新冠病毒抗原自我檢測套組,1,2022/04/28 20:16:02,周一至周日早上9點至晚上10點半依發放號碼排依序售完
5931010315,優良藥局,新北市板橋區莊敬路９３號,121.4727,25.02628,(02)22550251,羅氏家用新冠病毒抗原自我檢測套組,8,2022/04/28 20:16:02,無
5931010342,宏達大藥局,新北市板橋區莒光路１７號,121.47,25.02478,(02)22572345,羅氏家用新冠病毒抗原自我檢測套組,17,2022/04/28 20:16:02,快篩 晚上20:00開始販售! 不要打電話來 問題這麼多就到現場 也不給你問
5931011045,進發大藥局,新北市板橋區民治街１０１號,121.479,25.0315,(02)22528361,羅氏家用新冠病毒抗原自我檢測套組,25,2022/04/28 20:16:02,快篩17:30 販售謝謝
5931012051,全曜藥局,新北市板橋區民權路２６０巷６２號,121.4603,25.01495,(02)29682681,羅氏家用新冠病毒抗原自我檢測套組,32,2022/04/28 20:16:02,實聯快篩 19:30開始販賣 （星期日休）
5931012060,溪北藥局,新北市板橋區溪北路７８號１樓,121.4281,24.98953,(02)26866528,羅氏家用新冠病毒抗原自我檢測套組,3,2022/04/28 20:16:02,口罩販售時段:早上8點至售完為止
5931014439,旭全藥局,新北市板橋區金門街３３１號,121.4294,24.98582,(02)26860526,羅氏家用新冠病毒抗原自我檢測套組,3,2022/04/28 20:16:02,星期1~6上午9:30~10:30 星期天上午9:30~下午5:00
5931014537,友虹藥師藥局,新北市板橋區國光路１６號,121.457,25.01739,(02)29691181,羅氏家用新冠病毒抗原自我檢測套組,78,2022/04/28 20:16:02,無
5931015187,皇慶藥局,新北市板橋區南門街８１、８３號１、２樓及館前西路１１２巷７號,121.4568,25.0077,(02)29655351,羅氏家用新冠病毒抗原自我檢測套組,1,2022/04/28 20:16:02,現場排隊／號碼牌發放防疫口罩時間自09:00
5931015972,德豐健保藥局,新北市板橋區四川路２段４７巷３弄１號１樓,121.4543,24.99479,(02)89675880,羅氏家用新冠病毒抗原自我檢測套組,2,2022/04/28 20:16:02,無
5931016540,新海藥局,新北市板橋區新海路１２２號１、２樓,121.4612,25.02292,(02)22500190,羅氏家用新冠病毒抗原自我檢測套組,78,2022/04/28 20:16:02,營業時間:9:00~23:00
5931016611,民川藥局,新北市板橋區四川路１段９７號１樓,121.4598,25.00544,(02)29520090,羅氏家用新冠病毒抗原自我檢測套組,1,2022/04/28 20:16:02,星期一~星期六（早上9:00販售快篩38份下午3:00販售40份）
5931017396,美康四維藥局,新北市板橋區四維路１２２號１樓,121.4654,25.02499,(02)22506616,羅氏家用新冠病毒抗原自我檢測套組,2,2022/04/28 20:16:02,上午九點開始發 成人200份 兒童20份 發完為止
5931017529,埔全藥局,新北市板橋區忠孝路３３號（１樓）,121.4608,25.00206,(02)29567309,羅氏家用新冠病毒抗原自我檢測套組,1,2022/04/28 20:16:02,實名快篩 早上10點39份／晚上7點39份 賣完為止
5931017547,好爸爸藥局,新北市板橋區民治街１０７號１樓,121.4788,25.03138,(02)22559955,羅氏家用新冠病毒抗原自我檢測套組,1,2022/04/28 20:16:02,無
5931017770,光環藥局,新北市板橋區光環路２段１６號１樓,121.4822,25.01476,(02)89520920,羅氏家用新冠病毒抗原自我檢測套組,3,2022/04/28 20:16:02,無
5931017814,順儷新板藥局,新北市板橋區漢生東路１８７號１樓,121.4698,25.01181,(02)29512590,羅氏家用新冠病毒抗原自我檢測套組,1,2022/04/28 20:16:02,無
5931017976,豐禾藥局,新北市板橋區中山路１段２７９號１樓,121.4696,25.0142,(02)89516666,羅氏家用新冠病毒抗原自我檢測套組,2,2022/04/28 20:16:02,無
5931018106,力安藥局,新北市板橋區莒光路１９６巷８號（１樓）,121.4738,25.02255,(02)22503349,羅氏家用新冠病毒抗原自我檢測套組,2,2022/04/28 20:16:02,快篩實名制，早上9點依現場順序開始販售快篩，售完為止。
5931020400,新迪化中西藥局,新北市三重區三陽路２７號１樓,121.4855,25.05893,(02)29884755,羅氏家用新冠病毒抗原自我檢測套組,2,2022/04/28 20:16:02,無
5931023830,忠信藥局,新北市三重區仁興街３２號,121.4991,25.07552,(02)29762963,羅氏家用新冠病毒抗原自我檢測套組,2,2022/04/28 20:16:02,無
5931024515,陳藥局,新北市三重區三民街７７號,121.4858,25.06293,(02)29848601,羅氏家用新冠病毒抗原自我檢測套組,49,2022/04/28 20:16:02,實名快篩購買時間周一到五晚上7:30~9:00，週六下午4:00~5:30
5931025290,康新藥局,新北市三重區正義北路１８５號２樓,121.4964,25.06783,(02)29865982,羅氏家用新冠病毒抗原自我檢測套組,2,2022/04/28 20:16:02,實名制代售時段：下午2點到4點。請自備零錢，恕不找零。.
5931025432,利民藥局,新北市三重區自強路１段１７１號、１７３號１樓及２樓,121.4974,25.06685,(02)29852826,羅氏家用新冠病毒抗原自我檢測套組,12,2022/04/28 20:16:02,實名制快篩1030發號碼牌+收費／1500憑號碼牌領快篩
5931025567,閎安藥局,新北市三重區重新路２段８５號１樓、２樓,121.4962,25.06181,(02)29881968,羅氏家用新冠病毒抗原自我檢測套組,2,2022/04/28 20:16:02,每日皆執行調劑業務，口罩代售時間每日下午兩點開始至晚間十點
5931025692,杏一三重集成藥局,新北市三重區集成路４３號１樓,121.4893,25.05271,(02)29743410,羅氏家用新冠病毒抗原自我檢測套組,10,2022/04/28 20:16:02,每日下午三點販售口罩
5931025781,芯慈藥局,新北市三重區永安北路２段１０５號１樓,121.4831,25.08392,(02)28570670,羅氏家用新冠病毒抗原自我檢測套組,1,2022/04/28 20:16:02,國定假日有提供藥劑服務
5931025950,美康三和藥局,新北市三重區三和路４段３２２號１、２樓,121.4841,25.07795,(02)22866858,羅氏家用新冠病毒抗原自我檢測套組,78,2022/04/28 20:16:02,無
5931033523,永奕藥局,新北市永和區永平路２８６之１號１樓,121.5077,25.01208,(02)22327709,羅氏家用新冠病毒抗原自我檢測套組,3,2022/04/28 20:16:02,無
5931034057,佑全永和中山藥局,新北市永和區中山路１段２２７、２２９、２３１號１樓,121.508,25.00776,(02)22331546,羅氏家用新冠病毒抗原自我檢測套組,2,2022/04/28 20:16:02,無
5931034173,橘子藥局,新北市永和區仁愛路２９８號１樓,121.5035,25.00809,(02)32330390,羅氏家用新冠病毒抗原自我檢測套組,1,2022/04/28 20:16:02,無
5931043109,育新藥局,新北市中和區中安街４０巷６號,121.5127,25.00305,(02)29283479,羅氏家用新冠病毒抗原自我檢測套組,78,2022/04/28 20:16:02,週一、二、三、五、六早上八點開始販售，售完為止（四、日無販賣）
5931043921,良安藥局,新北市中和區連城路４７７巷１號１樓,121.4833,24.99555,(02)22225798,羅氏家用新冠病毒抗原自我檢測套組,78,2022/04/28 20:16:02,週六日不開店
5931044704,惠民藥局,新北市中和區中興街１５３號１樓,121.5001,24.99102,(02)22475303,羅氏家用新冠病毒抗原自我檢測套組,2,2022/04/28 20:16:02,口罩於8:40發放號碼牌，並同時開始領取。
5931051585,益生大藥局,新北市新店區建國路１３２號,121.5391,24.97885,(02)29177961,羅氏家用新冠病毒抗原自我檢測套組,3,2022/04/28 20:16:02,每日12點左右排隊领取口罩，沒有號碼牌
5931052484,大河藥局,新北市新店區三民路１４０號１樓,121.5351,24.97502,(02)29140910,羅氏家用新冠病毒抗原自我檢測套組,6,2022/04/28 20:16:02,週一至週六下午2點開始發購實名制快篩試劑。限1人1卡購買1份。週日不發購。4／28全數售罄，勿再詢問。
5931053196,康心藥局,新北市新店區北新路３段１０４號１樓,121.5419,24.9812,(02)86655858,羅氏家用新冠病毒抗原自我檢測套組,6,2022/04/28 20:16:02,無
5931053285,北新212藥局,新北市新店區北新路３段２１２號（２樓）,121.5413,24.98429,(02)29183212,羅氏家用新冠病毒抗原自我檢測套組,72,2022/04/28 20:16:02,無
5931060262,明生藥局,新北市新莊區福樂街１３號,121.4578,25.04504,(02)29913260,羅氏家用新冠病毒抗原自我檢測套組,4,2022/04/28 20:16:02,無
5931060431,武田藥局,新北市新莊區化成路２１２號,121.4657,25.0465,(02)29944029,羅氏家用新冠病毒抗原自我檢測套組,1,2022/04/28 20:16:02,無
5931060824,禮安藥師藥局,新北市新莊區自立街１０９號１樓,121.4555,25.0455,(02)29942891,羅氏家用新冠病毒抗原自我檢測套組,2,2022/04/28 20:16:02,無
5931068508,凱盛藥局,新北市新莊區光榮里西盛街１９９號,121.4282,25.01706,(02)22024914,羅氏家用新冠病毒抗原自我檢測套組,4,2022/04/28 20:16:02,無
5931068819,東京大藥局,新北市新莊區民安路１７６號１樓,121.4251,25.02392,(02)22063806,羅氏家用新冠病毒抗原自我檢測套組,2,2022/04/28 20:16:02,口罩代售時間為9:30開始現場排隊販售
5931069372,羽豐藥局,新北市新莊區新莊路３８２號１樓,121.4491,25.03355,(02)22029812,羅氏家用新冠病毒抗原自我檢測套組,78,2022/04/28 20:16:02,不用過卡的醫療口罩整天有，過健保卡口罩限每早9:30至11:40
593106A155,日榮藥局,新北市新莊區龍安路４６１號１樓,121.4248,25.0186,(02)22051523,羅氏家用新冠病毒抗原自我檢測套組,7,2022/04/28 20:16:02,無
593106A511,明仁健保藥局,新北市新莊區民安西路１９５號１樓,121.4261,25.0151,(02)22085175,羅氏家用新冠病毒抗原自我檢測套組,2,2022/04/28 20:16:02,15:00-18:00販售口罩
593106A637,薇妮藥妝藥局,新北市新莊區民安路９９號１樓,121.4245,25.02524,(02)82010817,羅氏家用新冠病毒抗原自我檢測套組,6,2022/04/28 20:16:02,早上9:00到晚上23:00購買口罩
593106A726,良和健保藥局,新北市新莊區龍安路４９號１樓,121.4158,25.02151,(02)29048157,羅氏家用新冠病毒抗原自我檢測套組,35,2022/04/28 20:16:02,口罩：早上9點發號碼牌，星期六休息不代售口罩
593106A922,德翰藥局,新北市新莊區四維路１７１巷１、３號１樓,121.4226,25.0215,(02)22025576,羅氏家用新冠病毒抗原自我檢測套組,2,2022/04/28 20:16:02,無
593106A995,美德心藥局,新北市新莊區中平路３６７號１樓,121.4446,25.05226,(02)29989025,羅氏家用新冠病毒抗原自我檢測套組,2,2022/04/28 20:16:02,無
593106B072,小林健保藥局,新北市新莊區昌明街３８之１號１樓,121.4565,25.05237,(02)29911764,羅氏家用新冠病毒抗原自我檢測套組,1,2022/04/28 20:16:02,無
593106B081,平安藥局,新北市新莊區民安西路６０號２樓,121.4273,25.02037,(02)22082368,羅氏家用新冠病毒抗原自我檢測套組,31,2022/04/28 20:16:02,無
593106B205,藥師佛藥局,新北市新莊區中正路８８１之４號１樓,121.4175,25.02544,(02)29016625,羅氏家用新冠病毒抗原自我檢測套組,78,2022/04/28 20:16:02,無
593106B296,廣元藥局,新北市新莊區雙鳳路２號（１樓）,121.4175,25.02688,(02)29044948,羅氏家用新冠病毒抗原自我檢測套組,1,2022/04/28 20:16:02,無
593106B303,新莊丁丁藥局,新北市新莊區民安西路２３７號１樓,121.4261,25.01398,(02)22022388,羅氏家用新冠病毒抗原自我檢測套組,1,2022/04/28 20:16:02,無
593106B330,和昌藥局,新北市新莊區中安街１５號１樓,121.4531,25.04585,(02)29900669,羅氏家用新冠病毒抗原自我檢測套組,78,2022/04/28 20:16:02,無
5931070099,日弘藥師藥局,新北市樹林區復興路２９號,121.4223,24.9941,(02)26871919,羅氏家用新冠病毒抗原自我檢測套組,4,2022/04/28 20:16:02,早08:45 發放號碼牌
5931072244,彰安藥局,新北市樹林區千歲街８２號,121.4264,24.99772,(02)26827341,羅氏家用新冠病毒抗原自我檢測套組,2,2022/04/28 20:16:02,無
5931072511,信和藥局,新北市樹林區博愛街１７８號２樓,121.4257,24.99061,(02)26821991,羅氏家用新冠病毒抗原自我檢測套組,72,2022/04/28 20:16:02,4／28 8pm 開始販售
5931081216,嘉泰藥師藥局,新北市鶯歌區鶯桃路２段３１號１樓,121.3254,24.97248,(02)26709668,羅氏家用新冠病毒抗原自我檢測套組,57,2022/04/28 20:16:02,星期日公休
5931081396,祐康藥局,新北市鶯歌區建國路３６號,121.356,24.95596,(02)26771223,羅氏家用新冠病毒抗原自我檢測套組,78,2022/04/28 20:16:02,無
5931081403,純安大藥局,新北市鶯歌區國慶街１７９號１樓,121.3514,24.9527,(02)26791791,羅氏家用新冠病毒抗原自我檢測套組,78,2022/04/28 20:16:02,快篩代售時間:20:00販售。星期日不銷售
5931081458,食在好健康藥局,新北市鶯歌區國慶街１６５號１樓,121.3512,24.95312,(02)26702559,羅氏家用新冠病毒抗原自我檢測套組,47,2022/04/28 20:16:02,無
5931081494,康群藥局,新北市鶯歌區建國路２０２號１樓,121.3494,24.95357,(02)26796690,羅氏家用新冠病毒抗原自我檢測套組,78,2022/04/28 20:16:02,*星期五休診不發放口罩，其餘上班日上午九點開始發放*現場排隊
5931081547,信義健保藥局,新北市鶯歌區信義街６３號１樓,121.3534,24.95571,(02)86775563,羅氏家用新冠病毒抗原自我檢測套組,6,2022/04/28 20:16:02,無
5931091865,大新藥局,新北市三峽區大義路２５９號１樓,121.3774,24.94638,(02)86713204,羅氏家用新冠病毒抗原自我檢測套組,2,2022/04/28 20:16:02,無
5931092200,金美藥局,新北市三峽區大同路２３８號１樓,121.3663,24.92573,(02)86715859,羅氏家用新冠病毒抗原自我檢測套組,78,2022/04/28 20:16:02,無
5931092219,北大藥局,新北市三峽區大義路９號１樓,121.3788,24.94372,(02)26738535,羅氏家用新冠病毒抗原自我檢測套組,39,2022/04/28 20:16:02,快篩發放時段下午1點-2點 晚上9:30-11:00
5931100154,尚運藥局,新北市淡水區學府路５１巷１弄２０號,121.4473,25.16892,(02)26225149,羅氏家用新冠病毒抗原自我檢測套組,28,2022/04/28 20:16:02,無
5931100163,昇運藥局,新北市淡水區中山路１５７－１號,121.4405,25.17287,(02)26222083,羅氏家用新冠病毒抗原自我檢測套組,2,2022/04/28 20:16:02,無
5931101937,文川藥局,新北市淡水區中山北路１段９３號１樓,121.4423,25.17631,(02)86319033,羅氏家用新冠病毒抗原自我檢測套組,9,2022/04/28 20:16:02,販售防疫口罩時間8:30-12:00，15:00-18:00，18:30-21:30
5931102434,西雅圖聯合藥局,新北市淡水區新市一路３段１０１巷１６弄２０號１樓,121.4471,25.18403,(02)26200910,羅氏家用新冠病毒抗原自我檢測套組,1,2022/04/28 20:16:02,無
5931111844,福恩藥師大藥局,新北市汐止區福德二路１７１之１號１樓,121.6307,25.06506,(02)26940835,羅氏家用新冠病毒抗原自我檢測套組,69,2022/04/28 20:16:02,無
5931112083,裕和藥局,新北市汐止區宜興街４號１樓,121.6211,25.04126,(02)26609119,羅氏家用新冠病毒抗原自我檢測套組,75,2022/04/28 20:16:02,早上9.30-晚上9.00領實名制口罩時間
5931113142,林美藥局,新北市汐止區康寧街４６５號１樓,121.6318,25.06839,(02)26935696,羅氏家用新冠病毒抗原自我檢測套組,4,2022/04/28 20:16:02,無
5931120049,本平藥局,新北市瑞芳區瑞芳街４５號,121.8076,25.10913,(02)24972167,羅氏家用新冠病毒抗原自我檢測套組,10,2022/04/28 20:16:02,無
5931121279,大埔藥局,新北市瑞芳區大埔路１２８－３號１樓,121.762,25.10079,(02)24587020,羅氏家用新冠病毒抗原自我檢測套組,49,2022/04/28 20:16:02,無
5931132245,萬昌健保藥局,新北市土城區中央路４段１６０號,121.417,24.95827,(02)22678057,羅氏家用新冠病毒抗原自我檢測套組,11,2022/04/28 20:16:02,3月2日起周一至周五15:00發號碼牌及販賣口罩  周六 10:00直接販售
5931132343,誠安藥局,新北市土城區中央路４段３６號１樓,121.4207,24.96088,(02)22677737,羅氏家用新冠病毒抗原自我檢測套組,71,2022/04/28 20:16:02,執業時段請電洽藥局
5931132389,凱一藥局,新北市土城區裕民路９２巷２１弄８號１樓,121.4501,24.98629,(02)22707679,羅氏家用新冠病毒抗原自我檢測套組,78,2022/04/28 20:16:02,服務時間10:00~21:00，每週二休息
5931133331,城安大藥局,新北市土城區金城路３段４０號,121.4656,24.98639,(02)22646561,羅氏家用新冠病毒抗原自我檢測套組,26,2022/04/28 20:16:02,無
5931141726,松展多利日式連鎖藥粧藥局,新北市蘆洲區民族路１６１號,121.4793,25.08817,(02)22882586,羅氏家用新冠病毒抗原自我檢測套組,24,2022/04/28 20:16:02,防疫物資每日下午02:00開始販售40組 下午8:30販售餘額
5931142296,蓁美健康藥局,新北市蘆洲區九芎街９０巷２１號,121.4647,25.08116,(02)22827527,羅氏家用新冠病毒抗原自我檢測套組,2,2022/04/28 20:16:02,上午10點至晚上10點銷售口罩
5931143284,宥安藥局,新北市蘆洲區長榮路３８１號２樓,121.4592,25.08947,(02)22823556,羅氏家用新冠病毒抗原自我檢測套組,1,2022/04/28 20:16:02,無
5931143328,全家藥粧藥局,新北市蘆洲區光華路４號１樓,121.4699,25.08364,(02)22811215,羅氏家用新冠病毒抗原自我檢測套組,1,2022/04/28 20:16:02,無
5931143364,光禾藥局,新北市蘆洲區民權路１２２號１樓,121.4734,25.08868,(02)28480050,羅氏家用新冠病毒抗原自我檢測套組,3,2022/04/28 20:16:02,無
5931151277,永任藥局,新北市五股區水碓路９號１樓,121.4336,25.07236,(02)22911093,羅氏家用新冠病毒抗原自我檢測套組,1,2022/04/28 20:16:02,快篩實名制 每天早上8:30 開賣
5931151302,宏安藥局,新北市五股區成泰路２段１３６號,121.4382,25.08369,(02)22915932,羅氏家用新冠病毒抗原自我檢測套組,4,2022/04/28 20:16:02,口罩販售時間:每日08:15~23:00售完為止 星期日如果前一日還有庫存，當日照常販售
5931151599,闔安藥局,新北市五股區成德里成泰路３段５７９號１樓,121.4522,25.10267,(02)22921143,羅氏家用新冠病毒抗原自我檢測套組,65,2022/04/28 20:16:02,無
5931151679,東興藥局,新北市五股區成泰路２段６９號２樓,121.4389,25.08635,(02)82922718,羅氏家用新冠病毒抗原自我檢測套組,3,2022/04/28 20:16:02,無
5931160132,健康藥師藥局,新北市泰山區明志路２段３２３號,121.4264,25.046,(02)22972121,羅氏家用新冠病毒抗原自我檢測套組,11,2022/04/28 20:16:02,9:00發放號碼牌，當日22:00前持號碼牌領口罩。周日公休
5931161620,華特藥局,新北市泰山區明志路１段２６０號１樓,121.4321,25.06052,(02)29095662,羅氏家用新冠病毒抗原自我檢測套組,16,2022/04/28 20:16:02,實名制晚上7:00開始販售 每日限60組，另18組供給確診居家個案緊急使用
5931171582,綠園藥局,新北市林口區仁愛路２段１０５號１樓,121.3843,25.07507,(02)86012258,羅氏家用新冠病毒抗原自我檢測套組,4,2022/04/28 20:16:02,上午8:30-12:00、下午2:30-18:00、晚上18:00-21:30
5931171680,一家好藥局,新北市林口區中山路５００號,121.3794,25.08303,(02)26028270,羅氏家用新冠病毒抗原自我檢測套組,31,2022/04/28 20:16:02,無
5931190514,碇康藥局,新北市石碇區潭邊里石崁２４－１號,121.658,24.99424,(02)26634229,羅氏家用新冠病毒抗原自我檢測套組,156,2022/04/28 20:16:02,無
5931211045,三芝藥師藥局,新北市三芝區中正路１段４３號１樓,121.5032,25.25816,(02)86353982,羅氏家用新冠病毒抗原自我檢測套組,234,2022/04/28 20:16:02,無
5931250015,松南藥局,新北市雙溪區中華路２９號,121.8658,25.03728,(02)24931085,羅氏家用新冠病毒抗原自我檢測套組,234,2022/04/28 20:16:02,週一至週五營業至晚上21點.週六至20點週日至12點
5931250042,信芳藥局,新北市雙溪區中華路５０號,121.866,25.03761,(02)24931301,羅氏家用新冠病毒抗原自我檢測套組,234,2022/04/28 20:16:02,無
5931270026,仁又堂藥局,新北市金山區信義路１７號,121.6373,25.22091,(02)24982468,羅氏家用新冠病毒抗原自我檢測套組,234,2022/04/28 20:16:02,無
5931270044,金宏仁藥局,新北市金山區中山路１９０巷２號,121.6382,25.22174,(02)24982402,羅氏家用新冠病毒抗原自我檢測套組,234,2022/04/28 20:16:02,無
5931280013,萬里藥局,新北市萬里區瑪鍊路９０號,121.6837,25.18504,(02)24922235,羅氏家用新冠病毒抗原自我檢測套組,234,2022/04/28 20:16:02,無
5931281074,北海岸藥局,新北市萬里區瑪鍊路９８號,121.6906,25.17868,(02)24922022,羅氏家用新冠病毒抗原自我檢測套組,234,2022/04/28 20:16:02,6／25.26.27早上8:00-12:00拿藥，下午休診
5932010328,七加恩聯合藥局,桃園市桃園區中埔二街１２３號１樓,121.2959,25.01191,(03)3029302,羅氏家用新冠病毒抗原自我檢測套組,11,2022/04/28 20:16:02,1-5 8:15 發號碼牌  W6 8:45  庫存量不等於實際量
5932011147,維格藥局,桃園市桃園區大興西路二段１２９號,121.2974,25.01048,(03)3016639,羅氏家用新冠病毒抗原自我檢測套組,1,2022/04/28 20:16:02,營業時間:8:30-12:00、14:00-22:00
5932011370,家福聯合藥局,桃園市桃園區中山路６２３號,121.2939,24.99093,(03)2289492,羅氏家用新冠病毒抗原自我檢測套組,6,2022/04/28 20:16:02,無
5932012359,長鴻藥師藥局,桃園市桃園區中興里永安路２７７之５號,121.3018,24.99898,(03)3324728,羅氏家用新冠病毒抗原自我檢測套組,1,2022/04/28 20:16:02,快篩實名制 銷售時間 9:00~22:30
5932012591,迦南藥局,桃園市桃園區國聖一街６１號１樓之１,121.2885,24.98721,(03)3609938,羅氏家用新冠病毒抗原自我檢測套組,4,2022/04/28 20:16:02,無
5932013007,南門藥局,桃園市桃園區南華街５３號,121.3083,24.99047,(03)3335395,羅氏家用新冠病毒抗原自我檢測套組,7,2022/04/28 20:16:02,口罩放賣時段：上午09：00起至售完為止
5932013338,合豐藥局,桃園市桃園區中山東路８２號,121.3176,24.99664,(03)3394007,羅氏家用新冠病毒抗原自我檢測套組,1,2022/04/28 20:16:02,口罩販售時間：週一至週日
5932013918,益壽藥局,桃園市桃園區中山路８２８、８３０、８３２、８３４、８３６號,121.2902,24.99093,(03)3693100,羅氏家用新冠病毒抗原自我檢測套組,1,2022/04/28 20:16:02,快篩實名制，每天16:00開始販售，售完為止。
5932014031,大廟藥局,桃園市桃園區中山路１５８號１樓,121.3091,24.99342,(03)3337006,羅氏家用新冠病毒抗原自我檢測套組,3,2022/04/28 20:16:02,無
5932014120,尚禾藥局,桃園市桃園區大業路１段２９２號１樓,121.3148,25.00932,(03)3256998,羅氏家用新冠病毒抗原自我檢測套組,4,2022/04/28 20:16:02,無
5932014148,躍獅興業藥局,桃園市桃園區大業路２段１５號１樓,121.3112,25.01628,(03)3163569,羅氏家用新冠病毒抗原自我檢測套組,1,2022/04/28 20:16:02,08:30-21:30
5932014175,東門大藥局,桃園市桃園區春日路７５號,121.3169,24.99305,(03)3378919,羅氏家用新冠病毒抗原自我檢測套組,1,2022/04/28 20:16:02,無
5932014291,躍獅民生藥局,桃園市桃園區民生路２２８號１樓,121.313,24.99472,(03)3362359,羅氏家用新冠病毒抗原自我檢測套組,5,2022/04/28 20:16:02,下午1點開始販售，會發號碼牌
5932014326,闔新藥局,桃園市桃園區中正路５７６號１樓,121.3054,25.00388,(03)3317279,羅氏家用新冠病毒抗原自我檢測套組,1,2022/04/28 20:16:02,營業時間:9:00-21:00
5932014399,澄心藥局,桃園市桃園區桃鶯路３０５號１樓,121.3193,24.98265,(03)3771468,羅氏家用新冠病毒抗原自我檢測套組,5,2022/04/28 20:16:02,營業時間:8:00-22:00
5932014433,樺品藥局,桃園市桃園區中華路４８號１樓,121.3104,24.99093,(03)3476667,羅氏家用新冠病毒抗原自我檢測套組,1,2022/04/28 20:16:02,營業時間:9:30-21:30，取號碼牌購買快篩試劑
5932014442,新光藥局,桃園市桃園區大有路１７２號,121.3209,25.00752,(03)3310133,羅氏家用新冠病毒抗原自我檢測套組,5,2022/04/28 20:16:02,營業時間:10:00-22:00
5932018593,品一藥局,桃園市桃園區建新街７６號,121.3118,24.98261,(03)3638510,羅氏家用新冠病毒抗原自我檢測套組,1,2022/04/28 20:16:02,快篩每天早上9：30販賣，會發號碼牌
5932018940,均安藥局,桃園市桃園區寶山街６１號,121.3172,25.01231,(03)3581695,羅氏家用新冠病毒抗原自我檢測套組,39,2022/04/28 20:16:02,防疫口罩上午9:00-12:00下午3:00-6:00
5932019143,弘光藥師藥局,桃園市桃園區國際路一段１１３５號,121.2891,24.98774,(03)2170167,羅氏家用新冠病毒抗原自我檢測套組,9,2022/04/28 20:16:02,無
5932020360,日進藥局,桃園市中壢區中山東路二段１５６號,121.2394,24.95276,(03)4569132,羅氏家用新冠病毒抗原自我檢測套組,1,2022/04/28 20:16:02,營業時間:早上08:30至晚上09:30（周日下午休息）
5932020502,禾安藥局,桃園市中壢區福德路５２號１F,121.2587,24.97445,(03)4627066,羅氏家用新冠病毒抗原自我檢測套組,1,2022/04/28 20:16:02,無
5932021090,新生藥師藥局,桃園市中壢區民權路５２號,121.2172,24.95608,(03)4919796,羅氏家用新冠病毒抗原自我檢測套組,8,2022/04/28 20:16:02,口罩販賣時段：08:30
5932021812,慧中健保藥局,桃園市中壢區成章二街１４１號１樓,121.2568,24.98025,(03)4556129,羅氏家用新冠病毒抗原自我檢測套組,10,2022/04/28 20:16:02,無
5932022971,得群藥局,桃園市中壢區自強六路４２號,121.2479,24.97409,(03)4535953,羅氏家用新冠病毒抗原自我檢測套組,1,2022/04/28 20:16:02,口罩販賣時段: 售完為止
5932023058,福澤健行藥局,桃園市中壢區健行路１３９號,121.2275,24.94943,(03)4681988,羅氏家用新冠病毒抗原自我檢測套組,9,2022/04/28 20:16:02,家用快篩販賣時段15:30至售完為止
5932023307,晟康健保藥局,桃園市中壢區永光里環北路４號１樓桃園市中壢區民權路二段３４號,121.225,24.96565,(03)4950218,羅氏家用新冠病毒抗原自我檢測套組,8,2022/04/28 20:16:02,無
5932023647,樂謙藥師藥局,桃園市中壢區龍東路１３４號,121.2522,24.92929,(03)4662775,羅氏家用新冠病毒抗原自我檢測套組,76,2022/04/28 20:16:02,實名快篩每日早上8點發放號碼牌 下午1點取貨
5932023727,大崙大藥局,桃園市中壢區內厝里中正路４段１１３號,121.1798,24.98888,(03)4983597,羅氏家用新冠病毒抗原自我檢測套組,2,2022/04/28 20:16:02,營業時間皆可買口罩
5932023987,薰衣草藥局,桃園市中壢區新生路３３５號１樓,121.2231,24.96495,(03)4253330,羅氏家用新冠病毒抗原自我檢測套組,2,2022/04/28 20:16:02,無
5932024091,大和藥局,桃園市中壢區元化路２段６６號,121.2212,24.9627,(03)4260298,羅氏家用新冠病毒抗原自我檢測套組,4,2022/04/28 20:16:02,無
5932024180,小瓢蟲藥局,桃園市中壢區正大街２５號１樓,121.2047,24.95836,(03)4020967,羅氏家用新冠病毒抗原自我檢測套組,6,2022/04/28 20:16:02,營業時間：上午0830-1200，下午1400-1730，晚上1800-2130
5932024279,中壢環東藥局,桃園市中壢區中山東路２段１９３號,121.2404,24.95171,(03)4562345,羅氏家用新冠病毒抗原自我檢測套組,2,2022/04/28 20:16:02,快篩實名制，每天16:00開始販售，售完為止。
593202A244,澤仁藥局,桃園市中壢區中正路２６３號,121.2193,24.95495,(03)4252254,羅氏家用新冠病毒抗原自我檢測套組,13,2022/04/28 20:16:02,口罩販賣時段：早上8:00-17:00
593202A931,佳佑藥局,桃園市中壢區環中東路二四一號,121.2573,24.96345,(03)4356190,羅氏家用新冠病毒抗原自我檢測套組,2,2022/04/28 20:16:02,口罩販賣時段：09:00以後發號碼牌，售完為止
593202B054,幸福藥局,桃園市中壢區中光路３號,121.2255,24.95742,(03)4223092,羅氏家用新冠病毒抗原自我檢測套組,78,2022/04/28 20:16:02,口罩販賣時段：六日一三8:30~售完為止 ／二五14:30~售完為止／四10:00~售完為止
593202B296,慧康藥局,桃園市中壢區中北路二段１０１號１樓,121.2255,24.95122,(03)2840064,羅氏家用新冠病毒抗原自我檢測套組,1,2022/04/28 20:16:02,口罩販賣時段:16:00
593202B438,祐達藥局,桃園市中壢區民族路二九八號,121.2083,24.9574,(03)4015995,羅氏家用新冠病毒抗原自我檢測套組,3,2022/04/28 20:16:02,無
5932030160,永耘藥局,桃園市大溪區介壽路６４號,121.2946,24.92239,(03)3804770,羅氏家用新冠病毒抗原自我檢測套組,3,2022/04/28 20:16:02,口罩販賣時段: 週一至週六早上8:00~中午12:00 止
5932031890,福生藥局,桃園市大溪區民權東路１０３號１樓,121.2919,24.88209,(03)3873533,羅氏家用新冠病毒抗原自我檢測套組,3,2022/04/28 20:16:02,無
5932031907,福澤大溪藥局,桃園市大溪區復興路１０５號１樓,121.2911,24.87917,(03)3884886,羅氏家用新冠病毒抗原自我檢測套組,1,2022/04/28 20:16:02,家用快篩販賣時段15:30至售完為止
5932040246,龍泰藥局,桃園市楊梅區民族路五段１４７巷２號,121.1736,24.9586,(03)4901525,羅氏家用新冠病毒抗原自我檢測套組,11,2022/04/28 20:16:02,口罩販售時間：08:00開賣至11:00
5932040308,弘大藥局,桃園市楊梅區大華街十三號,121.1452,24.9076,(03)4751858,羅氏家用新冠病毒抗原自我檢測套組,78,2022/04/28 20:16:02,口罩販售時間：週一至週六 08:00-16:00
5932042124,佑健藥師藥局,桃園市楊梅區中山北路二段一Ｏ八號一樓,121.1699,24.90855,(03)4315478,羅氏家用新冠病毒抗原自我檢測套組,3,2022/04/28 20:16:02,口罩販賣時段上午9點開始發放號碼牌， 售完為止
5932042320,家康藥師藥局,桃園市楊梅區文化街二三二之一號,121.1851,24.91622,(03)4810893,羅氏家用新冠病毒抗原自我檢測套組,3,2022/04/28 20:16:02,快篩販售時間：12:00-13:00
5932043130,宜康美藥局,桃園市楊梅區環東路４５２號,121.1571,24.91005,(03)4883805,羅氏家用新冠病毒抗原自我檢測套組,8,2022/04/28 20:16:02,口罩販賣時段：早上09:30~10:30（100份）下午15:30~16:30（50份）晚上19:30~20:30（50份）
5932043309,資生楊梅大藥局,桃園市楊梅區楊新路１００號,121.1449,24.91341,(03)2889590,羅氏家用新冠病毒抗原自我檢測套組,1,2022/04/28 20:16:02,每日快篩代售時間14:00-21:00
5932043336,楊梅藥局,桃園市楊梅區大成路１４８、１５０號,121.1458,24.91148,(03)4880776,羅氏家用新冠病毒抗原自我檢測套組,70,2022/04/28 20:16:02,快篩實名制，每天16:00開始販售，售完為止。
5932043381,楊梅丁丁藥局,桃園市楊梅區中山北路２段２２７號,121.1729,24.90958,(03)4815486,羅氏家用新冠病毒抗原自我檢測套組,60,2022/04/28 20:16:02,無
5932043390,元森藥局,桃園市楊梅區瑞溪路２段１２５號１樓,121.1806,24.90875,(03)4311058,羅氏家用新冠病毒抗原自我檢測套組,74,2022/04/28 20:16:02,無
5932043425,躍獅祥筠藥局,桃園市楊梅區萬大路１３５號,121.1786,24.90987,(03)4817458,羅氏家用新冠病毒抗原自我檢測套組,38,2022/04/28 20:16:02,無
5932050215,九德藥局,桃園市蘆竹區中山路６９號,121.3003,25.05242,(03)3116868,羅氏家用新冠病毒抗原自我檢測套組,9,2022/04/28 20:16:02,口罩販賣時段：AM09:00-PM10:00
5932051329,恆安藥局,桃園市蘆竹區忠孝西路２４號,121.2924,25.04425,(03)2120206,羅氏家用新冠病毒抗原自我檢測套組,6,2022/04/28 20:16:02,口罩販賣時段：下午16:00  晚上20:00
5932052808,柏霖藥局,桃園市蘆竹區中正路３５９號２樓,121.291,25.04902,(03)2120284,羅氏家用新冠病毒抗原自我檢測套組,1,2022/04/28 20:16:02,口罩販賣時段：現場排隊8:30-12:00.14:30-17:30.18:00-21:00.（周一至周六）.售完為止.星期日休息
5932052826,青新藥師藥局,桃園市蘆竹區南竹路五段２５１之１號,121.2597,25.0247,(03)3134328,羅氏家用新冠病毒抗原自我檢測套組,45,2022/04/28 20:16:02,無
5932052871,政興藥局,桃園市蘆竹區南昌路２５４號,121.2913,25.04012,(03)3215544,羅氏家用新冠病毒抗原自我檢測套組,1,2022/04/28 20:16:02,星期一~星期六AM8:30販售至售完
5932052933,天康南崁藥局,桃園市蘆竹區南崁路２４５號,121.2933,25.04894,(03)2122569,羅氏家用新冠病毒抗原自我檢測套組,2,2022/04/28 20:16:02,口罩販賣時段：週一至週日13:00起
5932053074,南崁丁丁藥局,桃園市蘆竹區南崁路１段５０號,121.2893,25.05126,(03)3115646,羅氏家用新冠病毒抗原自我檢測套組,2,2022/04/28 20:16:02,無
5932061003,保和大藥局,桃園市大園區大園里中山北路３６號,121.1972,25.06478,(03)3867448,羅氏家用新冠病毒抗原自我檢測套組,33,2022/04/28 20:16:02,口罩販賣時段：8:00~19:00皆可領取.售完為止
5932062215,快安藥師藥局,桃園市大園區新生北路４１號,121.1973,25.0676,(03)3856896,羅氏家用新冠病毒抗原自我檢測套組,2,2022/04/28 20:16:02,快篩試劑販賣時段:上午8:30起至售完為止；現場排隊
5932071009,德佑藥局,桃園市龜山區大崗里新興街２９３號,121.3558,25.04531,(03)3283556,羅氏家用新冠病毒抗原自我檢測套組,46,2022/04/28 20:16:02,口罩販賣時段為每日晚上07:30開始（星期日暫停販售）
5932076791,誠安生活藥局,桃園市龜山區文化七路７９之２號,121.3635,25.05166,(03)3271997,羅氏家用新冠病毒抗原自我檢測套組,9,2022/04/28 20:16:02,無
5932077118,文青藥局,桃園市龜山區文青路２０２號,121.3878,25.04034,(03)3270581,羅氏家用新冠病毒抗原自我檢測套組,1,2022/04/28 20:16:02,口罩販賣時段：上午10點到12點
5932077369,安博氏藥師藥局,桃園市龜山區文青路１８５號１樓,121.3877,25.04079,(03)3283185,羅氏家用新冠病毒抗原自我檢測套組,1,2022/04/28 20:16:02,快篩販售時間 早上11:00
5932077430,長庚藥局,桃園市龜山區文化三路８１巷２８號,121.3637,25.05847,(03)3181679,羅氏家用新冠病毒抗原自我檢測套組,1,2022/04/28 20:16:02,無
5932077510,左外野藥局,桃園市龜山區文光街６號１樓,121.3802,25.05471,(03)3271503,羅氏家用新冠病毒抗原自我檢測套組,27,2022/04/28 20:16:02,快篩販售時間:19:30-20:30 （週五公休）
5932077538,維康藥局,桃園市龜山區復興一路８８號１樓,121.3683,25.05946,(03)3283880,羅氏家用新冠病毒抗原自我檢測套組,78,2022/04/28 20:16:02,平日上午9點至晚上6點執業
5932077556,全球萬壽藥局,桃園市龜山區萬壽路２段９２７號,121.339,24.99539,(03)3591247,羅氏家用新冠病毒抗原自我檢測套組,2,2022/04/28 20:16:02,營業時間:9:00-22:00
5932077574,樂樂聯合藥局,桃園市龜山區萬壽路１段１０９號１、２樓,121.4091,25.01886,(02)82000560,羅氏家用新冠病毒抗原自我檢測套組,2,2022/04/28 20:16:02,無
5932077618,大山藥局,桃園市龜山區中興路１段１８、２２、２４號１樓,121.3379,24.99376,(03)3191057,羅氏家用新冠病毒抗原自我檢測套組,1,2022/04/28 20:16:02,無
5932077645,美康萬壽藥局,桃園市龜山區萬壽路１段３２５號１、２樓,121.4024,25.0169,(02)82000001,羅氏家用新冠病毒抗原自我檢測套組,8,2022/04/28 20:16:02,無
5932083303,吉康生活藥局,桃園市八德區義勇街１２０號,121.3045,24.96354,(03)3768577,羅氏家用新冠病毒抗原自我檢測套組,16,2022/04/28 20:16:02,無
5932083974,晨鴻藥師藥局,桃園市八德區桃鶯路７號１樓,121.3265,24.97179,(03)3764299,羅氏家用新冠病毒抗原自我檢測套組,31,2022/04/28 20:16:02,兒童口罩早上8:30領取號碼牌 一定發完 因為一天只有20個名額 ，請勿再打電話詢問 謝謝
5932084668,奕成健保大藥局,桃園市八德區興豐路６７３號１樓,121.2958,24.93121,(03)3732113,羅氏家用新冠病毒抗原自我檢測套組,39,2022/04/28 20:16:02,早上10:30發放39份、晚上9:30發放39份
5932084828,阿爾富山藥局,桃園市八德區桃鶯路４號１樓,121.3261,24.97167,(03)3763350,羅氏家用新冠病毒抗原自我檢測套組,2,2022/04/28 20:16:02,8:00-22:00
5932099383,龍星藥局,桃園市龍潭區中正路二八四號二樓,121.2175,24.86201,(03)4707390,羅氏家用新冠病毒抗原自我檢測套組,10,2022/04/28 20:16:02,上午8~11下午16~18晚上19~21，六、日9~12門診.口罩販賣
5932099516,１Ｏ１藥師聯合藥局,桃園市龍潭區中正路４４號,121.2144,24.86893,(03)4708593,羅氏家用新冠病毒抗原自我檢測套組,1,2022/04/28 20:16:02,口罩販賣時段：下午13:30 到 21:00點
5932099856,佳欣社區藥局,桃園市龍潭區中正路２６２號１樓,121.2173,24.86254,(03)4808717,羅氏家用新冠病毒抗原自我檢測套組,5,2022/04/28 20:16:02,無
5932099954,新資生龍潭中正大藥局,桃園市龍潭區中正路１４０—１號１樓,121.2212,24.85382,(03)3606180,羅氏家用新冠病毒抗原自我檢測套組,9,2022/04/28 20:16:02,全年無休
5932100210,福澤中豐藥局,桃園市平鎮區中豐路３４５號,121.2116,24.91034,(03)4283805,羅氏家用新冠病毒抗原自我檢測套組,2,2022/04/28 20:16:02,家用快篩販賣時段15:30至售完為止
5932100925,譽達藥局,桃園市平鎮區育達路２４０號１樓,121.2072,24.95155,(03)4922990,羅氏家用新冠病毒抗原自我檢測套組,3,2022/04/28 20:16:02,快篩星期一到六下午三點開始，星期日無配送快篩，現場領取，不提前拿號碼牌
5932101191,譽達文化藥局,桃園市平鎮區文化街８巷２號１樓,121.2027,24.95667,(03)4919660,羅氏家用新冠病毒抗原自我檢測套組,8,2022/04/28 20:16:02,無
5932101217,夢田藥局,桃園市平鎮區東光路１１３號１樓,121.2533,24.91609,(03)4601966,羅氏家用新冠病毒抗原自我檢測套組,6,2022/04/28 20:16:02,無
5932108430,建德藥局,桃園市平鎮區北勢里金陵路１０３號,121.2229,24.94747,(03)4686662,羅氏家用新冠病毒抗原自我檢測套組,63,2022/04/28 20:16:02,國定假日皆休診.口罩販售時段:上午9:30起至售完為止
5932109955,優達藥局,桃園市平鎮區廣明路六六號,121.2139,24.9538,(03)4943488,羅氏家用新冠病毒抗原自我檢測套組,2,2022/04/28 20:16:02,口罩販賣時段:8點成人兒童售完為止
593210A238,美樂蒂藥局,桃園市平鎮區民族路二三七號二樓,121.2091,24.95658,(03)4023131,羅氏家用新冠病毒抗原自我檢測套組,4,2022/04/28 20:16:02,無
5932120016,吉利藥師藥局,桃園市觀音區富源里新富路１７０５號,121.1326,24.99095,(03)4901701,羅氏家用新冠病毒抗原自我檢測套組,14,2022/04/28 20:16:02,口罩販賣時段：週一至週六早上7:30起，售完為止
5932120141,東尼藥局,桃園市觀音區觀音里中正路２２０號,121.0812,25.03472,(03)4734567,羅氏家用新冠病毒抗原自我檢測套組,3,2022/04/28 20:16:02,口罩販賣時段：週一至週日早上8點起
5933011196,高平堂藥局,新竹縣關西鎮正義路66號,121.1762,24.79269,(03)5872263,羅氏家用新冠病毒抗原自我檢測套組,3,2022/04/28 20:16:02,相關公告 請搜尋FB【高平堂藥局】
5933031723,日榮堂藥局,新竹縣竹東鎮長春路一段２８１號,121.0892,24.73607,(03)5962335,羅氏家用新冠病毒抗原自我檢測套組,14,2022/04/28 20:16:02,口罩代售：於8:30-12:30，14:30-18，19-20販售，售完為止。W1-W6營業至20:30、W7至12點。
5933052731,欣欣藥局,新竹縣竹北市成功八路１００號,121.0168,24.81817,(03)6676287,羅氏家用新冠病毒抗原自我檢測套組,39,2022/04/28 20:16:02,無
5933053461,合康連鎖藥局竹北二店,新竹縣竹北市福興東路一段３７３號,121.0259,24.81734,(03)6583777,羅氏家用新冠病毒抗原自我檢測套組,6,2022/04/28 20:16:02,8:30-12:00，14:00-17:00，18:00-22:00
5933053587,合康連鎖藥局竹北店,新竹縣竹北市博愛街３３５號,121.0081,24.83581,(03)5552288,羅氏家用新冠病毒抗原自我檢測套組,2,2022/04/28 20:16:02,8:30-14:00，16:00-22:30
5933053621,縣政丁丁藥局,新竹縣竹北市縣政二路５５８號,121.0188,24.8321,(03)5589176,羅氏家用新冠病毒抗原自我檢測套組,78,2022/04/28 20:16:02,9:00-22:00
5933080137,春安藥局,新竹縣新豐鄉重興村新庄路２５８號,120.9856,24.90331,(03)5591875,羅氏家用新冠病毒抗原自我檢測套組,29,2022/04/28 20:16:02,口罩販賣時段：星期一~六19:30-21:30 星期日08:00-11:00
5933081447,彰懷藥局,新竹縣新豐鄉新興路75號1樓,120.9926,24.86639,(03)5572995,羅氏家用新冠病毒抗原自我檢測套組,78,2022/04/28 20:16:02,星期一至星期五，早上九點現場購買至售完為止；星期六下午四點購買至售完為止；星期日公休
5934011958,栢心藥局,宜蘭縣宜蘭市宜興路１段１１１號,121.7561,24.7514,(03)9357277,羅氏家用新冠病毒抗原自我檢測套組,77,2022/04/28 20:16:02,週一~週六，下午14:30~16:30販售快篩試劑
5934012044,富康新民藥局,宜蘭縣宜蘭市新民路１１３號,121.7551,24.75717,(03)9366060,羅氏家用新冠病毒抗原自我檢測套組,20,2022/04/28 20:16:02,下午兩點開賣
5934012240,東成藥局,宜蘭縣宜蘭市東港路２段３０６號１樓,121.7643,24.75315,(03)9380353,羅氏家用新冠病毒抗原自我檢測套組,3,2022/04/28 20:16:02,實名制快篩9點開始
5934020279,博善藥局,宜蘭縣羅東鎮和平路６８號,121.772,24.67532,(03)9577811,羅氏家用新冠病毒抗原自我檢測套組,1,2022/04/28 20:16:02,（星期日4／3.4／17不營業）4／5早上營業
5934030015,南陽藥局,宜蘭縣蘇澳鎮中山路１段１２０號,121.8496,24.59608,(03)9965076,羅氏家用新冠病毒抗原自我檢測套組,32,2022/04/28 20:16:02,快篩販售時間分兩時段：1.早上10:30，2.20:00，售完為止
5934081067,威仁藥局,宜蘭縣冬山鄉冬山路２１９號,121.7907,24.63453,(03)9595351,羅氏家用新冠病毒抗原自我檢測套組,1,2022/04/28 20:16:02,無
5934091125,安心藥局,宜蘭縣五結鄉禮運路３８－１號,121.7768,24.68105,(03)9551670,羅氏家用新冠病毒抗原自我檢測套組,53,2022/04/28 20:16:02,無
5934120014,進昌健保藥局,宜蘭縣南澳鄉蘇花路２段３８３號,121.8039,24.46602,(03)9981011,羅氏家用新冠病毒抗原自我檢測套組,234,2022/04/28 20:16:02,無
5935011738,佳禾藥局,苗栗縣苗栗市青苗里建台街7號,120.821,24.55742,(037)373041,羅氏家用新冠病毒抗原自我檢測套組,78,2022/04/28 20:16:02,口罩7：30開始販賣，販賣時段：營業時間至售完為止
5935021458,沐安藥局,苗栗縣苑裡鎮客庄里信義路１－１０號１樓,120.653,24.43873,(037)868600,羅氏家用新冠病毒抗原自我檢測套組,5,2022/04/28 20:16:02,快篩早上8點發號碼牌。販售時間為早上10-12點、下午3-6點、晚上7-8點半。售完為止
5935042108,好康健保藥局,苗栗縣竹南鎮科專七路２１９號１樓,120.9025,24.70536,(037)680877,羅氏家用新冠病毒抗原自我檢測套組,4,2022/04/28 20:16:02,無
5935050164,辰安藥局,苗栗縣頭份市尖豐路３２號,120.8803,24.66364,(037)633632,羅氏家用新冠病毒抗原自我檢測套組,25,2022/04/28 20:16:02,無
5935051992,躍獅祐民藥局,苗栗縣頭份市信義路４５４號１樓,120.8958,24.69637,(037)669387,羅氏家用新冠病毒抗原自我檢測套組,8,2022/04/28 20:16:02,晚上7點開賣 憑號碼牌購買
5935071172,健安藥局,苗栗縣卓蘭鎮上新里上新七之１１號,120.8297,24.30834,(04)25899617,羅氏家用新冠病毒抗原自我檢測套組,2,2022/04/28 20:16:02,口罩販賣時段：營業時段早上7:30至售完
5935071216,萊恩藥局,苗栗縣卓蘭鎮上新里上新7之1號,120.83,24.30719,(04)25899369,羅氏家用新冠病毒抗原自我檢測套組,3,2022/04/28 20:16:02,口罩販賣時段：08:00-售完
5935071252,國良藥局,苗栗縣卓蘭鎮中山路１１１號１樓,120.8259,24.31214,(042)5899578,羅氏家用新冠病毒抗原自我檢測套組,1,2022/04/28 20:16:02,無
5935080055,臺健中西藥局,苗栗縣大湖鄉中正路１９號,120.869,24.42165,(037)990638,羅氏家用新冠病毒抗原自我檢測套組,234,2022/04/28 20:16:02,無
5935081169,景元藥局,苗栗縣大湖鄉中正路９７號,120.8664,24.42265,(037)996465,羅氏家用新冠病毒抗原自我檢測套組,234,2022/04/28 20:16:02,無
5935120027,裕祥藥局,苗栗縣頭屋鄉頭屋村尖豐路８５號,120.8522,24.57524,(037)253553,羅氏家用新冠病毒抗原自我檢測套組,16,2022/04/28 20:16:02,無
5936101893,新信和藥局,臺中市大雅區民興街５０號,120.6482,24.22531,(04)25603058,羅氏家用新冠病毒抗原自我檢測套組,62,2022/04/28 20:16:02,無
5936151393,辰采藥局,臺中市烏日區學田路５８８號,120.6073,24.12307,(04)23372207,羅氏家用新冠病毒抗原自我檢測套組,9,2022/04/28 20:16:02,試劑販售9:00~售完；12:00~14:00不售試劑
5936190416,同安藥局,臺中市太平區新平路三段８７號,120.7202,24.15065,(04)23918391,羅氏家用新冠病毒抗原自我檢測套組,2,2022/04/28 20:16:02,週一至五0900-2100，1300-1600休息、週六0900-1300，週日休息。
5936191851,佑昇藥局,臺中市太平區中平路１６號１樓,120.7207,24.13334,(04)22783697,羅氏家用新冠病毒抗原自我檢測套組,2,2022/04/28 20:16:02,無
5936192134,樹德大藥局,臺中市太平區樹德路１０２號１樓,120.7115,24.15386,(04)23981782,羅氏家用新冠病毒抗原自我檢測套組,2,2022/04/28 20:16:02,下午3點開始領號碼牌，分流領取，請勿依賴網站庫存
593620B138,聯生中西健保藥局,臺中市大里區現岱路１５８巷１１號,120.6919,24.10295,(04)24834058,羅氏家用新冠病毒抗原自我檢測套組,78,2022/04/28 20:16:02,早上八點半領號碼牌下午四點到六點領口罩W6W日早七點
5936211063,八醫健保藥局和平店,臺中市和平區東關路３段１３５號,120.8885,24.17379,(04)25941037,羅氏家用新冠病毒抗原自我檢測套組,150,2022/04/28 20:16:02,4／4 4／5 各公休一天
5937013605,大佳好藥局,彰化縣彰化市平和七街６號,120.5293,24.06697,(09)33520331,羅氏家用新冠病毒抗原自我檢測套組,6,2022/04/28 20:16:02,疫苗預約登記
5937031434,和美和田藥局,彰化縣和美鎮和線路５９號,120.4931,24.11421,(04)7560377,羅氏家用新冠病毒抗原自我檢測套組,1,2022/04/28 20:16:02,周一到周日，每日下午1:00發放號碼牌並開始販賣防疫口罩
5937031541,友誼藥局和美店,彰化縣和美鎮和東里仁化路１４７、１４９號,120.4964,24.11017,(04)7550866,羅氏家用新冠病毒抗原自我檢測套組,9,2022/04/28 20:16:02,早上9::00-10:00販賣，六日不發售。
5937031756,永元藥局,彰化縣和美鎮和線路９１號,120.4925,24.11452,(04)7550045,羅氏家用新冠病毒抗原自我檢測套組,67,2022/04/28 20:16:02,固定週一至週日中午11:30分起開始販賣口罩，每週四公休。
5937031783,和美啄木鳥藥局,彰化縣和美鎮德美路２７０號,120.502,24.11371,(04)7552924,羅氏家用新冠病毒抗原自我檢測套組,6,2022/04/28 20:16:02,無
5937041172,九和藥局,彰化縣北斗鎮西德里斗苑路一段２９０號,120.5211,23.87211,(04)8875039,羅氏家用新冠病毒抗原自我檢測套組,78,2022/04/28 20:16:02,無
5937050331,金鴻安大藥局,彰化縣員林市中正路３２３號,120.5733,23.95618,(04)8344210,羅氏家用新冠病毒抗原自我檢測套組,1,2022/04/28 20:16:02,早上7點至晚上10點，民眾可持健保卡買快篩
5937051981,康美藥局,彰化縣員林市南平里南平街２６號,120.5646,23.96301,(04)8395172,羅氏家用新冠病毒抗原自我檢測套組,7,2022/04/28 20:16:02,無
5937052059,華衛藥局,彰化縣員林市惠來里南昌路９６號,120.5719,23.95464,(04)8397503,羅氏家用新冠病毒抗原自我檢測套組,5,2022/04/28 20:16:02,無
5937052264,醫聯藥師藥局,彰化縣員林市三條里員東路二段４１０號１樓,120.5811,23.95898,(04)8360617,羅氏家用新冠病毒抗原自我檢測套組,8,2022/04/28 20:16:02,*固定星期一~日每日早上8:30分，開始販售。（全年無休）
5937052399,裕良藥局大同店,彰化縣員林市大同路二段２０３－１號,120.5746,23.96891,(04)8344612,羅氏家用新冠病毒抗原自我檢測套組,64,2022/04/28 20:16:02,週一至週六下午2點
5937052497,家家藥局,彰化縣員林市惠來街８７號,120.5704,23.95526,(04)8367007,羅氏家用新冠病毒抗原自我檢測套組,39,2022/04/28 20:16:02,無
5937070011,明輝藥局,彰化縣田中鎮東路里新生街８７號,120.5871,23.86112,(04)8740433,羅氏家用新冠病毒抗原自我檢測套組,2,2022/04/28 20:16:02,111年起 營業時間為周一到周六早上8:00開始到晚上9:00
5937071474,田中藥局,彰化縣田中鎮新生街１５０巷２號,120.5862,23.8621,(04)8761988,羅氏家用新冠病毒抗原自我檢測套組,1,2022/04/28 20:16:02,快篩實名制，每天16:00開始販售，售完為止。
5937081390,永全藥局,彰化縣二林鎮二溪路一段１８號,120.3696,23.90134,(04)8958878,羅氏家用新冠病毒抗原自我檢測套組,3,2022/04/28 20:16:02,週一到六上午8點半口罩開賣，不抽號碼；週日休息；
5937101146,伸港藥局,彰化縣伸港鄉新港村信義路１３５號,120.4859,24.14825,(04)7992663,羅氏家用新冠病毒抗原自我檢測套組,78,2022/04/28 20:16:02,04／29 開始實名制快篩更改為早上8點開始販售
5937121308,丁丁藥局秀水店,彰化縣秀水鄉彰水路一段２２號,120.5009,24.03537,(04)7686200,羅氏家用新冠病毒抗原自我檢測套組,2,2022/04/28 20:16:02,無
5937181279,佳恩藥局,彰化縣永靖鄉永西村瑚璉路３０２號,120.547,23.92421,(04)8235753,羅氏家用新冠病毒抗原自我檢測套組,3,2022/04/28 20:16:02,週一至週六早上9點販售口罩 週日公休
5937190107,張藥局,彰化縣社頭鄉社頭村清水岩路３６７號,120.5895,23.89967,(04)8734660,羅氏家用新冠病毒抗原自我檢測套組,1,2022/04/28 20:16:02,防疫期間營業至21:00，若解封視情況更改回21:30
5937211094,田尾藥局,彰化縣田尾鄉饒平村光復路２段６６９號,120.5313,23.89053,(04)8836725,羅氏家用新冠病毒抗原自我檢測套組,26,2022/04/28 20:16:02,無
5937221198,祐幼藥局,彰化縣埤頭鄉合興村彰水路3段496號,120.4594,23.89158,(04)8911910,羅氏家用新冠病毒抗原自我檢測套組,1,2022/04/28 20:16:02,每日8:30開始發放口罩，1200-1430， 1730-1800， 週日晚上休息
5937221241,堃泰中西藥局,彰化縣埤頭鄉斗苑西路２６７號,120.4591,23.89176,(04)8928798,羅氏家用新冠病毒抗原自我檢測套組,5,2022/04/28 20:16:02,無
5937251105,宏吉藥局,彰化縣竹塘鄉竹塘村仁愛街５０號,120.4271,23.86282,(04)8976709,羅氏家用新冠病毒抗原自我檢測套組,15,2022/04/28 20:16:02,周一到周六，7:50開始販賣防疫口罩（無發放號碼牌）
5938010108,宏嘉藥局,南投縣南投市崇文里彰南路一段１１１４號,120.6854,23.90663,(049)2228073,羅氏家用新冠病毒抗原自我檢測套組,4,2022/04/28 20:16:02,配合政府防疫政策.星期日不發口罩.星期一到六每天下午3點到6點發口罩
5938021683,埔里啄木鳥藥局,南投縣埔里鎮中山路三段４６７號,120.9537,23.96959,(049)2914510,羅氏家用新冠病毒抗原自我檢測套組,3,2022/04/28 20:16:02,4／28快篩已售完.庫存為早上當機時拿號碼牌的庫存
5938022117,埔里福倫健保藥局,南投縣埔里鎮中山路二段３６７號,120.9662,23.96385,(049)2999118,羅氏家用新冠病毒抗原自我檢測套組,2,2022/04/28 20:16:02,無
5938022180,久泰藥局,南投縣埔里鎮南興街３２４、３２６號,120.9634,23.96481,(049)2980968,羅氏家用新冠病毒抗原自我檢測套組,1,2022/04/28 20:16:02,無
5938030280,易生藥局,南投縣草屯鎮明正里芬草路一段１５３號,120.6816,23.98459,(049)2323350,羅氏家用新冠病毒抗原自我檢測套組,1,2022/04/28 20:16:02,每日10:00發放號碼牌及現場販售，售完為止
5938032515,草屯丁丁藥局,南投縣草屯鎮太平路二段１７９號,120.6831,23.97335,(049)2330058,羅氏家用新冠病毒抗原自我檢測套組,1,2022/04/28 20:16:02,無
5938040366,竹山藥局,南投縣竹山鎮中山里竹山路１５０之２號,120.6818,23.7539,(049)2644930,羅氏家用新冠病毒抗原自我檢測套組,1,2022/04/28 20:16:02,處方單調劑，口罩代售
5938041667,竹山啄木鳥藥局,南投縣竹山鎮集山路三段１０１１號,120.681,23.75509,(049)2655345,羅氏家用新冠病毒抗原自我檢測套組,5,2022/04/28 20:16:02,每日12:30-9:00販賣口罩（全年無休）
5938041729,早安藥局,南投縣竹山鎮雲林路４１號,120.6834,23.75608,(049)2651032,羅氏家用新冠病毒抗原自我檢測套組,8,2022/04/28 20:16:02,每日早上9:00-晚上9:00販賣口罩（全年無休每月最後六日休息）
5938041809,維淇藥師藥局,南投縣竹山鎮集山路三段８１６－１號,120.6863,23.75949,(049)2653689,羅氏家用新冠病毒抗原自我檢測套組,1,2022/04/28 20:16:02,早上8：30~晚上21：00，星期六下午晚上及星期日休息
5938061285,人德藥局,南投縣名間鄉南雅村員集路１３６號,120.7025,23.83565,(049)2739317,羅氏家用新冠病毒抗原自我檢測套組,1,2022/04/28 20:16:02,口罩代售時間上午11:00-12:00， 下午5:00-6:00， 星期六日及國定假日休息
5938070097,好康藥局,南投縣鹿谷鄉中正路二段６４號,120.7538,23.7458,(049)2753788,羅氏家用新冠病毒抗原自我檢測套組,234,2022/04/28 20:16:02,無
5938100018,佑全藥局,南投縣國姓鄉中興路１０３號,120.8572,24.04147,(049)2722998,羅氏家用新冠病毒抗原自我檢測套組,151,2022/04/28 20:16:02,每日約8:30發放號碼牌，9:00開始販售
5938100063,興安藥局,南投縣國姓鄉石門村國姓路２７８－１號,120.8568,24.04001,(049)2721133,羅氏家用新冠病毒抗原自我檢測套組,234,2022/04/28 20:16:02,正常8:30開始營業，（若消毒完成提早8:00開始販賣口罩）
5938130016,永康藥局,南投縣仁愛鄉大同村仁和路８４號,121.1324,24.02249,(049)2802730,羅氏家用新冠病毒抗原自我檢測套組,131,2022/04/28 20:16:02,醫療口罩領取星期一到星期五早上九點到十二點
5939021490,庚辛藥局,雲林縣斗南鎮中正路１３９－１號,120.478,23.67642,(05)5953776,羅氏家用新冠病毒抗原自我檢測套組,1,2022/04/28 20:16:02,周一至周六    現場販售，售完為止
5939032644,康是美虎尾藥局,雲林縣虎尾鎮中正路２５８．２５８－１號,120.4306,23.70567,(05)6328411,羅氏家用新冠病毒抗原自我檢測套組,5,2022/04/28 20:16:02,實名制快篩試劑於下午13:00~21:00販售（售完為止）
5939032724,虎尾藥局,雲林縣虎尾鎮林森路二段１１７、１１９號,120.4298,23.70595,(05)6336330,羅氏家用新冠病毒抗原自我檢測套組,78,2022/04/28 20:16:02,無
5939051229,祥安藥局,雲林縣土庫鎮東平里馬光路３８－１號,120.357,23.70561,(05)6656610,羅氏家用新冠病毒抗原自我檢測套組,2,2022/04/28 20:16:02,口罩販賣以營業時間為準，上午8:10~12:00，下午2:15~5:50，晚上（星期一.三.五）7:00~9:00.請自備零錢，售完為止.
5939051238,天愛藥局,雲林縣土庫鎮中山路８０號,120.3903,23.6749,(05)6629923,羅氏家用新冠病毒抗原自我檢測套組,1,2022/04/28 20:16:02,無
5939061930,德豐藥局,雲林縣北港鎮公園路１２號,120.303,23.5735,(05)7835338,羅氏家用新冠病毒抗原自我檢測套組,8,2022/04/28 20:16:02,平日中午十二點到兩點休息，下午六點到六點半休息，週日全天休息
5939071276,慈生藥局,雲林縣古坑鄉麻園村平和２２號,120.5203,23.6351,(05)5828222,羅氏家用新冠病毒抗原自我檢測套組,45,2022/04/28 20:16:02,（週一公休） 週三.四.六.日下午3-5點販售實名制快篩
5939131482,麥津藥局,雲林縣麥寮鄉中山路３１３、３１５號,120.2527,23.74947,(05)6932258,羅氏家用新冠病毒抗原自我檢測套組,2,2022/04/28 20:16:02,快篩實名制，每天16:00開始販售，售完為止。
5939150012,博順藥局,雲林縣褒忠鄉中正路３２５之３號,120.3081,23.69338,(05)6971048,羅氏家用新冠病毒抗原自我檢測套組,27,2022/04/28 20:16:02,因故無法發口罩，已向健保局告知。
5939151135,三民藥局,雲林縣褒忠鄉三民路１５號,120.3109,23.69352,(05)6975515,羅氏家用新冠病毒抗原自我檢測套組,76,2022/04/28 20:16:02,時間：08:00至完售
5939170023,永昇藥局,雲林縣元長鄉下寮村東庄路３５號,120.3311,23.61548,(05)7861838,羅氏家用新冠病毒抗原自我檢測套組,10,2022/04/28 20:16:02,販賣口罩時間：0800開賣，賣完為止
5939171093,和平藥局,雲林縣元長鄉下寮村東興路３３號,120.334,23.61849,(05)7862551,羅氏家用新冠病毒抗原自我檢測套組,2,2022/04/28 20:16:02,販賣口罩時間：0800開賣，賣完為止
5939171128,順元藥局,雲林縣元長鄉中山路２５號,120.3132,23.64867,(05)7886555,羅氏家用新冠病毒抗原自我檢測套組,17,2022/04/28 20:16:02,週六、週日上午彈性上班
5939200011,優生藥局,雲林縣水林鄉水林路９９巷２號,120.247,23.57205,(05)7856307,羅氏家用新冠病毒抗原自我檢測套組,3,2022/04/28 20:16:02,販賣口罩時間:如營業時間
5939201158,健安藥局,雲林縣水林鄉松北村蔦松路６９之１號,120.2318,23.51741,(05)7841025,羅氏家用新冠病毒抗原自我檢測套組,78,2022/04/28 20:16:02,販賣口罩時間7:30開始販賣（周一至周日全天供應，售完為止）
5939201283,義生藥局,雲林縣水林鄉水林路１９７號,120.2445,23.57217,(05)7853701,羅氏家用新冠病毒抗原自我檢測套組,2,2022/04/28 20:16:02,販賣口罩時間:如營業時間
5939201345,金花藥局,雲林縣水林鄉水北村水林路２２２號,120.2406,23.57206,(05)7856112,羅氏家用新冠病毒抗原自我檢測套組,32,2022/04/28 20:16:02,無
5940010154,石原藥局,嘉義縣朴子市中正里中正路１４９號,120.2444,23.46605,(05)3792389,羅氏家用新冠病毒抗原自我檢測套組,4,2022/04/28 20:16:02,有營業時間8點起售防疫口罩售完為止
5940021166,懷恩藥局,嘉義縣布袋鎮太平東路４６５號,120.1676,23.37761,(05)3478211,羅氏家用新冠病毒抗原自我檢測套組,8,2022/04/28 20:16:02,單周六看診
5940031402,信沅中西藥局,嘉義縣大林鎮西林里０１１鄰中正路４２０號,120.4528,23.60129,(05)2656377,羅氏家用新冠病毒抗原自我檢測套組,11,2022/04/28 20:16:02,無
5940041435,嘉方藥局,嘉義縣民雄鄉中樂村昇平路５８號,120.4303,23.55781,(05)2066747,羅氏家用新冠病毒抗原自我檢測套組,1,2022/04/28 20:16:02,早上08:00開始販賣，賣完為止
5940051119,宇安藥局,嘉義縣溪口鄉坪頂村溪民路３１號,120.4003,23.60387,(05)2697736,羅氏家用新冠病毒抗原自我檢測套組,5,2022/04/28 20:16:02,8:00-12:00，14:00-19:00，六，8:00-12:00，日不販售口罩
5940080058,長生健保藥局,嘉義縣東石鄉東石村東石村２６０號,120.1405,23.45356,(05)3732557,羅氏家用新冠病毒抗原自我檢測套組,7,2022/04/28 20:16:02,全年無休，口罩領取採發放號碼牌
5940120191,大嘉藥局,嘉義縣水上鄉正義路１巷１６號,120.4006,23.43044,(05)2689031,羅氏家用新冠病毒抗原自我檢測套組,3,2022/04/28 20:16:02,08:00~售罄
5940121241,杏同藥局,嘉義縣水上鄉水頭村中正路１１６號,120.4022,23.4282,(05)2600037,羅氏家用新冠病毒抗原自我檢測套組,1,2022/04/28 20:16:02,領取口罩時間周一至周六上午08:00~11:50，下午15:00~17:50，晚上19:00~20:20
5941030114,協宏藥局,臺南市白河區竹門里９８之３號,120.4466,23.37697,(06)6852961,羅氏家用新冠病毒抗原自我檢測套組,17,2022/04/28 20:16:02,08／00-2100 口罩販售時間：0900-售完
5941100022,安溪藥局,臺南市後壁區福安里１０２之４８號,120.3536,23.33085,(06)6333381,羅氏家用新冠病毒抗原自我檢測套組,235,2022/04/28 20:16:02,下午3點到5點半藥師可能出門運動買晚餐
5941230052,博愛中西藥局,臺南市玉井區玉田里中正路２３８號,120.464,23.12518,(06)5743036,羅氏家用新冠病毒抗原自我檢測套組,234,2022/04/28 20:16:02,防疫口罩:早上7點 到  售完為止
5941231139,伊立安藥局,臺南市玉井區玉田里中山路１４３號１樓,120.4657,23.12218,(06)5747001,羅氏家用新冠病毒抗原自我檢測套組,238,2022/04/28 20:16:02,防疫口罩購買...8:00開始.售完為止
5941281362,安麗兒藥局,臺南市歸仁區辜厝里中山路二段７１號,120.2923,22.96681,(06)2399212,羅氏家用新冠病毒抗原自我檢測套組,1,2022/04/28 20:16:02,09:00~11:00 發放號碼牌，14:00後取口罩
5941312460,仁杏藥師藥局,臺南市永康區復興路１１號,120.2501,22.9985,(06)2731702,羅氏家用新冠病毒抗原自我檢測套組,1,2022/04/28 20:16:02,無
5942030181,良安藥局,高雄市旗山區旗南一路５３號,120.48,22.8854,(07)6617532,羅氏家用新冠病毒抗原自我檢測套組,14,2022/04/28 20:16:02,無
5942030225,吉本藥局,高雄市旗山區旗南里中洲路４７４－１號,120.465,22.83976,(07)6663226,羅氏家用新冠病毒抗原自我檢測套組,13,2022/04/28 20:16:02,營業日0800~2200，14:00開始發號碼牌14:30起為配售口罩時間.售完為止；周六公休無配售口罩；
5942040089,進安堂藥局,高雄市美濃區忠孝路１段３７２號,120.5261,22.87692,(07)6812741,羅氏家用新冠病毒抗原自我檢測套組,31,2022/04/28 20:16:02,無
5942050085,福安藥局,高雄市林園區東林里東林西路５１號,120.3953,22.50359,(07)6438833,羅氏家用新冠病毒抗原自我檢測套組,1,2022/04/28 20:16:02,固定週一到周日早上7:00開始發號碼牌早上7:00依序銷售.售完為止
5942100071,皇佳藥局,高雄市鳥松區仁美里高碼二路１２號,120.3893,22.65769,(07)7312918,羅氏家用新冠病毒抗原自我檢測套組,39,2022/04/28 20:16:02,實名制快篩兩梯次販售早上十點39組，晚上八點39組，週六日無販售
5942211122,永昇藥局,高雄市六龜區太平路８５號,120.637,22.99552,(07)6895522,羅氏家用新冠病毒抗原自我檢測套組,282,2022/04/28 20:16:02,每日07:30販賣口罩時間，售完為止
5942220023,維康藥局,高雄市甲仙區西安里中正路２２號,120.5885,23.08291,(07)6752585,羅氏家用新冠病毒抗原自我檢測套組,226,2022/04/28 20:16:02,自2／11日~2／29日，營業日07:00起為販賣口罩時間，售完為止
5942220032,文殊堂藥局,高雄市甲仙區西安里文化路２２號,120.5894,23.08194,(07)6752176,羅氏家用新冠病毒抗原自我檢測套組,264,2022/04/28 20:16:02,自2／11日~2／29日，營業日07:30起為販賣口罩時間，售完為止。
5942240043,光輝藥局,高雄市內門區鄉觀亭里南屏路２３０號,120.4547,22.92305,(07)6671106,羅氏家用新冠病毒抗原自我檢測套組,12,2022/04/28 20:16:02,自3／01日~3／31日，營業日8:30起為販賣口罩時間，售完為止
5943010496,惠恩藥局,屏東縣屏東市空翔里勝利路２０２號,120.4798,22.67914,(08)7664830,羅氏家用新冠病毒抗原自我檢測套組,1,2022/04/28 20:16:02,防疫快篩:上午9點開始，售完為止
5943012427,寶慷藥局,屏東縣屏東市中正路三九八號,120.493,22.68328,(08)7350558,羅氏家用新冠病毒抗原自我檢測套組,2,2022/04/28 20:16:02,營業時間8:00-22:30
5943013166,名正生活美藥局,屏東縣屏東市復興南路１段９９號,120.4862,22.65322,(08)7524395,羅氏家用新冠病毒抗原自我檢測套組,1,2022/04/28 20:16:02,營業日AM9:00~PM21:00為販賣口罩時間，售完為止
5943013880,一二藥局,屏東縣屏東市廣東路１０９４號,120.484,22.68769,(08)7324688,羅氏家用新冠病毒抗原自我檢測套組,78,2022/04/28 20:16:02,營業日09:30~21:00，政府沒寄口罩來.沒得販賣.電腦地圖標示不對
5943014109,維康藥局,屏東縣屏東市中華路６１－１號,120.49,22.67281,(08)7346888,羅氏家用新冠病毒抗原自我檢測套組,51,2022/04/28 20:16:02,口罩販售時間上午:09:00~12:00.售完為止
5943014341,和平藥局,屏東縣屏東市和平路３５號,120.4785,22.66651,(08)7556696,羅氏家用新冠病毒抗原自我檢測套組,1,2022/04/28 20:16:02,快篩實名制，每天16:00開始販售，售完為止。
5943021604,葉錦霖藥局,屏東縣潮州鎮新榮里中山五巷３－４號,120.5391,22.54882,(08)7885629,羅氏家用新冠病毒抗原自我檢測套組,3,2022/04/28 20:16:02,藥局販售口罩時間，依藥局門口公告時間為主（售完為止）
5943031735,愛樂活藥局,屏東縣東港鎮長春一路１１３－１號,120.4594,22.47111,(08)8312388,羅氏家用新冠病毒抗原自我檢測套組,8,2022/04/28 20:16:02,口罩販賣時間: 週一至週六早上8點30分至晚上10點30分
5943051399,杏林婦嬰藥局,屏東縣萬丹鄉萬安村萬丹路一段１５５號１樓,120.4898,22.58748,(08)7777791,羅氏家用新冠病毒抗原自我檢測套組,1,2022/04/28 20:16:02,無
5943125198,李藥局,屏東縣萬巒鄉褒忠路１１４號,120.5693,22.57332,(08)7810625,羅氏家用新冠病毒抗原自我檢測套組,234,2022/04/28 20:16:02,週一至週日販賣快篩。
5943125205,萬巒健保藥局,屏東縣萬巒鄉褒忠路７７號,120.5705,22.57219,(08)7815919,羅氏家用新冠病毒抗原自我檢測套組,234,2022/04/28 20:16:02,自2／11日~2／29日，營業日09:00發號碼牌，14:30~21:00為販賣口罩時間，售完為止。
5943125214,萬和藥局,屏東縣萬巒鄉中正路２２－１０號,120.5678,22.57192,(08)7815556,羅氏家用新冠病毒抗原自我檢測套組,246,2022/04/28 20:16:02,快篩實名制，每天16:00開始販售，售完為止。
5943131561,南寧藥局,屏東縣內埔鄉南寧路２３號,120.5655,22.61723,(08)7690330,羅氏家用新冠病毒抗原自我檢測套組,1,2022/04/28 20:16:02,快篩實名制，每天16:00開始販售，售完為止。
5943181089,佳恩藥局,屏東縣崁頂鄉興農路４８號,120.5102,22.5132,(08)8635908,羅氏家用新冠病毒抗原自我檢測套組,1,2022/04/28 20:16:02,早上8點~10點販賣口罩  星期日3點~4點販賣口罩
5943221131,美美藥局,屏東縣琉球鄉中山路７５之３號,120.3794,22.34968,(08)8612191,羅氏家用新冠病毒抗原自我檢測套組,248,2022/04/28 20:16:02,營業日早上7:40開始販售，售完為止，星期日不販售口罩
5945012087,信康藥局,花蓮縣花蓮市中華路２９５號,121.5996,23.97499,(03)8320358,羅氏家用新冠病毒抗原自我檢測套組,1,2022/04/28 20:16:02,無
5945012863,承祐藥局,花蓮縣花蓮市建國路２６６號,121.5994,23.98438,(03)8338261,羅氏家用新冠病毒抗原自我檢測套組,4,2022/04/28 20:16:02,口罩販售時間：早上8:30-10:00  晚上19:00-21:00。周六晚上19:00-20:30
5945021086,安康鳳林藥局,花蓮縣鳳林鎮仁愛街１０號１樓,121.4503,23.74937,(03)8762227,羅氏家用新冠病毒抗原自我檢測套組,1,2022/04/28 20:16:02,無
5945051575,宜康藥局,花蓮縣吉安鄉中華路二段１３４號,121.585,23.97395,(03)8512980,羅氏家用新冠病毒抗原自我檢測套組,1,2022/04/28 20:16:02,5／2（一）全天休診
5945051619,仁愛藥局,花蓮縣吉安鄉慶豐村中山路三段２８０號,121.5712,23.97783,(03)8511635,羅氏家用新冠病毒抗原自我檢測套組,78,2022/04/28 20:16:02,無
5946010194,陳藥局,臺東縣臺東市光明路１４３號,121.1516,22.75487,(089)310659,羅氏家用新冠病毒抗原自我檢測套組,1,2022/04/28 20:16:02,固定週一至周六早上8點開始代售防疫口罩
5946061128,三杏藥局,臺東縣太麻里鄉太麻里街２６３號,121.0054,22.61024,(089)783373,羅氏家用新冠病毒抗原自我檢測套組,234,2022/04/28 20:16:02,無
5946080552,伯安健康藥局,臺東縣長濱鄉長濱村１０鄰長濱路１０５號,121.4515,23.31496,(089)832519,羅氏家用新冠病毒抗原自我檢測套組,235,2022/04/28 20:16:02,無
5946101118,伯安藥局,臺東縣池上鄉新生路１１６號,121.2187,23.12315,(089)863585,羅氏家用新冠病毒抗原自我檢測套組,30,2022/04/28 20:16:02,早0800-1200，午1400-1800，晚1800-2000
5990010695,百泰藥局,金門縣金城鎮西海路１段１號,118.2864,24.41566,(082)312832,羅氏家用新冠病毒抗原自我檢測套組,2,2022/04/28 20:16:02,快篩實名制，每天16:00開始販售，售完為止。
