醫事機構代碼,醫事機構名稱,醫事機構地址,經度,緯度,醫事機構電話,廠牌項目,快篩試劑截至目前結餘存貨數量,來源資料時間,備註
2331200010,新北市坪林區衛生所,新北市坪林區坪林街１０４號,121.7095,24.93592,(02)26656272,羅氏家用新冠病毒抗原自我檢測套組,154,2022/04/30 15:26:02,防疫口罩販售服務時間，星期一至五09:00-12:00 。（倘若遇政府規定補班日，仍會提供販售口罩服務）
2331240014,新北市平溪區衛生所,新北市平溪區公園街１７號１樓,121.7365,25.02469,(02)24951015,羅氏家用新冠病毒抗原自我檢測套組,156,2022/04/30 15:26:02,快篩試劑販售時間:週一至週五上午9:00至12:00 ，上午9:00開始發放號碼牌，限額78盒，若提前售完，即截止當日販售服務。
2331260016,新北市貢寮區衛生所,新北市貢寮區朝陽街７０巷１０號、新北市貢寮區仁愛路１２８號,121.9095,25.02258,(02)24901431,羅氏家用新冠病毒抗原自我檢測套組,156,2022/04/30 15:26:02,星期一至星期日上午8點購買防疫口罩，售完為止.
2331290014,新北市烏來區衛生所,新北市烏來區新烏路５段１０９號,121.548,24.87197,(02)26617200,羅氏家用新冠病毒抗原自我檢測套組,171,2022/04/30 15:26:02,無
2333140017,新竹縣五峰鄉衛生所,新竹縣五峰鄉大隘村六鄰９９號,121.1194,24.63184,(03)5851005,羅氏家用新冠病毒抗原自我檢測套組,151,2022/04/30 15:26:02,無
2334110013,宜蘭縣大同鄉衛生所,宜蘭縣大同鄉崙埤村朝陽４０號,121.6088,24.67785,(03)9801175,羅氏家用新冠病毒抗原自我檢測套組,76,2022/04/30 15:26:02,防疫口罩販賣時間本所（週一到週六）8:20-10:20  衛生室販賣時間為星期一、二、四、五下午，詳細事項請至本所網站查詢.
2335110017,苗栗縣南庄鄉衛生所,苗栗縣南庄鄉東村大同路１７號,121,24.59733,(037)822024,羅氏家用新冠病毒抗原自我檢測套組,156,2022/04/30 15:26:02,口罩販賣時段:週一至週五上午8:00~下午5:00
2335150011,苗栗縣造橋鄉衛生所,苗栗縣造橋鄉造橋村１４鄰８－２號,120.8643,24.63672,(037)542755,羅氏家用新冠病毒抗原自我檢測套組,142,2022/04/30 15:26:02,口罩販賣時段：08:30-售完（含假日）
2335170013,苗栗縣獅潭鄉衛生所,苗栗縣獅潭鄉新店村１３０之６號,120.9201,24.53961,(037)931309,羅氏家用新冠病毒抗原自我檢測套組,156,2022/04/30 15:26:02,口罩販賣時段：08:30-16:00
2335180019,苗栗縣泰安鄉衛生所,苗栗縣泰安鄉清安村２鄰７２號,120.9083,24.44722,(037)941054,羅氏家用新冠病毒抗原自我檢測套組,156,2022/04/30 15:26:02,口罩販賣時段：星期一~五：8:30~15：00。
2336210034,臺中市和平區梨山衛生所,臺中市和平區中正路１２號１樓、６８號１樓,121.2592,24.25678,(04)25989540,羅氏家用新冠病毒抗原自我檢測套組,78,2022/04/30 15:26:02,提供24小時急診待診服務，111年4月28日起，快篩試劑販售時段為周一至周五0900-12:00，六日及國定假日為0900-1100
2338070010,南投縣鹿谷鄉衛生所,南投縣鹿谷鄉中正路二段２０號,120.7542,23.74488,(049)2752002,羅氏家用新冠病毒抗原自我檢測套組,156,2022/04/30 15:26:02,快篩試劑販售時間 上班日（星期一至星期五）14:00~16:00
2338120015,南投縣信義鄉衛生所,南投縣信義鄉明德村玉山路４５號,120.8547,23.69653,(049)2791148,羅氏家用新冠病毒抗原自我檢測套組,156,2022/04/30 15:26:02,快篩試劑販售時間星期一至星期五上午09：00-11：00，現場排隊發售，國定假日不販賣。
2340170016,嘉義縣大埔鄉衛生所,嘉義縣大埔鄉大埔村５３－１號,120.5928,23.29397,(05)2521214,羅氏家用新冠病毒抗原自我檢測套組,156,2022/04/30 15:26:02,無
2342130010,高雄市田寮區衛生所,高雄市田寮區南安里崗北路３２號,120.3594,22.87301,(07)6361504,羅氏家用新冠病毒抗原自我檢測套組,85,2022/04/30 15:26:02,巡迴醫療:每星期一、四下午及每月第一個有上班的星期三下午巡迴醫療
2342180010,高雄市永安區衛生所,高雄市永安區永安路２６號,120.2254,22.81879,(07)6912015,羅氏家用新冠病毒抗原自我檢測套組,78,2022/04/30 15:26:02,無
2342250017,高雄市茂林區衛生所,高雄市茂林區茂林里茂林巷８－４號,120.6641,22.88641,(07)6801046,羅氏家用新冠病毒抗原自我檢測套組,267,2022/04/30 15:26:02,夜間急診，請先撥電話07-6801046
2342260013,高雄市桃源區衛生所,高雄市桃源區桃源里南進巷１８８－１號,120.7642,23.15845,(07)6861126,羅氏家用新冠病毒抗原自我檢測套組,185,2022/04/30 15:26:02,IDS提供24小時服務
2342270019,高雄市那瑪夏區衛生所,高雄市那瑪夏區瑪雅里６鄰平和巷２５２號,120.7024,23.24708,(07)6701142,羅氏家用新冠病毒抗原自我檢測套組,243,2022/04/30 15:26:02,春節期間正常門診
2343240015,屏東縣滿州鄉衛生所,屏東縣滿州鄉滿州村中山路３１號,120.8381,22.01898,(08)8801279,羅氏家用新冠病毒抗原自我檢測套組,78,2022/04/30 15:26:02,無
2343260017,屏東縣三地門鄉衛生所,屏東縣三地門鄉三地村行政街４號,120.653,22.71477,(08)7991284,羅氏家用新冠病毒抗原自我檢測套組,100,2022/04/30 15:26:02,假日及夜間提供待診；星期一至五快篩販售時間0900~1200；1400~1700賣完為止
2343270013,屏東縣霧台鄉衛生所,屏東縣霧台鄉霧台村神山巷６８號,120.7261,22.74989,(08)7902232,羅氏家用新冠病毒抗原自我檢測套組,190,2022/04/30 15:26:02,無
2343290015,屏東縣泰武鄉衛生所,屏東縣泰武鄉佳平村１７９號,120.6327,22.59212,(08)7832059,羅氏家用新冠病毒抗原自我檢測套組,110,2022/04/30 15:26:02,4／2-4／5門診照常
2343300016,屏東縣來義鄉衛生所,屏東縣來義鄉古樓村中正路９０號,120.632,22.52584,(08)7850103,羅氏家用新冠病毒抗原自我檢測套組,98,2022/04/30 15:26:02,無
2343320018,屏東縣獅子鄉衛生所,屏東縣獅子鄉楓林村楓林二巷３１號,120.7057,22.18402,(08)8771324,羅氏家用新冠病毒抗原自我檢測套組,113,2022/04/30 15:26:02,特休日：每年農曆除夕、初一
2343330014,屏東縣牡丹鄉衛生所,屏東縣牡丹鄉石門村１９號,120.7469,22.10105,(08)8831013,羅氏家用新冠病毒抗原自我檢測套組,78,2022/04/30 15:26:02,無
2344011036,澎湖縣馬公市第三衛生所,澎湖縣馬公市西文里１１８之２號,119.5836,23.56813,(06)9211723,羅氏家用新冠病毒抗原自我檢測套組,156,2022/04/30 15:26:02,本所口罩販售以離島（虎井、桶盤）為主，時間星期一至星期五08:30-17:00售完為止，星期六、日國定假日09:00-12:00。
2344030013,澎湖縣白沙鄉衛生所,澎湖縣白沙鄉赤崁村３５９號,119.5982,23.66669,(06)9931044,羅氏家用新冠病毒抗原自我檢測套組,156,2022/04/30 15:26:02,星期日上午門診看診（每月最後一個星期日休診）； 星期五上午巡迴醫療
2344030022,澎湖縣白沙鄉鳥嶼衛生所,澎湖縣白沙鄉鳥嶼村漁港新村３號,119.6599,23.66008,(06)9916092,羅氏家用新冠病毒抗原自我檢測套組,165,2022/04/30 15:26:02,非上班時間提供急診服務
2344030031,澎湖縣白沙鄉吉貝衛生所,澎湖縣白沙鄉吉貝村８－１３號,119.6138,23.74056,(06)9911430,羅氏家用新冠病毒抗原自我檢測套組,222,2022/04/30 15:26:02,無
2344050015,澎湖縣望安鄉衛生所,澎湖縣望安鄉西安村３６－７號,119.4972,23.36161,(06)9991036,羅氏家用新冠病毒抗原自我檢測套組,128,2022/04/30 15:26:02,夜間急診。口罩、快篩試劑販售時間為:每日08:00-12:00、13:30-17:30售完為止，如有餘數為離島未售出（東嶼坪、花嶼衛生室）。
2344050024,澎湖縣望安鄉將軍衛生所,澎湖縣望安鄉將軍村１２鄰將軍澳１之３號,119.5216,23.3615,(06)9902066,羅氏家用新冠病毒抗原自我檢測套組,238,2022/04/30 15:26:02,24小時急診
2344060011,澎湖縣七美鄉衛生所,澎湖縣七美鄉中和村埔內５４號,119.431,23.2041,(06)9971005,羅氏家用新冠病毒抗原自我檢測套組,128,2022/04/30 15:26:02,無
2345080017,花蓮縣豐濱鄉衛生所,花蓮縣豐濱鄉豐濱村光豐路３９號,121.5215,23.60195,(03)8791156,羅氏家用新冠病毒抗原自我檢測套組,107,2022/04/30 15:26:02,*本院口罩每天販售，時間自上午8點至晚上9點  *本院週一至週五上下午皆有門診，星期六隔週提供門診，及24小時急診。
2345100014,花蓮縣富里鄉衛生所,花蓮縣富里鄉富里村中山路２０３號,121.2491,23.17847,(03)8831029,羅氏家用新冠病毒抗原自我檢測套組,78,2022/04/30 15:26:02,*內科:每週二下午東里玉蓮寺巡診 **牙科:每週二至卓溪醫療站***口罩販賣時間8:30起至11:00止
2345110010,花蓮縣秀林鄉衛生所,花蓮縣秀林鄉秀林村１２鄰秀林路８８號,121.6334,24.1269,(03)8612122,羅氏家用新冠病毒抗原自我檢測套組,48,2022/04/30 15:26:02,口罩代售時間上班日上午8:10至12時止（口罩限量故售完為止）
2345120016,花蓮縣萬榮鄉衛生所,花蓮縣萬榮鄉萬榮村１鄰１６號,121.4092,23.71558,(03)8751651,羅氏家用新冠病毒抗原自我檢測套組,78,2022/04/30 15:26:02,快篩試劑代售時間：週一至週五下午2點至下午4點，販售為止。
2345130012,花蓮縣卓溪鄉衛生所,花蓮縣卓溪鄉卓溪村中正路６５號,121.3033,23.33294,(03)8882592,羅氏家用新冠病毒抗原自我檢測套組,78,2022/04/30 15:26:02,販賣口罩服務時段每周一至周五早上8點45分至11點45分，星期一至星期四安排巡迴醫療點販售（售完即結束）
2346050013,台東縣大武鄉衛生所,臺東縣大武鄉大武村復興路２－２號,120.9078,22.36414,(089)791143,羅氏家用新冠病毒抗原自我檢測套組,159,2022/04/30 15:26:02,24小時急診服務
2346070015,臺東縣東河鄉衛生所,臺東縣東河鄉東河村南東河路１０鄰３００號,121.3031,22.96846,(089)896289,羅氏家用新冠病毒抗原自我檢測套組,156,2022/04/30 15:26:02,快篩試劑販售時間:◆平日（星期一三四五）上午9-11時販售，星期二下午13-15時販售售完為止。
2346120010,台東縣延平鄉衛生所,臺東縣延平鄉桃源村昇平路１１號,121.0855,22.90217,(089)561358,羅氏家用新冠病毒抗原自我檢測套組,78,2022/04/30 15:26:02,星期一至星期五上午8:30-11:30下午13:30-16:30販售快篩試劑並發放號碼牌，遇國定假日休息
2346130016,台東縣海端鄉衛生所,臺東縣海端鄉海端村３鄰２９號,121.1767,23.10094,(089)931391,羅氏家用新冠病毒抗原自我檢測套組,78,2022/04/30 15:26:02,星期一至星期五口罩販售時間上午8點~12點（售完為止）
2346150018,台東縣金峰鄉衛生所,臺東縣金峰鄉賓茂村１鄰１４號,120.9606,22.53248,(089)772201,羅氏家用新冠病毒抗原自我檢測套組,156,2022/04/30 15:26:02,代售口罩時間:星期一至星期五為上午8:00-12:00，下午1:30-5:30
2346160014,台東縣蘭嶼鄉衛生所,臺東縣蘭嶼鄉紅頭村３６號,121.5546,22.02493,(089)732575,羅氏家用新冠病毒抗原自我檢測套組,156,2022/04/30 15:26:02,販售口罩時間 星期一至星期五 8:00~12:00 13:30~17:30
2390050032,金門縣烈嶼鄉衛生所,金門縣烈嶼鄉西口村西方６－５號,118.2395,24.43519,(082)362078,羅氏家用新冠病毒抗原自我檢測套組,156,2022/04/30 15:26:02,快篩試劑販售時間:周一至周五下午1點至3點
2391020010,連江縣北竿鄉衛生所,連江縣北竿鄉塘岐村２８１－６號,119.9991,26.22617,(083)655592,羅氏家用新冠病毒抗原自我檢測套組,78,2022/04/30 15:26:02,新冠快篩試劑販售於週一至周六每日上午08:30-12:00開放購買。
2391030016,連江縣莒光鄉西莒衛生所,連江縣莒光鄉青帆村１４－１號,119.9331,25.97157,(083)689122,羅氏家用新冠病毒抗原自我檢測套組,218,2022/04/30 15:26:02,防疫口罩星期一至五09:00-17:00、（六）09:00-12:00現場購買
2391030026,連江縣莒光鄉東莒衛生所,連江縣莒光鄉大坪村３０－１號,119.9731,25.96113,(083)689038,羅氏家用新冠病毒抗原自我檢測套組,226,2022/04/30 15:26:02,防疫口罩星期一至星期日上午10:00-12:00收取健保卡，下午3:30至本所領取口罩。
2391040012,連江縣東引鄉衛生所,連江縣東引鄉中柳村１２３號,120.4904,26.36701,(083)677206,羅氏家用新冠病毒抗原自我檢測套組,83,2022/04/30 15:26:02,防疫口罩每日10:00-12:00現場購買
5901010192,益華藥局,臺北市松山區民生東路５段１３８巷６號,121.5615,25.05827,(02)27624898,羅氏家用新冠病毒抗原自我檢測套組,3,2022/04/30 15:26:02,無
5901010272,德靈藥局,臺北市松山區富錦街５４８號,121.5667,25.06178,(02)27646998,羅氏家用新冠病毒抗原自我檢測套組,78,2022/04/30 15:26:02,節期間2／4-2／10休息. .
5901012598,婕登藥局,臺北市松山區八德路４段６９９號,121.5766,25.05021,(02)27482893,羅氏家用新冠病毒抗原自我檢測套組,78,2022/04/30 15:26:02,4月30日快篩尚未送達（今日目前沒有快篩可發送）
5901012767,晨新藥局,臺北市松山區八德路４段９１巷１－１號,121.5608,25.04894,(02)27422951,羅氏家用新冠病毒抗原自我檢測套組,78,2022/04/30 15:26:02,無
5901013200,專品南京藥局,臺北市松山區南京東路４段７３號,121.5532,25.05185,(02)25147685,羅氏家用新冠病毒抗原自我檢測套組,16,2022/04/30 15:26:02,無
5901013442,松山八德藥局,臺北市松山區八德路２段４００號,121.5466,25.04804,(02)27782773,羅氏家用新冠病毒抗原自我檢測套組,78,2022/04/30 15:26:02,快篩實名制，每天16:00開始販售，售完為止。
5901013657,順儷中崙藥局,臺北市松山區八德路３段７４巷４８號１樓,121.5525,25.04685,(02)25796900,羅氏家用新冠病毒抗原自我檢測套組,5,2022/04/30 15:26:02,無
5901013693,民生盛康藥局,臺北市松山區民生東路５段２０４號１樓,121.5648,25.05826,(02)27460758,羅氏家用新冠病毒抗原自我檢測套組,72,2022/04/30 15:26:02,每日早上9:00發號碼牌，11:00~20:00拿號碼牌回來領取，每人限兩張，逾時不候
5901013719,大樹松山藥局,臺北市松山區民生東路５段１０７號１樓,121.5601,25.05878,(02)27562226,羅氏家用新冠病毒抗原自我檢測套組,78,2022/04/30 15:26:02,快篩實名制，每天16:00開始販售，售完為止。
5901013728,康麗藥局,臺北市松山區南京東路３段３０３巷２０號（１樓）,121.5468,25.05374,(02)27174117,羅氏家用新冠病毒抗原自我檢測套組,46,2022/04/30 15:26:02,無
5901020303,宏恩藥局,臺北市大安區大安路１段１８１號,121.5461,25.03619,(02)27000956,羅氏家用新冠病毒抗原自我檢測套組,40,2022/04/30 15:26:02,實名制快篩每周一~六，10:00發放號碼牌， 另於12:00~21:00自由擇時，持號碼牌領取快篩並收費
5901020376,靜園藥局,臺北市大安區和平東路２段１１８巷５７之１號,121.5429,25.02254,(02)27336390,羅氏家用新冠病毒抗原自我檢測套組,14,2022/04/30 15:26:02,無
5901020385,延吉大藥局,臺北市大安區延吉街１５３號１樓,121.5548,25.04066,(02)27819227,羅氏家用新冠病毒抗原自我檢測套組,78,2022/04/30 15:26:02,無
5901020465,杏友藥局,臺北市大安區復興南路２段１５１巷２５號,121.5446,25.02847,(02)27079451,羅氏家用新冠病毒抗原自我檢測套組,15,2022/04/30 15:26:02,週一-週六 下午3:00開始發放快篩，發完為止
5901020563,施寶藥局,臺北市大安區安東街５０－５號１樓,121.5426,25.04277,(02)27114175,羅氏家用新冠病毒抗原自我檢測套組,78,2022/04/30 15:26:02,週一至週五早上11點到下午8點.周六周日及公訂例假日公休
5901020689,四維藥局,臺北市大安區復興南路２段１５１巷４３號１樓,121.5454,25.02846,(02)27094222,羅氏家用新冠病毒抗原自我檢測套組,78,2022/04/30 15:26:02,假日可先打電話聯絡
5901021248,永誠藥局,臺北市大安區忠孝東路４段２１６巷２５之１號,121.5531,25.03997,(02)27520273,羅氏家用新冠病毒抗原自我檢測套組,78,2022/04/30 15:26:02,無
5901021408,生百藥局,臺北市大安區臨江街１２４號,121.5539,25.03024,(02)27371011,羅氏家用新冠病毒抗原自我檢測套組,78,2022/04/30 15:26:02,無
5901022898,永康藥局,臺北市大安區麗水街６之２號,121.529,25.03289,(02)23279362,羅氏家用新冠病毒抗原自我檢測套組,69,2022/04/30 15:26:02,5月開始下午2點賣
5901023073,世中欣藥局,臺北市大安區永康街２巷８號,121.5294,25.03315,(02)23938947,羅氏家用新冠病毒抗原自我檢測套組,78,2022/04/30 15:26:02,健保快篩：周一至周五， 早上10點開始販售。週六下午4點販售。週日停售.。
5901023680,新富川藥局,臺北市大安區大安路１段５１巷４號,121.5464,25.04303,(02)27114758,羅氏家用新冠病毒抗原自我檢測套組,45,2022/04/30 15:26:02,無提供急診服務
5901024098,杏一瑞安藥局,臺北市大安區瑞安街２０８巷１１弄１號,121.5406,25.02866,(02)27096710,羅氏家用新冠病毒抗原自我檢測套組,78,2022/04/30 15:26:02,3點發快篩，前5分鐘發牌
5901024114,好安心藥局,臺北市大安區和平東路２段９８之２號,121.5415,25.02493,(02)23772166,羅氏家用新冠病毒抗原自我檢測套組,68,2022/04/30 15:26:02,快篩發放: 週一至週六 15:30現場開始販售，不發號碼牌。
5901024472,忠孝康承健保藥局,臺北市大安區復興南路１段１０７巷４號,121.5444,25.04357,(02)87733378,羅氏家用新冠病毒抗原自我檢測套組,1,2022/04/30 15:26:02,周一公休
5901024516,博昱師大藥局,臺北市大安區羅斯福路３段１８９號,121.5281,25.02109,(02)23696966,羅氏家用新冠病毒抗原自我檢測套組,1,2022/04/30 15:26:02,實名制快篩販售時間為下午14:00~15:30
5901024525,國泰維康藥局,臺北市大安區仁愛路４段２６６巷１５弄２０號,121.5541,25.03654,(02)27542185,羅氏家用新冠病毒抗原自我檢測套組,28,2022/04/30 15:26:02,星期一到星期六下午3點到5點販賣實名制快篩（不發號碼牌）
5901024838,昶青藥局,臺北市大安區濟南路３段２２之１號,121.5346,25.04008,(02)27515678,羅氏家用新冠病毒抗原自我檢測套組,78,2022/04/30 15:26:02,每天下午13:00販售快篩實名制
5901024981,專品六張犁藥局,臺北市大安區基隆路２段２１７號１樓,121.5513,25.02299,(02)87322226,羅氏家用新冠病毒抗原自我檢測套組,45,2022/04/30 15:26:02,無
5901025013,頤品中西藥局,臺北市大安區浦城街２４之２號１樓,121.5267,25.02295,(02)23685656,羅氏家用新冠病毒抗原自我檢測套組,2,2022/04/30 15:26:02,無
5901025022,躍獅敦和藥局,臺北市大安區和平東路３段１０號,121.547,25.02453,(02)23785767,羅氏家用新冠病毒抗原自我檢測套組,2,2022/04/30 15:26:02,無
5901025077,敦南春天藥局,臺北市大安區敦化南路２段８１巷６３號１樓,121.5513,25.03002,(02)27553266,羅氏家用新冠病毒抗原自我檢測套組,26,2022/04/30 15:26:02,無
5901090323,泰元藥局,臺北市大同區哈密街９１號,121.5146,25.07303,(02)25914592,羅氏家用新冠病毒抗原自我檢測套組,20,2022/04/30 15:26:02,星期日不販售實名制快篩試劑
5901090341,正中藥局,臺北市大同區民族西路２１３號,121.5142,25.06874,(02)25976937,羅氏家用新冠病毒抗原自我檢測套組,9,2022/04/30 15:26:02,無
5901092014,旭豐藥局,臺北市大同區昌吉街９６號,121.5151,25.06582,(02)25853880,羅氏家用新冠病毒抗原自我檢測套組,78,2022/04/30 15:26:02,無
5901092130,大同民生藥局,臺北市大同區民生西路１２８號１樓、２樓及１３０號１樓、２樓,121.5191,25.05734,(02)25558886,羅氏家用新冠病毒抗原自我檢測套組,78,2022/04/30 15:26:02,快篩實名制，每天16:00開始販售，售完為止。
5901100057,百源堂大藥局,臺北市中山區長安東路２段４７－５號,121.5322,25.04857,(02)25364362,羅氏家用新冠病毒抗原自我檢測套組,16,2022/04/30 15:26:02,週休2 日及國定假日休營業時間上午8時30分至晚間7點
5901100333,明美藥局,臺北市中山區長春路６９號,121.5266,25.05502,(02)25365419,羅氏家用新冠病毒抗原自我檢測套組,78,2022/04/30 15:26:02,口罩周一至周五，16:30-18:30販售
5901100628,貢玄藥局,臺北市中山區錦州街２０７號,121.532,25.06039,(02)25637847,羅氏家用新冠病毒抗原自我檢測套組,78,2022/04/30 15:26:02,早上10點~11點領口罩
5901101250,美日藥局,臺北市中山區天津街６６號１樓,121.5233,25.05136,(02)25631662,羅氏家用新冠病毒抗原自我檢測套組,78,2022/04/30 15:26:02,實名制快篩於營業日下午4點開始發號碼牌
5901101321,文德藥局,臺北市中山區龍江路３５６巷１９號１樓,121.5401,25.06607,(02)25181178,羅氏家用新冠病毒抗原自我檢測套組,78,2022/04/30 15:26:02,無
5901101509,永直藥局,臺北市中山區北安路５９５巷２弄６號,121.5483,25.08192,(02)85098059,羅氏家用新冠病毒抗原自我檢測套組,78,2022/04/30 15:26:02,無
5901101929,樂活苑藥局,臺北市中山區北安路５４６號１樓,121.548,25.08014,(02)25323296,羅氏家用新冠病毒抗原自我檢測套組,76,2022/04/30 15:26:02,實名制快篩代售時間為18:00~19:00.
5901102597,德惠藥局,臺北市中山區德惠街１２２號,121.53,25.06652,(02)25971131,羅氏家用新冠病毒抗原自我檢測套組,78,2022/04/30 15:26:02,每日下午3點30分開始販售快篩實名制
5901102677,興康源藥局,臺北市中山區中山北路１段１４０巷８號,121.5214,25.05143,(02)25311248,羅氏家用新冠病毒抗原自我檢測套組,27,2022/04/30 15:26:02,無
5901102686,富宥康藥局,臺北市中山區北安路６０８巷５弄２２號,121.5496,25.08263,(02)25325277,羅氏家用新冠病毒抗原自我檢測套組,66,2022/04/30 15:26:02,無
5901102837,正傑健保藥局,臺北市中山區長安東路２段１８１號,121.5426,25.04839,(02)27310181,羅氏家用新冠病毒抗原自我檢測套組,78,2022/04/30 15:26:02,下午四點開始販售
5901102855,錦西春天生活藥局,臺北市中山區錦西街１０號,121.5216,25.06024,(02)25312658,羅氏家用新冠病毒抗原自我檢測套組,10,2022/04/30 15:26:02,口罩15:30領號碼牌 即行販售至16:30
5901103183,OK藥師藥局,臺北市中山區興安街９５號,121.5435,25.05615,(02)25170068,羅氏家用新冠病毒抗原自我檢測套組,24,2022/04/30 15:26:02,全年無休
5901103192,昶青林森藥局,臺北市中山區林森北路１１９巷５２號,121.5269,25.05018,(02)25639939,羅氏家用新冠病毒抗原自我檢測套組,1,2022/04/30 15:26:02,口罩代售平日10:30-20:00，例假日13:30-18:00 售完為止
5901103236,誠意中西藥局,臺北市中山區林森北路６１３號,121.5258,25.06647,(02)25950951,羅氏家用新冠病毒抗原自我檢測套組,1,2022/04/30 15:26:02,無
5901103272,長安藥局,臺北市中山區長安東路２段１７１－３號,121.5418,25.0484,(02)27772740,羅氏家用新冠病毒抗原自我檢測套組,78,2022/04/30 15:26:02,實名制快篩下午四點開始發放，周日公休
5901103325,仁一藥局,臺北市中山區林森北路５２０號,121.5255,25.06232,(02)25711742,羅氏家用新冠病毒抗原自我檢測套組,1,2022/04/30 15:26:02,快篩發放時間每日下午2點
5901103405,大直永安藥局,臺北市中山區北安路５６７之２號,121.5482,25.08073,(02)25332125,羅氏家用新冠病毒抗原自我檢測套組,78,2022/04/30 15:26:02,週一到週日下午兩點  開始銷售快篩試劑
5901103414,元宏藥局,臺北市中山區北安路４５８巷４１弄４９號,121.5465,25.0794,(02)25339728,羅氏家用新冠病毒抗原自我檢測套組,52,2022/04/30 15:26:02,早上營業08:00至12:00，下午由14:30營業至21:30
5901103487,錦州春天生活藥局,臺北市中山區錦州街２１３號、２１３號２樓,121.5321,25.06039,(02)25213586,羅氏家用新冠病毒抗原自我檢測套組,13,2022/04/30 15:26:02,快篩14:40發號碼牌15:00販賣 每天78盒
5901103585,禾全藥局,臺北市中山區龍江路３３２號,121.5409,25.06532,(02)25165721,羅氏家用新冠病毒抗原自我檢測套組,39,2022/04/30 15:26:02,口罩代售時間：1400、20:00  ；現場排隊
5901103656,大樹龍江藥局,臺北市中山區龍江路２４２號,121.5406,25.05889,(02)25035666,羅氏家用新冠病毒抗原自我檢測套組,78,2022/04/30 15:26:02,國定假日仍執行調劑業務
5901103745,吉林藥局,臺北市中山區吉林路３７１號（１樓）,121.5305,25.06511,(02)25865990,羅氏家用新冠病毒抗原自我檢測套組,78,2022/04/30 15:26:02,快篩實名制，每天16:00開始販售，售完為止。
5901103807,專品龍江藥局,臺北市中山區龍江路３１１號１樓,121.5409,25.06127,(02)25178870,羅氏家用新冠病毒抗原自我檢測套組,41,2022/04/30 15:26:02,實名制快篩下午三點開始發號碼牌販售
5901110311,永安藥局,臺北市內湖區文德路２１０巷３０弄４８號,121.5852,25.07723,(02)26586658,羅氏家用新冠病毒抗原自我檢測套組,1,2022/04/30 15:26:02,口罩販售時間早上10點開始發號碼牌  同時販售
5901110446,清白藥局,臺北市內湖區東湖路１０８號,121.6157,25.06828,(02)26305743,羅氏家用新冠病毒抗原自我檢測套組,1,2022/04/30 15:26:02,無
5901112726,高昱藥局,臺北市內湖區陽光街３２１巷２６號２樓之１５,121.5786,25.07236,(02)87519962,羅氏家用新冠病毒抗原自我檢測套組,78,2022/04/30 15:26:02,週六日預約
5901113661,內湖藥局,臺北市內湖區康寧路１段１１６號１樓,121.5934,25.07948,(02)27940545,羅氏家用新冠病毒抗原自我檢測套組,78,2022/04/30 15:26:02,快篩實名制，每天16:00開始販售，售完為止。
5901113723,杏一港墘藥局,臺北市內湖區港墘路８３號（１樓）,121.5781,25.08078,(02)87978746,羅氏家用新冠病毒抗原自我檢測套組,24,2022/04/30 15:26:02,無
5901121618,新東發藥局,臺北市南港區成福路１９８號,121.5883,25.04092,(02)27855190,羅氏家用新冠病毒抗原自我檢測套組,78,2022/04/30 15:26:02,營業時間 早上10:00至晚上10:00
5901121627,富康活力藥局,臺北市南港區研究院路１段１０１巷８號,121.6165,25.05181,(02)27828810,羅氏家用新冠病毒抗原自我檢測套組,1,2022/04/30 15:26:02,週一至週六，每天09:00-21:00販售口罩，請記得帶健保卡&零錢，售完為止。
5901121672,亞博藥師藥局,臺北市南港區興華路８１號,121.6061,25.05545,(02)27838090,羅氏家用新冠病毒抗原自我檢測套組,78,2022/04/30 15:26:02,無
5901121734,湳港藥局,臺北市南港區研究院路１段１０１巷１２號,121.6167,25.05175,(02)27892200,羅氏家用新冠病毒抗原自我檢測套組,78,2022/04/30 15:26:02,週一至週日，2:30開賣（政府有配送的況狀下）（沒有發放號碼牌），售完為止
5901121985,勝安藥局,臺北市南港區舊莊街１段１６５號,121.6211,25.03949,(02)27828450,羅氏家用新冠病毒抗原自我檢測套組,78,2022/04/30 15:26:02,實名制快篩固定晚上21:00提供，現場排隊不分號碼牌
5901122062,躍獅忠孝藥局,臺北市南港區成福路１６號,121.586,25.04561,(02)27862829,羅氏家用新冠病毒抗原自我檢測套組,78,2022/04/30 15:26:02,無
5901122115,上丞藥師藥局,臺北市南港區成福路１０號１樓,121.5859,25.04574,(02)26535589,羅氏家用新冠病毒抗原自我檢測套組,23,2022/04/30 15:26:02,實名制快篩下午三點開賣，無發放號碼牌
5901122124,杏安藥局,臺北市南港區昆陽街１４０巷１６號１樓,121.5938,25.04969,(02)27864119,羅氏家用新冠病毒抗原自我檢測套組,7,2022/04/30 15:26:02,無
5901150548,田倉藥局,臺北市士林區士東路１２４號,121.5302,25.11219,(02)88662188,羅氏家用新冠病毒抗原自我檢測套組,78,2022/04/30 15:26:02,每日19:00（傍晚7點）開始販售.
5901150593,安寧藥局,臺北市士林區劍潭路９１號,121.5199,25.08285,(02)28803319,羅氏家用新冠病毒抗原自我檢測套組,78,2022/04/30 15:26:02,領藥星期1.3.5為 9:00~12:00.及16:00~20:00*星期2.4.6.--上午
5901152471,得安藥局,臺北市士林區文林路１４０號,121.5267,25.08878,(02)28836336,羅氏家用新冠病毒抗原自我檢測套組,78,2022/04/30 15:26:02,星期一二三五六下午3:30---10:00   星期 四日下午5:00--10:00
5901152640,仁大藥局,臺北市士林區社子街１３號１樓,121.5083,25.08769,(02)88113793,羅氏家用新冠病毒抗原自我檢測套組,78,2022/04/30 15:26:02,111.4.30.本日尚未收到配送快篩試劑，暫停販售
5901152793,信光藥局,臺北市士林區文昌路６８號,121.5214,25.09619,(02)28366277,羅氏家用新冠病毒抗原自我檢測套組,78,2022/04/30 15:26:02,快篩到貨，4月30日 15:30 開始販售
5901152873,幸福藥局,臺北市士林區德行東路１０９巷８號,121.5284,25.10812,(02)28346650,羅氏家用新冠病毒抗原自我檢測套組,1,2022/04/30 15:26:02,Covid-19試劑販售時間:每日下午2點至下午5點販售（含星日）
5901153674,愛佳藥局,臺北市士林區承德路４段２２２之１號,121.5215,25.0885,(02)28811199,羅氏家用新冠病毒抗原自我檢測套組,78,2022/04/30 15:26:02,實名制快篩平日一~五下午3:00販售，假日（六、日）不販售
5901153683,安奕藥局,臺北市士林區葫蘆街３０巷１２號,121.5099,25.08034,(02)28133289,羅氏家用新冠病毒抗原自我檢測套組,7,2022/04/30 15:26:02,週日休。今日快篩劑下午2:30開賣。
5901153941,士東藥局,臺北市士林區士東路９１巷３號,121.5291,25.11256,(02)28760588,羅氏家用新冠病毒抗原自我檢測套組,78,2022/04/30 15:26:02,快篩實名制，每天16:00開始販售，售完為止。
5901153996,文昌春天藥局,臺北市士林區文昌路４４號（１樓）,121.5216,25.09562,(02)28838539,羅氏家用新冠病毒抗原自我檢測套組,7,2022/04/30 15:26:02,無
5901154000,文昌大藥局,臺北市士林區文昌路７２號１樓,121.5213,25.09634,(02)28376196,羅氏家用新冠病毒抗原自我檢測套組,76,2022/04/30 15:26:02,本日4／30下午15：30分開始實名制快篩販售
5901154108,藥本家藥局,臺北市士林區中山北路７段１４巷２６號１樓,121.5328,25.11884,(02)28766682,羅氏家用新冠病毒抗原自我檢測套組,78,2022/04/30 15:26:02,無
5901160053,天蓮藥局,臺北市北投區石牌路１段１６６巷１１５號,121.5155,25.11192,(02)28211824,羅氏家用新冠病毒抗原自我檢測套組,39,2022/04/30 15:26:02,週六，週日各販售39劑快篩
5901160099,進春藥局,臺北市北投區明德路１５１號,121.5206,25.11086,(02)28216938,羅氏家用新冠病毒抗原自我檢測套組,233,2022/04/30 15:26:02,無休
5901160400,世全藥局,臺北市北投區知行路２７３號,121.4672,25.12134,(02)28585378,羅氏家用新冠病毒抗原自我檢測套組,78,2022/04/30 15:26:02,早0000-0100，午1300-1600，晚1600-2400
5901160428,九福藥局,臺北市北投區公館路２３６號,121.5081,25.12612,(02)28953009,羅氏家用新冠病毒抗原自我檢測套組,67,2022/04/30 15:26:02,★週日店休未營業. 快篩下午1點發號碼牌
5901160544,黎明藥局,臺北市北投區尊賢街２５３－１號,121.5066,25.11817,(02)28223795,羅氏家用新冠病毒抗原自我檢測套組,78,2022/04/30 15:26:02,早上900至1230 下午1600至2100
5901161890,良興藥局,臺北市北投區中和街２８６號,121.5004,25.14047,(02)28933360,羅氏家用新冠病毒抗原自我檢測套組,79,2022/04/30 15:26:02,18點30分點開始營業
5901162306,上頤藥局,臺北市北投區中和街３２７號１樓,121.4997,25.14097,(02)28981230,羅氏家用新冠病毒抗原自我檢測套組,78,2022/04/30 15:26:02,無
5901163509,吉利春天生活藥局,臺北市北投區吉利街１２０號,121.5068,25.11851,(02)28253256,羅氏家用新冠病毒抗原自我檢測套組,7,2022/04/30 15:26:02,無
5901163581,陳藥師藥局,臺北市北投區光明路２巷１３－２號（實際使用：１樓）,121.4997,25.13132,(02)28921971,羅氏家用新冠病毒抗原自我檢測套組,78,2022/04/30 15:26:02,無
5901170059,必欣藥局,臺北市信義區松仁路２６４號,121.5696,25.02425,(02)27225060,羅氏家用新冠病毒抗原自我檢測套組,78,2022/04/30 15:26:02,實名制快篩販售時間：星期一至星期六晚上20：00開始
5901170139,福華藥局,臺北市信義區吳興街２８１巷３號１樓,121.5643,25.02656,(02)27208527,羅氏家用新冠病毒抗原自我檢測套組,12,2022/04/30 15:26:02,現階段下午1:30~5:30配合政府發售口罩
5901170648,立信藥局,臺北市信義區松山路４０３號,121.578,25.04144,(02)27687754,羅氏家用新冠病毒抗原自我檢測套組,62,2022/04/30 15:26:02,快篩試劑販賣時間:晚上七點至九點
5901170915,杏仁藥局,臺北市信義區大道路１３５號,121.5834,25.03901,(02)27262541,羅氏家用新冠病毒抗原自我檢測套組,78,2022/04/30 15:26:02,春節期間看診時段請電洽
5901172240,德康大藥局,臺北市信義區松山路５４１巷２１號,121.579,25.03794,(02)27272502,羅氏家用新冠病毒抗原自我檢測套組,78,2022/04/30 15:26:02,物流未到貨4／30暫停1天
5901172924,躍獅松仁藥局,臺北市信義區松仁路２３３號（實際營業地址：１樓）,121.5688,25.02617,(02)27238626,羅氏家用新冠病毒抗原自我檢測套組,57,2022/04/30 15:26:02,快篩販售時段:下午13:30開始售完至晚上19:00前
5901173710,專品光復藥局,臺北市信義區光復南路４６７之１號,121.5577,25.03384,(02)27586682,羅氏家用新冠病毒抗原自我檢測套組,10,2022/04/30 15:26:02,禮拜一到六下午三點販售口罩
5901173738,尚頤中西藥局,臺北市信義區虎林街１４５號,121.5767,25.03959,(02)27253818,羅氏家用新冠病毒抗原自我檢測套組,78,2022/04/30 15:26:02,無
5901173783,北一健康人生藥局,臺北市信義區吳興街２５５號,121.5637,25.02715,(02)27583945,羅氏家用新冠病毒抗原自我檢測套組,14,2022/04/30 15:26:02,下午3點開始販售實名制快篩
5901173881,壹間藥師藥局,臺北市信義區虎林街１２０巷１４８號,121.5742,25.04213,(02)27672833,羅氏家用新冠病毒抗原自我檢測套組,77,2022/04/30 15:26:02,4／30尚未到貨實名制快篩，販售時間另行公告
5901173925,杏一光復藥局,臺北市信義區光復南路４４９之１號,121.5578,25.03488,(02)87804626,羅氏家用新冠病毒抗原自我檢測套組,34,2022/04/30 15:26:02,無
5901174002,吳興春天藥局,臺北市信義區吳興街１３７號１樓,121.5618,25.02947,(02)27585618,羅氏家用新冠病毒抗原自我檢測套組,1,2022/04/30 15:26:02,下午2:40發號碼牌
5901174066,愛維喜藥局,臺北市信義區莊敬路２７８號１樓,121.5627,25.02882,(02)27586989,羅氏家用新冠病毒抗原自我檢測套組,78,2022/04/30 15:26:02,無
5901174084,市政藥局,臺北市信義區忠孝東路５段１６９號１樓、１７１號１樓,121.5688,25.0412,(02)27560050,羅氏家用新冠病毒抗原自我檢測套組,78,2022/04/30 15:26:02,快篩實名制，每天16:00開始販售，售完為止。
5901180322,南昌大藥局,臺北市中正區南昌路１段８６號１樓,121.5174,25.03086,(02)23510322,羅氏家用新冠病毒抗原自我檢測套組,44,2022/04/30 15:26:02,無
5901180368,古亭藥局,臺北市中正區汀州路３段１１７號,121.5301,25.01667,(02)23683618,羅氏家用新冠病毒抗原自我檢測套組,78,2022/04/30 15:26:02,實名制  快篩  每晚7:30  開始賣
5901183387,丞良藥局,臺北市中正區南昌路１段７８號地下１樓,121.5173,25.03099,(02)33938868,羅氏家用新冠病毒抗原自我檢測套組,78,2022/04/30 15:26:02,週一~週五 晚上9:00~9:30現場領取
5901183396,慶安藥局,臺北市中正區徐州路２６號,121.5234,25.04061,(02)23582385,羅氏家用新冠病毒抗原自我檢測套組,78,2022/04/30 15:26:02,無
5901183645,大愛生活藥局,臺北市中正區汀州路２段２３２號,121.5243,25.02189,(02)23661155,羅氏家用新冠病毒抗原自我檢測套組,78,2022/04/30 15:26:02,下午14:30開始發放快篩（不發號碼牌直接買）~~不要太早開始排隊啊啊啊啊
5901184213,71恩典藥局,臺北市中正區信義路２段７１號,121.5264,25.03466,(02)23223371,羅氏家用新冠病毒抗原自我檢測套組,78,2022/04/30 15:26:02,快篩販售時間：◆週一到週五19:00 ◆週六17:00，十分鐘前發號碼牌
5901184375,大盛藥局,臺北市中正區中華路１段２１巷１６號,121.5105,25.04645,(02)23713838,羅氏家用新冠病毒抗原自我檢測套組,78,2022/04/30 15:26:02,周日及國定假日公休
5901184491,躍獅南門藥局,臺北市中正區中華路２段３９巷１０號,121.5074,25.03484,(02)23141111,羅氏家用新冠病毒抗原自我檢測套組,78,2022/04/30 15:26:02,口罩販售時段：成人早上9點及晚上7點各200個
5901184553,珍忻藥局,臺北市中正區南昌路１段６５號,121.5174,25.03107,(02)23965115,羅氏家用新冠病毒抗原自我檢測套組,78,2022/04/30 15:26:02,健保快篩發放:13:20及18:20分兩梯次發號碼牌
5901184660,南昌春天藥局,臺北市中正區南昌路１段１５７號１樓,121.5188,25.02927,(02)23972886,羅氏家用新冠病毒抗原自我檢測套組,41,2022/04/30 15:26:02,無
5901184679,汀州藥局,臺北市中正區汀州路１段１８７、１８９、１９１號（１樓）,121.5112,25.02704,(02)23090705,羅氏家用新冠病毒抗原自我檢測套組,78,2022/04/30 15:26:02,快篩實名制，每天16:00開始販售，售完為止。
5901190515,日昇藥局,臺北市萬華區廣州街１２４號,121.5016,25.03654,(02)23062975,羅氏家用新冠病毒抗原自我檢測套組,50,2022/04/30 15:26:02,實名制快篩04-30已到貨
5901190668,聯慶大藥局,臺北市萬華區萬大路３０６號１樓,121.5003,25.02495,(02)23039850,羅氏家用新冠病毒抗原自我檢測套組,79,2022/04/30 15:26:02,無
5901192180,康之友藥局,臺北市萬華區青年路２０號,121.5055,25.02592,(02)23011598,羅氏家用新冠病毒抗原自我檢測套組,78,2022/04/30 15:26:02,下午兩點發號碼牌
5901192822,專品藥局,臺北市萬華區長沙街２段７１－１號,121.5051,25.04062,(02)23718892,羅氏家用新冠病毒抗原自我檢測套組,44,2022/04/30 15:26:02,快篩實名制下午3點發放
5901192975,萬華藥局,臺北市萬華區萬大路２４８號實際營業地址１樓、２樓,121.5003,25.02626,(02)23012221,羅氏家用新冠病毒抗原自我檢測套組,78,2022/04/30 15:26:02,快篩實名制，每天16:00開始販售，售完為止。
5901193169,柏祥藥局,臺北市萬華區西藏路１４１號,121.5017,25.02944,(02)23018272,羅氏家用新冠病毒抗原自我檢測套組,73,2022/04/30 15:26:02,1快篩服務時間pm6:00起售完截止。2每日pm5:00前預留8份給醫療人員（需本人親持執業執照及健保卡）。3現場僅發放70份。
5901193338,艾米力藥師藥局,臺北市萬華區西藏路１０７－２號１樓,121.5035,25.02955,(02)23036583,羅氏家用新冠病毒抗原自我檢測套組,78,2022/04/30 15:26:02,快篩實名制:上午9:00開始販售（政府固定配送情況下）。4／30因政府配送不穩定，調整為：晚上7:00。
5901200105,建興藥局,臺北市文山區木柵路２段８１號１樓,121.561,24.98889,(02)29399993,羅氏家用新冠病毒抗原自我檢測套組,78,2022/04/30 15:26:02,無
5901200114,健群藥局,臺北市文山區景興路４１號,121.5448,24.99717,(02)29328898,羅氏家用新冠病毒抗原自我檢測套組,78,2022/04/30 15:26:02,無
5901200123,瑞安藥局,臺北市文山區溪口街６９－１號１樓,121.5393,24.99512,(02)29312888,羅氏家用新冠病毒抗原自我檢測套組,78,2022/04/30 15:26:02,早上8:30起服務星期日休息
5901200490,永明大藥局,臺北市文山區興隆路１段２９７號１樓,121.5449,24.99875,(02)29314428,羅氏家用新冠病毒抗原自我檢測套組,78,2022/04/30 15:26:02,無
5901201728,東京晟藥局,臺北市文山區辛亥路４段９７號,121.5587,25.00684,(02)29356354,羅氏家用新冠病毒抗原自我檢測套組,12,2022/04/30 15:26:02,周日不銷售實名制快篩，預領號碼牌購買
5901202047,華君藥局,臺北市文山區興隆路２段６０號,121.5478,24.99955,(02)29319510,羅氏家用新冠病毒抗原自我檢測套組,1,2022/04/30 15:26:02,每天12:00開始販售快篩
5901202627,杏隆藥局,臺北市文山區羅斯福路５段２６１號,121.5395,25.00115,(02)29313151,羅氏家用新冠病毒抗原自我檢測套組,37,2022/04/30 15:26:02,快篩實名制採預約登記，至5／5已登記額滿。
5901202841,欣安景美藥局,臺北市文山區景文街７７號,121.5414,24.99126,(02)29316008,羅氏家用新冠病毒抗原自我檢測套組,12,2022/04/30 15:26:02,每天快篩劑AM10：00發號碼牌PM14:00開始販賣售完為止
5901203062,大樹文山藥局,臺北市文山區興隆路３段１３號（１、２、３樓）,121.555,25.00088,(02)29342226,羅氏家用新冠病毒抗原自我檢測套組,78,2022/04/30 15:26:02,口罩販售時間：14:00 - 16:00
5901203295,專品政大藥局,臺北市文山區指南路２段８號,121.5742,24.98784,(02)22343010,羅氏家用新冠病毒抗原自我檢測套組,67,2022/04/30 15:26:02,無
5901203366,大樹木柵藥局,臺北市文山區木柵路３段１０８號、１１０號（１樓、２樓）,121.5676,24.98866,(02)22340110,羅氏家用新冠病毒抗原自我檢測套組,78,2022/04/30 15:26:02,快篩實名制，每天16:00開始販售，售完為止。
5901203375,大樹景美藥局,臺北市文山區羅斯福路６段２３４之１號,121.5404,24.99244,(02)29322951,羅氏家用新冠病毒抗原自我檢測套組,78,2022/04/30 15:26:02,快篩實名制，每天16:00開始販售，售完為止。
5901203393,躍獅景新藥局,臺北市文山區羅斯福路６段３０號１樓,121.5396,24.99978,(02)29356221,羅氏家用新冠病毒抗原自我檢測套組,78,2022/04/30 15:26:02,無
5901203400,富康活力睦新藥局,臺北市文山區木新路３段２１６號,121.5595,24.98153,(02)29393666,羅氏家用新冠病毒抗原自我檢測套組,78,2022/04/30 15:26:02,無
5901203446,景華盛康藥局,臺北市文山區景華街６９號１樓,121.545,24.99524,(02)29310188,羅氏家用新冠病毒抗原自我檢測套組,29,2022/04/30 15:26:02,快篩販售時間:早上9點開賣，現場發送號碼牌
5901203464,大愛幸福藥局,臺北市文山區木新路２段２２１號１樓,121.5675,24.98344,(02)29379977,羅氏家用新冠病毒抗原自我檢測套組,1,2022/04/30 15:26:02,無
5902010132,宏恩藥局,高雄市鹽埕區教仁里瀨南街１３３號,120.2823,22.62472,(07)5211318,羅氏家用新冠病毒抗原自我檢測套組,28,2022/04/30 15:26:02,4／30 15:00開始販售
5902011291,長庚藥局,高雄市鹽埕區五福四路１６３號一樓,120.2834,22.62347,(07)5513436,羅氏家用新冠病毒抗原自我檢測套組,53,2022/04/30 15:26:02,無
5902020012,永松藥局,高雄市鼓山區鼓山三路１３０－１５號,120.2802,22.66454,(07)5810657,羅氏家用新冠病毒抗原自我檢測套組,83,2022/04/30 15:26:02,周一到周日早上9點開始賣口罩，到晚上10點.
5902022794,定國藥局,高雄市鼓山區九如四路１１３５號,120.2791,22.65936,(07)5815858,羅氏家用新冠病毒抗原自我檢測套組,40,2022/04/30 15:26:02,無
5902022801,裕康中西大藥局,高雄市鼓山區裕誠路１５１９號,120.2951,22.66479,(07)5555352,羅氏家用新冠病毒抗原自我檢測套組,2,2022/04/30 15:26:02,藥局販售口罩時間，依藥局門口公告時間為主（售完為止）
5902022874,康爾喜藥局,高雄市鼓山區慶豐街５０號,120.2935,22.66647,(07)5222650,羅氏家用新冠病毒抗原自我檢測套組,53,2022/04/30 15:26:02,早上9點半後開始販售口罩，營業時間為早上9:10至晚間10:00
5902022972,高雄藥局,高雄市鼓山區九如四路９２４號,120.2793,22.65466,(07)5214266,羅氏家用新冠病毒抗原自我檢測套組,39,2022/04/30 15:26:02,賣口罩時間為週一～週六晚上6點，售完為止
5902031999,平安藥局,高雄市左營區中華一路５之１號,120.287,22.66961,(07)5833688,羅氏家用新冠病毒抗原自我檢測套組,18,2022/04/30 15:26:02,無
5902032432,威林藥局,高雄市左營區華夏路７２１號,120.3023,22.67845,(07)3414243,羅氏家用新冠病毒抗原自我檢測套組,33,2022/04/30 15:26:02,營業時間販售快篩（售完為止），星期一~五早上12:00~晚上9:00，星期六日早上09:00~下午5:00執業
5902032441,健怡藥局,高雄市左營區翠峰路４０號,120.2897,22.67229,(07)5821891,羅氏家用新冠病毒抗原自我檢測套組,28,2022/04/30 15:26:02,快篩星期一~星期日早上8:30開始販售
5902032450,可達藥局,高雄市左營區榮德街１７７號,120.3205,22.68359,(07)3420182,羅氏家用新冠病毒抗原自我檢測套組,45,2022/04/30 15:26:02,無
5902032530,杏光藥局,高雄市左營區果峰街４７巷１號１樓,120.2869,22.6703,(07)5837060,羅氏家用新冠病毒抗原自我檢測套組,8,2022/04/30 15:26:02,上午營業時間為9 :00~12:00；晚上營業至21:30
5902032674,辰暘藥局,高雄市左營區富民路１２０號１、２樓,120.3054,22.66066,(07)5588545,羅氏家用新冠病毒抗原自我檢測套組,27,2022/04/30 15:26:02,口罩販售時間09:30-21:30
5902040014,成吉藥局,高雄市楠梓區楠梓東街７４號,120.3301,22.72966,(07)3513339,羅氏家用新冠病毒抗原自我檢測套組,78,2022/04/30 15:26:02,下午6點開始販賣實名制快篩，售完為止!!!星期日店休
5902040087,世詠藥局,高雄市楠梓區楠都東街１３８號,120.3262,22.72532,(07)3539869,羅氏家用新冠病毒抗原自我檢測套組,47,2022/04/30 15:26:02,快篩周一~周五早上9:00-21:30周六.日下午15:00-21:30，售完為止
5902040210,益民藥局,高雄市楠梓區建楠路４７號,120.3287,22.72659,(07)3522161,羅氏家用新冠病毒抗原自我檢測套組,78,2022/04/30 15:26:02,星期一至星期五 號碼牌發放時間自10:00  星期六   不發放口罩   星期日號碼牌發放時間自 15:00
5902040532,聯亞藥局,高雄市楠梓區軍校路７１０號,120.293,22.70779,(07)3638387,羅氏家用新冠病毒抗原自我檢測套組,78,2022/04/30 15:26:02,口罩販賣時段：上午8：30起至售完為止
5902042769,家安藥局,高雄市楠梓區後昌新路１３號１樓,120.2917,22.71844,(07)3600066,羅氏家用新冠病毒抗原自我檢測套組,13,2022/04/30 15:26:02,無
5902050298,瑞鶴藥局,高雄市三民區寶德里義德路２５號,120.3352,22.64301,(07)3862757,羅氏家用新冠病毒抗原自我檢測套組,18,2022/04/30 15:26:02,下午2:00至4:30午休勿擾，每日09:00至21:00發售快篩。
5902050350,日星藥局,高雄市三民區寶龍里惠德街３８號,120.3241,22.64741,(07)3845188,羅氏家用新冠病毒抗原自我檢測套組,52,2022/04/30 15:26:02,銷售口罩時間:星期一至五16:00-22:00；星期六09:00-11:30，售完為止
5902050412,春仁藥局,高雄市三民區覺民路２２５號,120.3391,22.63944,(07)3962341,羅氏家用新冠病毒抗原自我檢測套組,10,2022/04/30 15:26:02,4／1-4／30售時間自9；00-22:00現場排隊.（賣完為止）
5902050565,澄和藥局,高雄市三民區澄和路６６號,120.3445,22.64474,(07)3923111,羅氏家用新冠病毒抗原自我檢測套組,43,2022/04/30 15:26:02,快篩試劑- 販售時間自下午14:00起至售完為止
5902050636,嘉益藥局,高雄市三民區重慶街３０號,120.302,22.64223,(07)3110157,羅氏家用新冠病毒抗原自我檢測套組,26,2022/04/30 15:26:02,無
5902050798,友泰藥局,高雄市三民區中和街１６９號,120.2868,22.6388,(07)3125236,羅氏家用新冠病毒抗原自我檢測套組,76,2022/04/30 15:26:02,無
5902050903,皇安藥局,高雄市三民區九如一路４６１號,120.3296,22.63865,(07)3866779,羅氏家用新冠病毒抗原自我檢測套組,30,2022/04/30 15:26:02,營業日08:15~08:30可先領取號碼牌，上午08:30~12:00及下午3:00~10:.00為販賣口罩時間，售完為止
5902051240,明皇藥局,高雄市三民區寶國里義華路１８１號,120.3399,22.64276,(07)3860121,羅氏家用新冠病毒抗原自我檢測套組,33,2022/04/30 15:26:02,藥局販售口罩時間，依藥局門口公告時間為主（售完為止）
5902051642,安寧藥局,高雄市三民區嫩江街３９號,120.2981,22.64208,(07)3217585,羅氏家用新冠病毒抗原自我檢測套組,20,2022/04/30 15:26:02,星日不賣口罩
5902051786,億生藥局,高雄市三民區南台路２００號,120.2982,22.63706,(07)2873436,羅氏家用新冠病毒抗原自我檢測套組,78,2022/04/30 15:26:02,「藥局販售口罩時間，依藥局門口公告時間為主（售完為止）」
5902054689,善全藥局,高雄市三民區義華路３９１號,120.3332,22.64339,(07)3960269,羅氏家用新冠病毒抗原自我檢測套組,9,2022/04/30 15:26:02,口罩代售有營業即販售，.其它看休息公告
5902056718,岱安藥局,高雄市三民區熱河二街２３號,120.3018,22.6439,(07)3219946,羅氏家用新冠病毒抗原自我檢測套組,20,2022/04/30 15:26:02,下午1點開始販售實名制快篩（日公休）
5902056754,大家藥局,高雄市三民區鼎中路２２９號１樓,120.3191,22.66421,(07)3107632,羅氏家用新冠病毒抗原自我檢測套組,74,2022/04/30 15:26:02,實名制快篩販售時間-08:30-12:00
5902057126,民安藥局,高雄市三民區嫩江街７０號,120.2985,22.64282,(07)3121381,羅氏家用新冠病毒抗原自我檢測套組,15,2022/04/30 15:26:02,藥局販售口罩時間，依藥局門口公告時間為主（售完為止），週日休息
5902057288,育英藥局,高雄市三民區灣子里和順街３９號,120.3159,22.65336,(07)3824467,羅氏家用新冠病毒抗原自我檢測套組,9,2022/04/30 15:26:02,營業時間:8:30-21:00， 週日休息
5902057368,崧民藥師藥局,高雄市三民區金鼎路２２８號,120.3238,22.66483,(07)3102496,羅氏家用新冠病毒抗原自我檢測套組,78,2022/04/30 15:26:02,服務時間9:00-22:30自01／01日~1月29日
5902057484,永勝藥局,高雄市三民區褒忠街１１４號,120.334,22.64262,(07)3814643,羅氏家用新冠病毒抗原自我檢測套組,37,2022/04/30 15:26:02,口罩代售時間14:00--16:00.現場排隊.週日休
5902057546,華南藥局,高雄市三民區中和街１２４號,120.2878,22.63941,(07)3127483,羅氏家用新冠病毒抗原自我檢測套組,31,2022/04/30 15:26:02,快篩代售時間9:00起，售完為止，12點-1點，5點-6點30分用餐時間不代售，週日不代售。
5902057902,利安藥局,高雄市三民區建工路５４５號,120.3213,22.64854,(07)3965550,羅氏家用新冠病毒抗原自我檢測套組,1,2022/04/30 15:26:02,營業日9:00AM起販賣口罩，售完為止
5902060025,連作藥局,高雄市新興區大同一路２０３－１號,120.3003,22.62856,(07)2154716,羅氏家用新冠病毒抗原自我檢測套組,83,2022/04/30 15:26:02,快篩試紙領用時間為每日下午2點  4／29日起，28日已售完
5902061540,長青藥局,高雄市新興區六合路１１４號,120.3159,22.63223,(07)2223969,羅氏家用新冠病毒抗原自我檢測套組,8,2022/04/30 15:26:02,上午8點40分   領完為止
5902071546,中華藥局,高雄市前金區中華四路３６３號,120.2987,22.62137,(07)2712779,羅氏家用新冠病毒抗原自我檢測套組,78,2022/04/30 15:26:02,星期日固定休假
5902080474,弘宗藥局,高雄市苓雅區武智街２號,120.3356,22.62303,(07)7211088,羅氏家用新冠病毒抗原自我檢測套組,34,2022/04/30 15:26:02,8:00~22:00（營業時段）
5902080858,福興藥局,高雄市苓雅區成功一路５２號,120.2983,22.6131,(07)3331862,羅氏家用新冠病毒抗原自我檢測套組,32,2022/04/30 15:26:02,每日上午九點販賣快篩試劑售完止.營業時間9-21時.
5902081015,明群藥局,高雄市苓雅區英明路５４號,120.3253,22.61276,(07)7254953,羅氏家用新冠病毒抗原自我檢測套組,24,2022/04/30 15:26:02,周一至周日每日8:00開始販售快篩試劑依現場排隊序販賣售完為止
5902081186,寶麒藥局,高雄市苓雅區三多一路１４４號,120.3315,22.62306,(07)7610355,羅氏家用新冠病毒抗原自我檢測套組,23,2022/04/30 15:26:02,防疫口罩販售時段:周一至周六早上約9點開始販售，滿規定2小時後視狀況再延長販售時間，周日休息.
5902084785,新良安藥局,高雄市苓雅區苓雅二路１０６號,120.2987,22.61731,(07)3386980,羅氏家用新冠病毒抗原自我檢測套組,78,2022/04/30 15:26:02,無
5902085031,上好藥局,高雄市苓雅區四維一路六三號一樓,120.3294,22.6257,(07)7266863,羅氏家用新冠病毒抗原自我檢測套組,19,2022/04/30 15:26:02,快篩販售時間.每日上午11:00~下午13:00
5902085148,召祐健保藥局,高雄市苓雅區正義路９３號,120.3385,22.63037,(07)7493719,羅氏家用新冠病毒抗原自我檢測套組,12,2022/04/30 15:26:02,無
5902085184,惠春藥局,高雄市苓雅區武慶三路９６號,120.3319,22.62043,(07)7611358,羅氏家用新冠病毒抗原自我檢測套組,63,2022/04/30 15:26:02,「藥局販售口罩時間，依藥局門口公告時間為主（售完為止）」
5902085228,永森藥局,高雄市苓雅區建國一路２９０號,120.3262,22.63308,(07)7163087,羅氏家用新冠病毒抗原自我檢測套組,21,2022/04/30 15:26:02,快篩代售時間:營業時間
5902085344,意祥藥局,高雄市苓雅區武廟路１４２之１號,120.3276,22.63125,(07)7224835,羅氏家用新冠病毒抗原自我檢測套組,6,2022/04/30 15:26:02,藥局販售口罩時間，依藥局門口公告時間為主（售完為止）
5902085371,加和藥局,高雄市苓雅區和平一路１４３之７號,120.3205,22.62331,(07)7219332,羅氏家用新冠病毒抗原自我檢測套組,18,2022/04/30 15:26:02,無
5902090032,全國大藥局,高雄市前鎮區三多二路４０３號１樓,120.3166,22.61777,(07)3345775,羅氏家用新冠病毒抗原自我檢測套組,17,2022/04/30 15:26:02,快篩實名制下午13:30開始..賣完為止
5902090087,久億藥局,高雄市前鎮區保泰路３５１號,120.3341,22.60289,(07)7619333,羅氏家用新冠病毒抗原自我檢測套組,14,2022/04/30 15:26:02,無實名制口罩
5902091128,北京藥局,高雄市前鎮區公正路３１號,120.3322,22.60291,(07)7113100,羅氏家用新冠病毒抗原自我檢測套組,78,2022/04/30 15:26:02,口罩發放方式，上午9；00現場過健保卡領取口罩。
5902092296,迎廣藥局,高雄市前鎮區林森三路１５０號２樓,120.3089,22.61357,(07)3321466,羅氏家用新冠病毒抗原自我檢測套組,22,2022/04/30 15:26:02,週一至周六08:30至12:00  15:00至18:00   星期日休
5902092410,旺盛藥局,高雄市前鎮區永豐路１０８號,120.3337,22.6065,(07)7512899,羅氏家用新冠病毒抗原自我檢測套組,47,2022/04/30 15:26:02,過年期間 111／01／31下午至111／02／03  休診
5902092554,協和藥局,高雄市前鎮區中華五路９８３號,120.306,22.60221,(07)5377769,羅氏家用新冠病毒抗原自我檢測套組,28,2022/04/30 15:26:02,快篩代售:周一至周六下午2:00 週六早上:9:00  （5／4下午3點）
5902092896,廣泰藥局,高雄市前鎮區瑞北路５６號,120.3346,22.60931,(07)7162166,羅氏家用新冠病毒抗原自我檢測套組,18,2022/04/30 15:26:02,固定周一至周六，依店內公告為準
5902092910,健家藥局,高雄市前鎮區二聖二路４５號,120.3165,22.61293,(07)3389986,羅氏家用新冠病毒抗原自我檢測套組,45,2022/04/30 15:26:02,早上9:30開始販售口罩，售完為止，週日不販售
5902092956,慈濟健保藥局,高雄市前鎮區鎮州路２１１號,120.3082,22.58819,(07)8159788,羅氏家用新冠病毒抗原自我檢測套組,78,2022/04/30 15:26:02,每天早上8點開始賣.售完為止藥局販售口罩時間，依藥局門口公告時間為主（售完為止）
5902100033,旗后藥局,高雄市旗津區中洲三路７１５號,120.2705,22.61096,(07)5715838,羅氏家用新冠病毒抗原自我檢測套組,78,2022/04/30 15:26:02,無
5902110422,臨生藥局,高雄市小港區鳳鳴路１４６－４號,120.3588,22.51445,(07)8711290,羅氏家用新冠病毒抗原自我檢測套組,23,2022/04/30 15:26:02,早上9:00開始販售快篩劑售完為止。
5902110628,悅是康藥局,高雄市小港區漢民路２７６號,120.3536,22.56665,(07)8010012,羅氏家用新冠病毒抗原自我檢測套組,78,2022/04/30 15:26:02,4／30下午3:30開賣
5902111670,桂林活力藥師藥局,高雄市小港區桂陽路４０號,120.3575,22.58194,(07)7931248,羅氏家用新冠病毒抗原自我檢測套組,78,2022/04/30 15:26:02,自2／11日~2／29日，營業日08:30及13:00各50份為販賣口罩時間.售完為止
5903010038,金宏健保藥局,臺中市豐原區安康路１０３號,120.7258,24.24303,(04)25288262,羅氏家用新冠病毒抗原自我檢測套組,2,2022/04/30 15:26:02,星期一至星期六上午9:00-晚上9:00
5903010181,永豐藥局,臺中市豐原區中山路４２２號１樓,120.7153,24.24733,(04)25280088,羅氏家用新冠病毒抗原自我檢測套組,28,2022/04/30 15:26:02,快篩星期一至五 早上九點開始販售 星期六 下午三點 開始販售
5903010458,心之藥局,臺中市豐原區中山路５０４號,120.7149,24.25009,(04)25254959,羅氏家用新冠病毒抗原自我檢測套組,77,2022/04/30 15:26:02,周一至周五 12:30
5903010485,大樹圓環藥局,臺中市豐原區圓環東路６１７號１樓,120.7283,24.25084,(04)25122212,羅氏家用新冠病毒抗原自我檢測套組,78,2022/04/30 15:26:02,口罩販售時間：14:00 - 16:00
5903010547,佑全豐原中正藥局,臺中市豐原區中正路２２３、２２５號１、２樓,120.7175,24.25179,(04)25152886,羅氏家用新冠病毒抗原自我檢測套組,78,2022/04/30 15:26:02,實名制快篩販售時間:4／30下午4點開始
5903040036,得康藥局,臺中市清水區高美路１１７號,120.5753,24.27879,(04)26260622,羅氏家用新冠病毒抗原自我檢測套組,32,2022/04/30 15:26:02,4／30因延遲到貨，於15:00開賣
5903050103,北勢進騰藥局,臺中市沙鹿區北勢東路５０９之７號１樓,120.576,24.22526,(04)26330893,羅氏家用新冠病毒抗原自我檢測套組,78,2022/04/30 15:26:02,營業時間12:00-22:00，每日12:00販售實名制快篩
5903050194,樂齊藥局,臺中市沙鹿區北中路８６－１、８６－２號,120.5692,24.22827,(04)26338867,羅氏家用新冠病毒抗原自我檢測套組,78,2022/04/30 15:26:02,防疫家用快篩試劑每日19點開賣，售完為止，庫存請依現場為主。
5903050274,鹿寮藥局,臺中市沙鹿區中山路４６１、４６１－１號１、２樓,120.5615,24.24387,(04)26630677,羅氏家用新冠病毒抗原自我檢測套組,78,2022/04/30 15:26:02,快篩實名制，每天16:00開始販售，售完為止。
5903070052,后里宏安藥局,臺中市后里區福音路２８號１樓,120.7134,24.30512,(04)25581036,羅氏家用新冠病毒抗原自我檢測套組,23,2022/04/30 15:26:02,固定週一至五早上10點快篩發放周六下午2:30，週日休息。
5903070098,祐恩藥局,臺中市后里區甲后路一段４７８號１樓,120.6819,24.3157,(04)25587518,羅氏家用新冠病毒抗原自我檢測套組,11,2022/04/30 15:26:02,固定周一到周六，國定例假日照常調劑藥服務。清明、端午、中秋節晚上休息。
5903090143,佳福藥局,臺中市潭子區中山路１段４３－１號,120.7023,24.19138,(04)25332982,羅氏家用新冠病毒抗原自我檢測套組,78,2022/04/30 15:26:02,每日中午12:00至下午3:00休息，星期六公休
5903090330,潭子炘星藥局,臺中市潭子區中山路一段９７號１樓,120.7023,24.19319,(04)25320107,羅氏家用新冠病毒抗原自我檢測套組,22,2022/04/30 15:26:02,12:00~15:00中午休息時間 4／30快篩下午3:30開始販售
5903100180,杏一大雅中清藥局,臺中市大雅區中清路四段３１、３３、３５號１樓,120.6448,24.22615,(04)25601791,羅氏家用新冠病毒抗原自我檢測套組,14,2022/04/30 15:26:02,無
5903100206,民生藥局,臺中市大雅區民生路一段２２１號１樓,120.6512,24.22789,(04)25662229,羅氏家用新冠病毒抗原自我檢測套組,78,2022/04/30 15:26:02,快篩實名制，每天16:00開始販售，售完為止。
5903110051,新社千百岳大藥局,臺中市新社區興安路２４、２６號,120.8083,24.2412,(04)25821798,羅氏家用新冠病毒抗原自我檢測套組,18,2022/04/30 15:26:02,無
5903150135,全品藥局,臺中市烏日區公園路２４０之１號１樓,120.6254,24.10234,(04)23362690,羅氏家用新冠病毒抗原自我檢測套組,78,2022/04/30 15:26:02,防疫口罩每日上午8時30分開始販售
5903150153,溪南藥局,臺中市烏日區溪南路一段５６５號１樓,120.6431,24.07523,(04)23353666,羅氏家用新冠病毒抗原自我檢測套組,78,2022/04/30 15:26:02,快篩實名制，每天16:00開始販售，售完為止。
5903150180,九德藥局,臺中市烏日區中山路一段４３８、４４０號１樓,120.6365,24.10748,(04)23385456,羅氏家用新冠病毒抗原自我檢測套組,78,2022/04/30 15:26:02,快篩實名制，每天16:00開始販售，售完為止。
5903170048,龍井新庄藥局,臺中市龍井區遊園南路１７９號１樓,120.5843,24.18216,(04)26322169,羅氏家用新冠病毒抗原自我檢測套組,78,2022/04/30 15:26:02,實名制快篩每日下午3點半開賣
5903180115,永合藥局,臺中市霧峰區中正路９６５號,120.6989,24.06597,(04)23391910,羅氏家用新冠病毒抗原自我檢測套組,78,2022/04/30 15:26:02,無
5903180133,正開心大藥局,臺中市霧峰區中正路９５１號１樓,120.6987,24.06565,(04)23396940,羅氏家用新冠病毒抗原自我檢測套組,77,2022/04/30 15:26:02,週一~週五09:00販賣快篩試劑，賣完為止。
5903180142,峰正藥局,臺中市霧峰區中正路８３０號１樓,120.6987,24.06244,(04)23303353,羅氏家用新冠病毒抗原自我檢測套組,78,2022/04/30 15:26:02,快篩實名制，每天16:00開始販售，售完為止。
5903190139,劍橋藥局,臺中市太平區宜昌路５５２號１樓,120.7157,24.14758,(04)22776619,羅氏家用新冠病毒抗原自我檢測套組,19,2022/04/30 15:26:02,星期一到星期六
5903190148,亞洲藥師連鎖大藥局,臺中市太平區中山路２段４５８號,120.7253,24.14984,(04)23921681,羅氏家用新冠病毒抗原自我檢測套組,3,2022/04/30 15:26:02,實名制快篩，每天14:30開賣，一人一卡，請自備500元
5903190291,新平和藥局,臺中市太平區光興路８２７號１樓,120.7307,24.11198,(04)22771262,羅氏家用新冠病毒抗原自我檢測套組,1,2022/04/30 15:26:02,如需領藥請先電話洽詢。口罩現場販售.不用排隊
5903190362,太平中山藥局,臺中市太平區中山路４段１１號,120.7139,24.14931,(04)23959200,羅氏家用新冠病毒抗原自我檢測套組,78,2022/04/30 15:26:02,快篩實名制，每天16:00開始販售，售完為止。
5903190586,樹孝炘星藥局,臺中市太平區樹孝路４７６號１樓,120.7203,24.15735,(04)23929578,羅氏家用新冠病毒抗原自我檢測套組,78,2022/04/30 15:26:02,快篩早上8:00開賣，售完為止！周六固定休息
5903190700,佑全太平藥局,臺中市太平區樹德路１２１號１樓,120.712,24.15444,(04)23910016,羅氏家用新冠病毒抗原自我檢測套組,78,2022/04/30 15:26:02,4／30實名制快篩.今日延至15:40發號碼牌.16點開始販售
5903200229,信元藥局,臺中市大里區益民路２段３７２號１樓,120.684,24.11545,(04)24876051,羅氏家用新冠病毒抗原自我檢測套組,63,2022/04/30 15:26:02,下午5點發號碼牌並依序販賣
5903200443,佳霖藥局,臺中市大里區塗城路９６４號１樓,120.6933,24.09081,(04)24960895,羅氏家用新冠病毒抗原自我檢測套組,78,2022/04/30 15:26:02,健保卡快篩販售時間:請準備好健保卡和500元.下午3點半開賣**現場排隊／售完為止
5903200514,大明永欣藥局,臺中市大里區大明路５３９號１樓、５４１號１樓,120.6735,24.11478,(04)24068864,羅氏家用新冠病毒抗原自我檢測套組,2,2022/04/30 15:26:02,實名制快篩每天下午2點開始發號碼牌
5903200596,大樹大里藥局,臺中市大里區中興路二段１０１號,120.6885,24.10305,(04)24861133,羅氏家用新冠病毒抗原自我檢測套組,78,2022/04/30 15:26:02,快篩實名制，每天16:00開始販售，售完為止。
5903200685,塗城藥局,臺中市大里區中興路一段１８７、１８９、１９１號１樓,120.6933,24.09008,(04)24967234,羅氏家用新冠病毒抗原自我檢測套組,78,2022/04/30 15:26:02,快篩實名制，每天16:00開始販售，售完為止。
5903200701,大益藥局,臺中市大里區益民路二段３３５號１、２樓,120.6837,24.11311,(04)24811551,羅氏家用新冠病毒抗原自我檢測套組,78,2022/04/30 15:26:02,快篩實名制，每天16:00開始販售，售完為止。
5903200738,杏一大里國光藥局,臺中市大里區國光路二段４１１號１樓,120.6796,24.10921,(04)24071492,羅氏家用新冠病毒抗原自我檢測套組,78,2022/04/30 15:26:02,周一至周六16:00~19:00，周日及補假日人力不足不販售
5903200756,佑全大里大明藥局,臺中市大里區大明路３６０、３６２號,120.6787,24.11511,(04)24818633,羅氏家用新冠病毒抗原自我檢測套組,8,2022/04/30 15:26:02,實名制快篩，開賣時間:下午14:00，售完為止
5903220114,鄧博士藥局,臺中市中區中山路３２５號１樓,120.6756,24.14434,(04)22256851,羅氏家用新冠病毒抗原自我檢測套組,78,2022/04/30 15:26:02,政府快篩 星期六中午才會送到
5903220141,雙十小林健保藥局,臺中市中區雙十路一段３５號,120.6855,24.14172,(04)22253662,羅氏家用新冠病毒抗原自我檢測套組,21,2022/04/30 15:26:02,每日8點販賣
5903220150,老順安大藥局,臺中市中區中華路二段６３號、６５號１樓,120.6794,24.14801,(04)22016306,羅氏家用新冠病毒抗原自我檢測套組,14,2022/04/30 15:26:02,無
5903220169,公園大藥局,臺中市中區公園路９５號１樓,120.6796,24.1462,(04)22062682,羅氏家用新冠病毒抗原自我檢測套組,59,2022/04/30 15:26:02,每日上午8點至下午11點59分
5903220178,佑全台中中華藥局,臺中市中區中華路一段１６２號１樓,120.6779,24.14605,(04)22291556,羅氏家用新冠病毒抗原自我檢測套組,10,2022/04/30 15:26:02,無
5903220196,日安藥局,臺中市中區臺灣大道一段３３０號１樓,120.6801,24.1422,(04)22234246,羅氏家用新冠病毒抗原自我檢測套組,47,2022/04/30 15:26:02,無
5903230209,東京藥師藥局,臺中市東區復興路五段１４９號１樓,120.6893,24.14543,(04)22132278,羅氏家用新冠病毒抗原自我檢測套組,17,2022/04/30 15:26:02,無
5903230236,佳境藥局,臺中市東區大智路１－１號１樓,120.6881,24.13635,(04)22211395,羅氏家用新冠病毒抗原自我檢測套組,67,2022/04/30 15:26:02,下午14:00開始販售實名制快篩
5903240143,利民藥局,臺中市西區四維街２３號１樓,120.6758,24.13714,(04)22292931,羅氏家用新冠病毒抗原自我檢測套組,24,2022/04/30 15:26:02,平日營業時間10-20，周六10-15，周日休。實名制快篩下午1點半開始販售至售完或營業結束。
5903240385,喆星藥局,臺中市西區精誠路４２２號,120.655,24.14522,(04)24715301,羅氏家用新冠病毒抗原自我檢測套組,17,2022/04/30 15:26:02,快篩試劑下午2點現場排隊領號碼牌，售完為止
5903240438,真誠藥局,臺中市西區美村路一段３７８號１樓,120.6615,24.14458,(04)23015750,羅氏家用新冠病毒抗原自我檢測套組,11,2022/04/30 15:26:02,世鴻診所旁，今日貨運延遲，快篩實名制15:00開始販售，中午休息，週日休息
5903240447,大樹五權藥局,臺中市西區五權路９７－１號１樓,120.6717,24.14626,(04)22022910,羅氏家用新冠病毒抗原自我檢測套組,78,2022/04/30 15:26:02,快篩實名制，每天16:00開始販售，售完為止。
5903240474,佑全台中向上藥局,臺中市西區向上路一段３８６、３８８號１樓,120.6559,24.14688,(04)23204732,羅氏家用新冠病毒抗原自我檢測套組,25,2022/04/30 15:26:02,因政府配貨時間不一，依照門市現場公告時間為主
5903240492,好好誠美藥局,臺中市西區向上北路１８６號１樓,120.6611,24.14797,(04)23022838,羅氏家用新冠病毒抗原自我檢測套組,22,2022/04/30 15:26:02,快篩販售時間下午兩點
5903250381,大樹美村藥局,臺中市南區美村南路１２４號,120.667,24.11499,(04)22621113,羅氏家用新冠病毒抗原自我檢測套組,78,2022/04/30 15:26:02,口罩販售時間：14:00 - 16:00
5903250443,千美台安藥局,臺中市南區美村南路２６３號,120.6666,24.11426,(04)22602101,羅氏家用新冠病毒抗原自我檢測套組,3,2022/04/30 15:26:02,周一到周日，下午3:00發放號碼牌，開始販售防疫口罩
5903250505,心安藥局,臺中市南區國光路２４１號１樓,120.6794,24.12676,(04)22858773,羅氏家用新冠病毒抗原自我檢測套組,78,2022/04/30 15:26:02,下次販售時間5／2（一）下午三點。一人限一卡，依現場庫存為準。
5903250578,樂碩藥局,臺中市南區建國南路一段２５９號１樓,120.6583,24.12491,(04)22601288,羅氏家用新冠病毒抗原自我檢測套組,30,2022/04/30 15:26:02,快篩試劑15:00發放號碼牌，售完為止，快篩地圖與庫存餘量會有誤差，敬請見諒
5903250603,尚尚藥局,臺中市南區美村南路１９７號１樓,120.6666,24.11516,(04)22606831,羅氏家用新冠病毒抗原自我檢測套組,38,2022/04/30 15:26:02,無
5903260449,喜樂藥局,臺中市北區中清路１段３１號,120.677,24.1529,(04)22060423,羅氏家用新冠病毒抗原自我檢測套組,34,2022/04/30 15:26:02,無
5903260501,瑞鋒藥師藥局,臺中市北區育德路１６號,120.6795,24.15763,(04)22020786,羅氏家用新冠病毒抗原自我檢測套組,5,2022/04/30 15:26:02,依排班人力，周一至周六早上10點半或下午2點發號碼牌
5903260627,明曜藥局,臺中市北區北平路二段１９０號１樓,120.6784,24.17117,(04)22916775,羅氏家用新冠病毒抗原自我檢測套組,31,2022/04/30 15:26:02,快篩下午2點開始
5903260654,康新藥局,臺中市北區五權路２３２號,120.677,24.15078,(04)22020008,羅氏家用新冠病毒抗原自我檢測套組,42,2022/04/30 15:26:02,無
5903260663,佑全台中五權藥局,臺中市北區五權路４９６號,120.6833,24.15329,(04)22080702,羅氏家用新冠病毒抗原自我檢測套組,27,2022/04/30 15:26:02,因政府配貨時間不一，依照門市現場公告時間為主
5903260743,黎明安德藥局,臺中市北區中清路１段８５２號１樓,120.6718,24.17295,(04)22956098,羅氏家用新冠病毒抗原自我檢測套組,39,2022/04/30 15:26:02,禮拜四公休、禮拜日下午2點開始營業，下午3點開始販賣快篩
5903260798,光恒藥局,臺中市北區五權路２６１號１樓,120.6767,24.15097,(04)22068638,羅氏家用新冠病毒抗原自我檢測套組,78,2022/04/30 15:26:02,快篩 周一到周六早上8:00到12:00 開放購買
5903260832,維康學士藥局,臺中市北區學士路１９號１樓,120.6822,24.15384,(04)22080545,羅氏家用新冠病毒抗原自我檢測套組,16,2022/04/30 15:26:02,無
5903260878,927達霖藥師藥局,臺中市北區中華路二段２０１號１樓,120.6822,24.15278,(04)22060030,羅氏家用新冠病毒抗原自我檢測套組,43,2022/04/30 15:26:02,無
5903260967,正尚藥局,臺中市北區榮華街１６６號１樓,120.6868,24.16444,(04)22350347,羅氏家用新冠病毒抗原自我檢測套組,78,2022/04/30 15:26:02,實名制快篩18:00發放，周日09:00（若有剩餘）
5903260985,森川健保藥局,臺中市北區五權路２５１號１樓,120.6764,24.15074,(09)78157008,羅氏家用新冠病毒抗原自我檢測套組,55,2022/04/30 15:26:02,快篩試劑每日上午10點開賣，售完為止
5903261008,台中大樹藥局,臺中市北區漢口路三段２６１號,120.6726,24.16703,(04)22981113,羅氏家用新冠病毒抗原自我檢測套組,78,2022/04/30 15:26:02,快篩實名制，每天16:00開始販售，售完為止。
5903270301,宥承藥局,臺中市西屯區西屯路３段１４８－１６號,120.6242,24.18563,(04)24626559,羅氏家用新冠病毒抗原自我檢測套組,20,2022/04/30 15:26:02,星期一到星期六， 開始販售防疫口罩
5903270310,弘福藥師藥局,臺中市西屯區西屯路３段１６６－２１號１樓,120.6159,24.18918,(04)24611916,羅氏家用新冠病毒抗原自我檢測套組,55,2022/04/30 15:26:02,每日15:00發放號碼牌，發完即開始販售（全年無休）
5903270516,中科何藥局,臺中市西屯區福康路４０號,120.6173,24.18421,(04)24612570,羅氏家用新冠病毒抗原自我檢測套組,14,2022/04/30 15:26:02,防疫快篩每日15:00開始販售。（全年無休）
5903270721,舒健藥局,臺中市西屯區西屯路二段２５５號２樓,120.6459,24.17179,(04)27077858,羅氏家用新冠病毒抗原自我檢測套組,78,2022/04/30 15:26:02,公費快篩試劑於周一至周六晚上7點現場排隊購買。
5903270874,熊健康藥局,臺中市西屯區太原路一段２３２號,120.6632,24.16394,(04)23163505,羅氏家用新冠病毒抗原自我檢測套組,4,2022/04/30 15:26:02,快篩實名制販售時間: 14:30-15:30 ，星期日公休。
5903270963,源興大藥局,臺中市西屯區西屯路二段１２號,120.6622,24.16387,(04)23143045,羅氏家用新冠病毒抗原自我檢測套組,156,2022/04/30 15:26:02,口罩販售時間：每日早上9點至售完為止。
5903271031,美十樂中科藥局,臺中市西屯區西屯路三段１６６－６５號１樓,120.6129,24.19035,(04)24610219,羅氏家用新冠病毒抗原自我檢測套組,234,2022/04/30 15:26:02,固定周一至周日10:00開始販售口罩
5903271068,西墩藥局,臺中市西屯區黎明路三段２７５、２７７號１樓,120.6373,24.17812,(04)24510770,羅氏家用新冠病毒抗原自我檢測套組,78,2022/04/30 15:26:02,快篩實名制，每天16:00開始販售，售完為止。
5903271086,常春藤藥局,臺中市西屯區福康路８０號１樓,120.618,24.18603,(04)24619296,羅氏家用新冠病毒抗原自我檢測套組,39,2022/04/30 15:26:02,每日下午兩點到四點、晚上七點到九點 販賣防疫家用快篩
5903271102,杏東美藥局,臺中市西屯區智惠街１５６號１樓,120.6438,24.17032,(04)24523798,羅氏家用新冠病毒抗原自我檢測套組,78,2022/04/30 15:26:02,快篩實名制4／30 19:00發
5903271139,百吉藥局,臺中市西屯區青海路一段７１號１樓,120.6547,24.1644,(04)23135698,羅氏家用新冠病毒抗原自我檢測套組,78,2022/04/30 15:26:02,無
5903271175,維康中榮藥局,臺中市西屯區東大路一段１３號１樓,120.6022,24.18315,(04)23593195,羅氏家用新冠病毒抗原自我檢測套組,46,2022/04/30 15:26:02,無
5903271246,柏醫藥局,臺中市西屯區上安路５６號１樓,120.6412,24.17052,(04)24526391,羅氏家用新冠病毒抗原自我檢測套組,78,2022/04/30 15:26:02,公費快篩試劑10:00、15:00、19:00開放過卡領取
5903271291,西屯長安藥局,臺中市西屯區成都路３６８號１樓,120.6641,24.17322,(04)22981221,羅氏家用新冠病毒抗原自我檢測套組,78,2022/04/30 15:26:02,快篩實名制，每天16:00開始販售，售完為止。
5903280325,亞洲連鎖大藥局,臺中市南屯區黎明路２段１３３、１３５號,120.6336,24.15977,(04)23812886,羅氏家用新冠病毒抗原自我檢測套組,1,2022/04/30 15:26:02,無
5903280450,瑞安藥局,臺中市南屯區大墩路２６１號,120.6497,24.14302,(04)24750818,羅氏家用新冠病毒抗原自我檢測套組,39,2022/04/30 15:26:02,周一到周日每日早上9:00開始，賣完為止，營業至晚上22:00。
5903280521,百康健保藥局,臺中市南屯區黎明路二段３６３號,120.6353,24.15033,(04)22547776,羅氏家用新冠病毒抗原自我檢測套組,6,2022/04/30 15:26:02,營業每日上午8:30到晚上22:30!實名制快篩販售下午三點開始
5903280549,仁幼藥局,臺中市南屯區黎明東街２２９號１樓,120.6367,24.1482,(04)23809162,羅氏家用新冠病毒抗原自我檢測套組,65,2022/04/30 15:26:02,無
5903280585,康得藥局,臺中市南屯區向上路三段４５號,120.6354,24.14623,(04)23820981,羅氏家用新冠病毒抗原自我檢測套組,43,2022/04/30 15:26:02,4／30下午3點開始販售實名制快篩試劑.（偶有變更）
5903280647,澄光人文藥局,臺中市南屯區干城街３０５號,120.6345,24.1526,(04)22530303,羅氏家用新冠病毒抗原自我檢測套組,78,2022/04/30 15:26:02,周一~六8:30開始販售，現場排隊購買，售完為止。
5903280656,熊大心藥局,臺中市南屯區河南路四段３７６號,120.6369,24.15208,(04)22516252,羅氏家用新冠病毒抗原自我檢測套組,38,2022/04/30 15:26:02,周一至周六，下午15:00-16:00販售實名制快篩
5903280683,詠悅藥局,臺中市南屯區大墩十二街６３７號,120.6369,24.15009,(04)22515012,羅氏家用新冠病毒抗原自我檢測套組,7,2022/04/30 15:26:02,周一至周六上午9:00，周三上午10:00開始販售口罩、快篩。
5903280745,亨宇藥局,臺中市南屯區東興路二段２９－２號１樓,120.6529,24.13688,(04)24711206,羅氏家用新冠病毒抗原自我檢測套組,34,2022/04/30 15:26:02,無
5903280807,大樹南屯藥局,臺中市南屯區向上路一段６４３號１樓,120.6486,24.14659,(04)24758887,羅氏家用新冠病毒抗原自我檢測套組,78,2022/04/30 15:26:02,快篩實名制，每天16:00開始販售，售完為止。
5903280816,大育藥局,臺中市南屯區東興路二段７１號１樓,120.6528,24.13835,(04)24755656,羅氏家用新冠病毒抗原自我檢測套組,78,2022/04/30 15:26:02,每日固定晚上6點開賣 現場發放號碼牌
5903280889,精科藥局,臺中市南屯區嶺東路３２１號１樓,120.6106,24.14513,(04)23806288,羅氏家用新冠病毒抗原自我檢測套組,33,2022/04/30 15:26:02,4／30發放時間下午3:00 發完為止!
5903290045,康美得藥局,臺中市北屯區昌平路１段１０５－８號,120.6903,24.17373,(04)22467128,羅氏家用新冠病毒抗原自我檢測套組,39,2022/04/30 15:26:02,下午2:30開始販售實名制快篩，W日公休
5903290063,承恩藥局,臺中市北屯區北屯路４４１－１號１樓,120.7008,24.17977,(04)22467857,羅氏家用新冠病毒抗原自我檢測套組,78,2022/04/30 15:26:02,實名制快篩販售時間為早上11點開始（12:00-15:00中午休息） ； 星期六休息
5903290518,佳美藥局,臺中市北屯區東山路１段２６５號１樓,120.7184,24.17583,(04)24363658,羅氏家用新冠病毒抗原自我檢測套組,73,2022/04/30 15:26:02,4／30快篩試劑下午4點現場開賣
5903290661,康博中西健保藥局,臺中市北屯區后庄一街７號１樓,120.6644,24.1865,(04)24252468,羅氏家用新冠病毒抗原自我檢測套組,78,2022/04/30 15:26:02,快篩發放於下午01:00作業.週六.日及假日下午06:30開始
5903290849,新盛藥局,臺中市北屯區松竹路二段１５７號１樓,120.6959,24.18312,(04)22467779,羅氏家用新冠病毒抗原自我檢測套組,73,2022/04/30 15:26:02,下午2:30至8:30賣快篩試劑週一至週六
5903290876,北屯軍功藥局,臺中市北屯區軍功路一段７５２號,120.7193,24.17513,(04)24375111,羅氏家用新冠病毒抗原自我檢測套組,78,2022/04/30 15:26:02,快篩實名制，每天16:00開始販售，售完為止。
5903290894,豐禾藥局,臺中市北屯區同榮路１６３號,120.6618,24.19589,(04)24260588,羅氏家用新冠病毒抗原自我檢測套組,78,2022/04/30 15:26:02,無
5903290901,帥帥藥局,臺中市北屯區東山路一段３００－２號,120.7204,24.1759,(04)24378188,羅氏家用新冠病毒抗原自我檢測套組,78,2022/04/30 15:26:02,星期一至星期五下午15:00販賣快篩試劑，六.日無販售。
5903290947,德寶健保藥局,臺中市北屯區熱河路一段７０號１樓,120.687,24.1674,(04)22325511,羅氏家用新冠病毒抗原自我檢測套組,20,2022/04/30 15:26:02,早上9點發號碼牌，當場販賣口罩
5903291006,五和健保藥局,臺中市北屯區崇德路二段４６０號１樓,120.6863,24.18001,(04)22415533,羅氏家用新冠病毒抗原自我檢測套組,78,2022/04/30 15:26:02,週六公休 。周一至周五 14:30 發號碼牌 15:00販售； 週日 9:00發號碼牌 10:00販售
5903291042,全成北屯藥局,臺中市北屯區北屯路４３９－１１號１樓,120.7004,24.17913,(04)22463518,羅氏家用新冠病毒抗原自我檢測套組,3,2022/04/30 15:26:02,快篩每日下午3:00開始販售
5903291060,大樹北屯藥局,臺中市北屯區松竹路二段４１１號１樓,120.6895,24.18192,(04)22422262,羅氏家用新冠病毒抗原自我檢測套組,78,2022/04/30 15:26:02,快篩實名制，每天16:00開始販售，售完為止。
5903291131,兩隻老虎藥局,臺中市北屯區崇德路２段１２號１樓,120.6855,24.16869,(04)22364635,羅氏家用新冠病毒抗原自我檢測套組,11,2022/04/30 15:26:02,營業時間早上九點到晚上九點半（快篩下午兩點開賣）
5903291140,興安藥局,臺中市北屯區興安路二段５２號１、２樓,120.6949,24.1762,(04)22460369,羅氏家用新冠病毒抗原自我檢測套組,78,2022/04/30 15:26:02,快篩實名制，每天16:00開始販售，售完為止。
5903291159,均福藥局,臺中市北屯區軍福十三路１００號１樓,120.7308,24.17096,(04)24391169,羅氏家用新冠病毒抗原自我檢測套組,78,2022/04/30 15:26:02,快篩實名制規則:晚上七點依現場排隊順序發號碼牌 （周日公休不販售）
5903291220,佑全台中四平藥局,臺中市北屯區四平路３６０號１樓,120.682,24.19324,(04)24212792,羅氏家用新冠病毒抗原自我檢測套組,78,2022/04/30 15:26:02,無
5903291248,潔西卡大藥局,臺中市北屯區崇德路二段３１４號１樓,120.686,24.1765,(04)22416879,羅氏家用新冠病毒抗原自我檢測套組,47,2022/04/30 15:26:02,無
5903291257,新一代何藥局,臺中市北屯區環中東路二段２６６、２６８號１樓,120.7207,24.17576,(04)24364366,羅氏家用新冠病毒抗原自我檢測套組,78,2022/04/30 15:26:02,4／30（六）因配送問題下午4點開始販售   其他日期早上9點開始販售（依收到試劑後確認）
5903291266,佑全台中興安藥局,臺中市北屯區興安路一段２５３號,120.6941,24.17221,(04)22490355,羅氏家用新冠病毒抗原自我檢測套組,4,2022/04/30 15:26:02,無
5905010250,大樹新營藥局,臺南市新營區民權路７４、７６、７８號１樓,120.3127,23.30615,(06)6328300,羅氏家用新冠病毒抗原自我檢測套組,77,2022/04/30 15:26:02,快篩實名制，每天16:00開始販售，售完為止。
5905020023,大樹鹽水藥局,臺南市鹽水區朝琴路１２６－３號１樓,120.271,23.32228,(06)6520432,羅氏家用新冠病毒抗原自我檢測套組,78,2022/04/30 15:26:02,快篩實名制，每天16:00開始販售，售完為止。
5905030038,美尚藥局,臺南市白河區白河里康樂路４３號,120.4148,23.34833,(06)6853538,羅氏家用新冠病毒抗原自我檢測套組,78,2022/04/30 15:26:02,口罩販售時間：星期一~五7:00-21:40 六07:00-18:30 禮拜天視診所上班而定
5905030092,大樹白河藥局,臺南市白河區中山路１５３號１樓,120.417,23.35255,(06)6830006,羅氏家用新冠病毒抗原自我檢測套組,78,2022/04/30 15:26:02,快篩實名制，每天16:00開始販售，售完為止。
5905040105,幸福藥局,臺南市麻豆區光復路１２７號１樓,120.245,23.18435,(06)5720977,羅氏家用新冠病毒抗原自我檢測套組,78,2022/04/30 15:26:02,早8:30~12:00  午2:30~6:00  星期日固定休
5905040141,大樹麻豆藥局,臺南市麻豆區中山路４８、５０號１樓,120.2469,23.18382,(06)5716556,羅氏家用新冠病毒抗原自我檢測套組,78,2022/04/30 15:26:02,快篩實名制，每天16:00開始販售，售完為止。
5905050165,德昌藥局佳里店,臺南市佳里區光復路２３３號,120.1746,23.16095,(06)7232388,羅氏家用新冠病毒抗原自我檢測套組,18,2022/04/30 15:26:02,固定周一至周六14:30開始販售口罩，售完為止
5905050209,大樹佳里藥局,臺南市佳里區延平路２３７號１樓,120.1783,23.1599,(06)7231323,羅氏家用新冠病毒抗原自我檢測套組,78,2022/04/30 15:26:02,快篩實名制，每天16:00開始販售，售完為止。
5905060198,大樹新化藥局,臺南市新化區中正路５３１號１樓,120.3072,23.03764,(06)5901331,羅氏家用新冠病毒抗原自我檢測套組,78,2022/04/30 15:26:02,快篩實名制，每天16:00開始販售，售完為止。
5905070050,晶德昌藥局,臺南市善化區文光里中山路８５號,120.3034,23.13298,(06)5856141,羅氏家用新冠病毒抗原自我檢測套組,4,2022/04/30 15:26:02,14:30-16:00.依號碼牌售完為止
5905070121,大樹善化藥局,臺南市善化區民權路５４、５６、５８號１樓,120.3034,23.1322,(06)5830550,羅氏家用新冠病毒抗原自我檢測套組,78,2022/04/30 15:26:02,快篩實名制，每天16:00開始販售，售完為止。
5905070185,宇康藥局,臺南市善化區蓮潭里蓮潭南街１５０號１樓,120.3077,23.11199,(06)5830963,羅氏家用新冠病毒抗原自我檢測套組,218,2022/04/30 15:26:02,無
5905080056,大樹學甲藥局,臺南市學甲區中正路１３５號１樓,120.1793,23.23029,(06)7820001,羅氏家用新冠病毒抗原自我檢測套組,78,2022/04/30 15:26:02,快篩實名制，每天16:00開始販售，售完為止。
5905200058,欣和德藥局,臺南市新市區中正路２００號,120.2916,23.07516,(06)5895658,羅氏家用新冠病毒抗原自我檢測套組,7,2022/04/30 15:26:02,政府防疫口罩發放時間:下午2點至8點。售完為止
5905200085,大樹新市藥局,臺南市新市區中正路４９、５１號１樓,120.2916,23.07223,(06)5892552,羅氏家用新冠病毒抗原自我檢測套組,78,2022/04/30 15:26:02,快篩實名制，每天16:00開始販售，售完為止。
5905210027,愛心藥師藥局,臺南市安定區港南里港口１４７號,120.233,23.09041,(06)5935104,羅氏家用新冠病毒抗原自我檢測套組,9,2022/04/30 15:26:02,春節營業時間請電洽或依現場公告
5905270176,大樹仁德藥局,臺南市仁德區中正路二段１１５２號１樓,120.2519,22.97062,(06)2797466,羅氏家用新冠病毒抗原自我檢測套組,78,2022/04/30 15:26:02,快篩實名制，每天16:00開始販售，售完為止。
5905280109,大樹青青藥局,臺南市歸仁區中山路三段１２號,120.2875,22.96765,(06)2300301,羅氏家用新冠病毒抗原自我檢測套組,78,2022/04/30 15:26:02,快篩實名制，每天16:00開始販售，售完為止。
5905280118,和雅藥局,臺南市歸仁區民權三街９６號１樓,120.2902,22.96936,(06)2307757,羅氏家用新冠病毒抗原自我檢測套組,59,2022/04/30 15:26:02,無
5905290034,大樹關廟藥局,臺南市關廟區中央路２６３號１樓,120.3272,22.96109,(06)5965889,羅氏家用新冠病毒抗原自我檢測套組,78,2022/04/30 15:26:02,快篩實名制，每天16:00開始販售，售完為止。
5905310540,裕安藥局,臺南市永康區中華二路３８５號,120.2315,23.0083,(06)3133251,羅氏家用新冠病毒抗原自我檢測套組,78,2022/04/30 15:26:02,早8:30-1200／午15:00-18:00／晚18:30-21:00。周日午14:00-17:00
5905310988,小東藥局,臺南市永康區小東路５７３號１樓,120.2369,22.99867,(06)3127169,羅氏家用新冠病毒抗原自我檢測套組,78,2022/04/30 15:26:02,周一至周五PM 3:00-5:00時段內販售快篩，售完為止
5905311001,和德藥局復國店,臺南市永康區復國里復國一路３３９之７號１樓,120.2464,23.01155,(06)2038728,羅氏家用新冠病毒抗原自我檢測套組,9,2022/04/30 15:26:02,每日／星期日 下午3:00-5:00購買快篩  限一人2張卡
5905311074,中華長億藥局,臺南市永康區中華路７３４、７３６號１樓,120.2288,23.0167,(06)3022322,羅氏家用新冠病毒抗原自我檢測套組,78,2022/04/30 15:26:02,快篩實名制，每天16:00開始販售，售完為止。
5905311127,台南永康藥局,臺南市永康區中山南路８１６、８１６─１、２、３號１樓,120.2471,23.02099,(06)2020201,羅氏家用新冠病毒抗原自我檢測套組,78,2022/04/30 15:26:02,快篩實名制，每天16:00開始販售，售完為止。
5905320466,佑全中華藥局,臺南市東區中華東路三段２１５號,120.2253,22.97603,(06)2906386,羅氏家用新冠病毒抗原自我檢測套組,20,2022/04/30 15:26:02,星期一-六08:00-21:00
5905320564,杏一台南崇德藥局,臺南市東區崇德路６７４號,120.2274,22.96762,(06)2671939,羅氏家用新冠病毒抗原自我檢測套組,38,2022/04/30 15:26:02,防疫口罩發送時間:周一至周日:下午:15:00
5905320635,晉大藥局,臺南市東區東光里東興路２６４號１樓,120.2298,22.99522,(06)2092580,羅氏家用新冠病毒抗原自我檢測套組,21,2022/04/30 15:26:02,快篩實名制下午3點開始販售
5905320797,大樹自由藥局,臺南市東區自由路三段３８２號１樓,120.2373,22.98241,(06)2890800,羅氏家用新冠病毒抗原自我檢測套組,78,2022/04/30 15:26:02,快篩實名制，每天16:00開始販售，售完為止。
5905320804,大樹大同藥局,臺南市東區大同路二段２２７、２２９號１樓,120.2143,22.97567,(06)2158700,羅氏家用新冠病毒抗原自我檢測套組,78,2022/04/30 15:26:02,快篩實名制，每天16:00開始販售，售完為止。
5905320868,大樹東寧藥局,臺南市東區東寧路４３６號１樓,120.2291,22.9895,(06)2360006,羅氏家用新冠病毒抗原自我檢測套組,78,2022/04/30 15:26:02,快篩實名制，每天16:00開始販售，售完為止。
5905320911,大樹崇道藥局,臺南市東區崇道路６３號１樓,120.2272,22.97227,(06)2680456,羅氏家用新冠病毒抗原自我檢測套組,78,2022/04/30 15:26:02,快篩實名制，每天16:00開始販售，售完為止。
5905320939,東門啄木鳥藥局,臺南市東區東門路三段２４１號１樓,120.2358,22.97662,(06)2884569,羅氏家用新冠病毒抗原自我檢測套組,8,2022/04/30 15:26:02,通常10:00開賣（貨運可能延遲以現場公告為準）
5905320948,崇明台安藥局,臺南市東區崇明路３０４號１樓,120.2198,22.97762,(06)2900350,羅氏家用新冠病毒抗原自我檢測套組,12,2022/04/30 15:26:02,無
5905320975,萬錠藥局,臺南市東區崇成里崇德路６１９號１樓,120.2277,22.97181,(06)2679299,羅氏家用新冠病毒抗原自我檢測套組,78,2022/04/30 15:26:02,無
5905330284,大樹佳華藥局,臺南市南區金華路二段１２９號１樓,120.1911,22.98035,(06)2641238,羅氏家用新冠病毒抗原自我檢測套組,78,2022/04/30 15:26:02,快篩實名制，每天16:00開始販售，售完為止。
5905350133,大昌藥局,臺南市北區北安路１段１３２號１樓,120.2127,23.01481,(06)2519121,羅氏家用新冠病毒抗原自我檢測套組,7,2022/04/30 15:26:02,下午3點開賣快篩
5905350302,旻恩藥局,臺南市北區公園里北門路二段３７－１號,120.2123,22.99817,(06)2260590,羅氏家用新冠病毒抗原自我檢測套組,54,2022/04/30 15:26:02,口罩領取時間:週一至周五早上09:00-12:00 下午2:30-5:30 晚間6:30-9:00。周六早上09-12下午2:30-5:30售完為止
5905350366,千多藥局,臺南市北區金華路五段１號,120.1962,23.0016,(06)2228641,羅氏家用新冠病毒抗原自我檢測套組,78,2022/04/30 15:26:02,晚上6點開始銷售實名制快篩試劑，賣完為止
5905350535,開元台安藥局,臺南市北區開元路２８８號１樓,120.2226,23.00852,(06)2818061,羅氏家用新冠病毒抗原自我檢測套組,78,2022/04/30 15:26:02,4／30停賣快篩
5905370135,安南日日康藥局,臺南市安南區安和路五段３３號,120.2185,23.06398,(06)3550995,羅氏家用新冠病毒抗原自我檢測套組,10,2022/04/30 15:26:02,實名制快篩試劑周一至周六下午2點開始售完為止
5905370304,大樹安南藥局,臺南市安南區安和路四段５５７號１樓,120.2185,23.06181,(06)3563370,羅氏家用新冠病毒抗原自我檢測套組,78,2022/04/30 15:26:02,口罩販賣時段：14:00 - 16:00
5905370402,普得中西藥局,臺南市安南區淵東里本原街三段２５５號１樓,120.1741,23.05183,(06)2450082,羅氏家用新冠病毒抗原自我檢測套組,11,2022/04/30 15:26:02,無
5905370466,大樹北安藥局,臺南市安南區北安路三段１５８號１樓,120.2036,23.04256,(06)2553633,羅氏家用新冠病毒抗原自我檢測套組,78,2022/04/30 15:26:02,快篩實名制，每天16:00開始販售，售完為止。
5905380177,凱順藥局,臺南市安平區育平里健康三街３９號１樓,120.168,22.98595,(06)2999752,羅氏家用新冠病毒抗原自我檢測套組,17,2022/04/30 15:26:02,快篩試劑每日9:00開始，售完為止。
5907010141,維安社區藥局,高雄市鳳山區國富路２５-１號,120.3497,22.61517,(07)7630980,羅氏家用新冠病毒抗原自我檢測套組,27,2022/04/30 15:26:02,代售口罩及快篩試劑開始時間為下午2點.現場排隊，售完為止
5907010150,育英藥局文德店,高雄市鳳山區文德路２９號,120.3527,22.63836,(07)7777059,羅氏家用新冠病毒抗原自我檢測套組,28,2022/04/30 15:26:02,營業時間上午12:00~下午10:00藥局發口罩時間為下午:12:00售完為止
5907010178,華美藥局,高雄市鳳山區建國路三段１６１號,120.3535,22.6367,(07)7452732,羅氏家用新冠病毒抗原自我檢測套組,21,2022/04/30 15:26:02,快篩營業時間即開始販售，若有患者領藥會優先處理領藥
5907010212,北京藥局中崙店,高雄市鳳山區中崙四路１６號１樓,120.3519,22.59971,(07)7550655,羅氏家用新冠病毒抗原自我檢測套組,78,2022/04/30 15:26:02,營業時間上午08:00~下午11:00發口罩時間為上午:9:00售完為止00
5907010301,高大藥局,高雄市鳳山區南華路１８２號,120.3381,22.60295,(07)7718671,羅氏家用新冠病毒抗原自我檢測套組,78,2022/04/30 15:26:02,快篩試劑每日 12:00 - 20:00 發放。  周日店休
5907010365,科健藥局,高雄市鳳山區八德路２４６－５號１樓,120.3568,22.63853,(07)7777868,羅氏家用新冠病毒抗原自我檢測套組,74,2022/04/30 15:26:02,下午3:30開始換購
5907010454,上泰健保藥局,高雄市鳳山區鎮西里中華街２７號１樓,120.3559,22.62698,(07)7455127,羅氏家用新冠病毒抗原自我檢測套組,45,2022/04/30 15:26:02,快篩實名制，每天10:00開始販售，售完為止。
5907010525,長青連鎖藥局光遠店,高雄市鳳山區光遠路２７１號１樓,120.3588,22.62596,(07)7103487,羅氏家用新冠病毒抗原自我檢測套組,78,2022/04/30 15:26:02,無
5907010927,元元鳳山藥局,高雄市鳳山區一甲里五甲二路３４８之１號１樓,120.3377,22.59955,(07)7529595,羅氏家用新冠病毒抗原自我檢測套組,25,2022/04/30 15:26:02,15:00開始發快篩，現場排隊，一至五最晚銷售時間至晚上六點。星期六銷售至下午五點。星期日公休
5907011086,閤康藥局,高雄市鳳山區忠義里中山西路３７６－７號１樓,120.3412,22.62897,(07)7197787,羅氏家用新冠病毒抗原自我檢測套組,53,2022/04/30 15:26:02,快篩販售:每週一至週六 時間早上10:30開始.售完為止!
5907011095,鳳山五甲藥局,高雄市鳳山區正義里五甲二路１３９號１樓,120.3409,22.6014,(07)7269899,羅氏家用新冠病毒抗原自我檢測套組,78,2022/04/30 15:26:02,快篩實名制，每天16:00開始販售，售完為止。
5907011148,大樹國泰藥局,高雄市鳳山區興仁里五甲一路２９２號,120.3539,22.61698,(07)7407234,羅氏家用新冠病毒抗原自我檢測套組,78,2022/04/30 15:26:02,快篩實名制，每天16:00開始販售，售完為止。
5907011175,鳳西藥局,高雄市鳳山區忠義里中山西路２３８號１樓,120.3471,22.62831,(07)7902717,羅氏家用新冠病毒抗原自我檢測套組,78,2022/04/30 15:26:02,快篩實名制，每天16:00開始販售，售完為止。
5907011228,鳳山青年藥局,高雄市鳳山區文德里青年路二段３９９號１樓,120.3513,22.64292,(07)7678383,羅氏家用新冠病毒抗原自我檢測套組,78,2022/04/30 15:26:02,口罩販售時間：14:00 - 16:00
5907011362,佑全鳳山藥局,高雄市鳳山區文德里青年路二段４６３號１－２樓,120.3498,22.64513,(07)7801568,羅氏家用新冠病毒抗原自我檢測套組,16,2022/04/30 15:26:02,無
5907011371,大樹五甲藥局,高雄市鳳山區福祥里五甲三路２４號１－２樓．２６號１－２樓,120.3278,22.59317,(07)8224926,羅氏家用新冠病毒抗原自我檢測套組,78,2022/04/30 15:26:02,快篩實名制，每天16:00開始販售，售完為止。
5907011399,佑家藥師藥局,高雄市鳳山區新強里新富路２８８號１樓,120.3418,22.61265,(07)7673298,羅氏家用新冠病毒抗原自我檢測套組,42,2022/04/30 15:26:02,無
5907011406,長青連鎖藥局大士店,高雄市鳳山區五甲一路１３９號１樓,120.3562,22.61968,(07)7104618,羅氏家用新冠病毒抗原自我檢測套組,78,2022/04/30 15:26:02,無
5907020085,大德藥局,高雄市岡山區大德一路９８號,120.3025,22.79689,(07)6221456,羅氏家用新冠病毒抗原自我檢測套組,78,2022/04/30 15:26:02,快篩實名制，每天16:00開始販售，售完為止。
5907020094,大樹岡山藥局,高雄市岡山區岡山路１３６號,120.2967,22.78913,(07)6219477,羅氏家用新冠病毒抗原自我檢測套組,78,2022/04/30 15:26:02,快篩實名制，每天16:00開始販售，售完為止。
5907030072,旗美藥局,高雄市旗山區東平里延平二路４１號,120.4933,22.882,(07)6629839,羅氏家用新冠病毒抗原自我檢測套組,36,2022/04/30 15:26:02,實名制快篩劑購買時間為下午14:00~20:00
5907030090,睛好活力藥局,高雄市旗山區湄洲里中山路１２７號,120.482,22.88873,(07)6625119,羅氏家用新冠病毒抗原自我檢測套組,50,2022/04/30 15:26:02,無
5907030152,旗山藥局,高雄市旗山區中華路２３號,120.4841,22.88027,(07)6621158,羅氏家用新冠病毒抗原自我檢測套組,78,2022/04/30 15:26:02,快篩實名制，每天16:00開始販售，售完為止。
5907050109,林園藥局,高雄市林園區仁愛路１３號１樓,120.3928,22.50418,(07)6425855,羅氏家用新冠病毒抗原自我檢測套組,78,2022/04/30 15:26:02,快篩實名制，每天16:00開始販售，售完為止。
5907060221,淑德健保藥局,高雄市大寮區內坑里淑德新村１號３樓,120.3707,22.58833,(07)7923556,羅氏家用新冠病毒抗原自我檢測套組,80,2022/04/30 15:26:02,無
5907070012,舒康藥師藥局,高雄市大樹區久堂路１２９號,120.4167,22.65781,(07)6520268,羅氏家用新冠病毒抗原自我檢測套組,8,2022/04/30 15:26:02,14:00~18:00若提前售完，銷售時間提前結束。
5907070030,久堂藥局,高雄市大樹區久堂里久堂路１３６號１樓,120.4178,22.65813,(07)6512800,羅氏家用新冠病毒抗原自我檢測套組,78,2022/04/30 15:26:02,快篩實名制，每天16:00開始販售，售完為止。
5907080081,英祥連鎖藥局仁雄店,高雄市仁武區仁雄路３６之２號,120.3512,22.68115,(07)3722509,羅氏家用新冠病毒抗原自我檢測套組,39,2022/04/30 15:26:02,無
5907080189,德昌藥局仁雄店,高雄市仁武區灣內里仁雄路３８、３８－１、３８－２號,120.3506,22.68074,(07)3749166,羅氏家用新冠病毒抗原自我檢測套組,7,2022/04/30 15:26:02,固定週一至週日14:30~16:00開始發放號碼牌並依序販售快篩.售完為止
5907080232,大樹仁武藥局,高雄市仁武區赤山里仁雄路８０－９號,120.3469,22.67811,(07)3744777,羅氏家用新冠病毒抗原自我檢測套組,78,2022/04/30 15:26:02,快篩實名制，每天16:00開始販售，售完為止。
5907080269,興德昌藥局,高雄市仁武區文武里中華路２３２號,120.3516,22.69985,(07)3757005,羅氏家用新冠病毒抗原自我檢測套組,5,2022/04/30 15:26:02,實名制快篩販售時間14:30-16:00
5907080330,文武藥局,高雄市仁武區文武里中華路３５３號,120.3535,22.7011,(07)3733551,羅氏家用新冠病毒抗原自我檢測套組,78,2022/04/30 15:26:02,快篩實名制，每天16:00開始販售，售完為止。
5907090087,安泰專業藥師藥局,高雄市大社區中山路２６７號１樓,120.3492,22.73194,(07)3553715,羅氏家用新冠病毒抗原自我檢測套組,3,2022/04/30 15:26:02,快篩每日下午2點20分發號碼牌，2點30分準時發放
5907090167,大樹大社藥局,高雄市大社區中山路３０８號１樓,120.3503,22.73145,(07)3531682,羅氏家用新冠病毒抗原自我檢測套組,78,2022/04/30 15:26:02,快篩實名制，每天16:00開始販售，售完為止。
5907100088,本館藥局,高雄市鳥松區大華里本館路１９０號１樓,120.3361,22.65556,(07)3707655,羅氏家用新冠病毒抗原自我檢測套組,39,2022/04/30 15:26:02,營業時間每日09:00-22:00  實名制快篩販賣時間15:00-20:00
5907140126,天德藥局阿蓮店,高雄市阿蓮區南蓮里忠孝路１６８、１７０號,120.3304,22.87917,(07)6311566,羅氏家用新冠病毒抗原自我檢測套組,2,2022/04/30 15:26:02,發售口罩時間：8:00~21:00販售口罩 禮拜日停售
5907150097,金德昌藥師藥局,高雄市路竹區大社路９０之６號,120.263,22.86382,(07)6978143,羅氏家用新冠病毒抗原自我檢測套組,1,2022/04/30 15:26:02,快篩販售時間:14:30~16:00或售完為止
5907150202,永昌藥局,高雄市路竹區延平路８１號,120.2579,22.85786,(07)6964321,羅氏家用新冠病毒抗原自我檢測套組,35,2022/04/30 15:26:02,周一至周六上午10:00~12:30；下午15:30-18:00開始依序販售快篩試劑，售完為止。星期日休息。
5907150239,固德藥局,高雄市路竹區金平路３１２號,120.269,22.86954,(07)6978641,羅氏家用新冠病毒抗原自我檢測套組,78,2022/04/30 15:26:02,無
5907150257,大樹大立藥局,高雄市路竹區國昌路５１號,120.26,22.85409,(07)6961663,羅氏家用新冠病毒抗原自我檢測套組,78,2022/04/30 15:26:02,快篩實名制，每天16:00開始販售，售完為止。
5907160039,華安藥局,高雄市湖內區中山路一段４５１－１９號,120.2459,22.88472,(07)6938208,羅氏家用新冠病毒抗原自我檢測套組,41,2022/04/30 15:26:02,營業日15:00-21:00為販賣實名制快篩時間，售完為止
5907160093,保生藥局,高雄市湖內區葉厝里保生路３４０．３４２號,120.2195,22.90733,(07)6990800,羅氏家用新冠病毒抗原自我檢測套組,78,2022/04/30 15:26:02,快篩實名制，每天16:00開始販售，售完為止。
5907240014,博林健保藥局,高雄市內門區觀亭里中正路１６０巷５１號,120.4539,22.9232,(07)6671883,羅氏家用新冠病毒抗原自我檢測套組,78,2022/04/30 15:26:02,自2／11日~2／29日，營業日07:40~18:00為販賣口罩時間，售完為止
5907280036,七賢藥局,高雄市鹽埕區七賢三路１６２號１樓,120.2829,22.62712,(07)5330616,羅氏家用新冠病毒抗原自我檢測套組,78,2022/04/30 15:26:02,快篩實名制，每天16:00開始販售，售完為止。
5907290238,聯合藥師藥局,高雄市鼓山區中華一路９７０號１樓,120.2919,22.65515,(07)5500558,羅氏家用新冠病毒抗原自我檢測套組,3,2022/04/30 15:26:02,無
5907290265,新美館藥局,高雄市鼓山區中華一路９７２號,120.2919,22.65513,(07)5522006,羅氏家用新冠病毒抗原自我檢測套組,20,2022/04/30 15:26:02,無
5907290274,明誠丁丁藥局,高雄市鼓山區明誠三路４６５號,120.3011,22.66097,(07)5520120,羅氏家用新冠病毒抗原自我檢測套組,8,2022/04/30 15:26:02,口罩代售時間自09:00
5907290309,鼓山藥局,高雄市鼓山區華榮路１０號,120.2973,22.66156,(07)5520017,羅氏家用新冠病毒抗原自我檢測套組,78,2022/04/30 15:26:02,快篩實名制，每天16:00開始販售，售完為止。
5907290327,金好藥局,高雄市鼓山區青海路４１８號１樓,120.2845,22.65177,(07)5869556,羅氏家用新冠病毒抗原自我檢測套組,32,2022/04/30 15:26:02,無
5907290354,文昇藥局,高雄市鼓山區慶豐街１２５號,120.2942,22.66724,(07)5525314,羅氏家用新冠病毒抗原自我檢測套組,30,2022/04/30 15:26:02,無
5907300239,左野藥局,高雄市左營區崇德路２２２號,120.3052,22.675,(07)3486883,羅氏家用新冠病毒抗原自我檢測套組,26,2022/04/30 15:26:02,營業時間09:00-22:30（實名制快篩試劑販售時間15:00-20:00售完為止!）
5907300346,正心藥師藥局,高雄市左營區左營大路４７３之２號,120.295,22.68946,(07)5880386,羅氏家用新冠病毒抗原自我檢測套組,78,2022/04/30 15:26:02,無
5907300417,森森藥師藥局,高雄市左營區緯六路２１５號１樓,120.2874,22.69707,(07)5853600,羅氏家用新冠病毒抗原自我檢測套組,38,2022/04/30 15:26:02,星期一至五 8~19點；星期六 8:30~12點
5907300506,躍獅祐恩藥局,高雄市左營區明華一路１３２號１樓,120.3073,22.66307,(07)5508706,羅氏家用新冠病毒抗原自我檢測套組,47,2022/04/30 15:26:02,4／30開始於營業時間內販售，售完為止!
5907300588,明禾藥局,高雄市左營區華夏路１７３２號１樓,120.3204,22.68777,(07)3493734,羅氏家用新冠病毒抗原自我檢測套組,52,2022/04/30 15:26:02,快篩販賣時間下午2點
5907300631,大樹孟子藥局,高雄市左營區孟子路２２６、２２８號,120.3112,22.67415,(07)3461772,羅氏家用新冠病毒抗原自我檢測套組,78,2022/04/30 15:26:02,快篩實名制，每天16:00開始販售，售完為止。
5907300677,佳寧峰藥局,高雄市左營區部後街２號,120.2886,22.6834,(07)5886408,羅氏家用新冠病毒抗原自我檢測套組,60,2022/04/30 15:26:02,口罩，快篩試劑販賣時段:上午8:30起至售完為止
5907300686,左營自由藥局,高雄市左營區自由二路３５０、３５０－１號,120.3091,22.66599,(07)5589991,羅氏家用新冠病毒抗原自我檢測套組,78,2022/04/30 15:26:02,快篩實名制，每天16:00開始販售，售完為止。
5907300702,禾順左營藥局,高雄市左營區自由三路４１０號２樓,120.3127,22.67563,(07)3592582,羅氏家用新冠病毒抗原自我檢測套組,78,2022/04/30 15:26:02,星期一~星期六 實名制快篩劑發放時間13:30~15:00 （周日公休）
5907300711,富元聯合健康藥局,高雄市左營區博愛三路３７號,120.3038,22.67145,(07)3488585,羅氏家用新冠病毒抗原自我檢測套組,1,2022/04/30 15:26:02,無
5907300748,翔生藥局合群店,高雄市左營區緯六路２５６號,120.2871,22.6976,(07)5880055,羅氏家用新冠病毒抗原自我檢測套組,78,2022/04/30 15:26:02,實名制快篩販售時間：星期一至星期五，售完為止
5907300766,悠仁藥局,高雄市左營區自由三路１７０號,120.3113,22.67165,(07)3457979,羅氏家用新冠病毒抗原自我檢測套組,2,2022/04/30 15:26:02,一~五的營業時間為0800~1200／1530~1800／1830~2100 六日的營業時間為0900
5907300800,元大藥師健保藥局,高雄市左營區榮德街３２７號,120.3211,22.68636,(07)3507531,羅氏家用新冠病毒抗原自我檢測套組,56,2022/04/30 15:26:02,09:30開始販賣口罩.售完為止
5907300882,得孚社區藥局,高雄市左營區重立路５３３號１樓,120.3098,22.67955,(07)3410121,羅氏家用新冠病毒抗原自我檢測套組,46,2022/04/30 15:26:02,營業日上午09:30-11:30為販賣口罩時間.售完為止
5907300908,明自丁丁藥局,高雄市左營區自由二路１５２號１樓,120.3089,22.66223,(07)5568902,羅氏家用新冠病毒抗原自我檢測套組,55,2022/04/30 15:26:02,無
5907300926,高鐵藥局,高雄市左營區華夏路１３２２．１３２６號,120.312,22.68587,(07)3452797,羅氏家用新冠病毒抗原自我檢測套組,78,2022/04/30 15:26:02,快篩實名制，每天16:00開始販售，售完為止。
5907300944,左營藥局,高雄市左營區華夏路３２５號,120.2972,22.67167,(07)5501017,羅氏家用新冠病毒抗原自我檢測套組,78,2022/04/30 15:26:02,快篩實名制，每天16:00開始販售，售完為止。
5907300980,大路藥局,高雄市左營區左營大路５５－２號１樓,120.2877,22.6813,(07)5851001,羅氏家用新冠病毒抗原自我檢測套組,78,2022/04/30 15:26:02,快篩實名制，每天16:00開始販售，售完為止。
5907301012,新高橋藥局華夏店,高雄市左營區華夏路１１１０號,120.3085,22.68343,(07)3410915,羅氏家用新冠病毒抗原自我檢測套組,26,2022/04/30 15:26:02,無
5907301021,杏一左營自由藥局,高雄市左營區自由二路３９７號,120.3084,22.66541,(07)5509511,羅氏家用新冠病毒抗原自我檢測套組,52,2022/04/30 15:26:02,週日無提供快篩實聯制服務
5907310137,青田藥局,高雄市楠梓區監理南街６８號,120.3188,22.72897,(07)3648257,羅氏家用新冠病毒抗原自我檢測套組,78,2022/04/30 15:26:02,無
5907310173,安健藥局,高雄市楠梓區鳳楠路２５０號,120.3296,22.72617,(07)3520167,羅氏家用新冠病毒抗原自我檢測套組,60,2022/04/30 15:26:02,2／06起營業日早上8點開始販賣，周六日早上8:30 .售完為止
5907310262,大樹楠梓藥局,高雄市楠梓區軍校路９０８號,120.2919,22.71246,(07)3632322,羅氏家用新冠病毒抗原自我檢測套組,78,2022/04/30 15:26:02,快篩實名制，每天16:00開始販售，售完為止。
5907310351,惠民楠梓藥局,高雄市楠梓區建楠路２１７號,120.3248,22.72689,(07)3521896,羅氏家用新冠病毒抗原自我檢測套組,26,2022/04/30 15:26:02,下午二點開始發放快篩試劑，發完為止；防疫要記得多備防疫包，增強免疫力。
5907310388,宸實藥局,高雄市楠梓區後昌路４７巷２３－１號,120.3129,22.71975,(07)3642142,羅氏家用新冠病毒抗原自我檢測套組,15,2022/04/30 15:26:02,快篩到貨!12:00開始販售!_號碼牌當日有效，一次限領一張，當日19:30前皆可購買，逾時失效，釋出名額!
5907310404,藍田藥局,高雄市楠梓區藍田路１號,120.2953,22.72643,(07)3601236,羅氏家用新冠病毒抗原自我檢測套組,78,2022/04/30 15:26:02,快篩實名制，每天16:00開始販售，售完為止。
5907320259,明誠藥局,高雄市三民區明誠一路１７２號,120.3273,22.65994,(07)3108636,羅氏家用新冠病毒抗原自我檢測套組,29,2022/04/30 15:26:02,星期一到星期六早上9點售快篩.星期日下午3點售快篩
5907320295,新高橋藥局澄清店,高雄市三民區澄和路２號１樓,120.3461,22.64438,(07)3815186,羅氏家用新冠病毒抗原自我檢測套組,38,2022/04/30 15:26:02,下午1:30開始販售口罩
5907320302,新高橋藥局明誠店,高雄市三民區明誠一路４９２號,120.3226,22.66046,(07)3107072,羅氏家用新冠病毒抗原自我檢測套組,78,2022/04/30 15:26:02,早上10:00開始販售口罩
5907320428,東京藥局,高雄市三民區建工路６８５號,120.3173,22.6478,(07)3874567,羅氏家用新冠病毒抗原自我檢測套組,30,2022/04/30 15:26:02,實名制快篩販售時間: 每日15:00-晚上20:00
5907320464,建元健保藥局,高雄市三民區興昌街８３巷９號,120.3181,22.64621,(07)3927865,羅氏家用新冠病毒抗原自我檢測套組,38,2022/04/30 15:26:02,無
5907320535,康誠藥局,高雄市三民區建工路６１６號,120.3228,22.64934,(07)3893889,羅氏家用新冠病毒抗原自我檢測套組,44,2022/04/30 15:26:02,無
5907320697,鄰好藥師藥局,高雄市三民區褒揚街２８７號,120.3398,22.64097,(07)3909589,羅氏家用新冠病毒抗原自我檢測套組,6,2022/04/30 15:26:02,購買實名制快篩時間下午14:00-16:00，各類防疫用品販售中
5907320740,忠仁藥局,高雄市三民區中都街３５號１樓,120.2867,22.63955,(07)3125305,羅氏家用新冠病毒抗原自我檢測套組,39,2022/04/30 15:26:02,無
5907320768,心樂保健藥局,高雄市三民區光裕路７８號１樓,120.3331,22.63789,(07)3855377,羅氏家用新冠病毒抗原自我檢測套組,78,2022/04/30 15:26:02,星期一到星期四上午8:30-12:00，下午15:00-18:00（口罩售完為止）. 星期五下午14:00-17:00，18:00-20:30（售完為止）
5907320811,力生藥局,高雄市三民區鼎中路１６８號１樓,120.3194,22.6622,(07)3105231,羅氏家用新冠病毒抗原自我檢測套組,78,2022/04/30 15:26:02,營業日星期一~星期五11點起、星期六~星期日晚上6點 開始販賣（實名制快篩）.售完為止
5907320893,大樹天祥藥局,高雄市三民區天祥一路１６７號,120.3191,22.66737,(07)3429902,羅氏家用新冠病毒抗原自我檢測套組,78,2022/04/30 15:26:02,快篩實名制，每天16:00開始販售，售完為止。
5907320919,心寬福藥局,高雄市三民區大順二路７１８號一樓,120.3193,22.65359,(07)3832366,羅氏家用新冠病毒抗原自我檢測套組,38,2022/04/30 15:26:02,週一到週五上午9:00-12:00、下午14:00-20:00，週六下午14:00-20:00販售口罩，週日公休。
5907320946,熊安心藥局,高雄市三民區陽明路４０８號,120.3429,22.64609,(07)3815212,羅氏家用新冠病毒抗原自我檢測套組,24,2022/04/30 15:26:02,週一 ~ 週六 AM8:00-PM10:00，快篩分兩梯次販售，14:00有63份，19:00有15份
5907321023,富容健保藥局,高雄市三民區覺民路３３６－１號,120.3357,22.64045,(07)3850208,羅氏家用新冠病毒抗原自我檢測套組,6,2022/04/30 15:26:02,周一至周六下午13:00開始，售完為止
5907321032,三民明誠藥局,高雄市三民區明誠一路５００號１－２Ｆ及５０２號,120.3223,22.66046,(07)3493137,羅氏家用新冠病毒抗原自我檢測套組,34,2022/04/30 15:26:02,營業時間早上9點至晚上10點
5907321069,桂林活力藥局九如店,高雄市三民區懷安街１１２號１樓,120.3176,22.64095,(07)3981009,羅氏家用新冠病毒抗原自我檢測套組,78,2022/04/30 15:26:02,無
5907321078,振源藥局,高雄市三民區熱河一街３５５號１樓,120.3061,22.64365,(07)3112541,羅氏家用新冠病毒抗原自我檢測套組,39,2022/04/30 15:26:02,4／30起15:00開始販售快篩，六日皆有營業
5907321103,自由藥局,高雄市三民區自由一路７８號,120.3089,22.64422,(07)3223113,羅氏家用新冠病毒抗原自我檢測套組,78,2022/04/30 15:26:02,快篩實名制，每天16:00開始販售，售完為止。
5907321158,窩窩香藥局,高雄市三民區明哲路４２－１號１樓,120.312,22.66176,(07)3505883,羅氏家用新冠病毒抗原自我檢測套組,6,2022/04/30 15:26:02,快篩配送時間尚未固定，依FB公告販售時間為主
5907321167,高杏健保藥局,高雄市三民區義華路４３２號,120.3325,22.6437,(07)3920588,羅氏家用新冠病毒抗原自我檢測套組,51,2022/04/30 15:26:02,無
5907330040,維康藥局,高雄市新興區中正三路６５號,120.3078,22.63077,(07)2615396,羅氏家用新冠病毒抗原自我檢測套組,43,2022/04/30 15:26:02,快篩代售時間:星期一至星期六15:00-18:00，星期日9:00-12:00
5907330148,康園藥局,高雄市新興區六合一路５３－１２號,120.3089,22.63241,(07)2372069,羅氏家用新冠病毒抗原自我檢測套組,70,2022/04/30 15:26:02,快篩領取限下午15:30~20:00，現場排隊
5907330200,新興復興藥局,高雄市新興區復興一路７６號１樓,120.3085,22.63312,(07)2352550,羅氏家用新冠病毒抗原自我檢測套組,78,2022/04/30 15:26:02,快篩實名制，每天16:00開始販售，售完為止。
5907350113,英祥藥局,高雄市苓雅區英祥街１９號,120.3257,22.61678,(07)7522786,羅氏家用新冠病毒抗原自我檢測套組,78,2022/04/30 15:26:02,無
5907350177,佳康藥局,高雄市苓雅區建國一路３３４號,120.3247,22.63293,(07)2266685,羅氏家用新冠病毒抗原自我檢測套組,74,2022/04/30 15:26:02,口罩代售時間:一至四8:30-21:00、五六8:30-16:30
5907350220,仁愛藥師藥局,高雄市苓雅區中正一路２３０號,120.3296,22.62921,(07)7222300,羅氏家用新冠病毒抗原自我檢測套組,23,2022/04/30 15:26:02,快篩販售一到五10:30開始，紅字假日12:30開始
5907350300,辰安藥局,高雄市苓雅區青年一路１８５－２號,120.3069,22.62138,(07)5365545,羅氏家用新冠病毒抗原自我檢測套組,25,2022/04/30 15:26:02,自3／1日~3／31日，星期一至五09:00開始販售口罩.售完為止 六日11點開賣
5907350328,安杏藥局,高雄市苓雅區四維二路９４－１７號,120.3197,22.62273,(07)7511739,羅氏家用新冠病毒抗原自我檢測套組,77,2022/04/30 15:26:02,快篩試劑代售時間自早上9:00點服務
5907350346,武廟幸福藥局,高雄市苓雅區武廟路３５號,120.3316,22.62999,(07)7170085,羅氏家用新冠病毒抗原自我檢測套組,1,2022/04/30 15:26:02,快篩代售時間為08:50；現場排隊領取號碼牌 售完為止
5907350480,健森藥局,高雄市苓雅區林森二路１３８號１、２樓,120.3066,22.62054,(07)3365169,羅氏家用新冠病毒抗原自我檢測套組,23,2022/04/30 15:26:02,早上9點領牌 下午3~5點領口罩
5907350506,大樹苓雅藥局,高雄市苓雅區中華四路１５３號,120.3001,22.61783,(07)5353111,羅氏家用新冠病毒抗原自我檢測套組,78,2022/04/30 15:26:02,快篩實名制，每天16:00開始販售，售完為止。
5907350533,健群藥局,高雄市苓雅區安業路４０號,120.3231,22.62731,(07)7150097,羅氏家用新冠病毒抗原自我檢測套組,78,2022/04/30 15:26:02,無
5907350551,大樹武廟藥局,高雄市苓雅區武廟路４３、４５號１樓,120.3314,22.63005,(07)7222268,羅氏家用新冠病毒抗原自我檢測套組,78,2022/04/30 15:26:02,快篩實名制，每天16:00開始販售，售完為止。
5907350560,成功合豐藥局,高雄市苓雅區成功一路１７０號１樓,120.2972,22.61595,(07)2695657,羅氏家用新冠病毒抗原自我檢測套組,22,2022/04/30 15:26:02,早上9點開始賣口罩~晚上9點   售完為止
5907350631,三多藥局,高雄市苓雅區三多二路２９２號１樓,120.3173,22.61838,(07)3365889,羅氏家用新冠病毒抗原自我檢測套組,78,2022/04/30 15:26:02,快篩實名制，每天16:00開始販售，售完為止。
5907350659,北京藥局林泉店,高雄市苓雅區林泉里３鄰林泉街３５號１樓,120.3192,22.62323,(07)7263030,羅氏家用新冠病毒抗原自我檢測套組,234,2022/04/30 15:26:02,無
5907360324,有承中西藥局,高雄市前鎮區德昌路２５７號１樓,120.3155,22.5849,(07)8120880,羅氏家用新冠病毒抗原自我檢測套組,35,2022/04/30 15:26:02,配合政府實名制快篩， 販售時間依政府配送時間滾動式調整
5907360360,親親藥局,高雄市前鎮區天山路１０巷６號,120.3151,22.60991,(07)3391078,羅氏家用新冠病毒抗原自我檢測套組,24,2022/04/30 15:26:02,周日休假，停售!!!
5907360379,金服安藥局,高雄市前鎮區鎮興路１９１號,120.3115,22.59249,(07)8150061,羅氏家用新冠病毒抗原自我檢測套組,20,2022/04/30 15:26:02,每日上午9點-21點半販賣口罩.
5907360566,祥安健保藥局,高雄市前鎮區復興三路３９３號１樓,120.3116,22.61373,(07)3340393,羅氏家用新冠病毒抗原自我檢測套組,25,2022/04/30 15:26:02,無
5907360584,聖名健保藥局,高雄市前鎮區復興三路２４６號１樓,120.312,22.61558,(07)3319431,羅氏家用新冠病毒抗原自我檢測套組,30,2022/04/30 15:26:02,無
5907360664,忠純藥局,高雄市前鎮區中華五路１００９號１樓,120.3056,22.60341,(07)3366886,羅氏家用新冠病毒抗原自我檢測套組,78,2022/04/30 15:26:02,快篩實名制，每天16:00開始販售，售完為止。
5907360673,前鎮大樹藥局,高雄市前鎮區瑞隆路４７２號１樓,120.3291,22.60547,(07)7137171,羅氏家用新冠病毒抗原自我檢測套組,78,2022/04/30 15:26:02,快篩實名制，每天16:00開始販售，售完為止。
5907380175,新朋友藥師藥局小港店,高雄市小港區漢民路２５４號,120.3531,22.56653,(07)8065361,羅氏家用新冠病毒抗原自我檢測套組,78,2022/04/30 15:26:02,每週六公休
5907380184,桂林活力藥師藥局孔鳳店,高雄市小港區孔鳳路５６１號１樓,120.3586,22.58393,(07)7912331,羅氏家用新冠病毒抗原自我檢測套組,78,2022/04/30 15:26:02,無
5907380255,安安藥師藥局,高雄市小港區孔鳳路５６５號１樓,120.3586,22.58393,(07)7915933,羅氏家用新冠病毒抗原自我檢測套組,3,2022/04/30 15:26:02,週一至週六
5907380264,大樹孔鳳藥局,高雄市小港區孔鳳路５１９、５２１號,120.3587,22.5828,(07)7918521,羅氏家用新冠病毒抗原自我檢測套組,78,2022/04/30 15:26:02,快篩實名制，每天16:00開始販售，售完為止。
5907380353,桂林活力藥師藥局漢民店,高雄市小港區漢民路６９１－１及６９１－２號１樓,120.3614,22.56762,(07)8010636,羅氏家用新冠病毒抗原自我檢測套組,79,2022/04/30 15:26:02,無
5907380424,大樹小港藥局,高雄市小港區康莊路７５號１樓,120.3559,22.56853,(07)8068328,羅氏家用新冠病毒抗原自我檢測套組,78,2022/04/30 15:26:02,快篩實名制，每天16:00開始販售，售完為止。
5911011334,海大藥局,基隆市中正區新豐街２５５號１樓,121.7879,25.13621,(02)24699222,羅氏家用新冠病毒抗原自我檢測套組,78,2022/04/30 15:26:02,平日：8：30~12：00，15：00~21：30；星期日：~12：00
5911011469,維元社區藥局,基隆市中正區新豐街４４８號,121.7859,25.13568,(02)24601388,羅氏家用新冠病毒抗原自我檢測套組,77,2022/04/30 15:26:02,營業時間:早上8:30-晚上10:30
5911011594,禾新藥局,基隆市中正區新豐街２０５巷７號,121.7895,25.138,(02)24698940,羅氏家用新冠病毒抗原自我檢測套組,23,2022/04/30 15:26:02,快篩實名制販售時間:下午3點開始
5911011638,中正藥局,基隆市中正區新豐街３８５號１、２樓,121.7856,25.13537,(02)24690660,羅氏家用新冠病毒抗原自我檢測套組,78,2022/04/30 15:26:02,快篩實名制，每天16:00開始販售，售完為止。
5911031238,碇內東亞藥師藥局,基隆市暖暖區源遠路３１９號１樓,121.7574,25.09941,(02)24590033,羅氏家用新冠病毒抗原自我檢測套組,6,2022/04/30 15:26:02,無
5911031318,安安藥局,基隆市暖暖區源遠路１６８號,121.7492,25.09815,(02)24585577,羅氏家用新冠病毒抗原自我檢測套組,78,2022/04/30 15:26:02,每週六公休，每日08:30販售快篩
5911041618,永樂藥局,基隆市仁愛區忠二路２２號,121.7401,25.13013,(02)24214878,羅氏家用新冠病毒抗原自我檢測套組,78,2022/04/30 15:26:02,無
5911041958,百福仁愛專業藥局,基隆市仁愛區仁四路５０號１樓,121.7413,25.12829,(02)24266699,羅氏家用新冠病毒抗原自我檢測套組,78,2022/04/30 15:26:02,4／30起，早上8:00販售快篩
5911041967,東隆藥局,基隆市仁愛區仁二路１０５號２樓,121.7482,25.12742,(02)24260727,羅氏家用新冠病毒抗原自我檢測套組,78,2022/04/30 15:26:02,無
5911050162,錦泰藥局,基隆市中山區中山二路４３號,121.7405,25.13786,(02)24228523,羅氏家用新冠病毒抗原自我檢測套組,76,2022/04/30 15:26:02,快篩販賣時間星期一至五晚上7點，星期六，星期日休息
5911051507,百福安一藥局,基隆市中山區安一路８１號,121.7358,25.1314,(02)24258068,羅氏家用新冠病毒抗原自我檢測套組,20,2022/04/30 15:26:02,每天下午兩點現場代售防疫口罩，售完為止
5911051543,復興藥局,基隆市中山區復興路１２８、１３０、１３２、１３４號１、２樓,121.7262,25.1446,(02)24362566,羅氏家用新冠病毒抗原自我檢測套組,78,2022/04/30 15:26:02,快篩實名制，每天16:00開始販售，售完為止。
5911061272,立登藥局,基隆市安樂區麥金路１９７號１樓,121.7216,25.12079,(02)24334477,羅氏家用新冠病毒抗原自我檢測套組,18,2022/04/30 15:26:02,藥局快篩劑代售15:00開始販售 現場排隊
5911071536,小不點健保藥局,基隆市信義區深溪路１２６號１樓,121.7827,25.13375,(02)24683985,羅氏家用新冠病毒抗原自我檢測套組,78,2022/04/30 15:26:02,無
5911071607,家安藥師藥局,基隆市信義區信二路２５７、２５９號１樓,121.7478,25.1301,(02)24223917,羅氏家用新冠病毒抗原自我檢測套組,78,2022/04/30 15:26:02,星期一 ~ 星期五13:30開始銷售。
5912010528,華安中西藥局,新竹市東區振興里南大路６４８號一樓,120.9627,24.79286,(03)5610088,羅氏家用新冠病毒抗原自我檢測套組,52,2022/04/30 15:26:02,早上8:30販售快篩試劑
5912012620,新康藥局,新竹市東區林森路１８８號,120.9641,24.79907,(03)5256938,羅氏家用新冠病毒抗原自我檢測套組,78,2022/04/30 15:26:02,快篩因配送不及，本周六、日皆為下午04:00開始發放
5912012979,哈佛藥局,新竹市東區北大路７２－１號,120.971,24.81178,(03)5326777,羅氏家用新冠病毒抗原自我檢測套組,35,2022/04/30 15:26:02,快篩販售時間：平日14:50
5912012988,杏康健保特約藥局,新竹市東區光復路一段５２５巷２３號１樓,121.0135,24.78384,(03)5772966,羅氏家用新冠病毒抗原自我檢測套組,78,2022/04/30 15:26:02,週一至五09:00-21:00 （週六公休） 週日09:00-18:00
5912013243,合康連鎖藥局光復店,新竹市東區光復路１段３７８號,121.0154,24.78422,(03)5670111,羅氏家用新冠病毒抗原自我檢測套組,78,2022/04/30 15:26:02,口罩販賣時段:上午9點至晚上9點，售完為止
5912013494,田美藥局,新竹市東區田美三街３５之１號１樓,120.9767,24.81572,(03)5350233,羅氏家用新冠病毒抗原自我檢測套組,78,2022/04/30 15:26:02,快篩實名制，每天16:00開始販售，售完為止。
5912013529,新莊藥局,新竹市東區光復路１段４７３號１樓,121.015,24.78421,(03)5634775,羅氏家用新冠病毒抗原自我檢測套組,78,2022/04/30 15:26:02,快篩販賣時間周日上午
5912013565,合康連鎖藥局關新店,新竹市東區關新北路１６１號１樓,121.0204,24.78614,(03)5679666,羅氏家用新冠病毒抗原自我檢測套組,78,2022/04/30 15:26:02,快篩販售時間:17:00
5912013672,關東藥局,新竹市東區光復路１段３３２、３３４號１至２樓,121.0187,24.78289,(03)5777077,羅氏家用新冠病毒抗原自我檢測套組,78,2022/04/30 15:26:02,快篩實名制，每天16:00開始販售，售完為止。
5912013707,信安藥師藥局,新竹市東區南大路８４２號１樓,120.9669,24.78819,(03)5623101,羅氏家用新冠病毒抗原自我檢測套組,78,2022/04/30 15:26:02,早上9點開始販賣快篩
5912040188,健和藥局,新竹市北區大同里大同路１７８號,120.9668,24.80731,(03)5231734,羅氏家用新冠病毒抗原自我檢測套組,75,2022/04/30 15:26:02,快篩周一至周五 12點整開始 售完為止
5912040222,保健藥局,新竹市北區中山路１５３號１樓,120.9635,24.80324,(03)5242088,羅氏家用新冠病毒抗原自我檢測套組,69,2022/04/30 15:26:02,快篩販賣時段：下午2:00現場排隊至售完為止。
5912040491,全禾藥局,新竹市北區潛園里集和街２５號,120.9616,24.80483,(03)5249173,羅氏家用新冠病毒抗原自我檢測套組,47,2022/04/30 15:26:02,早上9點半至12點，下午3點至9點
5912042098,欣欣藥局,新竹市北區西大路736巷1號,120.9591,24.81011,(03)5351205,羅氏家用新冠病毒抗原自我檢測套組,78,2022/04/30 15:26:02,上午8:00-12:00 ；下午15:00-18:00 ；晚上18:30-21:30快篩代售周二~周五上午9點，周一跟周六下午4點，售完為止
5912042422,幼能健保藥局,新竹市北區竹光路１０８號１樓,120.9592,24.8133,(03)5339750,羅氏家用新冠病毒抗原自我檢測套組,12,2022/04/30 15:26:02,快篩實際販售時間 下午3點
5912042815,合康連鎖藥局西大店,新竹市北區西大路６３６、６３８號１樓,120.9585,24.8101,(03)5233111,羅氏家用新冠病毒抗原自我檢測套組,78,2022/04/30 15:26:02,09:00
5912042940,新竹北門藥局,新竹市北區中正路３６０、３６２號１樓,120.9629,24.81414,(03)5333234,羅氏家用新冠病毒抗原自我檢測套組,78,2022/04/30 15:26:02,無
5912042968,大樹新竹藥局,新竹市北區西大路５４０、５４２號１、２樓,120.9619,24.80676,(03)5250388,羅氏家用新冠病毒抗原自我檢測套組,78,2022/04/30 15:26:02,快篩實名制，每天16:00開始販售，售完為止。
5917010082,仁壽藥局,臺中市中區東墩里三民路三段１號,120.6817,24.14482,(04)22228058,羅氏家用新冠病毒抗原自我檢測套組,17,2022/04/30 15:26:02,週一至週六上午9時30分起販售快篩劑
5917010126,永大藥局,臺中市中區錦上里民族路１２２號,120.6786,24.14054,(04)22210180,羅氏家用新冠病毒抗原自我檢測套組,63,2022/04/30 15:26:02,09:00開始代售口罩，人多會發號碼牌 （周日休息）
5917011847,郭藥局,臺中市中區平等街一二四號,120.682,24.1426,(04)22200005,羅氏家用新冠病毒抗原自我檢測套組,5,2022/04/30 15:26:02,無
5917011934,一安堂藥局,臺中市中區臺灣大道一段２０號１樓,120.6847,24.13819,(04)22259616,羅氏家用新冠病毒抗原自我檢測套組,20,2022/04/30 15:26:02,14:00開始領取實名制快篩劑
5917021718,中大藥局,臺中市東區十甲路５０５號,120.7109,24.14466,(04)22131348,羅氏家用新冠病毒抗原自我檢測套組,78,2022/04/30 15:26:02,無
5917030066,立安藥局,臺中市西區土庫里忠明南路３４８號,120.6576,24.14276,(04)23719125,羅氏家用新冠病毒抗原自我檢測套組,33,2022/04/30 15:26:02,每天09:00開始依排隊先後序開始發放號碼牌並配售口罩，售完為止。
5917030280,德星藥局,臺中市西區忠明里美村路一段９６號,120.6615,24.1521,(04)23212293,羅氏家用新冠病毒抗原自我檢測套組,3,2022/04/30 15:26:02,快篩營業時間10:00~20:00週六13:30~20:00營業，上午休息，週日休息
5917030600,永昇藥局,臺中市西區東昇里朝陽街４５號,120.6701,24.13522,(04)23717280,羅氏家用新冠病毒抗原自我檢測套組,36,2022/04/30 15:26:02,周一到周六9點至11點快篩試劑賣完為止
5917030646,華隆藥局,臺中市西區樂群街６之２號,120.6735,24.14025,(04)22243785,羅氏家用新冠病毒抗原自我檢測套組,76,2022/04/30 15:26:02,販售口罩時間為週一至週日早上09:30開始，售完為止。
5917030726,元泉藥局,臺中市西區公益里中美街２５７號,120.6601,24.14874,(04)23015503,羅氏家用新冠病毒抗原自我檢測套組,26,2022/04/30 15:26:02,固定週一至週六早上8:30開始販售口罩.售完為止
5917030860,振聲藥局,臺中市西區公正里向上路１段４４７號１樓,120.6541,24.14654,(04)24721100,羅氏家用新冠病毒抗原自我檢測套組,18,2022/04/30 15:26:02,週一至週六早上9:00開始販售口罩，售完為止
5917030995,麗新健保大藥局,臺中市西區向上路一段１６２號,120.6612,24.1469,(04)23017100,羅氏家用新冠病毒抗原自我檢測套組,27,2022/04/30 15:26:02,週一至週日下午15:00至售完為止
5917032382,中港大藥局,臺中市西區臺灣大道２段１３２號,120.6714,24.14995,(04)22080708,羅氏家用新冠病毒抗原自我檢測套組,79,2022/04/30 15:26:02,無
5917032471,銘津藥局,臺中市西區民生路３９０號１樓,120.6611,24.14444,(04)23021314,羅氏家用新冠病毒抗原自我檢測套組,15,2022/04/30 15:26:02,每日上午10:00至13:00，下午3:00至21:00 現場排隊，星期日下午休息
5917032613,向日睽藥局,臺中市西區林森路９８－２號１樓,120.6707,24.1379,(04)23731893,羅氏家用新冠病毒抗原自我檢測套組,44,2022/04/30 15:26:02,每日早上9點開始當場販售口罩.星期日也賣
5917040106,侑民藥局,臺中市南區興大路３９６巷４９號１樓,120.6712,24.11564,(04)22860146,羅氏家用新冠病毒抗原自我檢測套組,28,2022/04/30 15:26:02,週一至週五上午9點販賣防疫口罩，週六、日口罩停止販賣，2／8、2／15、2／22有販賣口罩，2／28有販賣口罩
5917041836,健康人生藥局,臺中市南區美村南路１３１號,120.6666,24.11725,(04)22633936,羅氏家用新冠病毒抗原自我檢測套組,30,2022/04/30 15:26:02,因政府配貨時間不一，依照門市現場公告時間為主!
5917050719,百鴻藥局,臺中市北區金龍里北屯路１３－１號,120.6914,24.15981,(04)22336330,羅氏家用新冠病毒抗原自我檢測套組,3,2022/04/30 15:26:02,固定周一至周五10.00--16.00 17.00--21.00開始販售口罩售完為止
5917050880,欣康藥局,臺中市北區館前路２１號,120.6657,24.15543,(04)23226837,羅氏家用新冠病毒抗原自我檢測套組,78,2022/04/30 15:26:02,週一至週六上午9時開始發放號碼牌，週日上午10時開始發放號碼牌。
5917050933,英才藥局,臺中市北區英才路２２９號,120.674,24.15558,(04)22012325,羅氏家用新冠病毒抗原自我檢測套組,36,2022/04/30 15:26:02,上午9~10:30及下午5~6:30依序發售口罩，週日公休。
5917053649,博森藥局,臺中市北區健行路４９３號,120.6778,24.15905,(04)22068589,羅氏家用新冠病毒抗原自我檢測套組,12,2022/04/30 15:26:02,固定周一到周六，下午2:00到下午4:00以現場排隊方式販售防疫家用快篩。
5917053756,中心旗艦藥局,臺中市北區五權路４０４號,120.6821,24.15288,(04)22068113,羅氏家用新冠病毒抗原自我檢測套組,17,2022/04/30 15:26:02,固定周一到周日，下午2:00開始販賣防疫口罩
5917060108,博新藥局,臺中市西屯區福安里中工三路２２０號,120.6153,24.17541,(04)23583412,羅氏家用新冠病毒抗原自我檢測套組,2,2022/04/30 15:26:02,星期一至六早上9點開始販賣無號碼牌星期日休營
5917060331,宏吉藥局,臺中市西屯區大福里長安路二段３１６號１樓,120.6673,24.17773,(04)22910825,羅氏家用新冠病毒抗原自我檢測套組,27,2022/04/30 15:26:02,防疫口罩.酒精及小童幼幼口罩平面.立體上午8：00開始販售，營業至21:00（週日正常營業）
5917062531,久揚大藥局,臺中市西屯區工業區一路９８之１６號,120.6138,24.17453,(04)23580738,羅氏家用新冠病毒抗原自我檢測套組,2,2022/04/30 15:26:02,未發號碼牌，星期一至六早上9:00開始販賣口罩，星期日不一定
5917070186,濟安堂藥局,臺中市南屯區南屯路二段７８８號,120.6378,24.14028,(04)23899603,羅氏家用新冠病毒抗原自我檢測套組,78,2022/04/30 15:26:02,快篩~早上7點40分開始販售，售完為止.（不發號碼牌）
5917070355,承諭藥局,臺中市南屯區黎明路２段１９９號,120.636,24.14698,(04)23849128,羅氏家用新冠病毒抗原自我檢測套組,78,2022/04/30 15:26:02,快篩實名制周一、二、四、五早上10:30；周三、六晚上7:00
5917072251,五六藥局,臺中市南屯區南屯路２段２４０號,120.6493,24.13696,(04)24757156,羅氏家用新冠病毒抗原自我檢測套組,78,2022/04/30 15:26:02,4／30 下午 16 : 00 開始販售， 售完為止. （不發號碼牌）
5917072564,恒安藥局,臺中市南屯區南屯路２段１１９號,120.652,24.13585,(04)24722887,羅氏家用新冠病毒抗原自我檢測套組,44,2022/04/30 15:26:02,因快篩試劑未到貨， 4／30早上暫停販售
5917072644,全成藥局,臺中市南屯區大墩６街２２３號,120.6464,24.14254,(04)24712897,羅氏家用新冠病毒抗原自我檢測套組,30,2022/04/30 15:26:02,實名制快篩每日15:00開始販售-售完為止（庫存以現場為主）
5917072724,百芳大藥局,臺中市南屯區向上路二段４２１號,120.6377,24.1469,(04)23818307,羅氏家用新冠病毒抗原自我檢測套組,73,2022/04/30 15:26:02,周一到周六，早上9:30開始販賣快篩，不發號碼牌。
5917080379,大元藥局,臺中市北屯區北屯里昌平路一段２３號,120.6937,24.16657,(04)22357722,羅氏家用新冠病毒抗原自我檢測套組,78,2022/04/30 15:26:02,周一~周六每天18:00至20:00販售快篩劑， ，星期日公休
5917080744,早安藥局,臺中市北屯區崇德二路一段１９９號１樓,120.693,24.17641,(04)22439411,羅氏家用新冠病毒抗原自我檢測套組,10,2022/04/30 15:26:02,3月起周一至周六09:00開始販售快篩試劑，週日全天休息
5917080888,大華藥局,臺中市北屯區熱河路２段１０９號１樓,120.6873,24.17054,(04)22331721,羅氏家用新冠病毒抗原自我檢測套組,60,2022/04/30 15:26:02,周一至周五1830-2030販售快篩，周六1400-1600販售快篩。周六晚上及周日全天休診。
5917082300,蔡宗耀中西藥局,臺中市北屯區平德里河北路２段６１號,120.6831,24.16994,(04)22341880,羅氏家用新冠病毒抗原自我檢測套組,62,2022/04/30 15:26:02,早上9點30分至下午12點30分，下午3點至8點發口罩，有發號碼牌。
5917083209,崇德啄木鳥藥局,臺中市北屯區崇德路二段２１７號,120.6852,24.17423,(04)22410441,羅氏家用新冠病毒抗原自我檢測套組,20,2022/04/30 15:26:02,每天早上8點40分發放號碼牌發售口罩，當天領取。
5917083254,建祐藥局,臺中市北屯區太原路三段２６１號,120.6932,24.16505,(04)22389809,羅氏家用新冠病毒抗原自我檢測套組,12,2022/04/30 15:26:02,領口罩時間:星期一至星期六上午11:00起；星期日機動性銷售。
5917083343,豋盛藥局,臺中市北屯區北平路三段１０７號,120.6827,24.17117,(04)22373863,羅氏家用新冠病毒抗原自我檢測套組,9,2022/04/30 15:26:02,實名制快篩販賣時間:4／30下午1點30分開賣
5921010107,榮泰藥局,臺南市東區崇誨里林森路２段１９２巷４９號,120.2256,22.98973,(06)2369095,羅氏家用新冠病毒抗原自我檢測套組,5,2022/04/30 15:26:02,實名制快篩: 14:00 開始販售（週日店休）
5921010205,文成藥局,臺南市東區大學里東寧路４３號之１,120.2212,22.99217,(06)2340860,羅氏家用新冠病毒抗原自我檢測套組,11,2022/04/30 15:26:02,早上10:30至晚上10點     中午2點至3點休息
5921010223,王藥局,臺南市東區小東里小東路１９０－１號,120.2276,22.99976,(06)2378697,羅氏家用新冠病毒抗原自我檢測套組,6,2022/04/30 15:26:02,週一 至 週日，下午 2:00 ~ 晚上9:00 （ 需健保卡 ）
5921010652,良泰藥局,臺南市東區仁和里仁和路１１７之１號,120.2338,22.97044,(06)2676256,羅氏家用新冠病毒抗原自我檢測套組,5,2022/04/30 15:26:02,無
5921010778,宏成藥局,臺南市東區裕農路１１６號,120.2272,22.98588,(06)2359339,羅氏家用新冠病毒抗原自我檢測套組,75,2022/04/30 15:26:02,8點-21點
5921012085,台安藥局,臺南市東區大同路一段１６３號,120.2113,22.98503,(06)2150011,羅氏家用新冠病毒抗原自我檢測套組,76,2022/04/30 15:26:02,快篩下午四點開始銷售
5921013073,太和藥師藥局,臺南市東區仁和路５１─１號,120.2297,22.98064,(06)2906063,羅氏家用新冠病毒抗原自我檢測套組,35,2022/04/30 15:26:02,無
5921013206,和德藥局,臺南市東區崇德路４９７號,120.2272,22.97435,(06)2882789,羅氏家用新冠病毒抗原自我檢測套組,14,2022/04/30 15:26:02,實名制快篩試劑販售時間14:30~17:00，開賣前10分鐘發號碼牌，售完即止
5921020185,安心藥局,臺南市南區喜東里喜樹路１５１巷３３號,120.18,22.94099,(06)2622570,羅氏家用新冠病毒抗原自我檢測套組,78,2022/04/30 15:26:02,快篩服務時間 星期一至星期五 上午8時至10時
5921021566,佑佑藥局,臺南市南區金華里健康路二段３４９號２Ｆ,120.1879,22.98173,(06)2912603,羅氏家用新冠病毒抗原自我檢測套組,2,2022/04/30 15:26:02,口罩販售時間及營業時間
5921021708,為仁藥師藥局,臺南市南區大同路二段１０６號,120.2123,22.98022,(06)2139376,羅氏家用新冠病毒抗原自我檢測套組,9,2022/04/30 15:26:02,口罩配額販售:週一至六依營業公告時間
5921021780,國山健保特約藥局,臺南市南區大同路２段４７８號,120.2145,22.97307,(06)2159570,羅氏家用新冠病毒抗原自我檢測套組,33,2022/04/30 15:26:02,無
5921030298,銘豐藥局,臺南市中西區西賢一街４５號１樓,120.1776,23.00011,(06)2592517,羅氏家用新冠病毒抗原自我檢測套組,26,2022/04/30 15:26:02,星期一-日09:00-22:00
5921032185,西門藥局,臺南市中西區西門路２段２０９號,120.199,22.9949,(06)2211222,羅氏家用新冠病毒抗原自我檢測套組,78,2022/04/30 15:26:02,星期一-五09:30-售完
5921040169,信心藥局,臺南市北區延平里公園路５４６號,120.2101,23.00693,(06)2822209,羅氏家用新冠病毒抗原自我檢測套組,18,2022/04/30 15:26:02,周一至五::9:00~20:00.  周六9:00-19:00.  周日休假
5921040294,澄清堂藥局,臺南市北區勝利路４９５號,120.2185,23.00648,(06)2377224,羅氏家用新冠病毒抗原自我檢測套組,27,2022/04/30 15:26:02,星期一~六14:30~售完
5921040301,永生藥局,臺南市北區六甲里公園路４８１號,120.2079,23.00898,(06)2813681,羅氏家用新冠病毒抗原自我檢測套組,27,2022/04/30 15:26:02,每日販賣口罩上午9時起至售完為止／星期日休息
5921040623,惠光藥局,臺南市北區文亢里文賢路２３６號,120.1938,23.0042,(06)2586316,羅氏家用新冠病毒抗原自我檢測套組,78,2022/04/30 15:26:02,快篩代售:4／30下午4:00開始，星期日公休
5921040678,賀康藥局,臺南市北區公園路７０１號,120.2146,23.0167,(06)2819515,羅氏家用新冠病毒抗原自我檢測套組,6,2022/04/30 15:26:02,快篩試劑下午1點~2點販售
5921040749,玖大藥局,臺南市北區勝利路３８３號,120.2187,23.00397,(06)2752048,羅氏家用新冠病毒抗原自我檢測套組,78,2022/04/30 15:26:02,星期一~六13:00~15:00
5921041924,芳鄰藥局,臺南市北區公園北路１５２號,120.2084,23.00521,(06)2811101,羅氏家用新冠病毒抗原自我檢測套組,32,2022/04/30 15:26:02,星期一~六8點到12點
5921042145,王大藥局,臺南市北區開元路１５６號,120.2197,23.00691,(06)2086169,羅氏家用新冠病毒抗原自我檢測套組,2,2022/04/30 15:26:02,快篩實名制：週一 至 週六：上午 8:00 ~ 22:00  （ 請攜帶健保卡 ）
5921050076,千代藥局,臺南市中西區民生路一段６０號１樓,120.2034,22.99337,(06)2256895,羅氏家用新冠病毒抗原自我檢測套組,1,2022/04/30 15:26:02,快篩試劑實名制下午一點開始販售
5921060143,嘉庭藥局,臺南市安南區海佃里國安街１１８號,120.1887,23.0224,(06)2581618,羅氏家用新冠病毒抗原自我檢測套組,75,2022/04/30 15:26:02,禮拜一至禮拜六17:30~19:00
5921060321,慈安藥局,臺南市安南區大安街５３號,120.1919,23.03148,(06)2551117,羅氏家用新冠病毒抗原自我檢測套組,2,2022/04/30 15:26:02,早上9:00-晚上11:00
5921061720,康悅健藥師藥局,臺南市安南區安和路５段１４９-２號,120.2179,23.0659,(06)3556382,羅氏家用新冠病毒抗原自我檢測套組,24,2022/04/30 15:26:02,星期一-日0800-2300-售完
5922010263,秉榮藥局,嘉義市東區東仁里中山路１８９號,120.4553,23.48162,(05)2224320,羅氏家用新冠病毒抗原自我檢測套組,6,2022/04/30 15:26:02,周一至周日上午8:00起，售鑿為止。
5922010281,上安中西藥局,嘉義市東區府路里延平街２３８號之１,120.4502,23.47683,(05)2231005,羅氏家用新冠病毒抗原自我檢測套組,78,2022/04/30 15:26:02,本藥局販售實名制快篩試劑:營業日:上午七點半至八點；下午兩點至下午四點（特殊狀況例外）
5922010361,壽生堂藥局,嘉義市東區府路里延平街２８０號,120.4502,23.47683,(05)2225058,羅氏家用新冠病毒抗原自我檢測套組,78,2022/04/30 15:26:02,周一至周日上午09:00起，至20:00或售鑿為止。
5922011966,源豪藥局,嘉義市東區光華路８２號,120.4529,23.4782,(05)2169696,羅氏家用新冠病毒抗原自我檢測套組,41,2022/04/30 15:26:02,周一至周六，售鑿為止。周日休
5922012178,聖心藥局,嘉義市東區大雅路二段５７７號,120.4676,23.47718,(05)2777189,羅氏家用新冠病毒抗原自我檢測套組,26,2022/04/30 15:26:02,每日下午3點領號碼牌
5922012285,聖安藥局,嘉義市東區仁武里民權路３６５號１樓,120.4506,23.48235,(05)2222941,羅氏家用新冠病毒抗原自我檢測套組,1,2022/04/30 15:26:02,每日8:30開始發放，每週四休息.
5922013068,佑全嘉義吳鳳南藥局,嘉義市東區吳鳳南路５８５、５８７號,120.459,23.45639,(05)2399311,羅氏家用新冠病毒抗原自我檢測套組,5,2022/04/30 15:26:02,領取快篩14:00
5922013102,後庄藥局,嘉義市東區吳鳳南路６４９號,120.4594,23.45511,(05)2391233,羅氏家用新冠病毒抗原自我檢測套組,78,2022/04/30 15:26:02,快篩實名制，每天16:00開始販售，售完為止。
5922013111,富善藥局,嘉義市東區新生路２３４號,120.4609,23.48419,(05)2759559,羅氏家用新冠病毒抗原自我檢測套組,16,2022/04/30 15:26:02,無
5922013157,軍輝健康幸福藥局,嘉義市東區軍輝路１９２號,120.46,23.45571,(05)2395789,羅氏家用新冠病毒抗原自我檢測套組,39,2022/04/30 15:26:02,無
5922020518,永安藥局,嘉義市西區西平里信義路４９之１號,120.4344,23.47431,(05)2358368,羅氏家用新冠病毒抗原自我檢測套組,21,2022/04/30 15:26:02,口罩：星期一至星期日9點販售，售完為止，現場排隊
5922020652,四維啄木鳥藥局,嘉義市西區德安路１６０號,120.4284,23.48403,(05)2810598,羅氏家用新冠病毒抗原自我檢測套組,48,2022/04/30 15:26:02,口罩：每天8:15，現場排隊
5922020769,安麗藥師藥局,嘉義市西區車店里廣州街２０６號,120.4302,23.46519,(05)2352395,羅氏家用新冠病毒抗原自我檢測套組,78,2022/04/30 15:26:02,快篩試劑販售時間早上9點~11點50分，下午1點30分~5:00點；六.日休息。5／1勞動節連休3天。
5922020894,平良藥局,嘉義市西區致遠里興業西路８４號１樓,120.4443,23.46856,(05)2235220,羅氏家用新冠病毒抗原自我檢測套組,40,2022/04/30 15:26:02,早上8點-12點  下午3點-6點
5922020983,睿安藥局,嘉義市西區八德路２７８號１樓,120.4303,23.49014,(05)2910678,羅氏家用新冠病毒抗原自我檢測套組,41,2022/04/30 15:26:02,快篩實名制 下午2:30開始販售 賣完為止
5922021006,竹圍藥局,嘉義市西區友愛路２７０、２７２號,120.4339,23.4837,(05)2811233,羅氏家用新冠病毒抗原自我檢測套組,78,2022/04/30 15:26:02,快篩實名制，每天16:00開始販售，售完為止。
5922028881,中興中西藥局,嘉義市西區垂楊路５０１號,120.4422,23.47297,(05)2353096,羅氏家用新冠病毒抗原自我檢測套組,74,2022/04/30 15:26:02,周一至周五10點開始，周末下午5點開始，並依序販售快篩售完為止
5922028925,健安藥局,嘉義市西區民族路６２６號,120.4452,23.4757,(05)2281219,羅氏家用新冠病毒抗原自我檢測套組,62,2022/04/30 15:26:02,口罩:星期一至星期六9點-12點，15點-21點
5931010011,埔墘藥局,新北市板橋區中山路２段２２７號,121.477,25.01741,(02)29646705,羅氏家用新冠病毒抗原自我檢測套組,1,2022/04/30 15:26:02,實名制快篩每天14:30發放號碼牌
5931010315,優良藥局,新北市板橋區莊敬路９３號,121.4727,25.02628,(02)22550251,羅氏家用新冠病毒抗原自我檢測套組,76,2022/04/30 15:26:02,無
5931010342,宏達大藥局,新北市板橋區莒光路１７號,121.47,25.02478,(02)22572345,羅氏家用新冠病毒抗原自我檢測套組,78,2022/04/30 15:26:02,快篩 晚上20:00開始販售! 不要打電話來 問題這麼多就到現場 也不給你問
5931010708,一誠藥局,新北市板橋區府中路６２號,121.4569,25.00965,(02)29673956,羅氏家用新冠病毒抗原自我檢測套組,78,2022/04/30 15:26:02,無
5931011045,進發大藥局,新北市板橋區民治街１０１號,121.479,25.0315,(02)22528361,羅氏家用新冠病毒抗原自我檢測套組,78,2022/04/30 15:26:02,快篩開門即收卡，排隊請不要擋到攤販，謝謝。
5931011947,長弘藥局,新北市板橋區龍泉街１１０號,121.4568,25.02454,(02)22558789,羅氏家用新冠病毒抗原自我檢測套組,78,2022/04/30 15:26:02,無
5931013781,佳和藥局,新北市板橋區文化路１段３８７巷５號１樓,121.4667,25.02193,(02)22589598,羅氏家用新冠病毒抗原自我檢測套組,7,2022/04/30 15:26:02,8:30-12:00／15:00-18:00／19:00-22:00
5931014046,欣安藥局,新北市板橋區懷德街１０９號１樓,121.4786,25.03147,(02)82570296,羅氏家用新冠病毒抗原自我檢測套組,78,2022/04/30 15:26:02,每天快篩劑發號碼牌時間AM10:00販賣時間AM10:00售完為止
5931015187,皇慶藥局,新北市板橋區南門街８１、８３號１、２樓及館前西路１１２巷７號,121.4568,25.0077,(02)29655351,羅氏家用新冠病毒抗原自我檢測套組,34,2022/04/30 15:26:02,現場排隊／號碼牌發放防疫口罩時間自09:00
5931015981,立安中西藥局,新北市板橋區後埔街８３號１樓,121.4607,25.00523,(02)29582241,羅氏家用新冠病毒抗原自我檢測套組,1,2022/04/30 15:26:02,無
5931016611,民川藥局,新北市板橋區四川路１段９７號１樓,121.4598,25.00544,(02)29520090,羅氏家用新冠病毒抗原自我檢測套組,51,2022/04/30 15:26:02,星期一~星期六（早上9:00販售快篩38份下午3:00販售40份）
5931017001,聯康藥局,新北市板橋區南雅南路２段１３６號（１樓）,121.4518,24.99656,(02)89674888,羅氏家用新冠病毒抗原自我檢測套組,70,2022/04/30 15:26:02,無
5931017010,醫安藥局,新北市板橋區南雅南路１段１１號１樓及２樓,121.4565,25.00706,(02)29692588,羅氏家用新冠病毒抗原自我檢測套組,58,2022/04/30 15:26:02,無
5931017047,永欣藥師藥局,新北市板橋區龍興街４６號１樓,121.4433,25.00094,(02)29687120,羅氏家用新冠病毒抗原自我檢測套組,48,2022/04/30 15:26:02,無
5931017092,康橋藥局,新北市板橋區文化路１段２７３號,121.4646,25.01848,(02)22532560,羅氏家用新冠病毒抗原自我檢測套組,61,2022/04/30 15:26:02,快篩販售 周一到周六 14:00起  週日公休
5931017172,順儷府中藥局,新北市板橋區中山路１段９６號（１樓）,121.4622,25.01016,(02)29541199,羅氏家用新冠病毒抗原自我檢測套組,44,2022/04/30 15:26:02,無
5931017270,躍獅新埔藥局,新北市板橋區陽明街４７號１樓,121.4637,25.02386,(02)22543932,羅氏家用新冠病毒抗原自我檢測套組,78,2022/04/30 15:26:02,無
5931017289,板橋大樹藥局,新北市板橋區忠孝路２８號（１樓）,121.4603,25.00176,(02)29555551,羅氏家用新冠病毒抗原自我檢測套組,78,2022/04/30 15:26:02,快篩實名制，每天16:00開始販售，售完為止。
5931017403,光澤醫美藥局,新北市板橋區四川路１段２１號（１樓）,121.4595,25.00689,(02)29551215,羅氏家用新冠病毒抗原自我檢測套組,38,2022/04/30 15:26:02,無
5931017494,佑全板橋四川藥局,新北市板橋區四川路１段４７１號１樓,121.4573,24.99744,(02)29559598,羅氏家用新冠病毒抗原自我檢測套組,78,2022/04/30 15:26:02,快篩販售時間：周一到周五1500開始，週六日公休，現場排隊
5931017556,光鹽藥局,新北市板橋區中山路２段８４之２號（２樓）,121.4748,25.0161,(02)29552167,羅氏家用新冠病毒抗原自我檢測套組,31,2022/04/30 15:26:02,無
5931017636,福澤藥局,新北市板橋區南雅南路１段８５號（１樓）,121.4556,25.00543,(02)29690013,羅氏家用新冠病毒抗原自我檢測套組,2,2022/04/30 15:26:02,口罩代售9:00-23:00
5931017752,泓泰藥局,新北市板橋區館前西路１４０號２樓,121.4563,25.0081,(02)29686559,羅氏家用新冠病毒抗原自我檢測套組,77,2022/04/30 15:26:02,4／30 今日無發放公費快篩
5931017770,光環藥局,新北市板橋區光環路２段１６號１樓,121.4822,25.01476,(02)89520920,羅氏家用新冠病毒抗原自我檢測套組,78,2022/04/30 15:26:02,無
5931017789,明翠藥局,新北市板橋區四維路１４６、１４８號１、２樓,121.4651,25.02555,(02)22550201,羅氏家用新冠病毒抗原自我檢測套組,78,2022/04/30 15:26:02,快篩實名制，每天16:00開始販售，售完為止。
5931017805,利安藥師藥局,新北市板橋區南雅西路２段１１７號１樓、１１９號１樓,121.4524,25.01085,(02)29666951,羅氏家用新冠病毒抗原自我檢測套組,11,2022/04/30 15:26:02,快篩每日下午三點依現場順序販售，售完為止
5931018026,莊敬藥局,新北市板橋區莊敬路１６３號（１樓）,121.4715,25.02456,(02)22551105,羅氏家用新冠病毒抗原自我檢測套組,78,2022/04/30 15:26:02,快篩實名制，每天16:00開始販售，售完為止。
5931018053,廣福健保藥局,新北市板橋區三民路１段７６號（１樓）,121.4793,25.02207,(02)29544288,羅氏家用新冠病毒抗原自我檢測套組,78,2022/04/30 15:26:02,實名制快篩每日下午16:00開始販售
5931018099,廣品藥局,新北市板橋區漢生西路８２號（１樓）,121.4628,25.01934,(02)22576880,羅氏家用新冠病毒抗原自我檢測套組,76,2022/04/30 15:26:02,無
5931018142,重慶藥局,新北市板橋區國慶路１２７號（１樓）,121.4608,24.99602,(02)29565586,羅氏家用新冠病毒抗原自我檢測套組,78,2022/04/30 15:26:02,快篩實名制，每天16:00開始販售，售完為止。
5931020446,玉美藥局,新北市三重區力行路２段１３６巷４９弄２號,121.4793,25.07519,(02)22879836,羅氏家用新冠病毒抗原自我檢測套組,78,2022/04/30 15:26:02,實名制快篩販售時間:每日AM10:0開始現場排隊，售完為止.
5931021167,禮隆藥局,新北市三重區自強路４段６４號,121.4901,25.07853,(02)29894735,羅氏家用新冠病毒抗原自我檢測套組,57,2022/04/30 15:26:02,早上九點發號牌，發完為止
5931021658,上益藥局,新北市三重區忠孝路２段１３６號１樓,121.4827,25.06833,(02)29879460,羅氏家用新冠病毒抗原自我檢測套組,78,2022/04/30 15:26:02,兒童.成人盒裝彩色口罩熱賣中
5931023349,迪化藥局,新北市三重區中華路７７號,121.4836,25.06267,(02)29834445,羅氏家用新冠病毒抗原自我檢測套組,1,2022/04/30 15:26:02,無
5931023447,安泰藥局,新北市三重區正義北路３００－３號２樓,121.4953,25.06978,(02)89815379,羅氏家用新冠病毒抗原自我檢測套組,78,2022/04/30 15:26:02,5／2只有早上8:30--12:00營業下午.及晚上休息
5931023581,大重仁藥局,新北市三重區重新路５段５９２號１樓,121.4694,25.04539,(02)29958283,羅氏家用新冠病毒抗原自我檢測套組,78,2022/04/30 15:26:02,無
5931024426,甜心健康生活藥局,新北市三重區福祉里集美街４５號１樓,121.488,25.05542,(02)29762223,羅氏家用新冠病毒抗原自我檢測套組,4,2022/04/30 15:26:02,無
5931024515,陳藥局,新北市三重區三民街７７號,121.4858,25.06293,(02)29848601,羅氏家用新冠病毒抗原自我檢測套組,78,2022/04/30 15:26:02,實名快篩時間: 周一到五 晚上7:30~9:00，週六 下午4:00~5:30現場購買沒有發號碼牌
5931024588,陽光藥師藥局,新北市三重區三和路２段１８２號１樓,121.4987,25.06886,(02)29788120,羅氏家用新冠病毒抗原自我檢測套組,7,2022/04/30 15:26:02,無
5931024677,博愛藥局,新北市三重區三民街２２０號１樓,121.4803,25.06712,(02)29711606,羅氏家用新冠病毒抗原自我檢測套組,1,2022/04/30 15:26:02,無
5931025192,榮康藥局,新北市三重區成功路８１號１樓,121.4886,25.05131,(02)29772723,羅氏家用新冠病毒抗原自我檢測套組,78,2022/04/30 15:26:02,4／30 六（暫停發售）   星期一、四14:00發售。星期二、五20:00發售。星期一、六11:00發售。
5931025281,吉盛健保藥局,新北市三重區頂崁街２１０巷４６號１樓,121.4753,25.06803,(02)29801666,羅氏家用新冠病毒抗原自我檢測套組,78,2022/04/30 15:26:02,快篩實名制上午8:30開始販售，不發放號碼牌，排隊購買，星期日公休
5931025610,大樹三重藥局,新北市三重區正義北路６６號１樓,121.4972,25.06415,(02)29713188,羅氏家用新冠病毒抗原自我檢測套組,78,2022/04/30 15:26:02,口罩販售時間：14:00 - 16:00
5931025843,專品先嗇宮藥局,新北市三重區光復路１段４７號１樓,121.4722,25.04874,(02)85124658,羅氏家用新冠病毒抗原自我檢測套組,8,2022/04/30 15:26:02,國定假日有提供藥劑業務
5931025870,宏安藥局,新北市三重區集美街１５８號１樓,121.4898,25.05306,(02)29785866,羅氏家用新冠病毒抗原自我檢測套組,33,2022/04/30 15:26:02,無
5931025898,新宜安中西藥局,新北市三重區三陽路３０號１樓,121.4854,25.05867,(02)29883693,羅氏家用新冠病毒抗原自我檢測套組,1,2022/04/30 15:26:02,【實名制快篩試劑】每日09:45發放號碼牌、10:00開始販售實名制快篩試劑、售完為止。
5931025914,仁美藥局,新北市三重區慈愛街５１號１、２樓,121.4861,25.07908,(02)22805150,羅氏家用新冠病毒抗原自我檢測套組,78,2022/04/30 15:26:02,快篩實名制，每天16:00開始販售，售完為止。
5931025932,永吉藥局,新北市三重區車路頭街９１號１樓,121.4844,25.07422,(02)22860432,羅氏家用新冠病毒抗原自我檢測套組,78,2022/04/30 15:26:02,快篩實名制，每天16:00開始販售，售完為止。
5931025969,躍獅欣欣藥局,新北市三重區正義北路２３３號１樓,121.496,25.06915,(02)29816955,羅氏家用新冠病毒抗原自我檢測套組,78,2022/04/30 15:26:02,16:00開始販售，15:50發號碼牌，離開視同放棄。
5931026028,宏欣藥局,新北市三重區仁愛街５１７號２樓,121.4878,25.08227,(02)29811234,羅氏家用新冠病毒抗原自我檢測套組,77,2022/04/30 15:26:02,無
5931026064,五華春天生活藥局,新北市三重區五華街７３號１、２樓,121.4925,25.08291,(02)29876838,羅氏家用新冠病毒抗原自我檢測套組,5,2022/04/30 15:26:02,下午2點40發號碼牌，3點發快篩
5931026073,重陽藥局,新北市三重區重陽路４段３６、３８號１樓,121.4913,25.06975,(02)29880456,羅氏家用新冠病毒抗原自我檢測套組,78,2022/04/30 15:26:02,快篩實名制，每天16:00開始販售，售完為止。
5931026082,大有藥局,新北市三重區中正北路２１３號１、２樓及２１５號１、２樓,121.4763,25.07013,(02)29885771,羅氏家用新冠病毒抗原自我檢測套組,78,2022/04/30 15:26:02,快篩實名制，每天16:00開始販售，售完為止。
5931026091,重新藥局,新北市三重區重新路４段１２號１樓,121.4888,25.05775,(02)29742700,羅氏家用新冠病毒抗原自我檢測套組,78,2022/04/30 15:26:02,快篩實名制，每天16:00開始販售，售完為止。
5931030531,成功藥局,新北市永和區成功路１段１３３號,121.5269,25.00171,(02)29293622,羅氏家用新冠病毒抗原自我檢測套組,78,2022/04/30 15:26:02,營業時間 09:00 -20:00
5931030568,仲景藥局,新北市永和區竹林路２１３巷１號,121.521,25.00893,(02)89281687,羅氏家用新冠病毒抗原自我檢測套組,2,2022/04/30 15:26:02,營業時間早上9:30~晚上10:30
5931032188,原大藥局,新北市永和區永和路１段２０號１樓,121.513,25.00471,(02)29272767,羅氏家用新冠病毒抗原自我檢測套組,78,2022/04/30 15:26:02,下午1點可領取
5931032811,華特健康藥局,新北市永和區永貞路３６２號１樓,121.5102,25.00667,(02)29264391,羅氏家用新冠病毒抗原自我檢測套組,34,2022/04/30 15:26:02,無
5931033078,博昇藥局,新北市永和區仁愛路２２號１樓,121.5148,25.01361,(02)29267273,羅氏家用新冠病毒抗原自我檢測套組,77,2022/04/30 15:26:02,5／2號休息
5931033087,康宏安藥局,新北市永和區保福路２段７８號１樓,121.5106,25.01331,(02)29288118,羅氏家用新冠病毒抗原自我檢測套組,40,2022/04/30 15:26:02,無
5931033194,廣惠藥局,新北市永和區中正路６４９號２樓,121.5152,25.01007,(02)29290675,羅氏家用新冠病毒抗原自我檢測套組,2,2022/04/30 15:26:02,無
5931033345,御生藥局,新北市永和區中山路１段２７９號１樓,121.5071,25.00706,(02)29235658,羅氏家用新冠病毒抗原自我檢測套組,78,2022/04/30 15:26:02,販賣快篩試劑時間  週一~週五  早上九點
5931033523,永奕藥局,新北市永和區永平路２８６之１號１樓,121.5077,25.01208,(02)22327709,羅氏家用新冠病毒抗原自我檢測套組,78,2022/04/30 15:26:02,無
5931033578,悅美保健藥局,新北市永和區保生路２２巷２１號１樓,121.5073,25.00839,(02)22323515,羅氏家用新冠病毒抗原自我檢測套組,78,2022/04/30 15:26:02,周一至周六 上午11點到晚上10點（周六下午一點開始） 快篩若有貨下午1:30開始
5931033863,欣安大藥局,新北市永和區福和路２２１號１樓,121.5189,25.00749,(02)22326685,羅氏家用新冠病毒抗原自我檢測套組,1,2022/04/30 15:26:02,快篩試劑pm13:30發號碼牌暨銷售，售完為止。
5931033890,康杏安藥局,新北市永和區保平路９９號１樓,121.5114,25.00686,(02)29298968,羅氏家用新冠病毒抗原自我檢測套組,78,2022/04/30 15:26:02,111／4／30今日無領售快篩服務
5931033961,永和大樹藥局,新北市永和區福和路１４３號１、２樓,121.5207,25.00766,(02)29233377,羅氏家用新冠病毒抗原自我檢測套組,78,2022/04/30 15:26:02,快篩實名制，每天16:00開始販售，售完為止。
5931034146,亮點藥局,新北市永和區竹林路７１號１樓,121.5186,25.01355,(02)89253895,羅氏家用新冠病毒抗原自我檢測套組,121,2022/04/30 15:26:02,快篩發放時段 下午16:30-18:00
5931040242,天立藥局,新北市中和區莒光路１２２號,121.4724,25.00173,(02)29578831,羅氏家用新冠病毒抗原自我檢測套組,78,2022/04/30 15:26:02,於下午15:00憑健保卡（一人一卡）購買實名制快篩。
5931041061,裕壬藥局,新北市中和區新生街２０６、２０８號１樓,121.4836,24.99644,(02)32349358,羅氏家用新冠病毒抗原自我檢測套組,78,2022/04/30 15:26:02,快篩17:00領
5931042326,璟福藥局,新北市中和區安平路７６號１樓,121.511,24.99652,(02)29408669,羅氏家用新冠病毒抗原自我檢測套組,3,2022/04/30 15:26:02,星期一至星期六早上8:30分領口罩領完為止不發號碼牌
5931043430,慶華藥師藥局,新北市中和區華新街９０號１樓,121.5085,24.9832,(02)29420666,羅氏家用新冠病毒抗原自我檢測套組,52,2022/04/30 15:26:02,無
5931043565,一安藥妝藥局,新北市中和區中和路９號１.２樓,121.4998,25.00221,(02)22483778,羅氏家用新冠病毒抗原自我檢測套組,78,2022/04/30 15:26:02,營業時間9:00~22:00
5931043627,銓家藥局,新北市中和區員山路３１９號１-２樓,121.4812,25.0006,(02)22257728,羅氏家用新冠病毒抗原自我檢測套組,21,2022/04/30 15:26:02,實名制快篩 下午3點販售 前15分鐘發號碼牌
5931043770,宜安健康人生藥局,新北市中和區宜安路１６２號１樓,121.5091,24.99895,(02)29224648,羅氏家用新冠病毒抗原自我檢測套組,77,2022/04/30 15:26:02,下午六點起發實名制快篩
5931043921,良安藥局,新北市中和區連城路４７７巷１號１樓,121.4833,24.99555,(02)22225798,羅氏家用新冠病毒抗原自我檢測套組,234,2022/04/30 15:26:02,週六日不開店
5931043976,詠邑藥局,新北市中和區南華路４３號１樓,121.5038,24.99671,(02)22445630,羅氏家用新冠病毒抗原自我檢測套組,78,2022/04/30 15:26:02,無
5931044204,康廷安藥局,新北市中和區大勇街１６號１樓,121.5173,24.99277,(02)86683599,羅氏家用新冠病毒抗原自我檢測套組,1,2022/04/30 15:26:02,快篩14:50~14:55發號碼牌.15:00開始販售
5931044419,喬登藥局,新北市中和區景平路６９７號１樓,121.4965,25.00337,(02)22470273,羅氏家用新冠病毒抗原自我檢測套組,57,2022/04/30 15:26:02,無
5931044848,和霖生活藥局,新北市中和區復興路２８９號１樓,121.5018,24.99015,(02)22458227,羅氏家用新冠病毒抗原自我檢測套組,78,2022/04/30 15:26:02,口罩販賣時段:上午9:00至下午22:00
5931045041,大誠藥局,新北市中和區民享街８７號１樓,121.4744,25.00162,(02)22258394,羅氏家用新冠病毒抗原自我檢測套組,60,2022/04/30 15:26:02,實名制快篩 每日下午03:30開始販售
5931045130,四維藥局,新北市中和區四維街３７巷２號１樓,121.5124,24.98679,(02)86681345,羅氏家用新冠病毒抗原自我檢測套組,78,2022/04/30 15:26:02,快篩實名制，每天16:00開始販售，售完為止。
5931045229,佑全中和景新藥局,新北市中和區景新街３９５號１樓,121.5126,24.98995,(02)29431408,羅氏家用新冠病毒抗原自我檢測套組,78,2022/04/30 15:26:02,實名制快篩試劑---13:50發號碼牌，14:00 開始販售
5931045309,杏一中和雙和藥局,新北市中和區圓通路２９５之３號１樓,121.4946,24.99191,(02)22436116,羅氏家用新冠病毒抗原自我檢測套組,33,2022/04/30 15:26:02,無
5931045336,杏一中和中山藥局,新北市中和區中山路２段１３５號１樓,121.5021,25.00297,(02)22471992,羅氏家用新冠病毒抗原自我檢測套組,1,2022/04/30 15:26:02,無
5931045443,台昕藥局,新北市中和區復興路２５５號（１樓）,121.5032,24.9902,(02)22406080,羅氏家用新冠病毒抗原自我檢測套組,3,2022/04/30 15:26:02,無
5931045461,富康活力遠東藥局,新北市中和區建八路１０之１號１樓,121.4865,24.99805,(02)82262299,羅氏家用新冠病毒抗原自我檢測套組,78,2022/04/30 15:26:02,早上8:00~晚19:00
5931045505,順儷民享藥局,新北市中和區民享街５３號１樓,121.4742,25.00265,(02)22222825,羅氏家用新冠病毒抗原自我檢測套組,78,2022/04/30 15:26:02,無
5931052251,昇育健康藥局,新北市新店區中正路７６巷１８號１樓,121.5443,24.97085,(02)86679631,羅氏家用新冠病毒抗原自我檢測套組,78,2022/04/30 15:26:02,無
5931053196,康心藥局,新北市新店區北新路３段１０４號１樓,121.5419,24.9812,(02)86655858,羅氏家用新冠病毒抗原自我檢測套組,9,2022/04/30 15:26:02,快篩販售：周一~週六，15:00開始（若遇物流延遲則順延），以現場排隊為主
5931060342,十安藥局,新北市新莊區中港路３１６號,121.4524,25.04544,(02)29922859,羅氏家用新冠病毒抗原自我檢測套組,15,2022/04/30 15:26:02,自111／04／01起不再販賣實名制口罩
5931060824,禮安藥師藥局,新北市新莊區自立街１０９號１樓,121.4555,25.0455,(02)29942891,羅氏家用新冠病毒抗原自我檢測套組,2,2022/04/30 15:26:02,無
5931067136,蒲陽藥局,新北市新莊區中港路５１４號,121.4518,25.05187,(02)29930069,羅氏家用新冠病毒抗原自我檢測套組,38,2022/04/30 15:26:02,無
5931068464,健安藥局,新北市新莊區光和里民安西路２０９號１樓,121.4261,25.0147,(02)22043765,羅氏家用新冠病毒抗原自我檢測套組,78,2022/04/30 15:26:02,無
5931068759,森活藥局,新北市新莊區民安路２２０－１號,121.426,25.02259,(02)22027927,羅氏家用新冠病毒抗原自我檢測套組,19,2022/04/30 15:26:02,上午8點至完售
5931068819,東京大藥局,新北市新莊區民安路１７６號１樓,121.4251,25.02392,(02)22063806,羅氏家用新冠病毒抗原自我檢測套組,16,2022/04/30 15:26:02,口罩代售時間為9:30開始現場排隊販售
5931068991,新莊健業藥局,新北市新莊區昌平街３７號１樓至２樓,121.4547,25.05221,(02)22798808,羅氏家用新冠病毒抗原自我檢測套組,78,2022/04/30 15:26:02,快篩實名制下午三點開始販售
593106A093,環球藥局,新北市新莊區中港路４３６號１、２樓,121.452,25.05105,(02)29901934,羅氏家用新冠病毒抗原自我檢測套組,78,2022/04/30 15:26:02,營業時間8-23，全年無休
593106A155,日榮藥局,新北市新莊區龍安路４６１號１樓,121.4248,25.0186,(02)22051523,羅氏家用新冠病毒抗原自我檢測套組,49,2022/04/30 15:26:02,無
593106A379,輔大美康藥局,新北市新莊區中正路５１０號之１，１樓,121.4341,25.03294,(02)29013056,羅氏家用新冠病毒抗原自我檢測套組,1,2022/04/30 15:26:02,實名制快篩9:20發號碼牌／9:30過卡+收費
593106A388,元大藥局,新北市新莊區富國路２０４號１、２樓,121.4249,25.02427,(02)22020082,羅氏家用新冠病毒抗原自我檢測套組,78,2022/04/30 15:26:02,無
593106A566,一心春天藥局,新北市新莊區中和街１３號１樓、地下室,121.4481,25.04342,(02)89929482,羅氏家用新冠病毒抗原自我檢測套組,5,2022/04/30 15:26:02,每日下午3:00開始販售實名制快篩（14:40發號碼牌）
593106A600,全鎵藥局,新北市新莊區建中街２２號１樓,121.4493,25.03766,(02)22761550,羅氏家用新冠病毒抗原自我檢測套組,78,2022/04/30 15:26:02,無
593106A637,薇妮藥妝藥局,新北市新莊區民安路９９號１樓,121.4245,25.02524,(02)82010817,羅氏家用新冠病毒抗原自我檢測套組,47,2022/04/30 15:26:02,無
593106A726,良和健保藥局,新北市新莊區龍安路４９號１樓,121.4158,25.02151,(02)29048157,羅氏家用新冠病毒抗原自我檢測套組,78,2022/04/30 15:26:02,口罩：早上9點發號碼牌，星期六休息不代售口罩
593106A931,建安藥局,新北市新莊區建安街１１７號、１１９號１樓,121.4262,25.02406,(02)22051969,羅氏家用新冠病毒抗原自我檢測套組,78,2022/04/30 15:26:02,快篩實名制，每天16:00開始販售，售完為止。
593106A977,丹鳳藥局,新北市新莊區中正路７４５、７４７號（１樓）,121.4227,25.0288,(02)29065755,羅氏家用新冠病毒抗原自我檢測套組,78,2022/04/30 15:26:02,快篩實名制，每天16:00開始販售，售完為止。
593106B036,家嘉藥局,新北市新莊區自立街１０３號（１樓）,121.4553,25.04549,(02)89926488,羅氏家用新冠病毒抗原自我檢測套組,14,2022/04/30 15:26:02,無
593106B081,平安藥局,新北市新莊區民安西路６０號２樓,121.4273,25.02037,(02)22082368,羅氏家用新冠病毒抗原自我檢測套組,54,2022/04/30 15:26:02,無
593106B107,大樹新莊藥局,新北市新莊區新泰路５９號１樓、２樓,121.4494,25.03405,(02)22010566,羅氏家用新冠病毒抗原自我檢測套組,78,2022/04/30 15:26:02,快篩實名制，每天16:00開始販售，售完為止。
593106B189,美康頭前藥局,新北市新莊區化成路３７３之５號１樓,121.4412,25.03785,(02)85219638,羅氏家用新冠病毒抗原自我檢測套組,78,2022/04/30 15:26:02,無
593106B205,藥師佛藥局,新北市新莊區中正路８８１之４號１樓,121.4175,25.02544,(02)29016625,羅氏家用新冠病毒抗原自我檢測套組,5,2022/04/30 15:26:02,九天玄女沒降肉，快篩有沒有賣，要看阿中有沒有送來！詳情請見粉絲團！（快幫我設立）
593106B296,廣元藥局,新北市新莊區雙鳳路２號（１樓）,121.4175,25.02688,(02)29044948,羅氏家用新冠病毒抗原自我檢測套組,1,2022/04/30 15:26:02,無
593106B321,大樹幸福藥局,新北市新莊區幸福路６７２號１樓,121.4509,25.0493,(02)29981066,羅氏家用新冠病毒抗原自我檢測套組,78,2022/04/30 15:26:02,快篩實名制，每天16:00開始販售，售完為止。
5931072066,琉璃水藥師藥局,新北市樹林區龍興街２１號１樓,121.403,25.01614,(02)26764262,羅氏家用新冠病毒抗原自我檢測套組,78,2022/04/30 15:26:02,無
5931072262,祐心藥局,新北市樹林區學府路３６２號１樓,121.3797,24.95028,(02)26803205,羅氏家用新冠病毒抗原自我檢測套組,32,2022/04/30 15:26:02,口罩上午10:00~11:30和下午14:30~16:00（早上售完則無）星期日停售
5931072351,瑪諾藥局,新北市樹林區復興路２０號,121.4225,24.99462,(02)26830304,羅氏家用新冠病毒抗原自我檢測套組,6,2022/04/30 15:26:02,無
5931072388,愛立康藥局,新北市樹林區大雅路２８６號１樓,121.3797,24.94749,(02)89706878,羅氏家用新冠病毒抗原自我檢測套組,22,2022/04/30 15:26:02,無
5931072404,伯安綜合藥局,新北市樹林區中華路１０８號１樓,121.4183,24.98074,(02)86856551,羅氏家用新冠病毒抗原自我檢測套組,78,2022/04/30 15:26:02,初一至初五春節休息
5931072422,三樹食在好健康藥局,新北市樹林區學成路６００號１樓,121.3818,24.94584,(02)26807101,羅氏家用新冠病毒抗原自我檢測套組,156,2022/04/30 15:26:02,實名制快篩販售時間周一～周四19-20點（請自備散鈔）
5931072431,樹林大樹藥局,新北市樹林區育英街５４號１－２樓,121.4213,24.98928,(02)26815488,羅氏家用新冠病毒抗原自我檢測套組,78,2022/04/30 15:26:02,快篩實名制，每天16:00開始販售，售完為止。
5931081289,唯新示範藥局,新北市鶯歌區建國路１６１號１樓,121.3503,24.95345,(02)86775363,羅氏家用新冠病毒抗原自我檢測套組,10,2022/04/30 15:26:02,實名制快篩購買時段下午2:50-4:00
5931081378,鶯歌宏達藥局,新北市鶯歌區國慶街１３８號１樓,121.3508,24.95347,(02)26709693,羅氏家用新冠病毒抗原自我檢測套組,46,2022/04/30 15:26:02,口罩發放時間下午2-4點，人力不足其他時段沒辦法供應
5931081458,食在好健康藥局,新北市鶯歌區國慶街１６５號１樓,121.3512,24.95312,(02)26702559,羅氏家用新冠病毒抗原自我檢測套組,165,2022/04/30 15:26:02,實名制快篩販賣時間週一到週四19:00~20:00 （請自備散鈔）
5931081494,康群藥局,新北市鶯歌區建國路２０２號１樓,121.3494,24.95357,(02)26796690,羅氏家用新冠病毒抗原自我檢測套組,78,2022/04/30 15:26:02,*星期五休診不發放口罩，其餘上班日上午九點開始發放*現場排隊
5931081510,鶯歌藥局,新北市鶯歌區鶯桃路２段１１號１樓,121.3258,24.97205,(02)86778778,羅氏家用新冠病毒抗原自我檢測套組,78,2022/04/30 15:26:02,口罩販售時間：14:00 - 16:00
5931081547,信義健保藥局,新北市鶯歌區信義街６３號１樓,121.3534,24.95571,(02)86775563,羅氏家用新冠病毒抗原自我檢測套組,78,2022/04/30 15:26:02,4／30 晚上店休，暫不發放
5931091481,盛加藥局,新北市三峽區民生街４９號,121.3755,24.9362,(02)26739797,羅氏家用新冠病毒抗原自我檢測套組,59,2022/04/30 15:26:02,政府快篩平日下午1:50發號碼牌，下午2:00準時販售，假日視政府配量（販售時間相同）
5931091605,三峽文化藥局,新北市三峽區文化路２１２－２號,121.3685,24.93606,(02)26710825,羅氏家用新冠病毒抗原自我檢測套組,18,2022/04/30 15:26:02,12:00~14:00 17:00~18:00 休息
5931091623,兆康藥局,新北市三峽區中華路２２號１樓,121.3742,24.93265,(02)26717875,羅氏家用新冠病毒抗原自我檢測套組,113,2022/04/30 15:26:02,無
5931091696,祥祐藥局,新北市三峽區文化路１２５號１樓,121.3699,24.93598,(02)26738080,羅氏家用新冠病毒抗原自我檢測套組,28,2022/04/30 15:26:02,無
5931091874,盛台藥局,新北市三峽區大學路１０８號１、２樓,121.375,24.9438,(02)26722730,羅氏家用新冠病毒抗原自我檢測套組,70,2022/04/30 15:26:02,政府快篩平日13:50發號碼牌，14:00準時販售。假日視政府配量販售（販售時間相同）。
5931091892,三峽藥局,新北市三峽區介壽路１段２７號１樓,121.3757,24.93321,(02)26738868,羅氏家用新冠病毒抗原自我檢測套組,78,2022/04/30 15:26:02,快篩實名制，每天16:00開始販售，售完為止。
5931092200,金美藥局,新北市三峽區大同路２３８號１樓,121.3663,24.92573,(02)86715859,羅氏家用新冠病毒抗原自我檢測套組,234,2022/04/30 15:26:02,無
5931100047,松和大藥局,新北市淡水區英專路９２號,121.4459,25.17167,(02)26203698,羅氏家用新冠病毒抗原自我檢測套組,78,2022/04/30 15:26:02,口罩代售時間自12:00  無發放號碼牌
5931100154,尚運藥局,新北市淡水區學府路５１巷１弄２０號,121.4473,25.16892,(02)26225149,羅氏家用新冠病毒抗原自我檢測套組,105,2022/04/30 15:26:02,無
5931100163,昇運藥局,新北市淡水區中山路１５７－１號,121.4405,25.17287,(02)26222083,羅氏家用新冠病毒抗原自我檢測套組,78,2022/04/30 15:26:02,無
5931101704,聖天藥局,新北市淡水區重建街２１８號,121.4413,25.1748,(02)26215677,羅氏家用新冠病毒抗原自我檢測套組,20,2022/04/30 15:26:02,實名制快篩試劑早上9:00販售 星期日休息      4／30貨到了 下午2:30開始販售
5931102292,佑全淡水淡金藥局,新北市淡水區淡金路５５號、５７號１樓,121.4559,25.16127,(02)26228040,羅氏家用新冠病毒抗原自我檢測套組,78,2022/04/30 15:26:02,實名制快篩每日兩點開賣
5931102434,西雅圖聯合藥局,新北市淡水區新市一路３段１０１巷１６弄２０號１樓,121.4471,25.18403,(02)26200910,羅氏家用新冠病毒抗原自我檢測套組,78,2022/04/30 15:26:02,4／30快篩試劑無庫存貨。
5931102461,淡水藥局,新北市淡水區中山路１２７號（１、２樓）,121.4414,25.17107,(02)86313663,羅氏家用新冠病毒抗原自我檢測套組,77,2022/04/30 15:26:02,快篩實名制，每天16:00開始販售，售完為止。
5931102489,水源藥局,新北市淡水區水源街１段１３３號１樓,121.447,25.172,(02)26295233,羅氏家用新冠病毒抗原自我檢測套組,78,2022/04/30 15:26:02,快篩實名制，每天16:00開始販售，售完為止。
5931110258,春德堂藥局,新北市汐止區新台五路１段２２０號,121.6561,25.06311,(02)26422048,羅氏家用新冠病毒抗原自我檢測套組,78,2022/04/30 15:26:02,實名制快篩 周一~周六 1300~1500 現場購買 （30號無販售
