醫事機構代碼,醫事機構名稱,醫事機構地址,經度,緯度,醫事機構電話,廠牌項目,快篩試劑截至目前結餘存貨數量,來源資料時間,備註
2331260016,新北市貢寮區衛生所,新北市貢寮區朝陽街７０巷１０號、新北市貢寮區仁愛路１２８號,121.9095,25.02258,(02)24901431,羅氏家用新冠病毒抗原自我檢測套組,78,2022/05/04 14:57:02,星期一至星期日上午8點購買防疫口罩，售完為止.
2331290014,新北市烏來區衛生所,新北市烏來區新烏路５段１０９號,121.548,24.87197,(02)26617200,羅氏家用新冠病毒抗原自我檢測套組,78,2022/05/04 14:57:02,無
2333140017,新竹縣五峰鄉衛生所,新竹縣五峰鄉大隘村六鄰９９號,121.1194,24.63184,(03)5851005,羅氏家用新冠病毒抗原自我檢測套組,78,2022/05/04 14:57:02,無
2335180019,苗栗縣泰安鄉衛生所,苗栗縣泰安鄉清安村２鄰７２號,120.9083,24.44722,(037)941054,羅氏家用新冠病毒抗原自我檢測套組,78,2022/05/04 14:57:02,口罩販賣時段：星期一~五：8:30~15：00。
2338070010,南投縣鹿谷鄉衛生所,南投縣鹿谷鄉中正路二段２０號,120.7542,23.74488,(049)2752002,羅氏家用新冠病毒抗原自我檢測套組,78,2022/05/04 14:57:02,快篩試劑販售時間 上班日（星期一至星期五）14:00~16:00
2338120015,南投縣信義鄉衛生所,南投縣信義鄉明德村玉山路４５號,120.8547,23.69653,(049)2791148,羅氏家用新冠病毒抗原自我檢測套組,78,2022/05/04 14:57:02,快篩試劑販售時間星期一至星期五上午09：00-11：00，現場排隊發售，國定假日不販賣。
2340170016,嘉義縣大埔鄉衛生所,嘉義縣大埔鄉大埔村５３－１號,120.5928,23.29397,(05)2521214,羅氏家用新冠病毒抗原自我檢測套組,84,2022/05/04 14:57:02,無
2342130010,高雄市田寮區衛生所,高雄市田寮區南安里崗北路３２號,120.3594,22.87301,(07)6361504,羅氏家用新冠病毒抗原自我檢測套組,157,2022/05/04 14:57:02,巡迴醫療:每星期一、四下午及每月第一個有上班的星期三下午巡迴醫療
2342180010,高雄市永安區衛生所,高雄市永安區永安路２６號,120.2254,22.81879,(07)6912015,羅氏家用新冠病毒抗原自我檢測套組,8,2022/05/04 14:57:02,本所防疫快篩試劑販賣時間為週一到週五上班日 9:00-11:00 （或售罄為止）
2342250017,高雄市茂林區衛生所,高雄市茂林區茂林里茂林巷８－４號,120.6641,22.88641,(07)6801046,羅氏家用新冠病毒抗原自我檢測套組,209,2022/05/04 14:57:02,夜間急診，請先撥電話07-6801046
2342260013,高雄市桃源區衛生所,高雄市桃源區桃源里南進巷１８８－１號,120.7642,23.15845,(07)6861126,羅氏家用新冠病毒抗原自我檢測套組,102,2022/05/04 14:57:02,IDS提供24小時服務
2342270019,高雄市那瑪夏區衛生所,高雄市那瑪夏區瑪雅里６鄰平和巷２５２號,120.7024,23.24708,(07)6701142,羅氏家用新冠病毒抗原自我檢測套組,592,2022/05/04 14:57:02,春節期間正常門診
2343270013,屏東縣霧台鄉衛生所,屏東縣霧台鄉霧台村神山巷６８號,120.7261,22.74989,(08)7902232,羅氏家用新冠病毒抗原自我檢測套組,111,2022/05/04 14:57:02,無
2344011036,澎湖縣馬公市第三衛生所,澎湖縣馬公市西文里１１８之２號,119.5836,23.56813,(06)9211723,羅氏家用新冠病毒抗原自我檢測套組,52,2022/05/04 14:57:02,本所快篩試劑販售以離島衛生室（虎井、桶盤）為主，時間週一至週五08:30-17:00售完為止，星期六、日國定假日09:00-12:00。
2344030013,澎湖縣白沙鄉衛生所,澎湖縣白沙鄉赤崁村３５９號,119.5982,23.66669,(06)9931044,羅氏家用新冠病毒抗原自我檢測套組,2,2022/05/04 14:57:02,星期日上午門診看診（每月最後一個星期日休診）； 星期五上午巡迴醫療（中屯村，講美村，通樑村）
2344030022,澎湖縣白沙鄉鳥嶼衛生所,澎湖縣白沙鄉鳥嶼村漁港新村３號,119.6599,23.66008,(06)9916092,羅氏家用新冠病毒抗原自我檢測套組,143,2022/05/04 14:57:02,非上班時間提供急診服務
2344030031,澎湖縣白沙鄉吉貝衛生所,澎湖縣白沙鄉吉貝村８－１３號,119.6138,23.74056,(06)9911430,羅氏家用新冠病毒抗原自我檢測套組,131,2022/05/04 14:57:02,無
2344050015,澎湖縣望安鄉衛生所,澎湖縣望安鄉西安村３６－７號,119.4972,23.36161,(06)9991036,羅氏家用新冠病毒抗原自我檢測套組,161,2022/05/04 14:57:02,夜間急診。口罩、快篩試劑販售時間為:每日08:00-12:00、13:30-17:30售完為止，如有餘數為離島未售出（東嶼坪、花嶼）。
2344050024,澎湖縣望安鄉將軍衛生所,澎湖縣望安鄉將軍村１２鄰將軍澳１之３號,119.5216,23.3615,(06)9902066,羅氏家用新冠病毒抗原自我檢測套組,232,2022/05/04 14:57:02,24小時急診
2344060011,澎湖縣七美鄉衛生所,澎湖縣七美鄉中和村埔內５４號,119.431,23.2041,(06)9971005,羅氏家用新冠病毒抗原自我檢測套組,62,2022/05/04 14:57:02,無
2391030016,連江縣莒光鄉西莒衛生所,連江縣莒光鄉青帆村１４－１號,119.9331,25.97157,(083)689122,羅氏家用新冠病毒抗原自我檢測套組,290,2022/05/04 14:57:02,防疫口罩星期一至五09:00-17:00、（六）09:00-12:00現場購買
2391030026,連江縣莒光鄉東莒衛生所,連江縣莒光鄉大坪村３０－１號,119.9731,25.96113,(083)689038,羅氏家用新冠病毒抗原自我檢測套組,312,2022/05/04 14:57:02,防疫口罩星期一至星期日上午10:00-12:00收取健保卡，下午3:30至本所領取口罩。
5901010192,益華藥局,臺北市松山區民生東路５段１３８巷６號,121.5615,25.05827,(02)27624898,羅氏家用新冠病毒抗原自我檢測套組,1,2022/05/04 14:57:02,無
5901012598,婕登藥局,臺北市松山區八德路４段６９９號,121.5766,25.05021,(02)27482893,羅氏家用新冠病毒抗原自我檢測套組,84,2022/05/04 14:57:02,今天快篩已經發送完畢（電腦庫存不準）
5901013095,康采藥局,臺北市松山區南京東路５段２９１巷１７－２號,121.5663,25.05236,(02)27670271,羅氏家用新冠病毒抗原自我檢測套組,124,2022/05/04 14:57:02,（已完售，庫存不準）快篩試劑每日16點販售，週日沒有販售
5901013120,誠康中西藥局,臺北市松山區南京東路５段５９巷３１弄４３號,121.5607,25.05346,(02)27619679,羅氏家用新冠病毒抗原自我檢測套組,39,2022/05/04 14:57:02,禮拜一到六早上7點發號碼牌，到貨時會用社群通知大家來取貨
5901013200,專品南京藥局,臺北市松山區南京東路４段７３號,121.5532,25.05185,(02)25147685,羅氏家用新冠病毒抗原自我檢測套組,72,2022/05/04 14:57:02,無
5901013399,一安正昇藥局,臺北市松山區南京東路５段３０９號,121.5667,25.05155,(02)27680993,羅氏家用新冠病毒抗原自我檢測套組,78,2022/05/04 14:57:02,快篩發放時間  下午14:30
5901013442,松山八德藥局,臺北市松山區八德路２段４００號,121.5466,25.04804,(02)27782773,羅氏家用新冠病毒抗原自我檢測套組,78,2022/05/04 14:57:02,快篩實名制，每天16:00開始販售，售完為止。
5901013657,順儷中崙藥局,臺北市松山區八德路３段７４巷４８號１樓,121.5525,25.04685,(02)25796900,羅氏家用新冠病毒抗原自我檢測套組,78,2022/05/04 14:57:02,無
5901013693,民生盛康藥局,臺北市松山區民生東路５段２０４號１樓,121.5648,25.05826,(02)27460758,羅氏家用新冠病毒抗原自我檢測套組,116,2022/05/04 14:57:02,【今日量已發完】每日早上9:00發號碼牌，11:00~20:00拿號碼牌回來領取，每人限1張號碼牌，逾時不候
5901013700,杏一台北台安藥局,臺北市松山區八德路２段３９９號１樓,121.5465,25.04833,(02)87728295,羅氏家用新冠病毒抗原自我檢測套組,78,2022/05/04 14:57:02,快篩販售時間是每天下午15:00
5901013719,大樹松山藥局,臺北市松山區民生東路５段１０７號１樓,121.5601,25.05878,(02)27562226,羅氏家用新冠病毒抗原自我檢測套組,78,2022/05/04 14:57:02,快篩實名制，每天16:00開始販售，售完為止。
5901013737,全欣藥局,臺北市松山區復興北路７３號２樓,121.5442,25.05104,(02)87729066,羅氏家用新冠病毒抗原自我檢測套組,126,2022/05/04 14:57:02,9:00am開始販售30人份15:00販售30人份:18:00販售18人份；週六:9:00販售39人份；週日:15:00販售39人份....排隊人數滿會先開賣
5901013746,富景藥局,臺北市松山區三民路１４５號１樓,121.5631,25.06078,(02)27455666,羅氏家用新冠病毒抗原自我檢測套組,34,2022/05/04 14:57:02,無
5901020465,杏友藥局,臺北市大安區復興南路２段１５１巷２５號,121.5446,25.02847,(02)27079451,羅氏家用新冠病毒抗原自我檢測套組,127,2022/05/04 14:57:02,週一-週六 下午3:00開始發放快篩，發完為止
5901020616,龍護大藥局,臺北市大安區大安路１段２２４巷７號１Ｆ,121.5454,25.03401,(02)23250686,羅氏家用新冠病毒抗原自我檢測套組,78,2022/05/04 14:57:02,無
5901020689,四維藥局,臺北市大安區復興南路２段１５１巷４３號１樓,121.5454,25.02846,(02)27094222,羅氏家用新冠病毒抗原自我檢測套組,60,2022/05/04 14:57:02,假日可先打電話聯絡
5901021408,生百藥局,臺北市大安區臨江街１２４號,121.5539,25.03024,(02)27371011,羅氏家用新冠病毒抗原自我檢測套組,156,2022/05/04 14:57:02,無
5901023386,弘昇藥局,臺北市大安區復興南路１段１０７巷３２號,121.5458,25.04349,(02)27110061,羅氏家用新冠病毒抗原自我檢測套組,64,2022/05/04 14:57:02,上午11點以後至晚上11點
5901024098,杏一瑞安藥局,臺北市大安區瑞安街２０８巷１１弄１號,121.5406,25.02866,(02)27096710,羅氏家用新冠病毒抗原自我檢測套組,78,2022/05/04 14:57:02,3點發快篩，前5分鐘發牌
5901024114,好安心藥局,臺北市大安區和平東路２段９８之２號,121.5415,25.02493,(02)23772166,羅氏家用新冠病毒抗原自我檢測套組,79,2022/05/04 14:57:02,快篩發放: 週一至週六 15:30現場開始販售，不發號碼牌。
5901024347,博大藥局,臺北市大安區安和路２段６５號,121.5526,25.03063,(02)27027858,羅氏家用新冠病毒抗原自我檢測套組,7,2022/05/04 14:57:02,若有配給．下午兩點開始販售。
5901024472,忠孝康承健保藥局,臺北市大安區復興南路１段１０７巷４號,121.5444,25.04357,(02)87733378,羅氏家用新冠病毒抗原自我檢測套組,78,2022/05/04 14:57:02,周一公休
5901024490,明星大藥局,臺北市大安區光復南路４３０之１號,121.5574,25.03618,(02)27023747,羅氏家用新冠病毒抗原自我檢測套組,2,2022/05/04 14:57:02,無
5901024678,大安健康人生藥局,臺北市大安區信義路４段３４號,121.5447,25.03316,(02)27025553,羅氏家用新冠病毒抗原自我檢測套組,78,2022/05/04 14:57:02,快篩發放時間:下午3點開始發放號碼牌，並依序入場購買，請協助自備紙鈔
5901024687,博昱大藥局,臺北市大安區樂業街１４８號、１５０號,121.5529,25.01998,(02)23776199,羅氏家用新冠病毒抗原自我檢測套組,78,2022/05/04 14:57:02,快篩發放為周一至周五1600開始發放
5901024703,吾家藥局,臺北市大安區信義路４段２６５巷６之１號,121.5542,25.03372,(02)27066425,羅氏家用新冠病毒抗原自我檢測套組,78,2022/05/04 14:57:02,實名制快篩於每日下午三點到四點開放 只限此時段販售 建議您於2點多到現場等候
5901024767,杏一樂業藥局,臺北市大安區樂業街１６２號,121.5535,25.01958,(02)27383194,羅氏家用新冠病毒抗原自我檢測套組,156,2022/05/04 14:57:02,快篩下午三點現場直接販售（不發號碼牌）
5901024838,昶青藥局,臺北市大安區濟南路３段２２之１號,121.5346,25.04008,(02)27515678,羅氏家用新冠病毒抗原自我檢測套組,82,2022/05/04 14:57:02,每天下午13:00販售快篩實名制
5901024918,康祥藥局,臺北市大安區忠孝東路４段２１６巷２１號,121.5531,25.04025,(02)27817891,羅氏家用新冠病毒抗原自我檢測套組,78,2022/05/04 14:57:02,星期天11:00-19:00
5901025031,中力信義藥局,臺北市大安區信義路４段５１號（１樓）,121.545,25.03354,(02)23250266,羅氏家用新冠病毒抗原自我檢測套組,39,2022/05/04 14:57:02,下午一點到三點販售實名制快篩
5901025077,敦南春天藥局,臺北市大安區敦化南路２段８１巷６３號１樓,121.5513,25.03002,(02)27553266,羅氏家用新冠病毒抗原自我檢測套組,55,2022/05/04 14:57:02,快篩待售時間:週一至週日15:00現場排隊購買，售完為止。（物流配送不及則例外，以門市公告為主）
5901090341,正中藥局,臺北市大同區民族西路２１３號,121.5142,25.06874,(02)25976937,羅氏家用新冠病毒抗原自我檢測套組,142,2022/05/04 14:57:02,無
5901091857,佳禾藥局,臺北市大同區大龍街２６２號,121.5158,25.07061,(02)25953806,羅氏家用新冠病毒抗原自我檢測套組,1,2022/05/04 14:57:02,無
5901092014,旭豐藥局,臺北市大同區昌吉街９６號,121.5151,25.06582,(02)25853880,羅氏家用新冠病毒抗原自我檢測套組,78,2022/05/04 14:57:02,無
5901092069,躍獅遠東藥局,臺北市大同區延平北路２段１３１號（實際營業地址：１樓）,121.5116,25.05751,(02)25594835,羅氏家用新冠病毒抗原自我檢測套組,13,2022/05/04 14:57:02,實名制快篩販賣時間：下午2點~下午3點；晚上7點~晚上8點。售完為止。
5901092112,酒泉春天藥局,臺北市大同區酒泉街９４號、９４號２樓,121.5146,25.07193,(02)25977932,羅氏家用新冠病毒抗原自我檢測套組,78,2022/05/04 14:57:02,無
5901092130,大同民生藥局,臺北市大同區民生西路１２８號１樓、２樓及１３０號１樓、２樓,121.5191,25.05734,(02)25558886,羅氏家用新冠病毒抗原自我檢測套組,78,2022/05/04 14:57:02,快篩實名制，每天16:00開始販售，售完為止。
5901092149,123宅藥局,臺北市大同區鄭州路１２３號（１樓）,121.5109,25.05033,(02)25588699,羅氏家用新冠病毒抗原自我檢測套組,78,2022/05/04 14:57:02,【家用快篩實名制】因物流送達時間不訂平日時段改為下午 05:30。 假日一時段可購買:10:30。★前十分鐘開始發放號碼牌
5901100440,優豐藥局,臺北市中山區民生東路１段３２號,121.5242,25.05794,(02)25602565,羅氏家用新冠病毒抗原自我檢測套組,78,2022/05/04 14:57:02,下午3點現場作業不分發號碼牌
5901101250,美日藥局,臺北市中山區天津街６６號１樓,121.5233,25.05136,(02)25631662,羅氏家用新冠病毒抗原自我檢測套組,234,2022/05/04 14:57:02,實名制快篩於營業日下午4點開始發號碼牌
5901101321,文德藥局,臺北市中山區龍江路３５６巷１９號１樓,121.5401,25.06607,(02)25181178,羅氏家用新冠病毒抗原自我檢測套組,1,2022/05/04 14:57:02,無
5901101929,樂活苑藥局,臺北市中山區北安路５４６號１樓,121.548,25.08014,(02)25323296,羅氏家用新冠病毒抗原自我檢測套組,156,2022/05/04 14:57:02,實名制快篩代售時間為18:00~19:00.現場排隊，不發號碼牌.
5901102597,德惠藥局,臺北市中山區德惠街１２２號,121.53,25.06652,(02)25971131,羅氏家用新冠病毒抗原自我檢測套組,78,2022/05/04 14:57:02,每日下午3點30分開始販售快篩實名制
5901102686,富宥康藥局,臺北市中山區北安路６０８巷５弄２２號,121.5496,25.08263,(02)25325277,羅氏家用新冠病毒抗原自我檢測套組,103,2022/05/04 14:57:02,無
5901102837,正傑健保藥局,臺北市中山區長安東路２段１８１號,121.5426,25.04839,(02)27310181,羅氏家用新冠病毒抗原自我檢測套組,156,2022/05/04 14:57:02,下午四點開始販售
5901102855,錦西春天生活藥局,臺北市中山區錦西街１０號,121.5216,25.06024,(02)25312658,羅氏家用新冠病毒抗原自我檢測套組,78,2022/05/04 14:57:02,快篩14:40領號碼牌 15:00開始販售
5901103334,大直小太陽藥局,臺北市中山區北安路６０７之１號,121.5488,25.08241,(02)85093208,羅氏家用新冠病毒抗原自我檢測套組,2,2022/05/04 14:57:02,無
5901103414,元宏藥局,臺北市中山區北安路４５８巷４１弄４９號,121.5465,25.0794,(02)25339728,羅氏家用新冠病毒抗原自我檢測套組,28,2022/05/04 14:57:02,快篩試劑若有送達，則於下午2:30販售，不提供號碼牌，現場排隊。
5901103423,農安藥局,臺北市中山區農安街１８之１號,121.5248,25.06483,(02)25959293,羅氏家用新冠病毒抗原自我檢測套組,79,2022/05/04 14:57:02,快篩2點發號碼牌 3點後來拿
5901103487,錦州春天生活藥局,臺北市中山區錦州街２１３號、２１３號２樓,121.5321,25.06039,(02)25213586,羅氏家用新冠病毒抗原自我檢測套組,42,2022/05/04 14:57:02,快篩14:40發號碼牌15:00販賣 每天78盒
5901103629,十二願藥局,臺北市中山區林森北路３０９號,121.5256,25.05588,(02)25311223,羅氏家用新冠病毒抗原自我檢測套組,78,2022/05/04 14:57:02,快篩晚上8點開始發放.營業時間下午1點至凌晨3點
5901103656,大樹龍江藥局,臺北市中山區龍江路２４２號,121.5406,25.05889,(02)25035666,羅氏家用新冠病毒抗原自我檢測套組,78,2022/05/04 14:57:02,國定假日仍執行調劑業務
5901103683,東東藥局,臺北市中山區長春路２５７之２號１樓,121.5408,25.05477,(02)25031730,羅氏家用新冠病毒抗原自我檢測套組,64,2022/05/04 14:57:02,快篩發放時間:星期一至六 .15點開始銷售至16點前結束
5901103692,誠果中西藥局,臺北市中山區吉林路１０１號１樓,121.5303,25.05619,(02)25238563,羅氏家用新冠病毒抗原自我檢測套組,78,2022/05/04 14:57:02,因為當日才收到快篩 本周發送時間不確定 麻煩現場來加line群組關注會提前告知
5901103745,吉林藥局,臺北市中山區吉林路３７１號（１樓）,121.5305,25.06511,(02)25865990,羅氏家用新冠病毒抗原自我檢測套組,78,2022/05/04 14:57:02,快篩實名制，每天16:00開始販售，售完為止。
5901103807,專品龍江藥局,臺北市中山區龍江路３１１號１樓,121.5409,25.06127,(02)25178870,羅氏家用新冠病毒抗原自我檢測套組,78,2022/05/04 14:57:02,實名制快篩下午三點開始發號碼牌販售
5901110393,明湖藥局,臺北市內湖區東湖路７巷２７號１Ｆ,121.6125,25.0697,(02)26313515,羅氏家用新冠病毒抗原自我檢測套組,24,2022/05/04 14:57:02,快篩實名制，下午2點半販售。
5901112879,壹零捌藥局,臺北市內湖區成功路４段３４４號,121.5996,25.08488,(02)27910061,羅氏家用新冠病毒抗原自我檢測套組,156,2022/05/04 14:57:02,快篩18:00開始販售（星期一至星期六）
5901113018,桔子藥局,臺北市內湖區內湖路２段３３３號,121.5917,25.08319,(02)27930052,羅氏家用新冠病毒抗原自我檢測套組,114,2022/05/04 14:57:02,早0900-1200，午1400-1700，晚1900-2100
5901113250,大內湖藥局,臺北市內湖區成功路３段１６４號１樓,121.5903,25.08035,(02)27956286,羅氏家用新冠病毒抗原自我檢測套組,78,2022/05/04 14:57:02,週一到週六下午16:00開始發放號碼牌，週日早上9:30開始發放號碼牌
5901113269,樂齡藥師藥局,臺北市內湖區內湖路３段１０３號,121.5909,25.08641,(02)27919707,羅氏家用新冠病毒抗原自我檢測套組,65,2022/05/04 14:57:02,早上8:30
5901113661,內湖藥局,臺北市內湖區康寧路１段１１６號１樓,121.5934,25.07948,(02)27940545,羅氏家用新冠病毒抗原自我檢測套組,78,2022/05/04 14:57:02,快篩實名制，每天16:00開始販售，售完為止。
5901113689,葫光藥局,臺北市內湖區康寧路３段５４巷６號１樓,121.609,25.07168,(02)26336611,羅氏家用新冠病毒抗原自我檢測套組,78,2022/05/04 14:57:02,實名制快篩販售時間 依LINE社群公告為主 售完為止
5901113732,富康活力誠功藥局,臺北市內湖區成功路４段３０巷２０號１樓,121.5916,25.08235,(02)27960222,羅氏家用新冠病毒抗原自我檢測套組,78,2022/05/04 14:57:02,正常供應的話都是每日16:00開始販售快篩，建議來現場加入**LINE社群**，可以獲得最新第一手資訊
5901121618,新東發藥局,臺北市南港區成福路１９８號,121.5883,25.04092,(02)27855190,羅氏家用新冠病毒抗原自我檢測套組,150,2022/05/04 14:57:02,營業時間 早上10:00 因政府配送不穩 快篩銷售時間 藥局現場公告為主
5901121627,富康活力藥局,臺北市南港區研究院路１段１０１巷８號,121.6165,25.05181,(02)27828810,羅氏家用新冠病毒抗原自我檢測套組,2,2022/05/04 14:57:02,週一至週六，每天09:00-21:00販售口罩，請記得帶健保卡&零錢，售完為止。
5901121672,亞博藥師藥局,臺北市南港區興華路８１號,121.6061,25.05545,(02)27838090,羅氏家用新冠病毒抗原自我檢測套組,78,2022/05/04 14:57:02,無
5901121734,湳港藥局,臺北市南港區研究院路１段１０１巷１２號,121.6167,25.05175,(02)27892200,羅氏家用新冠病毒抗原自我檢測套組,1,2022/05/04 14:57:02,週一至週日，2:30開賣（政府有配送的況狀下）（沒有發放號碼牌），售完為止
5901121823,儀安健保藥局,臺北市南港區同德路７４號,121.5853,25.0457,(02)27859893,羅氏家用新冠病毒抗原自我檢測套組,77,2022/05/04 14:57:02,實名制快篩下午三點開賣，無發放號碼牌（只有週日為晚上六點）
5901122080,成福大藥局,臺北市南港區成福路８號,121.5859,25.04578,(02)27859221,羅氏家用新冠病毒抗原自我檢測套組,78,2022/05/04 14:57:02,無
5901122115,上丞藥師藥局,臺北市南港區成福路１０號１樓,121.5859,25.04574,(02)26535589,羅氏家用新冠病毒抗原自我檢測套組,78,2022/05/04 14:57:02,實名制快篩下午三點開賣，無發放號碼牌
5901150342,士林三安藥局,臺北市士林區大南路１１號,121.526,25.08898,(02)28812631,羅氏家用新冠病毒抗原自我檢測套組,8,2022/05/04 14:57:02,無
5901150548,田倉藥局,臺北市士林區士東路１２４號,121.5302,25.11219,(02)88662188,羅氏家用新冠病毒抗原自我檢測套組,78,2022/05/04 14:57:02,每日19:00（傍晚7點）開始販售.
5901150771,天母大和藥師藥局,臺北市士林區德行東路１８９－１號１樓,121.5317,25.10897,(02)28310142,羅氏家用新冠病毒抗原自我檢測套組,78,2022/05/04 14:57:02,快篩實名制 配合營業時間  賣完為止
5901150815,陽明藥局,臺北市士林區菁山路１０號１樓,121.5469,25.13797,(02)28612863,羅氏家用新冠病毒抗原自我檢測套組,1,2022/05/04 14:57:02,早上9點30到12點健保卡排隊.（作業時間2小時）下午1點到晚上6點領回口罩及健保卡
5901152079,資生堂藥局,臺北市士林區承德路４段４０巷１７號１Ｆ,121.522,25.08107,(02)28857588,羅氏家用新冠病毒抗原自我檢測套組,78,2022/05/04 14:57:02,無
5901152453,家赫藥局,臺北市士林區忠義街８０號１樓,121.5317,25.10614,(02)28346453,羅氏家用新冠病毒抗原自我檢測套組,37,2022/05/04 14:57:02,5／4（三）更改為下午2:40開始發號碼牌販售實名制快篩，單號可購買（1人1卡）
5901152471,得安藥局,臺北市士林區文林路１４０號,121.5267,25.08878,(02)28836336,羅氏家用新冠病毒抗原自我檢測套組,156,2022/05/04 14:57:02,星期三五六下午3:30---10:00   星期二 四日下午5:00--10:00
5901152659,和樹藥局,臺北市士林區後港街４５巷１號１樓,121.5228,25.08444,(02)28821188,羅氏家用新冠病毒抗原自我檢測套組,78,2022/05/04 14:57:02,實名制快篩發放時間 依到貨時間發售
5901152686,三光藥局,臺北市士林區延平北路５段３２０號１樓,121.5096,25.08628,(02)28123786,羅氏家用新冠病毒抗原自我檢測套組,5,2022/05/04 14:57:02,無
5901153058,誼安藥局,臺北市士林區通河街４２號,121.5215,25.08044,(02)28851899,羅氏家用新冠病毒抗原自我檢測套組,156,2022/05/04 14:57:02,12至14:30午休.周日公休.實名制快篩:周一至周五17:00周六10點開始販售
5901153432,大南春天生活藥局,臺北市士林區大南路３１７、３１９號,121.518,25.08888,(02)28882196,羅氏家用新冠病毒抗原自我檢測套組,50,2022/05/04 14:57:02,本藥局可領慢箋 快篩是下午3點開始販售 售完為止（物流無配送&配送不及例外）
5901153487,和謙藥局,臺北市士林區社中街３６２號,121.5041,25.09242,(02)28165678,羅氏家用新冠病毒抗原自我檢測套組,78,2022/05/04 14:57:02,5／4 若有到貨，將於16:00開賣
5901153521,天母台安藥局,臺北市士林區天母西路３４號,121.5262,25.11835,(02)28728017,羅氏家用新冠病毒抗原自我檢測套組,14,2022/05/04 14:57:02,有配送→每日下午2:30開始販售實
5901153585,德行春天生活藥局,臺北市士林區德行東路７６號,121.5275,25.1073,(02)28380306,羅氏家用新冠病毒抗原自我檢測套組,78,2022/05/04 14:57:02,下午2點40持健保卡領號碼牌販售快篩到晚上10點售完為止
5901153610,家安健保藥局,臺北市士林區德行東路１０９巷１１９號,121.5288,25.11156,(02)28322182,羅氏家用新冠病毒抗原自我檢測套組,78,2022/05/04 14:57:02,因目前當日販售快篩當日配送，目前銷售時間改為下午4:00 造成不便 敬請見諒
5901153683,安奕藥局,臺北市士林區葫蘆街３０巷１２號,121.5099,25.08034,(02)28133289,羅氏家用新冠病毒抗原自我檢測套組,106,2022/05/04 14:57:02,週日休。快篩劑到貨時間不定，開賣時間依現場公告為主。暫定下午2:30以後
5901153861,佩佩藥局,臺北市士林區中山北路６段１８２號,121.5252,25.10759,(02)28382662,羅氏家用新冠病毒抗原自我檢測套組,78,2022/05/04 14:57:02,5／4已售完。08:30開始販售快篩，售完為止。
5901153941,士東藥局,臺北市士林區士東路９１巷３號,121.5291,25.11256,(02)28760588,羅氏家用新冠病毒抗原自我檢測套組,78,2022/05/04 14:57:02,快篩實名制，每天16:00開始販售，售完為止。
5901153996,文昌春天藥局,臺北市士林區文昌路４４號（１樓）,121.5216,25.09562,(02)28838539,羅氏家用新冠病毒抗原自我檢測套組,78,2022/05/04 14:57:02,無
5901154000,文昌大藥局,臺北市士林區文昌路７２號１樓,121.5213,25.09634,(02)28376196,羅氏家用新冠病毒抗原自我檢測套組,60,2022/05/04 14:57:02,1.周一至周日下午15:00販售實名制口罩，請自備零錢 2.每日保留18份，提供醫護警消憑證購買，僅保留至pm14:30
5901154028,向宇藥局,臺北市士林區德行東路２１７號１樓,121.5328,25.10935,(02)88661101,羅氏家用新冠病毒抗原自我檢測套組,78,2022/05/04 14:57:02,無
5901154091,社正藥局,臺北市士林區社正路１２號１樓,121.5093,25.08854,(02)28118704,羅氏家用新冠病毒抗原自我檢測套組,155,2022/05/04 14:57:02,無
5901160099,進春藥局,臺北市北投區明德路１５１號,121.5206,25.11086,(02)28216938,羅氏家用新冠病毒抗原自我檢測套組,141,2022/05/04 14:57:02,無休 上午九點開始販售，現場排隊。（依現場公告為主）
5901160142,德昇藥局,臺北市北投區裕民二路２０號,121.517,25.11604,(02)28217565,羅氏家用新冠病毒抗原自我檢測套組,190,2022/05/04 14:57:02,週一至週五下午 2:30分 實名制快篩現場排隊發售
5901160400,世全藥局,臺北市北投區知行路２７３號,121.4672,25.12134,(02)28585378,羅氏家用新冠病毒抗原自我檢測套組,78,2022/05/04 14:57:02,早0000-0100，午0000-0000晚17:30-2400
5901160544,黎明藥局,臺北市北投區尊賢街２５３－１號,121.5066,25.11817,(02)28223795,羅氏家用新冠病毒抗原自我檢測套組,78,2022/05/04 14:57:02,星期1-6早上900至1230 下午1600至2100星期日下午4點至5點
5901160802,美康藥局,臺北市北投區明德路９０號１樓,121.5196,25.1094,(02)28281176,羅氏家用新冠病毒抗原自我檢測套組,78,2022/05/04 14:57:02,營業時間:10:30~22:00；13:30開始販售快篩
5901161890,良興藥局,臺北市北投區中和街２８６號,121.5004,25.14047,(02)28933360,羅氏家用新冠病毒抗原自我檢測套組,55,2022/05/04 14:57:02,18點30分點開始營業
5901162173,小明藥局,臺北市北投區中央南路１段６９號２樓,121.5014,25.13145,(02)28928950,羅氏家用新冠病毒抗原自我檢測套組,78,2022/05/04 14:57:02,快篩實名制購買時間:週一至週六早上8:00-9:00，9點後系統顯示尚有庫存，為隔日販售的量，請勿再來電詢問，謝謝!
5901162306,上頤藥局,臺北市北投區中和街３２７號１樓,121.4997,25.14097,(02)28981230,羅氏家用新冠病毒抗原自我檢測套組,386,2022/05/04 14:57:02,無
5901163296,天禧大藥局,臺北市北投區實踐街３５號,121.5087,25.11521,(02)28213558,羅氏家用新冠病毒抗原自我檢測套組,2,2022/05/04 14:57:02,實名制快篩下午1:30現場販售
5901163376,北投春天藥局,臺北市北投區中央南路１段７６號,121.5011,25.13135,(02)28916668,羅氏家用新冠病毒抗原自我檢測套組,78,2022/05/04 14:57:02,每日14:40發號碼牌 15:00販售 依物流到貨時間滾動調整
5901163394,致遠春天藥局,臺北市北投區致遠一路１段１３２號１、２樓,121.5149,25.11051,(02)28253258,羅氏家用新冠病毒抗原自我檢測套組,66,2022/05/04 14:57:02,15:30開始發放號碼牌15:30開始販售口罩
5901163509,吉利春天生活藥局,臺北市北投區吉利街１２０號,121.5068,25.11851,(02)28253256,羅氏家用新冠病毒抗原自我檢測套組,78,2022/05/04 14:57:02,無
5901163634,心樂藥局,臺北市北投區致遠一路２段１０５號１樓,121.5128,25.1131,(02)28210261,羅氏家用新冠病毒抗原自我檢測套組,92,2022/05/04 14:57:02,早上8:30-12:00， 下午4:00-7:00，國定假日休息
5901163643,致遠盛康藥局,臺北市北投區致遠二路１４１號１樓,121.5128,25.1173,(02)28263580,羅氏家用新冠病毒抗原自我檢測套組,14,2022/05/04 14:57:02,無
5901170139,福華藥局,臺北市信義區吳興街２８１巷３號１樓,121.5643,25.02656,(02)27208527,羅氏家用新冠病毒抗原自我檢測套組,78,2022/05/04 14:57:02,現階段下午1:30配合政府發售快篩試劑
5901170648,立信藥局,臺北市信義區松山路４０３號,121.578,25.04144,(02)27687754,羅氏家用新冠病毒抗原自我檢測套組,62,2022/05/04 14:57:02,快篩試劑販賣時間:晚上七點至九點 星期日三點半開賣
5901170915,杏仁藥局,臺北市信義區大道路１３５號,121.5834,25.03901,(02)27262541,羅氏家用新冠病毒抗原自我檢測套組,164,2022/05/04 14:57:02,實名制快篩:週一至週五下午3點販售，週六週日無販售
5901172240,德康大藥局,臺北市信義區松山路５４１巷２１號,121.579,25.03794,(02)27272502,羅氏家用新冠病毒抗原自我檢測套組,78,2022/05/04 14:57:02,每日下午3點販售
5901173238,正和藥局,臺北市信義區吳興街２２５巷６號,121.5634,25.02782,(02)23455186,羅氏家用新冠病毒抗原自我檢測套組,3,2022/05/04 14:57:02,下午2點半發放快篩
5901173390,馨馨藥局,臺北市信義區虎林街８２巷１９號,121.5764,25.04336,(02)27491208,羅氏家用新冠病毒抗原自我檢測套組,1,2022/05/04 14:57:02,無
5901173710,專品光復藥局,臺北市信義區光復南路４６７之１號,121.5577,25.03384,(02)27586682,羅氏家用新冠病毒抗原自我檢測套組,74,2022/05/04 14:57:02,禮拜一到六下午三點販售口罩
5901173783,北一健康人生藥局,臺北市信義區吳興街２５５號,121.5637,25.02715,(02)27583945,羅氏家用新冠病毒抗原自我檢測套組,78,2022/05/04 14:57:02,下午3點開始販售實名制快篩
5901173818,博亞藥局,臺北市信義區莊敬路４６２號,121.5677,25.02672,(02)27580506,羅氏家用新冠病毒抗原自我檢測套組,117,2022/05/04 14:57:02,平日早上8:30、晚上8:00；假日早上8:30，發放號碼牌，持號碼牌購買!
5901173854,杏一後山埤藥局,臺北市信義區忠孝東路５段７７８號（實際營業地址：１樓）,121.5816,25.0434,(02)27274357,羅氏家用新冠病毒抗原自我檢測套組,77,2022/05/04 14:57:02,實名制快篩14:30開放排隊／14:55發放號碼牌
5901174002,吳興春天藥局,臺北市信義區吳興街１３７號１樓,121.5618,25.02947,(02)27585618,羅氏家用新冠病毒抗原自我檢測套組,13,2022/05/04 14:57:02,下午2:40發號碼牌
5901174011,寶春藥局,臺北市信義區虎林街１１９之１９號１樓,121.5771,25.04112,(02)27566501,羅氏家用新冠病毒抗原自我檢測套組,78,2022/05/04 14:57:02,實名制快篩每日19:00現場排隊販售
5901174057,詠晴中西藥局,臺北市信義區松山路４８４之４號（１樓含夾層）,121.5778,25.0389,(02)27266890,羅氏家用新冠病毒抗原自我檢測套組,81,2022/05/04 14:57:02,實名制快篩 - 16:30領號碼牌.當天取貨即可.避免群聚風險
5901174066,愛維喜藥局,臺北市信義區莊敬路２７８號１樓,121.5627,25.02882,(02)27586989,羅氏家用新冠病毒抗原自我檢測套組,232,2022/05/04 14:57:02,快篩周一至周五下午3:30開賣.3:10收健保卡現金500元1張.發號碼牌
5901174084,市政藥局,臺北市信義區忠孝東路５段１６９號１樓、１７１號１樓,121.5688,25.0412,(02)27560050,羅氏家用新冠病毒抗原自我檢測套組,78,2022/05/04 14:57:02,快篩實名制，每天16:00開始販售，售完為止。
5901180055,日生大藥局,臺北市中正區汀州路１段５３號１樓,121.5076,25.03026,(02)23031393,羅氏家用新冠病毒抗原自我檢測套組,53,2022/05/04 14:57:02,快篩代售服務時間:（1）5月4日周三起 貨到即售 售完為止
5901182111,東華藥局,臺北市中正區汀州路３段１１３號,121.53,25.01673,(02)23640852,羅氏家用新冠病毒抗原自我檢測套組,106,2022/05/04 14:57:02,星期日店休   星期一至星期六 下午15點開始販售快篩試劑
5901182228,合泰大藥局,臺北市中正區衡陽路２６號,121.5129,25.04221,(02)23899977,羅氏家用新冠病毒抗原自我檢測套組,78,2022/05/04 14:57:02,5／3 販售時間機動調整於下午3點 平常快篩代售時間自09:00；現場排隊
5901183387,丞良藥局,臺北市中正區南昌路１段７８號地下１樓,121.5173,25.03099,(02)33938868,羅氏家用新冠病毒抗原自我檢測套組,78,2022/05/04 14:57:02,週一~週五 晚上9:00~9:30現場領取，若排隊人潮過多會提早開賣
5901183510,怡誠藥局,臺北市中正區汀州路２段２１２號,121.5237,25.02236,(02)23626905,羅氏家用新冠病毒抗原自我檢測套組,78,2022/05/04 14:57:02,無
5901184179,保德中華藥局,臺北市中正區中華路２段１５９號,121.5042,25.03101,(02)23027720,羅氏家用新冠病毒抗原自我檢測套組,78,2022/05/04 14:57:02,快篩下午三點開始發號碼牌及販售，限當日購買
5901184366,宏越藥局,臺北市中正區中華路２段３１３巷４號,121.5061,25.02813,(02)23050880,羅氏家用新冠病毒抗原自我檢測套組,20,2022/05/04 14:57:02,代售實名制快篩時間 每日下午14:30開始  售完即停止  可關注FB公告當日是否代售
5901184491,躍獅南門藥局,臺北市中正區中華路２段３９巷１０號,121.5074,25.03484,(02)23141111,羅氏家用新冠病毒抗原自我檢測套組,76,2022/05/04 14:57:02,口罩販售時段：成人早上9點及晚上7點各200個
5901184553,珍忻藥局,臺北市中正區南昌路１段６５號,121.5174,25.03107,(02)23965115,羅氏家用新冠病毒抗原自我檢測套組,111,2022/05/04 14:57:02,健保快篩發放:13:20及18:20分兩梯次發號碼牌
5901184642,康呈安藥局,臺北市中正區汀州路２段１８７號１樓,121.522,25.02403,(02)23672215,羅氏家用新冠病毒抗原自我檢測套組,76,2022/05/04 14:57:02,每天下午3點才發放快篩
5901184660,南昌春天藥局,臺北市中正區南昌路１段１５７號１樓,121.5188,25.02927,(02)23972886,羅氏家用新冠病毒抗原自我檢測套組,79,2022/05/04 14:57:02,若有配發到政府實名制快篩試劑，將於每日下午2:40發號碼牌、下午3:00開始販售。
5901184679,汀州藥局,臺北市中正區汀州路１段１８７、１８９、１９１號（１樓）,121.5112,25.02704,(02)23090705,羅氏家用新冠病毒抗原自我檢測套組,78,2022/05/04 14:57:02,快篩實名制，每天16:00開始販售，售完為止。
5901190515,日昇藥局,臺北市萬華區廣州街１２４號,121.5016,25.03654,(02)23062975,羅氏家用新冠病毒抗原自我檢測套組,78,2022/05/04 14:57:02,實名制快篩 05-03 到貨
5901190668,聯慶大藥局,臺北市萬華區萬大路３０６號１樓,121.5003,25.02495,(02)23039850,羅氏家用新冠病毒抗原自我檢測套組,78,2022/05/04 14:57:02,無
5901190686,信義藥局,臺北市萬華區青年路２８號,121.5052,25.02581,(02)23074599,羅氏家用新冠病毒抗原自我檢測套組,78,2022/05/04 14:57:02,下午一點領（快篩） 視排隊狀況發號碼牌
5901192180,康之友藥局,臺北市萬華區青年路２０號,121.5055,25.02592,(02)23011598,羅氏家用新冠病毒抗原自我檢測套組,2,2022/05/04 14:57:02,下午兩點發號碼牌
5901192546,躍獅西園藥局,臺北市萬華區西園路２段２６０號,121.4946,25.02784,(02)23094063,羅氏家用新冠病毒抗原自我檢測套組,85,2022/05/04 14:57:02,快篩販售時段：下午2點至售完為止（政府正常配貨的情況下，現場排隊）
5901192822,專品藥局,臺北市萬華區長沙街２段７１－１號,121.5051,25.04062,(02)23718892,羅氏家用新冠病毒抗原自我檢測套組,78,2022/05/04 14:57:02,快篩實名制下午3點發放
5901192975,萬華藥局,臺北市萬華區萬大路２４８號實際營業地址１樓、２樓,121.5003,25.02626,(02)23012221,羅氏家用新冠病毒抗原自我檢測套組,78,2022/05/04 14:57:02,快篩實名制，每天16:00開始販售，售完為止。
5901193070,榮勝藥局,臺北市萬華區萬大路２３３號,121.5006,25.02649,(02)23331121,羅氏家用新冠病毒抗原自我檢測套組,78,2022/05/04 14:57:02,每日快篩早上十一點開始販售 週日無提供販售
5901193221,正盛藥局,臺北市萬華區中華路２段４３４－１號,121.5064,25.02708,(02)23050386,羅氏家用新冠病毒抗原自我檢測套組,60,2022/05/04 14:57:02,1.快篩一~六20點，周日不賣 2.目前排隊人潮多，建議7點左右提前候位 3.詳情請看門口公告或板橋正康總店臉書
5901193310,和德藥局,臺北市萬華區西園路２段２９２號１樓,121.4935,25.02698,(02)23331522,羅氏家用新冠病毒抗原自我檢測套組,78,2022/05/04 14:57:02,快篩實名制，每天16:00開始販售，售完為止。
5901193338,艾米力藥師藥局,臺北市萬華區西藏路１０７－２號１樓,121.5035,25.02955,(02)23036583,羅氏家用新冠病毒抗原自我檢測套組,76,2022/05/04 14:57:02,5／4 晚上7:00販售
5901200123,瑞安藥局,臺北市文山區溪口街６９－１號１樓,121.5393,24.99512,(02)29312888,羅氏家用新冠病毒抗原自我檢測套組,80,2022/05/04 14:57:02,早上8:30開始營業.星期日休息.快篩劑晚上8:00販賣.
5901200490,永明大藥局,臺北市文山區興隆路１段２９７號１樓,121.5449,24.99875,(02)29314428,羅氏家用新冠病毒抗原自我檢測套組,156,2022/05/04 14:57:02,每日下午2點50發放號碼牌，3點進行快篩販售，6點前未領取視同放棄，限一人一卡一份。
5901201568,康宜庭生活藥局,臺北市文山區興隆路４段６４號,121.5613,24.98514,(02)29385363,羅氏家用新冠病毒抗原自我檢測套組,150,2022/05/04 14:57:02,實名快篩14:00開賣 現場排隊
5901202396,宇康藥局,臺北市文山區羅斯福路５段２１８巷７號,121.5383,25.00203,(02)29307066,羅氏家用新冠病毒抗原自我檢測套組,83,2022/05/04 14:57:02,無
5901203062,大樹文山藥局,臺北市文山區興隆路３段１３號（１、２、３樓）,121.555,25.00088,(02)29342226,羅氏家用新冠病毒抗原自我檢測套組,78,2022/05/04 14:57:02,口罩販售時間：14:00 - 16:00
5901203080,杏一木柵藥局,臺北市文山區木柵路３段９８號,121.5674,24.98861,(02)29371839,羅氏家用新冠病毒抗原自我檢測套組,76,2022/05/04 14:57:02,無
5901203106,光明大藥局,臺北市文山區忠順街１段６６號,121.5607,24.98426,(02)29390275,羅氏家用新冠病毒抗原自我檢測套組,78,2022/05/04 14:57:02,無
5901203295,專品政大藥局,臺北市文山區指南路２段８號,121.5742,24.98784,(02)22343010,羅氏家用新冠病毒抗原自我檢測套組,78,2022/05/04 14:57:02,無
5901203366,大樹木柵藥局,臺北市文山區木柵路３段１０８號、１１０號（１樓、２樓）,121.5676,24.98866,(02)22340110,羅氏家用新冠病毒抗原自我檢測套組,78,2022/05/04 14:57:02,快篩實名制，每天16:00開始販售，售完為止。
5901203375,大樹景美藥局,臺北市文山區羅斯福路６段２３４之１號,121.5404,24.99244,(02)29322951,羅氏家用新冠病毒抗原自我檢測套組,78,2022/05/04 14:57:02,快篩實名制，每天16:00開始販售，售完為止。
5901203446,景華盛康藥局,臺北市文山區景華街６９號１樓,121.545,24.99524,(02)29310188,羅氏家用新冠病毒抗原自我檢測套組,78,2022/05/04 14:57:02,快篩販售時間:下午3點開賣，現場發送號碼牌
5901203464,大愛幸福藥局,臺北市文山區木新路２段２２１號１樓,121.5675,24.98344,(02)29379977,羅氏家用新冠病毒抗原自我檢測套組,38,2022/05/04 14:57:02,無
5902011291,長庚藥局,高雄市鹽埕區五福四路１６３號一樓,120.2834,22.62347,(07)5513436,羅氏家用新冠病毒抗原自我檢測套組,36,2022/05/04 14:57:02,無
5902020012,永松藥局,高雄市鼓山區鼓山三路１３０－１５號,120.2802,22.66454,(07)5810657,羅氏家用新冠病毒抗原自我檢測套組,65,2022/05/04 14:57:02,快篩試劑每天下午3:30販售
5902022794,定國藥局,高雄市鼓山區九如四路１１３５號,120.2791,22.65936,(07)5815858,羅氏家用新冠病毒抗原自我檢測套組,1,2022/05/04 14:57:02,無
5902022801,裕康中西大藥局,高雄市鼓山區裕誠路１５１９號,120.2951,22.66479,(07)5555352,羅氏家用新冠病毒抗原自我檢測套組,19,2022/05/04 14:57:02,藥局販售口罩時間，依藥局門口公告時間為主（售完為止）
5902022972,高雄藥局,高雄市鼓山區九如四路９２４號,120.2793,22.65466,(07)5214266,羅氏家用新冠病毒抗原自我檢測套組,2,2022/05/04 14:57:02,賣口罩時間為週一～週六晚上6點，售完為止
5902030287,慈德藥局,高雄市左營區重愛路５３號,120.3186,22.68308,(07)3416212,羅氏家用新冠病毒抗原自我檢測套組,5,2022/05/04 14:57:02,快篩發放時間:週一至周六:上午9點至12點.週日下午2點半至5點；請自備剛好的錢.不用找錢.以利流程
5902030643,新高橋藥局,高雄市左營區民族一路１０２８號,120.3201,22.68255,(07)3100696,羅氏家用新冠病毒抗原自我檢測套組,41,2022/05/04 14:57:02,依快篩配送時間滾動式調整（5／4下午2:30），請備妥當日可領買之健保卡與現金500元購買，不找零，0號是雙號，謝謝配合
5902031999,平安藥局,高雄市左營區中華一路５之１號,120.287,22.66961,(07)5833688,羅氏家用新冠病毒抗原自我檢測套組,48,2022/05/04 14:57:02,週一~週六上午:8:00~12:00，下午:4:00~9:00， 週日例假日晚上6:00~9:00
5902032174,光明健保藥局,高雄市左營區翠華路６０１巷８３號,120.2893,22.67277,(07)5812499,羅氏家用新冠病毒抗原自我檢測套組,94,2022/05/04 14:57:02,快篩實名制到貨販售周一到週五營業到7點.周日休息
5902032441,健怡藥局,高雄市左營區翠峰路４０號,120.2897,22.67229,(07)5821891,羅氏家用新冠病毒抗原自我檢測套組,64,2022/05/04 14:57:02,快篩星期一~星期六早上8:30開始販售
5902032530,杏光藥局,高雄市左營區果峰街４７巷１號１樓,120.2869,22.6703,(07)5837060,羅氏家用新冠病毒抗原自我檢測套組,63,2022/05/04 14:57:02,上午營業時間為9 :00~12:00；晚上營業至21:30
5902032647,健智美藥局,高雄市左營區富國路９８號,120.3068,22.6591,(07)5580888,羅氏家用新冠病毒抗原自我檢測套組,13,2022/05/04 14:57:02,因快篩配送時間不定，販售時間將做滾動式調整，不便之處敬請見諒!!
5902032674,辰暘藥局,高雄市左營區富民路１２０號１、２樓,120.3054,22.66066,(07)5588545,羅氏家用新冠病毒抗原自我檢測套組,6,2022/05/04 14:57:02,無
5902040014,成吉藥局,高雄市楠梓區楠梓東街７４號,120.3301,22.72966,(07)3513339,羅氏家用新冠病毒抗原自我檢測套組,78,2022/05/04 14:57:02,下午6點開始販賣實名制快篩，售完為止!!!星期日店休
5902040050,富翔藥局,高雄市楠梓區常德路３０７號,120.337,22.73691,(07)3516365,羅氏家用新冠病毒抗原自我檢測套組,78,2022/05/04 14:57:02,晚上18:00 販售快篩實名制，星期日早上8:00 販售快篩實名制，售完為止。
5902040069,新友藥局,高雄市楠梓區萬昌路１１１號,120.2895,22.71194,(07)3653534,羅氏家用新冠病毒抗原自我檢測套組,78,2022/05/04 14:57:02,藥局販售口罩時間，依藥局門口公告時間為主（售完為止）
5902042661,元春中西藥師藥局,高雄市楠梓區後昌路８３７巷３７號,120.294,22.71109,(07)3605656,羅氏家用新冠病毒抗原自我檢測套組,78,2022/05/04 14:57:02,下午16.00開始為快篩領取時間，售完為止
5902042769,家安藥局,高雄市楠梓區後昌新路１３號１樓,120.2917,22.71844,(07)3600066,羅氏家用新冠病毒抗原自我檢測套組,75,2022/05/04 14:57:02,無
5902050565,澄和藥局,高雄市三民區澄和路６６號,120.3445,22.64474,(07)3923111,羅氏家用新冠病毒抗原自我檢測套組,5,2022/05/04 14:57:02,快篩試劑- 販售時間自下午14:00起至售完為止
5902050636,嘉益藥局,高雄市三民區重慶街３０號,120.302,22.64223,(07)3110157,羅氏家用新冠病毒抗原自我檢測套組,26,2022/05/04 14:57:02,快篩實名制早上11：00開始販售.
5902050770,仁生藥局,高雄市三民區民享里熱河二街７８號,120.3006,22.64431,(07)3118765,羅氏家用新冠病毒抗原自我檢測套組,2,2022/05/04 14:57:02,上午:8點開始販售
5902050798,友泰藥局,高雄市三民區中和街１６９號,120.2868,22.6388,(07)3125236,羅氏家用新冠病毒抗原自我檢測套組,154,2022/05/04 14:57:02,無
5902051866,久大藥局,高雄市三民區本文里立忠路３２號１Ｆ,120.3253,22.65318,(07)3858116,羅氏家用新冠病毒抗原自我檢測套組,12,2022/05/04 14:57:02,無
5902056638,柏仁藥局,高雄市三民區覺民路５０４號,120.3317,22.64092,(07)3976016,羅氏家用新冠病毒抗原自我檢測套組,132,2022/05/04 14:57:02,本藥局實際庫存是顯示的數量減78 （週日的量未收）下午3點開賣，現場排隊
5902057288,育英藥局,高雄市三民區灣子里和順街３９號,120.3159,22.65336,(07)3824467,羅氏家用新冠病毒抗原自我檢測套組,1,2022/05/04 14:57:02,營業時間:8:30-21:00， 週日休息
5902057484,永勝藥局,高雄市三民區褒忠街１１４號,120.334,22.64262,(07)3814643,羅氏家用新冠病毒抗原自我檢測套組,1,2022/05/04 14:57:02,新冠檢測組--銷售中---（售完為止）
5902057680,健爾康藥局,高雄市三民區正興路２３號,120.3226,22.6456,(07)3965658,羅氏家用新冠病毒抗原自我檢測套組,21,2022/05/04 14:57:02,自2／11日~2／29日，營業日08:30~2100為販賣口罩時間，售完為止。
5902060150,永明藥局,高雄市新興區仁智街２２３號,120.3027,22.62084,(07)2619832,羅氏家用新冠病毒抗原自我檢測套組,1,2022/05/04 14:57:02,政府專用快篩劑限量販售中，週一至週日早上十時起。
5902061899,元盛藥局,高雄市新興區六合路１５３號,120.3149,22.63186,(07)2228183,羅氏家用新冠病毒抗原自我檢測套組,149,2022/05/04 14:57:02,快篩到貨時間不定.請下午三點後電詢. 週日公休
5902080465,廣德泰藥局,高雄市苓雅區苓雅二路７６號,120.2997,22.61762,(07)3340769,羅氏家用新冠病毒抗原自我檢測套組,93,2022/05/04 14:57:02,快篩實名制，售完為止一人限購買一份
5902080474,弘宗藥局,高雄市苓雅區武智街２號,120.3356,22.62303,(07)7211088,羅氏家用新冠病毒抗原自我檢測套組,78,2022/05/04 14:57:02,8:00~22:00（營業時段）
5902080518,福海藥局,高雄市苓雅區武慶三路５８號,120.332,22.61958,(07)7618855,羅氏家用新冠病毒抗原自我檢測套組,13,2022/05/04 14:57:02,無
5902080545,柏松藥局,高雄市苓雅區輔仁路１７５號,120.3332,22.63065,(07)7119786,羅氏家用新冠病毒抗原自我檢測套組,70,2022/05/04 14:57:02,實名制快篩試劑.5／4.起.16:00開賣......售完為止!!
5902080803,功安中西大藥局,高雄市苓雅區三多二路２９１號,120.3195,22.61858,(07)7215949,羅氏家用新冠病毒抗原自我檢測套組,1,2022/05/04 14:57:02,營業日早上08:00開始為販賣口罩時間，售完為止
5902081015,明群藥局,高雄市苓雅區英明路５４號,120.3253,22.61276,(07)7254953,羅氏家用新冠病毒抗原自我檢測套組,26,2022/05/04 14:57:02,周一至周六每日8:00開始販售快篩試劑依現場排隊序販賣售完為止 午休時間13:00~~14:30 防疫口罩4／30停售
5902081186,寶麒藥局,高雄市苓雅區三多一路１４４號,120.3315,22.62306,(07)7610355,羅氏家用新冠病毒抗原自我檢測套組,3,2022/05/04 14:57:02,停售口罩
5902081328,東信藥局,高雄市苓雅區三多一路１８９號,120.3313,22.62258,(07)7613309,羅氏家用新冠病毒抗原自我檢測套組,1,2022/05/04 14:57:02,早上8:30開始發送號碼牌販售口罩，售完為止，假日正常販售
5902083457,順一藥局,高雄市苓雅區田西里成功一路２１０號,120.2969,22.61696,(07)3330011,羅氏家用新冠病毒抗原自我檢測套組,49,2022/05/04 14:57:02,營業時間早上8點30 至12點下午3點至9點（12點至3點休息）
5902085228,永森藥局,高雄市苓雅區建國一路２９０號,120.3262,22.63308,(07)7163087,羅氏家用新冠病毒抗原自我檢測套組,78,2022/05/04 14:57:02,快篩代售時間:營業時間
5902085344,意祥藥局,高雄市苓雅區武廟路１４２之１號,120.3276,22.63125,(07)7224835,羅氏家用新冠病毒抗原自我檢測套組,7,2022/05/04 14:57:02,藥局販售口罩時間，依藥局門口公告時間為主（售完為止）
5902090827,博平藥局,高雄市前鎮區草衙二路３７７號,120.3224,22.57808,(07)8311814,羅氏家用新冠病毒抗原自我檢測套組,1,2022/05/04 14:57:02,下午2點開始販售快篩.售完為止
5902091128,北京藥局,高雄市前鎮區公正路３１號,120.3322,22.60291,(07)7113100,羅氏家用新冠病毒抗原自我檢測套組,143,2022/05/04 14:57:02,發放方式，下午15；00現場過健保卡領取口罩。
5902092205,百宏中西大藥局,高雄市前鎮區復興三路１９４號,120.3117,22.61311,(07)3386719,羅氏家用新冠病毒抗原自我檢測套組,64,2022/05/04 14:57:02,無
5902092296,迎廣藥局,高雄市前鎮區林森三路１５０號２樓,120.3089,22.61357,(07)3321466,羅氏家用新冠病毒抗原自我檢測套組,39,2022/05/04 14:57:02,週一至周六08:30至12:00  15:00至18:00 19:00至21:30 星期六晚休息  星期日休息
5902092492,元生藥局,高雄市前鎮區鎮興路２２６號１樓,120.3117,22.59305,(07)8156356,羅氏家用新冠病毒抗原自我檢測套組,2,2022/05/04 14:57:02,無
5902100033,旗后藥局,高雄市旗津區中洲三路７１５號,120.2705,22.61096,(07)5715838,羅氏家用新冠病毒抗原自我檢測套組,35,2022/05/04 14:57:02,快篩每日下午1點開賣，售完為止.
5902110299,大裕藥局,高雄市小港區小港里小港路２６１號,120.3359,22.56386,(07)8211467,羅氏家用新冠病毒抗原自我檢測套組,1,2022/05/04 14:57:02,快篩星期一到六早上九點販售 星期日休息
5902111670,桂林活力藥師藥局,高雄市小港區桂陽路４０號,120.3575,22.58194,(07)7931248,羅氏家用新冠病毒抗原自我檢測套組,7,2022/05/04 14:57:02,營業日09:00發放實名制快篩號碼牌.售完為止
5903010270,福心藥局,臺中市豐原區中正路７１５號１樓,120.7014,24.2491,(04)25229292,羅氏家用新冠病毒抗原自我檢測套組,154,2022/05/04 14:57:02,快篩販賣時間5／4-5／5下午4點.5／6-5／9改早上10點.週日休
5903010485,大樹圓環藥局,臺中市豐原區圓環東路６１７號１樓,120.7283,24.25084,(04)25122212,羅氏家用新冠病毒抗原自我檢測套組,78,2022/05/04 14:57:02,口罩販售時間：14:00 - 16:00
5903010501,佑全豐原圓環東藥局,臺中市豐原區圓環東路５４８、５５０、５５２、５５４號１樓,120.7275,24.24948,(04)25246069,羅氏家用新冠病毒抗原自我檢測套組,2,2022/05/04 14:57:02,營業時間9:00-21:00，今日實名制1:50發號碼牌2:00開賣，售完為止
5903010556,升禾和大藥局,臺中市豐原區育英路２６號１樓,120.7163,24.24346,(04)25293099,羅氏家用新冠病毒抗原自我檢測套組,78,2022/05/04 14:57:02,快篩試劑1800領取.採現場排隊.售完為止
5903040036,得康藥局,臺中市清水區高美路１１７號,120.5753,24.27879,(04)26260622,羅氏家用新冠病毒抗原自我檢測套組,103,2022/05/04 14:57:02,5／4下午14:40開始販售
5903050194,樂齊藥局,臺中市沙鹿區北中路８６－１、８６－２號,120.5692,24.22827,(04)26338867,羅氏家用新冠病毒抗原自我檢測套組,78,2022/05/04 14:57:02,防疫家用快篩試劑每日19點開賣，售完為止，庫存請依現場為主。
5903050247,好利藥局,臺中市沙鹿區中山路４８７－１號１樓,120.5619,24.2454,(04)26630087,羅氏家用新冠病毒抗原自我檢測套組,156,2022/05/04 14:57:02,無
5903050274,鹿寮藥局,臺中市沙鹿區中山路４６１、４６１－１號１、２樓,120.5615,24.24387,(04)26630677,羅氏家用新冠病毒抗原自我檢測套組,78,2022/05/04 14:57:02,快篩實名制，每天16:00開始販售，售完為止。
5903070098,祐恩藥局,臺中市后里區甲后路一段４７８號１樓,120.6819,24.3157,(04)25587518,羅氏家用新冠病毒抗原自我檢測套組,65,2022/05/04 14:57:02,固定周一到周六，國定例假日照常調劑藥服務。清明、端午、中秋節晚上休息。
5903080030,捷達藥局,臺中市神岡區大漢街２５號,120.6974,24.25352,(04)25225207,羅氏家用新冠病毒抗原自我檢測套組,1,2022/05/04 14:57:02,周一到周六上午8:00開始販售，售完為止。
5903090072,元康健保藥局,臺中市潭子區圓通南路１９６號１樓,120.7043,24.20725,(04)25353893,羅氏家用新冠病毒抗原自我檢測套組,45,2022/05/04 14:57:02,下午3點現場分號碼後  依序賣口罩
5903090189,名方藥局,臺中市潭子區勝利路２８５號１樓,120.7004,24.21321,(04)25341777,羅氏家用新冠病毒抗原自我檢測套組,78,2022/05/04 14:57:02,5／4（三）~5／6（五）快篩販售 下午六點
5903100180,杏一大雅中清藥局,臺中市大雅區中清路四段３１、３３、３５號１樓,120.6448,24.22615,(04)25601791,羅氏家用新冠病毒抗原自我檢測套組,6,2022/05/04 14:57:02,週一~週六14:00販售（13:50發號碼牌）每人每卡限定1份500元!週日無販售!
5903100206,民生藥局,臺中市大雅區民生路一段２２１號１樓,120.6512,24.22789,(04)25662229,羅氏家用新冠病毒抗原自我檢測套組,78,2022/05/04 14:57:02,快篩實名制，每天16:00開始販售，售完為止。
5903100215,佑全大雅雅環藥局,臺中市大雅區雅環路二段８８號１樓,120.653,24.22634,(04)25605942,羅氏家用新冠病毒抗原自我檢測套組,2,2022/05/04 14:57:02,今日5／2實名制快篩已完售。
5903150028,全成烏日藥局,臺中市烏日區溪南路１段７７６號,120.6427,24.07423,(04)23352656,羅氏家用新冠病毒抗原自我檢測套組,78,2022/05/04 14:57:02,實名制快篩晚上7:00發放，售完為止
5903150153,溪南藥局,臺中市烏日區溪南路一段５６５號１樓,120.6431,24.07523,(04)23353666,羅氏家用新冠病毒抗原自我檢測套組,78,2022/05/04 14:57:02,快篩實名制，每天16:00開始販售，售完為止。
5903150180,九德藥局,臺中市烏日區中山路一段４３８、４４０號１樓,120.6365,24.10748,(04)23385456,羅氏家用新冠病毒抗原自我檢測套組,79,2022/05/04 14:57:02,快篩實名制，每天16:00開始販售，售完為止。
5903160042,大肚新庄藥局,臺中市大肚區遊園路２段２２１－３號１樓,120.5808,24.17376,(04)26912119,羅氏家用新冠病毒抗原自我檢測套組,77,2022/05/04 14:57:02,每天下午3點開始排隊販賣，賣完為止
5903160097,安昌藥局,臺中市大肚區遊園路二段１７６號１樓,120.5808,24.17289,(04)26913890,羅氏家用新冠病毒抗原自我檢測套組,78,2022/05/04 14:57:02,上班時間星期一至星期日.早上8:30之前發放號碼牌.晚上20:00以前皆可憑號碼牌.健保卡購取口罩.
5903170048,龍井新庄藥局,臺中市龍井區遊園南路１７９號１樓,120.5843,24.18216,(04)26322169,羅氏家用新冠病毒抗原自我檢測套組,79,2022/05/04 14:57:02,實名制快篩每日下午3點半開賣
5903180115,永合藥局,臺中市霧峰區中正路９６５號,120.6989,24.06597,(04)23391910,羅氏家用新冠病毒抗原自我檢測套組,78,2022/05/04 14:57:02,無
5903180142,峰正藥局,臺中市霧峰區中正路８３０號１樓,120.6987,24.06244,(04)23303353,羅氏家用新冠病毒抗原自我檢測套組,78,2022/05/04 14:57:02,快篩實名制，每天16:00開始販售，售完為止。
5903190139,劍橋藥局,臺中市太平區宜昌路５５２號１樓,120.7157,24.14758,(04)22776619,羅氏家用新冠病毒抗原自我檢測套組,17,2022/05/04 14:57:02,星期一到星期日
5903190148,亞洲藥師連鎖大藥局,臺中市太平區中山路２段４５８號,120.7253,24.14984,(04)23921681,羅氏家用新冠病毒抗原自我檢測套組,16,2022/05/04 14:57:02,實名制快篩，每天14:30開賣，一人一卡，請自備500元
5903190228,中山德侑藥局,臺中市太平區中山路３段２之２號１樓,120.7222,24.14942,(04)23920682,羅氏家用新冠病毒抗原自我檢測套組,3,2022/05/04 14:57:02,因政府配送時間不定故每日快篩販售時間視情況調整 可來電詢問
5903190273,太平小林健保藥局,臺中市太平區育賢路５１８號,120.7133,24.15883,(04)23954436,羅氏家用新冠病毒抗原自我檢測套組,10,2022/05/04 14:57:02,每天早上8點發號碼牌，下午4:30販售口罩
5903190362,太平中山藥局,臺中市太平區中山路４段１１號,120.7139,24.14931,(04)23959200,羅氏家用新冠病毒抗原自我檢測套組,78,2022/05/04 14:57:02,快篩實名制，每天16:00開始販售，售完為止。
5903190675,德芳太平藥局,臺中市太平區中興路１３３巷１－１號１樓,120.7146,24.12617,(04)23511588,羅氏家用新冠病毒抗原自我檢測套組,156,2022/05/04 14:57:02,快篩販售時間:下午3點~6點
5903200229,信元藥局,臺中市大里區益民路２段３７２號１樓,120.684,24.11545,(04)24876051,羅氏家用新冠病毒抗原自我檢測套組,78,2022/05/04 14:57:02,下午5點發號碼牌並依序販賣
5903200372,國光丁丁藥局,臺中市大里區國光路２段５５１－１號１樓,120.6788,24.11241,(04)24069711,羅氏家用新冠病毒抗原自我檢測套組,15,2022/05/04 14:57:02,星期一至星期日早上9點依排隊順序直接領取
5903200514,大明永欣藥局,臺中市大里區大明路５３９號１樓、５４１號１樓,120.6735,24.11478,(04)24068864,羅氏家用新冠病毒抗原自我檢測套組,1,2022/05/04 14:57:02,實名制快篩每天下午2點開始發號碼牌
5903200596,大樹大里藥局,臺中市大里區中興路二段１０１號,120.6885,24.10305,(04)24861133,羅氏家用新冠病毒抗原自我檢測套組,78,2022/05/04 14:57:02,快篩實名制，每天16:00開始販售，售完為止。
5903200658,德芳成功藥局,臺中市大里區成功路５３５－３號１樓,120.7033,24.0913,(04)24920298,羅氏家用新冠病毒抗原自我檢測套組,120,2022/05/04 14:57:02,快篩販售時間:下午3點~6點
5903200667,永欣東榮藥局,臺中市大里區東榮路３７０號１樓,120.6836,24.11032,(04)24810599,羅氏家用新冠病毒抗原自我檢測套組,78,2022/05/04 14:57:02,快篩發放無特定時間.收到貨即發放.營業時間早上08:30至晚上10:00
5903200685,塗城藥局,臺中市大里區中興路一段１８７、１８９、１９１號１樓,120.6933,24.09008,(04)24967234,羅氏家用新冠病毒抗原自我檢測套組,78,2022/05/04 14:57:02,快篩實名制，每天16:00開始販售，售完為止。
5903200701,大益藥局,臺中市大里區益民路二段３３５號１、２樓,120.6837,24.11311,(04)24811551,羅氏家用新冠病毒抗原自我檢測套組,78,2022/05/04 14:57:02,快篩實名制，每天16:00開始販售，售完為止。
5903200738,杏一大里國光藥局,臺中市大里區國光路二段４１１號１樓,120.6796,24.10921,(04)24071492,羅氏家用新冠病毒抗原自我檢測套組,156,2022/05/04 14:57:02,周一至周六16:00~19:00，周日及補假日人力不足不販售
5903200756,佑全大里大明藥局,臺中市大里區大明路３６０、３６２號,120.6787,24.11511,(04)24818633,羅氏家用新冠病毒抗原自我檢測套組,21,2022/05/04 14:57:02,實名制快篩，開賣時間:下午14:00，售完為止
5903220061,宏信大藥局,臺中市中區自由路２段４５號１樓,120.6815,24.13959,(04)22222021,羅氏家用新冠病毒抗原自我檢測套組,8,2022/05/04 14:57:02,周1~周5 早上9點至晚上7點周6周日早上10點到晚上9點
5903220178,佑全台中中華藥局,臺中市中區中華路一段１６２號１樓,120.6779,24.14605,(04)22291556,羅氏家用新冠病毒抗原自我檢測套組,4,2022/05/04 14:57:02,下午01:40開始發放號碼牌!! 售完為止!! 一人一卡一盒
5903220196,日安藥局,臺中市中區臺灣大道一段３３０號１樓,120.6801,24.1422,(04)22234246,羅氏家用新冠病毒抗原自我檢測套組,51,2022/05/04 14:57:02,郵差送達後，開始販售快篩!!!
5903230192,康是美藥局東英店,臺中市東區十甲路４５０號１樓,120.7097,24.14406,(04)22139034,羅氏家用新冠病毒抗原自我檢測套組,78,2022/05/04 14:57:02,無
5903230218,十甲東亞藥師大藥局,臺中市東區十甲路４１０號１樓,120.7081,24.14425,(04)22118879,羅氏家用新冠病毒抗原自我檢測套組,4,2022/05/04 14:57:02,實名快篩 星期一至六 每日下午一點至五點販售 售完為止
5903230227,東區小林健保藥局,臺中市東區十甲路４８５號１樓,120.7104,24.14464,(04)22135148,羅氏家用新冠病毒抗原自我檢測套組,40,2022/05/04 14:57:02,無
5903240367,宇祥藥局,臺中市西區五權五街１１９號１樓,120.6601,24.13635,(04)23728239,羅氏家用新冠病毒抗原自我檢測套組,13,2022/05/04 14:57:02,實名制快篩 14:30開始販售
5903240410,德芳美村藥局,臺中市西區美村路一段６８１、６８３號１樓,120.6618,24.13545,(04)23782848,羅氏家用新冠病毒抗原自我檢測套組,129,2022/05/04 14:57:02,快篩販售時間:周一到周五下午3點~6點 每日配發78份
5903240447,大樹五權藥局,臺中市西區五權路９７－１號１樓,120.6717,24.14626,(04)22022910,羅氏家用新冠病毒抗原自我檢測套組,78,2022/05/04 14:57:02,快篩實名制，每天16:00開始販售，售完為止。
5903240483,名華藥局,臺中市西區中華路一段７號１樓,120.6732,24.14209,(04)22231187,羅氏家用新冠病毒抗原自我檢測套組,77,2022/05/04 14:57:02,實名制快篩，5／4 PM3:00 開售
5903250381,大樹美村藥局,臺中市南區美村南路１２４號,120.667,24.11499,(04)22621113,羅氏家用新冠病毒抗原自我檢測套組,78,2022/05/04 14:57:02,口罩販售時間：14:00 - 16:00
5903250578,樂碩藥局,臺中市南區建國南路一段２５９號１樓,120.6583,24.12491,(04)22601288,羅氏家用新冠病毒抗原自我檢測套組,78,2022/05/04 14:57:02,快篩週一到週六15:00、週日16:30開始販售，售完為止
5903250612,杏一南區台中藥局,臺中市南區台中路６６、６８號１樓,120.683,24.1339,(04)22220652,羅氏家用新冠病毒抗原自我檢測套組,78,2022/05/04 14:57:02,每日下午4點開始販售實名制快篩，售完為止。一人一卡一盒
5903250658,田園藥局,臺中市南區學府路１６０號１樓,120.6742,24.12909,(04)22220605,羅氏家用新冠病毒抗原自我檢測套組,157,2022/05/04 14:57:02,每週三公休。5／5（週四） 14:00開始販售，一人限一卡
5903260421,忠明小林健保藥局,臺中市北區忠明路１６１號,120.6642,24.16235,(04)22013666,羅氏家用新冠病毒抗原自我檢測套組,6,2022/05/04 14:57:02,每日早上8點發號碼牌及收健保卡，下午4點半領回
5903260449,喜樂藥局,臺中市北區中清路１段３１號,120.677,24.1529,(04)22060423,羅氏家用新冠病毒抗原自我檢測套組,36,2022/05/04 14:57:02,無
5903260501,瑞鋒藥師藥局,臺中市北區育德路１６號,120.6795,24.15763,(04)22020786,羅氏家用新冠病毒抗原自我檢測套組,20,2022/05/04 14:57:02,依排班人力，周一至周六早上10點半或下午2點發號碼牌
5903260707,新藥林藥局,臺中市北區健行路４４５－５號１樓,120.6803,24.15896,(04)22053458,羅氏家用新冠病毒抗原自我檢測套組,157,2022/05/04 14:57:02,營業時間:11點~晚上7點.快篩:星期一~星期五 下午3點開始，星期六下午一點，星期三.日公休，現場排隊
5903260743,黎明安德藥局,臺中市北區中清路１段８５２號１樓,120.6718,24.17295,(04)22956098,羅氏家用新冠病毒抗原自我檢測套組,49,2022/05/04 14:57:02,禮拜四公休、禮拜日下午2點開始營業，一到六下午3點開始販賣快篩，禮拜日下午5點開始販賣快篩
5903260789,瑞昌藥局,臺中市北區學士路１５５號１樓,120.6807,24.15841,(04)22056819,羅氏家用新冠病毒抗原自我檢測套組,78,2022/05/04 14:57:02,每日中午9:00開始販售，販售至21:30（周日不販售）
5903260878,927達霖藥師藥局,臺中市北區中華路二段２０１號１樓,120.6822,24.15278,(04)22060030,羅氏家用新冠病毒抗原自我檢測套組,93,2022/05/04 14:57:02,無
5903260912,莒光藥局,臺中市北區錦南街１２號１樓,120.6886,24.15399,(04)22336663,羅氏家用新冠病毒抗原自我檢測套組,7,2022/05/04 14:57:02,每日下午3點開賣 78份售完為止 星期日另外公告 臉書搜尋莒光藥局
5903260985,森川健保藥局,臺中市北區五權路２５１號１樓,120.6764,24.15074,(09)78157008,羅氏家用新冠病毒抗原自我檢測套組,127,2022/05/04 14:57:02,快篩試劑每日下午三點開賣，售完為止
5903261008,台中大樹藥局,臺中市北區漢口路三段２６１號,120.6726,24.16703,(04)22981113,羅氏家用新冠病毒抗原自我檢測套組,78,2022/05/04 14:57:02,快篩實名制，每天16:00開始販售，售完為止。
5903270105,樂得好大藥局,臺中市西屯區上石路２號１樓,120.644,24.16669,(04)24521173,羅氏家用新冠病毒抗原自我檢測套組,89,2022/05/04 14:57:02,5／4快篩試劑已到貨14:00（販賣時間依到貨狀況滾動式調整）。
5903270310,弘福藥師藥局,臺中市西屯區西屯路３段１６６－２１號１樓,120.6159,24.18918,(04)24611916,羅氏家用新冠病毒抗原自我檢測套組,78,2022/05/04 14:57:02,每日15:00發放號碼牌，發完即開始販售（全年無休）
5903270409,維恩藥局,臺中市西屯區甘肅路一段１９５號,120.6568,24.16846,(04)23174277,羅氏家用新冠病毒抗原自我檢測套組,36,2022/05/04 14:57:02,快篩實名制時間:星期一~星期日（0830-2200）
5903270516,中科何藥局,臺中市西屯區福康路４０號,120.6173,24.18421,(04)24612570,羅氏家用新冠病毒抗原自我檢測套組,78,2022/05/04 14:57:02,防疫快篩每日15:00開始販售。（全年無休）
5903270721,舒健藥局,臺中市西屯區西屯路二段２５５號２樓,120.6459,24.17179,(04)27077858,羅氏家用新冠病毒抗原自我檢測套組,156,2022/05/04 14:57:02,公費快篩試劑於周一至周六晚上7點現場排隊購買，週日公休。
5903270749,大墩藥局,臺中市西屯區大墩１９街６８號１樓,120.6518,24.15734,(04)23209602,羅氏家用新冠病毒抗原自我檢測套組,78,2022/05/04 14:57:02,每天下午三點開賣，請提早來排隊（視排隊狀況會提早發售）
5903270801,榮友藥局,臺中市西屯區臺灣大道四段１７４２號,120.6024,24.18286,(04)23508392,羅氏家用新冠病毒抗原自我檢測套組,78,2022/05/04 14:57:02,05／04販賣快篩試劑下午13:30開賣
5903270810,佑全福星藥局,臺中市西屯區黎明路三段３９５、３９７號,120.639,24.18251,(04)24527465,羅氏家用新冠病毒抗原自我檢測套組,1,2022/05/04 14:57:02,因政府實名制快篩配貨時間不一，依照門市現場公告時間為主
5903270865,尚禾藥局,臺中市西屯區青海路一段６５號,120.6548,24.16438,(04)23147688,羅氏家用新冠病毒抗原自我檢測套組,118,2022/05/04 14:57:02,實名制快篩發放：時段一中午12:30~14:00。時段二20：30~22：30。時段一若未發完，餘量將遞延至時段二發放。周日停售。
5903270874,熊健康藥局,臺中市西屯區太原路一段２３２號,120.6632,24.16394,(04)23163505,羅氏家用新冠病毒抗原自我檢測套組,93,2022/05/04 14:57:02,5／3已售完!!快篩實名制14:30開始販售，售完為止。 星期日公休。
5903270909,元生藥局,臺中市西屯區大墩路９６０號,120.6516,24.15817,(04)23274539,羅氏家用新冠病毒抗原自我檢測套組,78,2022/05/04 14:57:02,快篩販售時段下午4點起
5903270918,全成西屯藥局,臺中市西屯區黎明路三段２２１、２２３號1樓,120.6373,24.17723,(04)24512290,羅氏家用新冠病毒抗原自我檢測套組,63,2022/05/04 14:57:02,星期一至星期六15點開始販售實名制快篩
5903271022,西屯藥局,臺中市西屯區西屯路三段１５０－４５號１樓,120.621,24.18716,(04)24621822,羅氏家用新冠病毒抗原自我檢測套組,78,2022/05/04 14:57:02,快篩實名制，每天16:00開始販售，售完為止。
5903271031,美十樂中科藥局,臺中市西屯區西屯路三段１６６－６５號１樓,120.6129,24.19035,(04)24610219,羅氏家用新冠病毒抗原自我檢測套組,468,2022/05/04 14:57:02,醫事人員卡片損壞，暫時無法販賣快篩
5903271068,西墩藥局,臺中市西屯區黎明路三段２７５、２７７號１樓,120.6373,24.17812,(04)24510770,羅氏家用新冠病毒抗原自我檢測套組,78,2022/05/04 14:57:02,快篩實名制，每天16:00開始販售，售完為止。
5903271102,杏東美藥局,臺中市西屯區智惠街１５６號１樓,120.6438,24.17032,(04)24523798,羅氏家用新冠病毒抗原自我檢測套組,78,2022/05/04 14:57:02,快篩實名制5／4  19:00發放（5／4尚未到貨）
5903271175,維康中榮藥局,臺中市西屯區東大路一段１３號１樓,120.6022,24.18315,(04)23593195,羅氏家用新冠病毒抗原自我檢測套組,1,2022/05/04 14:57:02,無
5903271193,何安藥局,臺中市西屯區西屯路二段１０１號Ｂ棟１樓,120.6531,24.16616,(04)23161110,羅氏家用新冠病毒抗原自我檢測套組,78,2022/05/04 14:57:02,快篩實名制，每天16:00開始販售，售完為止。
5903271246,柏醫藥局,臺中市西屯區上安路５６號１樓,120.6412,24.17052,(04)24526391,羅氏家用新冠病毒抗原自我檢測套組,156,2022/05/04 14:57:02,因應到貨時間不定，統一晚上7點開放78組（5／4尚未到貨AM9:30、庫存顯示是星期日沒開但自動匯入庫存）
5903271291,西屯長安藥局,臺中市西屯區成都路３６８號１樓,120.6641,24.17322,(04)22981221,羅氏家用新冠病毒抗原自我檢測套組,78,2022/05/04 14:57:02,快篩實名制，每天16:00開始販售，售完為止。
5903280245,大墩何藥局,臺中市南屯區大敦南路４３１號１．２樓,120.6476,24.13497,(04)24710655,羅氏家用新冠病毒抗原自我檢測套組,78,2022/05/04 14:57:02,防疫用快篩試劑下午4點開始販售，售完為止
5903280521,百康健保藥局,臺中市南屯區黎明路二段３６３號,120.6353,24.15033,(04)22547776,羅氏家用新冠病毒抗原自我檢測套組,57,2022/05/04 14:57:02,營業每日上午8:30到晚上22:30!實名制快篩販售下午三點開始
5903280585,康得藥局,臺中市南屯區向上路三段４５號,120.6354,24.14623,(04)23820981,羅氏家用新冠病毒抗原自我檢測套組,70,2022/05/04 14:57:02,5／4（三）下午3點開始販售實名制快篩試劑.
5903280656,熊大心藥局,臺中市南屯區河南路四段３７６號,120.6369,24.15208,(04)22516252,羅氏家用新冠病毒抗原自我檢測套組,247,2022/05/04 14:57:02,app庫存錯誤。周一至周六，15:00-16:00售實名制快篩
5903280807,大樹南屯藥局,臺中市南屯區向上路一段６４３號１樓,120.6486,24.14659,(04)24758887,羅氏家用新冠病毒抗原自我檢測套組,78,2022/05/04 14:57:02,快篩實名制，每天16:00開始販售，售完為止。
5903280816,大育藥局,臺中市南屯區東興路二段７１號１樓,120.6528,24.13835,(04)24755656,羅氏家用新冠病毒抗原自我檢測套組,78,2022/05/04 14:57:02,每日固定晚上6點開賣 現場發放號碼牌
5903280889,精科藥局,臺中市南屯區嶺東路３２１號１樓,120.6106,24.14513,(04)23806288,羅氏家用新冠病毒抗原自我檢測套組,1,2022/05/04 14:57:02,5／4 發放時間下午2：30 售完為止
5903280914,豐樹藥局,臺中市南屯區黎明路一段６３號１樓,120.6258,24.11362,(04)24792098,羅氏家用新冠病毒抗原自我檢測套組,32,2022/05/04 14:57:02,5／3快篩己售完.5／4發放時間待收到快篩時公告
5903290385,元復藥局,臺中市北屯區東山路１段２２５－７號,120.7155,24.17475,(04)24362075,羅氏家用新冠病毒抗原自我檢測套組,5,2022/05/04 14:57:02,上午7:20-7:40及8:20起發號碼牌。
5903290572,合健藥局,臺中市北屯區大連路一段５４－１號,120.6726,24.17565,(04)22951833,羅氏家用新冠病毒抗原自我檢測套組,78,2022/05/04 14:57:02,口罩星期一到星期六，販賣時間12:00~18:00.
5903290689,大德安藥局,臺中市北屯區景賢路２３６號,120.7241,24.16701,(04)24378351,羅氏家用新冠病毒抗原自我檢測套組,3,2022/05/04 14:57:02,口罩代售時間從週一到週六09:00~現場排隊售完為止星期日早上10:00起至售完為止
5903290821,昌平炘星藥局,臺中市北屯區昌平路二段１１－３６號,120.6886,24.18159,(04)22417616,羅氏家用新冠病毒抗原自我檢測套組,117,2022/05/04 14:57:02,快篩收到貨後開賣，禮拜日公休
5903290830,齊方藥局,臺中市北屯區四平路３９號,120.6708,24.17885,(04)22912192,羅氏家用新冠病毒抗原自我檢測套組,94,2022/05/04 14:57:02,快篩到貨時間不一定；通常中午左右到貨；現場排隊；麻煩先看快篩地圖，一天需接聽近百通電話詢問+解說謝謝體諒。
5903290876,北屯軍功藥局,臺中市北屯區軍功路一段７５２號,120.7193,24.17513,(04)24375111,羅氏家用新冠病毒抗原自我檢測套組,78,2022/05/04 14:57:02,快篩實名制，每天16:00開始販售，售完為止。
5903290894,豐禾藥局,臺中市北屯區同榮路１６３號,120.6618,24.19589,(04)24260588,羅氏家用新冠病毒抗原自我檢測套組,78,2022/05/04 14:57:02,快篩試劑於每日下午5點販售，星期日停售
5903290901,帥帥藥局,臺中市北屯區東山路一段３００－２號,120.7204,24.1759,(04)24378188,羅氏家用新冠病毒抗原自我檢測套組,146,2022/05/04 14:57:02,星期一至星期五下午15:00販賣快篩試劑，六.日無販售。
5903290929,微笑藥局,臺中市北屯區昌平路一段３１８號１樓,120.6907,24.17344,(04)22432699,羅氏家用新冠病毒抗原自我檢測套組,66,2022/05/04 14:57:02,【快篩試劑】下午2:30起~現場排隊~
5903290974,興安永佳藥局,臺中市北屯區興安路一段３３３號１樓,120.6944,24.17431,(04)22437876,羅氏家用新冠病毒抗原自我檢測套組,2,2022/05/04 14:57:02,售完為止
5903291006,五和健保藥局,臺中市北屯區崇德路二段４６０號１樓,120.6863,24.18001,(04)22415533,羅氏家用新冠病毒抗原自我檢測套組,78,2022/05/04 14:57:02,週六公休 。周一至周五 14:30 發號碼牌 15:00販售； 週日 9:00發號碼牌 10:00販售
5903291042,全成北屯藥局,臺中市北屯區北屯路４３９－１１號１樓,120.7004,24.17913,(04)22463518,羅氏家用新冠病毒抗原自我檢測套組,73,2022/05/04 14:57:02,快篩每日下午3:00開始販售
5903291060,大樹北屯藥局,臺中市北屯區松竹路二段４１１號１樓,120.6895,24.18192,(04)22422262,羅氏家用新冠病毒抗原自我檢測套組,78,2022/05/04 14:57:02,快篩實名制，每天16:00開始販售，售完為止。
5903291131,兩隻老虎藥局,臺中市北屯區崇德路２段１２號１樓,120.6855,24.16869,(04)22364635,羅氏家用新冠病毒抗原自我檢測套組,1,2022/05/04 14:57:02,營業時間早上九點到晚上九點半（快篩下午兩點開賣）
5903291140,興安藥局,臺中市北屯區興安路二段５２號１、２樓,120.6949,24.1762,(04)22460369,羅氏家用新冠病毒抗原自我檢測套組,77,2022/05/04 14:57:02,快篩實名制，每天16:00開始販售，售完為止。
5903291168,日初藥局,臺中市北屯區軍功路一段４８２－３號１樓,120.7188,24.17102,(04)24363150,羅氏家用新冠病毒抗原自我檢測套組,78,2022/05/04 14:57:02,無
5903291177,大連何藥局,臺中市北屯區山西路二段２７４號１樓,120.677,24.177,(04)22930895,羅氏家用新冠病毒抗原自我檢測套組,78,2022/05/04 14:57:02,因應配送時間不一，販賣時間改為下午四點。
5903291211,愛樂芬兒童藥局,臺中市北屯區松竹路一段９２９號１樓,120.7131,24.18216,(04)24363660,羅氏家用新冠病毒抗原自我檢測套組,157,2022/05/04 14:57:02,（系統登記數量錯誤，今日配送尚未抵達，實際目前無庫存）因配送時間不固定，預定下午四點開始販售
5903291220,佑全台中四平藥局,臺中市北屯區四平路３６０號１樓,120.682,24.19324,(04)24212792,羅氏家用新冠病毒抗原自我檢測套組,78,2022/05/04 14:57:02,無
5905010143,啄木鳥藥師藥局,臺南市新營區新南里民治路２４２號,120.3041,23.30767,(06)6590248,羅氏家用新冠病毒抗原自我檢測套組,78,2022/05/04 14:57:02,5／4下午4點銷售
5905010250,大樹新營藥局,臺南市新營區民權路７４、７６、７８號１樓,120.3127,23.30615,(06)6328300,羅氏家用新冠病毒抗原自我檢測套組,76,2022/05/04 14:57:02,快篩實名制，每天16:00開始販售，售完為止。
5905010330,新進啄木鳥藥局,臺南市新營區新進路２段２５４號１樓,120.3056,23.30074,(06)6565303,羅氏家用新冠病毒抗原自我檢測套組,40,2022/05/04 14:57:02,無
5905020023,大樹鹽水藥局,臺南市鹽水區朝琴路１２６－３號１樓,120.271,23.32228,(06)6520432,羅氏家用新冠病毒抗原自我檢測套組,78,2022/05/04 14:57:02,快篩實名制，每天16:00開始販售，售完為止。
5905030047,大源醫藥局,臺南市白河區中山路１７２之２號,120.4177,23.35257,(06)6852306,羅氏家用新冠病毒抗原自我檢測套組,1,2022/05/04 14:57:02,防疫快篩，每周一至日，上午7:30~晚上9:00販售，售完為止
5905030092,大樹白河藥局,臺南市白河區中山路１５３號１樓,120.417,23.35255,(06)6830006,羅氏家用新冠病毒抗原自我檢測套組,78,2022/05/04 14:57:02,快篩實名制，每天16:00開始販售，售完為止。
5905040141,大樹麻豆藥局,臺南市麻豆區中山路４８、５０號１樓,120.2469,23.18382,(06)5716556,羅氏家用新冠病毒抗原自我檢測套組,78,2022/05/04 14:57:02,快篩實名制，每天16:00開始販售，售完為止。
5905050165,德昌藥局佳里店,臺南市佳里區光復路２３３號,120.1746,23.16095,(06)7232388,羅氏家用新冠病毒抗原自我檢測套組,11,2022/05/04 14:57:02,固定周一至周六14:30開始販售口罩，售完為止
5905050209,大樹佳里藥局,臺南市佳里區延平路２３７號１樓,120.1783,23.1599,(06)7231323,羅氏家用新冠病毒抗原自我檢測套組,78,2022/05/04 14:57:02,快篩實名制，每天16:00開始販售，售完為止。
5905060161,和德藥局新化店,臺南市新化區清水里中山路４２０號１樓,120.3047,23.0359,(06)5802518,羅氏家用新冠病毒抗原自我檢測套組,78,2022/05/04 14:57:02,快篩販售時間:星期一~星期六 一人限2 張卡下午3點~售完
5905060198,大樹新化藥局,臺南市新化區中正路５３１號１樓,120.3072,23.03764,(06)5901331,羅氏家用新冠病毒抗原自我檢測套組,78,2022/05/04 14:57:02,快篩實名制，每天16:00開始販售，售完為止。
5905070050,晶德昌藥局,臺南市善化區文光里中山路８５號,120.3034,23.13298,(06)5856141,羅氏家用新冠病毒抗原自我檢測套組,10,2022/05/04 14:57:02,14:30-16:00.依號碼牌售完為止
5905070121,大樹善化藥局,臺南市善化區民權路５４、５６、５８號１樓,120.3034,23.1322,(06)5830550,羅氏家用新冠病毒抗原自我檢測套組,78,2022/05/04 14:57:02,快篩實名制，每天16:00開始販售，售完為止。
5905070185,宇康藥局,臺南市善化區蓮潭里蓮潭南街１５０號１樓,120.3077,23.11199,(06)5830963,羅氏家用新冠病毒抗原自我檢測套組,228,2022/05/04 14:57:02,周一至周五快篩販售時間下午2-3點，晚上8-9點（星期六日／國定假日休息）
5905070201,善化啄木鳥藥局,臺南市善化區中山路１８１號１、２樓,120.3006,23.13256,(06)5853585,羅氏家用新冠病毒抗原自我檢測套組,78,2022/05/04 14:57:02,快篩實名制，15:30-售完
5905080056,大樹學甲藥局,臺南市學甲區中正路１３５號１樓,120.1793,23.23029,(06)7820001,羅氏家用新冠病毒抗原自我檢測套組,78,2022/05/04 14:57:02,快篩實名制，每天16:00開始販售，售完為止。
5905200030,新和德健保藥局,臺南市新市區中正路３１９－１號,120.2939,23.07958,(06)5997603,羅氏家用新冠病毒抗原自我檢測套組,4,2022/05/04 14:57:02,快篩實名制每日14:15發號碼牌；14:30開始販售，售完為止
5905200058,欣和德藥局,臺南市新市區中正路２００號,120.2916,23.07516,(06)5895658,羅氏家用新冠病毒抗原自我檢測套組,18,2022/05/04 14:57:02,快篩實名制每日14:15發號碼牌；14:30開始販售，售完為止
5905200085,大樹新市藥局,臺南市新市區中正路４９、５１號１樓,120.2916,23.07223,(06)5892552,羅氏家用新冠病毒抗原自我檢測套組,79,2022/05/04 14:57:02,快篩實名制，每天16:00開始販售，售完為止。
5905270041,仁德市安藥師藥局,臺南市仁德區中正西路２５號,120.2244,22.91814,(06)2661933,羅氏家用新冠病毒抗原自我檢測套組,1,2022/05/04 14:57:02,快篩販賣：5／2~以貨運配送抵達時間再決定販售時間 暫定14:00開始販售
5905270176,大樹仁德藥局,臺南市仁德區中正路二段１１５２號１樓,120.2519,22.97062,(06)2797466,羅氏家用新冠病毒抗原自我檢測套組,78,2022/05/04 14:57:02,快篩實名制，每天16:00開始販售，售完為止。
5905280109,大樹青青藥局,臺南市歸仁區中山路三段１２號,120.2875,22.96765,(06)2300301,羅氏家用新冠病毒抗原自我檢測套組,78,2022/05/04 14:57:02,快篩實名制，每天16:00開始販售，售完為止。
5905290034,大樹關廟藥局,臺南市關廟區中央路２６３號１樓,120.3272,22.96109,(06)5965889,羅氏家用新冠病毒抗原自我檢測套組,78,2022/05/04 14:57:02,快篩實名制，每天16:00開始販售，售完為止。
5905310817,永大啄木鳥藥局,臺南市永康區永大路二段３９７號１樓,120.2632,23.01227,(06)2071575,羅氏家用新冠病毒抗原自我檢測套組,78,2022/05/04 14:57:02,快篩販售星期一~星期日15:00~售完
5905311010,樂丞藥局,臺南市永康區中正北路６０號１樓,120.2406,23.04138,(06)2433319,羅氏家用新冠病毒抗原自我檢測套組,78,2022/05/04 14:57:02,快篩販售時間：晚上七點開賣至售完
5905311074,中華長億藥局,臺南市永康區中華路７３４、７３６號１樓,120.2288,23.0167,(06)3022322,羅氏家用新冠病毒抗原自我檢測套組,78,2022/05/04 14:57:02,快篩實名制，每天16:00開始販售，售完為止。
5905320135,安麗兒藥局裕農店,臺南市東區裕農路１００號１樓,120.2268,22.9857,(06)2377378,羅氏家用新冠病毒抗原自我檢測套組,52,2022/05/04 14:57:02,實名制快篩販售時間:星期一到星期日下午三點~售完
5905320466,佑全中華藥局,臺南市東區中華東路三段２１５號,120.2253,22.97603,(06)2906386,羅氏家用新冠病毒抗原自我檢測套組,3,2022/05/04 14:57:02,星期一-六08:00-21:00
5905320564,杏一台南崇德藥局,臺南市東區崇德路６７４號,120.2274,22.96762,(06)2671939,羅氏家用新冠病毒抗原自我檢測套組,78,2022/05/04 14:57:02,健保快篩發送時間:周一至周日:下午:15:00
5905320635,晉大藥局,臺南市東區東光里東興路２６４號１樓,120.2298,22.99522,(06)2092580,羅氏家用新冠病毒抗原自我檢測套組,67,2022/05/04 14:57:02,快篩實名制下午3點開始販售
5905320706,悅橙藥局,臺南市東區崇明路４５９號１樓,120.2247,22.97311,(06)2605168,羅氏家用新冠病毒抗原自我檢測套組,77,2022/05/04 14:57:02,快篩每日實際販售時間為下午3點整
5905320742,榮記藥健康藥局,臺南市東區成大里育樂街１５６－４號底層,120.2147,22.99538,(06)2760588,羅氏家用新冠病毒抗原自我檢測套組,153,2022/05/04 14:57:02,因物流每天配送快篩抵達藥局的時間不定，原則上以下午三點開放刷實名制快篩試劑，售完為止。
5905320797,大樹自由藥局,臺南市東區自由路三段３８２號１樓,120.2373,22.98241,(06)2890800,羅氏家用新冠病毒抗原自我檢測套組,78,2022/05/04 14:57:02,快篩實名制，每天16:00開始販售，售完為止。
5905320804,大樹大同藥局,臺南市東區大同路二段２２７、２２９號１樓,120.2143,22.97567,(06)2158700,羅氏家用新冠病毒抗原自我檢測套組,78,2022/05/04 14:57:02,快篩實名制，每天16:00開始販售，售完為止。
5905320868,大樹東寧藥局,臺南市東區東寧路４３６號１樓,120.2291,22.9895,(06)2360006,羅氏家用新冠病毒抗原自我檢測套組,78,2022/05/04 14:57:02,快篩實名制，每天16:00開始販售，售完為止。
5905320886,中華崇德藥局,臺南市東區中華東路三段１８１、１８３號１樓,120.2259,22.97667,(06)2880800,羅氏家用新冠病毒抗原自我檢測套組,78,2022/05/04 14:57:02,快篩實名制，每天16:00開始販售，售完為止。
5905320911,大樹崇道藥局,臺南市東區崇道路６３號１樓,120.2272,22.97227,(06)2680456,羅氏家用新冠病毒抗原自我檢測套組,79,2022/05/04 14:57:02,快篩實名制，每天16:00開始販售，售完為止。
5905320939,東門啄木鳥藥局,臺南市東區東門路三段２４１號１樓,120.2358,22.97662,(06)2884569,羅氏家用新冠病毒抗原自我檢測套組,20,2022/05/04 14:57:02,通常10:00開賣（貨運可能延遲以現場公告為準）
5905330024,聖安健保藥局,臺南市南區健康路二段１７３號１樓,120.193,22.98142,(06)2916898,羅氏家用新冠病毒抗原自我檢測套組,78,2022/05/04 14:57:02,5月4日快篩已售完!星期一~六快篩下午13:30分開始販售!週日店休!
5905330284,大樹佳華藥局,臺南市南區金華路二段１２９號１樓,120.1911,22.98035,(06)2641238,羅氏家用新冠病毒抗原自我檢測套組,78,2022/05/04 14:57:02,快篩實名制，每天16:00開始販售，售完為止。
5905330417,明興啄木鳥藥局,臺南市南區明興路５１號１樓,120.1883,22.95974,(06)2620793,羅氏家用新冠病毒抗原自我檢測套組,7,2022/05/04 14:57:02,每日10:30開始賣實名制快篩，若配送延遲則14:30開始。
5905340075,麗欣健保藥局,臺南市中西區永華路一段１９４號１樓,120.1917,22.98835,(06)2209393,羅氏家用新冠病毒抗原自我檢測套組,78,2022/05/04 14:57:02,w1~w6早上11:00開始發放快篩
5905340235,人人藥局,臺南市中西區和緯路５段１９７號１樓,120.1845,23.00393,(06)3583668,羅氏家用新冠病毒抗原自我檢測套組,4,2022/05/04 14:57:02,快篩，每日下午兩點開始過卡販售。
5905340271,南光藥局,臺南市中西區永福路２段７３號１、２樓,120.2007,22.99207,(06)2226539,羅氏家用新冠病毒抗原自我檢測套組,78,2022/05/04 14:57:02,快篩販賣：配送時間不穩定，貨到就開賣，沒有固定時段（5月4日已完售，剩餘78份為薛丁格的快篩）
5905350133,大昌藥局,臺南市北區北安路１段１３２號１樓,120.2127,23.01481,(06)2519121,羅氏家用新冠病毒抗原自我檢測套組,65,2022/05/04 14:57:02,下午3點開賣快篩
5905350366,千多藥局,臺南市北區金華路五段１號,120.1962,23.0016,(06)2228641,羅氏家用新冠病毒抗原自我檢測套組,78,2022/05/04 14:57:02,晚上6點開始銷售實名制快篩試劑，賣完為止
5905370304,大樹安南藥局,臺南市安南區安和路四段５５７號１樓,120.2185,23.06181,(06)3563370,羅氏家用新冠病毒抗原自我檢測套組,78,2022/05/04 14:57:02,快篩實名制，每天16:00開始販售，售完為止。
5905370466,大樹北安藥局,臺南市安南區北安路三段１５８號１樓,120.2036,23.04256,(06)2553633,羅氏家用新冠病毒抗原自我檢測套組,78,2022/05/04 14:57:02,快篩實名制，每天16:00開始販售，售完為止。
5905380408,永華啄木鳥藥局,臺南市安平區永華路二段３６９號１樓,120.1806,22.98956,(06)2985173,羅氏家用新冠病毒抗原自我檢測套組,25,2022/05/04 14:57:02,配送時間不穩，故即日起依門市公告為準
5905380426,好朋友藥師藥局,臺南市安平區建平七街６８３號１樓,120.1692,22.98999,(06)2997907,羅氏家用新冠病毒抗原自我檢測套組,78,2022/05/04 14:57:02,快篩因到貨時間不確定，如當天到貨晚上7點販售
5907010141,維安社區藥局,高雄市鳳山區國富路２５-１號,120.3497,22.61517,(07)7630980,羅氏家用新冠病毒抗原自我檢測套組,94,2022/05/04 14:57:02,代售口罩及快篩試劑開始時間為下午2點.現場排隊，售完為止
5907010150,育英藥局文德店,高雄市鳳山區文德路２９號,120.3527,22.63836,(07)7777059,羅氏家用新冠病毒抗原自我檢測套組,1,2022/05/04 14:57:02,營業時間上午12:00~下午10:00藥局發口罩時間為下午:12:00售完為止
5907010178,華美藥局,高雄市鳳山區建國路三段１６１號,120.3535,22.6367,(07)7452732,羅氏家用新冠病毒抗原自我檢測套組,108,2022/05/04 14:57:02,若有患者領藥優先處理領藥，快篩則視貨運到貨開始販售（當天送當天賣）
5907010301,高大藥局,高雄市鳳山區南華路１８２號,120.3381,22.60295,(07)7718671,羅氏家用新冠病毒抗原自我檢測套組,142,2022/05/04 14:57:02,快篩試劑每日 12:00 - 20:00 發放。  周日店休
5907010427,好郝藥局鳳林店,高雄市鳳山區誠智里鳳林路２９０號,120.3779,22.62216,(07)7869188,羅氏家用新冠病毒抗原自我檢測套組,154,2022/05/04 14:57:02,健保快篩周一到周日下午三點開始現場販售，售完為止
5907010454,上泰健保藥局,高雄市鳳山區鎮西里中華街２７號１樓,120.3559,22.62698,(07)7455127,羅氏家用新冠病毒抗原自我檢測套組,133,2022/05/04 14:57:02,5／4 配售之快篩目前開始販售，售完為止。1300~~1600店休
5907010525,長青連鎖藥局光遠店,高雄市鳳山區光遠路２７１號１樓,120.3588,22.62596,(07)7103487,羅氏家用新冠病毒抗原自我檢測套組,78,2022/05/04 14:57:02,無
5907010927,元元鳳山藥局,高雄市鳳山區一甲里五甲二路３４８之１號１樓,120.3377,22.59955,(07)7529595,羅氏家用新冠病毒抗原自我檢測套組,156,2022/05/04 14:57:02,15:00開始發快篩，現場排隊，自備500元不找零!一至五最晚銷售時間至晚上六點。星期六銷售至下午五點。星期日公休
5907011086,閤康藥局,高雄市鳳山區忠義里中山西路３７６－７號１樓,120.3412,22.62897,(07)7197787,羅氏家用新冠病毒抗原自我檢測套組,97,2022/05/04 14:57:02,5／2-5／5快篩到貨時間不確定.目前還沒到貨
5907011095,鳳山五甲藥局,高雄市鳳山區正義里五甲二路１３９號１樓,120.3409,22.6014,(07)7269899,羅氏家用新冠病毒抗原自我檢測套組,78,2022/05/04 14:57:02,快篩實名制，每天16:00開始販售，售完為止。
5907011111,壹然藥局,高雄市鳳山區中正里瑞興路４６２號１樓,120.3713,22.63084,(07)7014755,羅氏家用新冠病毒抗原自我檢測套組,30,2022/05/04 14:57:02,每日須等政府當日配售，時間不定；請撥打7014966詢問
5907011148,大樹國泰藥局,高雄市鳳山區興仁里五甲一路２９２號,120.3539,22.61698,(07)7407234,羅氏家用新冠病毒抗原自我檢測套組,78,2022/05/04 14:57:02,快篩實名制，每天16:00開始販售，售完為止。
5907011175,鳳西藥局,高雄市鳳山區忠義里中山西路２３８號１樓,120.3471,22.62831,(07)7902717,羅氏家用新冠病毒抗原自我檢測套組,78,2022/05/04 14:57:02,快篩實名制，每天16:00開始販售，售完為止。
5907011184,肉豆公藥局南榮店,高雄市鳳山區善美里南榮路１６９號１樓,120.3366,22.60186,(07)7278385,羅氏家用新冠病毒抗原自我檢測套組,28,2022/05/04 14:57:02,現場領藥優先處理，快篩販售時間以到貨起
5907011219,協康健保藥局,高雄市鳳山區瑞竹里博愛路２１５號１樓,120.3704,22.62887,(07)7199259,羅氏家用新冠病毒抗原自我檢測套組,73,2022/05/04 14:57:02,週一~週六實名制快篩於下午三點開賣，週日沒有販售
5907011273,鳳山服安藥局,高雄市鳳山區忠義里中山西路３８０號１樓,120.3409,22.62906,(07)7406330,羅氏家用新冠病毒抗原自我檢測套組,78,2022/05/04 14:57:02,自3／1日~3／31日，營業日08:00~21:00為販賣口罩時間
5907011317,凱旋藥局,高雄市鳳山區國隆里新富路３７３號１樓,120.3475,22.61494,(07)7671181,羅氏家用新冠病毒抗原自我檢測套組,78,2022/05/04 14:57:02,快篩實名制，每天16:00開始販售，售完為止。
5907011362,佑全鳳山藥局,高雄市鳳山區文德里青年路二段４６３號１－２樓,120.3498,22.64513,(07)7801568,羅氏家用新冠病毒抗原自我檢測套組,10,2022/05/04 14:57:02,實名制快篩14:00~18:00
5907011371,大樹五甲藥局,高雄市鳳山區福祥里五甲三路２４號１－２樓．２６號１－２樓,120.3278,22.59317,(07)8224926,羅氏家用新冠病毒抗原自我檢測套組,78,2022/05/04 14:57:02,快篩實名制，每天16:00開始販售，售完為止。
5907011399,佑家藥師藥局,高雄市鳳山區新強里新富路２８８號１樓,120.3418,22.61265,(07)7673298,羅氏家用新冠病毒抗原自我檢測套組,19,2022/05/04 14:57:02,無
5907011406,長青連鎖藥局大士店,高雄市鳳山區五甲一路１３９號１樓,120.3562,22.61968,(07)7104618,羅氏家用新冠病毒抗原自我檢測套組,78,2022/05/04 14:57:02,無
5907020085,大德藥局,高雄市岡山區大德一路９８號,120.3025,22.79689,(07)6221456,羅氏家用新冠病毒抗原自我檢測套組,78,2022/05/04 14:57:02,快篩實名制，每天16:00開始販售，售完為止。
5907020094,大樹岡山藥局,高雄市岡山區岡山路１３６號,120.2967,22.78913,(07)6219477,羅氏家用新冠病毒抗原自我檢測套組,78,2022/05/04 14:57:02,快篩實名制，每天16:00開始販售，售完為止。
5907030072,旗美藥局,高雄市旗山區東平里延平二路４１號,120.4933,22.882,(07)6629839,羅氏家用新冠病毒抗原自我檢測套組,101,2022/05/04 14:57:02,實名制快篩劑購買時間為下午14:00~20:00
5907030134,旗山啄木鳥藥局,高雄市旗山區中華路１０５０號,120.4828,22.87904,(07)6625728,羅氏家用新冠病毒抗原自我檢測套組,25,2022/05/04 14:57:02,發口罩時間:09:00-19:00
5907030152,旗山藥局,高雄市旗山區中華路２３號,120.4841,22.88027,(07)6621158,羅氏家用新冠病毒抗原自我檢測套組,109,2022/05/04 14:57:02,快篩實名制，每天16:00開始販售，售完為止。
5907050109,林園藥局,高雄市林園區仁愛路１３號１樓,120.3928,22.50418,(07)6425855,羅氏家用新冠病毒抗原自我檢測套組,78,2022/05/04 14:57:02,快篩實名制，每天16:00開始販售，售完為止。
5907060098,佳和健保藥局,高雄市大寮區鳳林三路５１２號,120.3954,22.60616,(07)7821500,羅氏家用新冠病毒抗原自我檢測套組,67,2022/05/04 14:57:02,自2／11日~2／29日，營業日8:30~12:00、15:00-21:00為販賣口罩時間，售完為止。
5907060221,淑德健保藥局,高雄市大寮區內坑里淑德新村１號３樓,120.3707,22.58833,(07)7923556,羅氏家用新冠病毒抗原自我檢測套組,153,2022/05/04 14:57:02,無
5907060230,華思中西藥局,高雄市大寮區永芳里進學路１２２號１樓,120.3933,22.60468,(07)7835567,羅氏家用新冠病毒抗原自我檢測套組,78,2022/05/04 14:57:02,星期一~星期六 下午四點販售實名制快篩到售完為止   星期天店休
5907060267,加嘉藥局,高雄市大寮區山頂里內厝路１９１號１樓,120.3901,22.60793,(07)7860683,羅氏家用新冠病毒抗原自我檢測套組,1,2022/05/04 14:57:02,無
5907070030,久堂藥局,高雄市大樹區久堂里久堂路１３６號１樓,120.4178,22.65813,(07)6512800,羅氏家用新冠病毒抗原自我檢測套組,78,2022/05/04 14:57:02,快篩實名制，每天16:00開始販售，售完為止。
5907080081,英祥連鎖藥局仁雄店,高雄市仁武區仁雄路３６之２號,120.3512,22.68115,(07)3722509,羅氏家用新冠病毒抗原自我檢測套組,58,2022/05/04 14:57:02,快篩販售時間為星期一～六的14:30至17:00（若提前售完，則售完為止）（14:30開始發號碼牌）
5907080189,德昌藥局仁雄店,高雄市仁武區灣內里仁雄路３８、３８－１、３８－２號,120.3506,22.68074,(07)3749166,羅氏家用新冠病毒抗原自我檢測套組,18,2022/05/04 14:57:02,固定週一至週日14:30~16:00開始發放號碼牌並依序販售快篩.售完為止
5907080232,大樹仁武藥局,高雄市仁武區赤山里仁雄路８０－９號,120.3469,22.67811,(07)3744777,羅氏家用新冠病毒抗原自我檢測套組,78,2022/05/04 14:57:02,快篩實名制，每天16:00開始販售，售完為止。
5907080269,興德昌藥局,高雄市仁武區文武里中華路２３２號,120.3516,22.69985,(07)3757005,羅氏家用新冠病毒抗原自我檢測套組,4,2022/05/04 14:57:02,實名制快篩販售時間14:30-16:00
5907080303,群邦藥局,高雄市仁武區八德東路１８０號１樓,120.3422,22.68538,(07)3745985,羅氏家用新冠病毒抗原自我檢測套組,78,2022/05/04 14:57:02,每日下午2:00開始販售公費快篩（售完為止），星期日藥局早上8:30-9:30賣公費快篩
5907080330,文武藥局,高雄市仁武區文武里中華路３５３號,120.3535,22.7011,(07)3733551,羅氏家用新冠病毒抗原自我檢測套組,78,2022/05/04 14:57:02,快篩實名制，每天16:00開始販售，售完為止。
5907090087,安泰專業藥師藥局,高雄市大社區中山路２６７號１樓,120.3492,22.73194,(07)3553715,羅氏家用新冠病毒抗原自我檢測套組,6,2022/05/04 14:57:02,快篩每日14:20發號碼牌，14:30準時發放 請準備現金500元 不找錢
5907090167,大樹大社藥局,高雄市大社區中山路３０８號１樓,120.3503,22.73145,(07)3531682,羅氏家用新冠病毒抗原自我檢測套組,78,2022/05/04 14:57:02,快篩實名制，每天16:00開始販售，售完為止。
5907100088,本館藥局,高雄市鳥松區大華里本館路１９０號１樓,120.3361,22.65556,(07)3707655,羅氏家用新冠病毒抗原自我檢測套組,53,2022/05/04 14:57:02,營業時間每日09:00-22:00  實名制快篩販賣時間15:00-20:00
5907110048,和德藥局橋頭店,高雄市橋頭區橋南路１１６－１號,120.3125,22.75441,(07)6113580,羅氏家用新冠病毒抗原自我檢測套組,78,2022/05/04 14:57:02,快篩下午15:00開賣  售完為止
5907120017,和德藥局燕巢店,高雄市燕巢區西燕里中民路６２８號,120.3612,22.79345,(07)6143499,羅氏家用新冠病毒抗原自我檢測套組,78,2022/05/04 14:57:02,每日下午17:00~18:00販售快篩，『現場排隊購買，不發放號碼牌，1人限2張健保卡』，售完為止
5907140108,德昌藥局阿蓮店,高雄市阿蓮區阿蓮里中正路４５６號,120.3321,22.88075,(07)6318868,羅氏家用新冠病毒抗原自我檢測套組,24,2022/05/04 14:57:02,固定周一至周日14:30-16:00販售快篩，售完為止
5907150177,佑安藥局,高雄市路竹區中和街１８２號,120.2575,22.85889,(07)6072215,羅氏家用新冠病毒抗原自我檢測套組,78,2022/05/04 14:57:02,星期一至六08:00開始販售；星期日無販售，售完為止
5907150202,永昌藥局,高雄市路竹區延平路８１號,120.2579,22.85786,(07)6964321,羅氏家用新冠病毒抗原自我檢測套組,115,2022/05/04 14:57:02,周一至周六上午10:00~12:30；下午15:30-18:00開始依序販售快篩試劑，售完為止。星期日休息。
5907150257,大樹大立藥局,高雄市路竹區國昌路５１號,120.26,22.85409,(07)6961663,羅氏家用新冠病毒抗原自我檢測套組,78,2022/05/04 14:57:02,快篩實名制，每天16:00開始販售，售完為止。
5907160039,華安藥局,高雄市湖內區中山路一段４５１－１９號,120.2459,22.88472,(07)6938208,羅氏家用新冠病毒抗原自我檢測套組,78,2022/05/04 14:57:02,營業日15:00-21:00為販賣實名制快篩時間，售完為止
5907160093,保生藥局,高雄市湖內區葉厝里保生路３４０．３４２號,120.2195,22.90733,(07)6990800,羅氏家用新冠病毒抗原自我檢測套組,78,2022/05/04 14:57:02,快篩實名制，每天16:00開始販售，售完為止。
5907200047,永恒健康生活藥局,高雄市梓官區智蚵里通安路１７６號１樓,120.252,22.7307,(07)6102755,羅氏家用新冠病毒抗原自我檢測套組,42,2022/05/04 14:57:02,營業時間週一到週日早上8:30至晚上9:30  實名制快篩 每天下午3:00 開始
5907240014,博林健保藥局,高雄市內門區觀亭里中正路１６０巷５１號,120.4539,22.9232,(07)6671883,羅氏家用新冠病毒抗原自我檢測套組,151,2022/05/04 14:57:02,自2／11日~2／29日，營業日07:40~18:00為販賣口罩時間，售完為止
5907280036,七賢藥局,高雄市鹽埕區七賢三路１６２號１樓,120.2829,22.62712,(07)5330616,羅氏家用新冠病毒抗原自我檢測套組,78,2022/05/04 14:57:02,快篩實名制，每天16:00開始販售，售完為止。
5907290023,明倫藥局,高雄市鼓山區明倫路１５０號１樓,120.2979,22.66507,(07)5520736,羅氏家用新冠病毒抗原自我檢測套組,78,2022/05/04 14:57:02,無
5907290238,聯合藥師藥局,高雄市鼓山區中華一路９７０號１樓,120.2919,22.65515,(07)5500558,羅氏家用新冠病毒抗原自我檢測套組,6,2022/05/04 14:57:02,無
5907290265,新美館藥局,高雄市鼓山區中華一路９７２號,120.2919,22.65513,(07)5522006,羅氏家用新冠病毒抗原自我檢測套組,7,2022/05/04 14:57:02,今日下午2:00開賣快篩，從騎樓排隊領取
5907290309,鼓山藥局,高雄市鼓山區華榮路１０號,120.2973,22.66156,(07)5520017,羅氏家用新冠病毒抗原自我檢測套組,78,2022/05/04 14:57:02,快篩實名制，每天16:00開始販售，售完為止。
5907290327,金好藥局,高雄市鼓山區青海路４１８號１樓,120.2845,22.65177,(07)5869556,羅氏家用新冠病毒抗原自我檢測套組,1,2022/05/04 14:57:02,無
5907290354,文昇藥局,高雄市鼓山區慶豐街１２５號,120.2942,22.66724,(07)5525314,羅氏家用新冠病毒抗原自我檢測套組,4,2022/05/04 14:57:02,無
5907300042,育安健保藥局,高雄市左營區富國路３３９號１樓,120.3071,22.66643,(07)5508862,羅氏家用新冠病毒抗原自我檢測套組,78,2022/05/04 14:57:02,如果有來貨？快篩實名制下午2:00開始販售，售完為止。自備現金500元，無刷卡無刷卡無刷卡。周日公休
5907300177,人尚大藥局,高雄市左營區榮總路１０９號１樓,120.3217,22.67927,(07)3100000,羅氏家用新冠病毒抗原自我檢測套組,3,2022/05/04 14:57:02,星期一到星期六 早上7:40開始銷售，星期日早上8:40，售完為止
5907300211,勁好健保藥局,高雄市左營區果峰街１２巷２６號１樓,120.2881,22.67178,(07)5855767,羅氏家用新冠病毒抗原自我檢測套組,69,2022/05/04 14:57:02,無
5907300239,左野藥局,高雄市左營區崇德路２２２號,120.3052,22.675,(07)3486883,羅氏家用新冠病毒抗原自我檢測套組,78,2022/05/04 14:57:02,每日9時開始營業．實名制快篩販售時間15:00-20:00售完為止! 14:50發號碼牌
5907300417,森森藥師藥局,高雄市左營區緯六路２１５號１樓,120.2874,22.69707,(07)5853600,羅氏家用新冠病毒抗原自我檢測套組,97,2022/05/04 14:57:02,W1~W5 8~19點；星期六 8:30~12點；快篩售完為止
5907300506,躍獅祐恩藥局,高雄市左營區明華一路１３２號１樓,120.3073,22.66307,(07)5508706,羅氏家用新冠病毒抗原自我檢測套組,2,2022/05/04 14:57:02,4／30開始於營業時間內販售，售完為止!
5907300515,詮裕藥局,高雄市左營區華夏路７０６號１樓,120.3022,22.6778,(07)3453942,羅氏家用新冠病毒抗原自我檢測套組,99,2022/05/04 14:57:02,星期一到星期六早上8點銷售到售完為止.星期日---無
5907300588,明禾藥局,高雄市左營區華夏路１７３２號１樓,120.3204,22.68777,(07)3493734,羅氏家用新冠病毒抗原自我檢測套組,80,2022/05/04 14:57:02,快篩販賣時間早上10點開始
5907300613,新高橋藥局河堤店,高雄市左營區裕誠路１４４號１樓及地下１樓,120.3095,22.66423,(07)5582806,羅氏家用新冠病毒抗原自我檢測套組,14,2022/05/04 14:57:02,下午1:30開始販售口罩至下午5:30
5907300631,大樹孟子藥局,高雄市左營區孟子路２２６、２２８號,120.3112,22.67415,(07)3461772,羅氏家用新冠病毒抗原自我檢測套組,78,2022/05/04 14:57:02,快篩實名制，每天16:00開始販售，售完為止。
5907300659,維康藥局高榮店,高雄市左營區榮總路１６３號、１６５號,120.3216,22.6809,(07)3494540,羅氏家用新冠病毒抗原自我檢測套組,78,2022/05/04 14:57:02,平常日0900-1700為快篩販賣時間賣完為止！假日1000-1800
5907300677,佳寧峰藥局,高雄市左營區部後街２號,120.2886,22.6834,(07)5886408,羅氏家用新冠病毒抗原自我檢測套組,187,2022/05/04 14:57:02,快篩試劑販賣時段:上午8:30起至售完為止
5907300686,左營自由藥局,高雄市左營區自由二路３５０、３５０－１號,120.3091,22.66599,(07)5589991,羅氏家用新冠病毒抗原自我檢測套組,78,2022/05/04 14:57:02,快篩實名制，每天16:00開始販售，售完為止。
5907300702,禾順左營藥局,高雄市左營區自由三路４１０號２樓,120.3127,22.67563,(07)3592582,羅氏家用新冠病毒抗原自我檢測套組,145,2022/05/04 14:57:02,星期一~星期六 實名制快篩劑發放時間13:30~15:00 （周日公休）
5907300711,富元聯合健康藥局,高雄市左營區博愛三路３７號,120.3038,22.67145,(07)3488585,羅氏家用新冠病毒抗原自我檢測套組,1,2022/05/04 14:57:02,快篩於下午兩點販售
5907300748,翔生藥局合群店,高雄市左營區緯六路２５６號,120.2871,22.6976,(07)5880055,羅氏家用新冠病毒抗原自我檢測套組,14,2022/05/04 14:57:02,實名制快篩販售時間：星期一至星期五，售完為止
5907300757,奕康藥局,高雄市左營區明華一路７６號,120.3091,22.663,(07)5561908,羅氏家用新冠病毒抗原自我檢測套組,154,2022/05/04 14:57:02,快篩實名制開賣時間每天會在臉書公告
5907300766,悠仁藥局,高雄市左營區自由三路１７０號,120.3113,22.67165,(07)3457979,羅氏家用新冠病毒抗原自我檢測套組,78,2022/05/04 14:57:02,一~五的營業時間為0800~1200／1530~1800／1830~2100 六日的營業時間為0900
5907300800,元大藥師健保藥局,高雄市左營區榮德街３２７號,120.3211,22.68636,(07)3507531,羅氏家用新冠病毒抗原自我檢測套組,39,2022/05/04 14:57:02,無
5907300819,志全藥局,高雄市左營區富國路１６８號１樓,120.3068,22.66075,(07)5568217,羅氏家用新冠病毒抗原自我檢測套組,24,2022/05/04 14:57:02,藥局販售口罩時間，依藥局門口公告時間為主（售完為止）
5907300882,得孚社區藥局,高雄市左營區重立路５３３號１樓,120.3098,22.67955,(07)3410121,羅氏家用新冠病毒抗原自我檢測套組,156,2022/05/04 14:57:02,營業日上午09:30-11:30為販賣口罩時間.三四下午200-400販售
5907300926,高鐵藥局,高雄市左營區華夏路１３２２．１３２６號,120.312,22.68587,(07)3452797,羅氏家用新冠病毒抗原自我檢測套組,78,2022/05/04 14:57:02,快篩實名制，每天16:00開始販售，售完為止。
5907300944,左營藥局,高雄市左營區華夏路３２５號,120.2972,22.67167,(07)5501017,羅氏家用新冠病毒抗原自我檢測套組,78,2022/05/04 14:57:02,快篩實名制，每天16:00開始販售，售完為止。
5907300980,大路藥局,高雄市左營區左營大路５５－２號１樓,120.2877,22.6813,(07)5851001,羅氏家用新冠病毒抗原自我檢測套組,78,2022/05/04 14:57:02,快篩實名制，每天16:00開始販售，售完為止。
5907301012,新高橋藥局華夏店,高雄市左營區華夏路１１１０號,120.3085,22.68343,(07)3410915,羅氏家用新冠病毒抗原自我檢測套組,70,2022/05/04 14:57:02,無
5907301021,杏一左營自由藥局,高雄市左營區自由二路３９７號,120.3084,22.66541,(07)5509511,羅氏家用新冠病毒抗原自我檢測套組,156,2022/05/04 14:57:02,周一-周六販賣時間:15點；週日無提供快篩實聯制服務
5907301076,熊安心藥局華夏店,高雄市左營區華夏路１２１２號１樓,120.3104,22.68483,(07)3430632,羅氏家用新冠病毒抗原自我檢測套組,79,2022/05/04 14:57:02,快篩試劑-販售時間14:00至售完為止
5907310173,安健藥局,高雄市楠梓區鳳楠路２５０號,120.3296,22.72617,(07)3520167,羅氏家用新冠病毒抗原自我檢測套組,35,2022/05/04 14:57:02,2／06起營業日早上8點開始販賣，周六日早上8:30 .售完為止
5907310262,大樹楠梓藥局,高雄市楠梓區軍校路９０８號,120.2919,22.71246,(07)3632322,羅氏家用新冠病毒抗原自我檢測套組,78,2022/05/04 14:57:02,快篩實名制，每天16:00開始販售，售完為止。
5907310271,漢宏健保藥局,高雄市楠梓區加宏路９７號,120.2966,22.71804,(07)3626086,羅氏家用新冠病毒抗原自我檢測套組,143,2022/05/04 14:57:02,營業時間販賣口罩.售完為止
5907310351,惠民楠梓藥局,高雄市楠梓區建楠路２１７號,120.3248,22.72689,(07)3521896,羅氏家用新冠病毒抗原自我檢測套組,78,2022/05/04 14:57:02,上面數量顯示78盒，是系統錯誤，快篩已經賣完了，麥擱卡啊!!平常二點開始發，發完為止；記得備防疫包，增強免疫力
5907310388,宸實藥局,高雄市楠梓區後昌路４７巷２３－１號,120.3129,22.71975,(07)3642142,羅氏家用新冠病毒抗原自我檢測套組,117,2022/05/04 14:57:02,5／4（三）下午2:30開賣
5907310404,藍田藥局,高雄市楠梓區藍田路１號,120.2953,22.72643,(07)3601236,羅氏家用新冠病毒抗原自我檢測套組,78,2022/05/04 14:57:02,快篩實名制，每天16:00開始販售，售完為止。
5907320428,東京藥局,高雄市三民區建工路６８５號,120.3173,22.6478,(07)3874567,羅氏家用新冠病毒抗原自我檢測套組,65,2022/05/04 14:57:02,實名制快篩販售時間: 每日15:00-晚上20:00
5907320464,建元健保藥局,高雄市三民區興昌街８３巷９號,120.3181,22.64621,(07)3927865,羅氏家用新冠病毒抗原自我檢測套組,88,2022/05/04 14:57:02,無
5907320535,康誠藥局,高雄市三民區建工路６１６號,120.3228,22.64934,(07)3893889,羅氏家用新冠病毒抗原自我檢測套組,68,2022/05/04 14:57:02,星期一~星期日早上09：30~11：50。星期一~星期六下午15：30~17：50、晚上19：30~21：20
5907320633,勁康健保藥局,高雄市三民區義華路４０２號１樓,120.3331,22.64371,(07)3966716,羅氏家用新冠病毒抗原自我檢測套組,120,2022/05/04 14:57:02,早上9點30分
5907320697,鄰好藥師藥局,高雄市三民區褒揚街２８７號,120.3398,22.64097,(07)3909589,羅氏家用新冠病毒抗原自我檢測套組,1,2022/05/04 14:57:02,購買實名制快篩時間下午14:00-16:00，各類防疫用品販售中
5907320768,心樂保健藥局,高雄市三民區光裕路７８號１樓,120.3331,22.63789,(07)3855377,羅氏家用新冠病毒抗原自我檢測套組,193,2022/05/04 14:57:02,星期一到星期四上午8:30-12:00，下午15:00-18:00（口罩售完為止）. 星期五下午14:00-17:00，18:00-20:30（售完為止）
5907320811,力生藥局,高雄市三民區鼎中路１６８號１樓,120.3194,22.6622,(07)3105231,羅氏家用新冠病毒抗原自我檢測套組,51,2022/05/04 14:57:02,營業日星期一~星期五11點起、星期六~星期日晚上6點 開始販賣（實名制快篩）.售完為止
5907320848,仕康健保藥妝藥局,高雄市三民區建興路２２２號,120.325,22.6447,(07)3845050,羅氏家用新冠病毒抗原自我檢測套組,155,2022/05/04 14:57:02,下午3點販售，現場排隊
5907320857,陽明上鼎藥師健保藥局,高雄市三民區陽明路１０１號１樓,120.3413,22.64008,(07)3962358,羅氏家用新冠病毒抗原自我檢測套組,78,2022/05/04 14:57:02,藥局販售口罩時間，14:45發放號碼牌.15:00過卡（售完為止）
5907320866,意朋建興藥局,高雄市三民區建興路２２５號１樓,120.3251,22.64418,(07)3929507,羅氏家用新冠病毒抗原自我檢測套組,1,2022/05/04 14:57:02,口罩領取時間:W1~W日（AM1100~換完為止）
5907320893,大樹天祥藥局,高雄市三民區天祥一路１６７號,120.3191,22.66737,(07)3429902,羅氏家用新冠病毒抗原自我檢測套組,78,2022/05/04 14:57:02,快篩實名制，每天16:00開始販售，售完為止。
5907320900,大昌藥局,高雄市三民區大昌二路３９７號,120.3317,22.64915,(07)3961396,羅氏家用新冠病毒抗原自我檢測套組,78,2022/05/04 14:57:02,快篩實名制，每天16:00開始販售，售完為止。
5907320919,心寬福藥局,高雄市三民區大順二路７１８號一樓,120.3193,22.65359,(07)3832366,羅氏家用新冠病毒抗原自我檢測套組,108,2022/05/04 14:57:02,週一到週五上午9:00-12:00、下午14:00-20:00，週六下午14:00-20:00販售口罩，週日公休。
5907320946,熊安心藥局,高雄市三民區陽明路４０８號,120.3429,22.64609,(07)3815212,羅氏家用新冠病毒抗原自我檢測套組,95,2022/05/04 14:57:02,週一 ~ 週六 AM8:00-PM10:00，快篩分兩梯次販售，14:00有63份，19:00有15份
5907321005,諾亞藥局,高雄市三民區鼎華路１４號１樓,120.3164,22.65139,(07)3929966,羅氏家用新冠病毒抗原自我檢測套組,142,2022/05/04 14:57:02,無
5907321032,三民明誠藥局,高雄市三民區明誠一路５００號１－２Ｆ及５０２號,120.3223,22.66046,(07)3493137,羅氏家用新冠病毒抗原自我檢測套組,40,2022/05/04 14:57:02,快篩試劑下午2:00販售
5907321041,鼎安健保藥局,高雄市三民區鼎中路４１８號１樓,120.3199,22.66719,(07)3509939,羅氏家用新冠病毒抗原自我檢測套組,1,2022/05/04 14:57:02,快篩實名制:營業日下午2點開始販售，售完為止
5907321069,桂林活力藥局九如店,高雄市三民區懷安街１１２號１樓,120.3176,22.64095,(07)3981009,羅氏家用新冠病毒抗原自我檢測套組,78,2022/05/04 14:57:02,每天15:30發號碼牌，於18:00前兌換完畢，逾期棄權，剩餘則繼續發放
5907321078,振源藥局,高雄市三民區熱河一街３５５號１樓,120.3061,22.64365,(07)3112541,羅氏家用新冠病毒抗原自我檢測套組,87,2022/05/04 14:57:02,4／30起15:00開始販售快篩，六日皆有營業
5907321096,建工丁丁藥局,高雄市三民區建工路５６８號,120.3244,22.65015,(07)3830841,羅氏家用新冠病毒抗原自我檢測套組,76,2022/05/04 14:57:02,無
5907321103,自由藥局,高雄市三民區自由一路７８號,120.3089,22.64422,(07)3223113,羅氏家用新冠病毒抗原自我檢測套組,78,2022/05/04 14:57:02,快篩實名制，每天16:00開始販售，售完為止。
5907321158,窩窩香藥局,高雄市三民區明哲路４２－１號１樓,120.312,22.66176,(07)3505883,羅氏家用新冠病毒抗原自我檢測套組,10,2022/05/04 14:57:02,快篩配送時間尚未固定，依FB公告販售時間為主
5907330031,健美藥局,高雄市新興區復興一路４０之４號,120.3084,22.62985,(07)2291108,羅氏家用新冠病毒抗原自我檢測套組,12,2022/05/04 14:57:02,111／5／3近期因供貨時間不穩定.先取消上午8:40販售快篩.實際以收到貨時間開始販賣
5907330040,維康藥局,高雄市新興區中正三路６５號,120.3078,22.63077,(07)2615396,羅氏家用新冠病毒抗原自我檢測套組,73,2022/05/04 14:57:02,快篩代售時間:星期一至星期六15:00-18:00，星期日9:00-12:00
5907330200,新興復興藥局,高雄市新興區復興一路７６號１樓,120.3085,22.63312,(07)2352550,羅氏家用新冠病毒抗原自我檢測套組,78,2022/05/04 14:57:02,快篩實名制，每天16:00開始販售，售完為止。
5907340046,銘益藥局,高雄市前金區七賢二路２０８、２１０號１樓,120.2951,22.63314,(07)2853107,羅氏家用新冠病毒抗原自我檢測套組,66,2022/05/04 14:57:02,無
5907350113,英祥藥局,高雄市苓雅區英祥街１９號,120.3257,22.61678,(07)7522786,羅氏家用新冠病毒抗原自我檢測套組,145,2022/05/04 14:57:02,無
5907350195,健順藥局,高雄市苓雅區自強三路１４０號,120.2986,22.61724,(07)2695832,羅氏家用新冠病毒抗原自我檢測套組,7,2022/05/04 14:57:02,自2／6起，營業日0830~22:00為口罩販售時間，售完為止
5907350328,安杏藥局,高雄市苓雅區四維二路９４－１７號,120.3197,22.62273,(07)7511739,羅氏家用新冠病毒抗原自我檢測套組,21,2022/05/04 14:57:02,快篩試劑代售時間自早上9:00點服務
5907350499,鑫美健保特約藥局,高雄市苓雅區光華一路１４８－５８號１樓,120.3158,22.62389,(07)7715088,羅氏家用新冠病毒抗原自我檢測套組,26,2022/05/04 14:57:02,14:00開賣實名制快篩，馨田診所配合公費快篩，慢箋免費領藥，防疫物資特賣
5907350506,大樹苓雅藥局,高雄市苓雅區中華四路１５３號,120.3001,22.61783,(07)5353111,羅氏家用新冠病毒抗原自我檢測套組,78,2022/05/04 14:57:02,快篩實名制，每天16:00開始販售，售完為止。
5907350533,健群藥局,高雄市苓雅區安業路４０號,120.3231,22.62731,(07)7150097,羅氏家用新冠病毒抗原自我檢測套組,157,2022/05/04 14:57:02,無
5907350551,大樹武廟藥局,高雄市苓雅區武廟路４３、４５號１樓,120.3314,22.63005,(07)7222268,羅氏家用新冠病毒抗原自我檢測套組,78,2022/05/04 14:57:02,快篩實名制，每天16:00開始販售，售完為止。
5907350631,三多藥局,高雄市苓雅區三多二路２９２號１樓,120.3173,22.61838,(07)3365889,羅氏家用新冠病毒抗原自我檢測套組,78,2022/05/04 14:57:02,快篩實名制，每天16:00開始販售，售完為止。
5907350659,北京藥局林泉店,高雄市苓雅區林泉里３鄰林泉街３５號１樓,120.3192,22.62323,(07)7263030,羅氏家用新冠病毒抗原自我檢測套組,544,2022/05/04 14:57:02,無
5907360360,親親藥局,高雄市前鎮區天山路１０巷６號,120.3151,22.60991,(07)3391078,羅氏家用新冠病毒抗原自我檢測套組,80,2022/05/04 14:57:02,周日休假，停售!!!
5907360548,芳鄰藥局,高雄市前鎮區中華五路９９３號１樓,120.3059,22.60262,(07)5361134,羅氏家用新冠病毒抗原自我檢測套組,295,2022/05/04 14:57:02,快篩實名制販售時間：週一～週五下午３點～５點，週六早上８點～１０點，週日不販售
5907360566,祥安健保藥局,高雄市前鎮區復興三路３９３號１樓,120.3116,22.61373,(07)3340393,羅氏家用新冠病毒抗原自我檢測套組,115,2022/05/04 14:57:02,無
5907360628,風鈴藥局,高雄市前鎮區管仲路３７號,120.3117,22.60649,(07)5367833,羅氏家用新冠病毒抗原自我檢測套組,156,2022/05/04 14:57:02,販售快篩：19:30-21:30 依照配送調整販售時間（周日公休）
5907360664,忠純藥局,高雄市前鎮區中華五路１００９號１樓,120.3056,22.60341,(07)3366886,羅氏家用新冠病毒抗原自我檢測套組,78,2022/05/04 14:57:02,快篩實名制，每天16:00開始販售，售完為止。
5907360673,前鎮大樹藥局,高雄市前鎮區瑞隆路４７２號１樓,120.3291,22.60547,(07)7137171,羅氏家用新冠病毒抗原自我檢測套組,78,2022/05/04 14:57:02,快篩實名制，每天16:00開始販售，售完為止。
5907370053,瑞康藥師藥局,高雄市旗津區中洲三路５９７號,120.2724,22.60775,(07)5718985,羅氏家用新冠病毒抗原自我檢測套組,78,2022/05/04 14:57:02,藥局販售口罩時間，依藥局門口公告時間為主（售完為止）
5907380264,大樹孔鳳藥局,高雄市小港區孔鳳路５１９、５２１號,120.3587,22.5828,(07)7918521,羅氏家用新冠病毒抗原自我檢測套組,78,2022/05/04 14:57:02,快篩實名制，每天16:00開始販售，售完為止。
5907380353,桂林活力藥師藥局漢民店,高雄市小港區漢民路６９１－１及６９１－２號１樓,120.3614,22.56762,(07)8010636,羅氏家用新冠病毒抗原自我檢測套組,2,2022/05/04 14:57:02,無
5907380424,大樹小港藥局,高雄市小港區康莊路７５號１樓,120.3559,22.56853,(07)8068328,羅氏家用新冠病毒抗原自我檢測套組,78,2022/05/04 14:57:02,快篩實名制，每天16:00開始販售，售完為止。
5911010168,承泰藥局,基隆市中正區新豐街４４２號,121.786,25.13568,(02)24601316,羅氏家用新冠病毒抗原自我檢測套組,63,2022/05/04 14:57:02,實名制快篩販售時間於下午3點開始領取
5911011325,永好藥局,基隆市中正區北寧路３１５號１樓,121.7951,25.13981,(02)24697639,羅氏家用新冠病毒抗原自我檢測套組,22,2022/05/04 14:57:02,快篩星期一*三*五是單號 二*四雙號 下午14:30販售 星期六星期日休息
5911011594,禾新藥局,基隆市中正區新豐街２０５巷７號,121.7895,25.138,(02)24698940,羅氏家用新冠病毒抗原自我檢測套組,78,2022/05/04 14:57:02,快篩實名制販售時間:下午3點開始
5911011638,中正藥局,基隆市中正區新豐街３８５號１、２樓,121.7856,25.13537,(02)24690660,羅氏家用新冠病毒抗原自我檢測套組,78,2022/05/04 14:57:02,快篩實名制，每天16:00開始販售，售完為止。
5911021438,正心藥局,基隆市七堵區南興路１０號１樓,121.7149,25.09755,(02)24563378,羅氏家用新冠病毒抗原自我檢測套組,86,2022/05/04 14:57:02,星期一~六下午13:30發號碼牌，14:00開始販賣，星期日上午9:00發號碼牌，9:30開始販賣，12:00停止領取
5911031238,碇內東亞藥師藥局,基隆市暖暖區源遠路３１９號１樓,121.7574,25.09941,(02)24590033,羅氏家用新冠病毒抗原自我檢測套組,78,2022/05/04 14:57:02,周一至周六下午三點發放快篩試劑
5911041305,婕登藥局,基隆市仁愛區愛三路５３號１、２樓,121.7425,25.12841,(02)24222582,羅氏家用新冠病毒抗原自我檢測套組,74,2022/05/04 14:57:02,成人口罩：每天下午三點開始發放號碼牌
5911041332,光華藥局,基隆市仁愛區成功一路１２９號１樓,121.7364,25.12786,(02)24338703,羅氏家用新冠病毒抗原自我檢測套組,156,2022/05/04 14:57:02,快篩試劑販賣下午六點販售.星期日休息
5911041403,佑昌藥局,基隆市仁愛區南榮路１７號,121.7423,25.12697,(02)24293309,羅氏家用新冠病毒抗原自我檢測套組,23,2022/05/04 14:57:02,無
5911041690,佑聖藥局,基隆市仁愛區仁二路１８８號,121.7451,25.12864,(02)24201762,羅氏家用新冠病毒抗原自我檢測套組,82,2022/05/04 14:57:02,即日起口罩販售時間由下午兩點開始，周日公休
5911041903,長虹藥師藥局,基隆市仁愛區仁三路８８號１樓,121.7419,25.12926,(02)24261318,羅氏家用新冠病毒抗原自我檢測套組,3,2022/05/04 14:57:02,無
5911041949,捷登藥局,基隆市仁愛區孝三路９２號１樓,121.7399,25.1309,(02)24237888,羅氏家用新冠病毒抗原自我檢測套組,78,2022/05/04 14:57:02,國定假日有提供藥事調劑服務
5911041958,百福仁愛專業藥局,基隆市仁愛區仁四路５０號１樓,121.7413,25.12829,(02)24266699,羅氏家用新冠病毒抗原自我檢測套組,76,2022/05/04 14:57:02,4／30起，早上8:00販售快篩
5911050153,隆泰藥局,基隆市中山區西定路１２號,121.7355,25.13184,(02)24225889,羅氏家用新冠病毒抗原自我檢測套組,50,2022/05/04 14:57:02,無
5911050162,錦泰藥局,基隆市中山區中山二路４３號,121.7405,25.13786,(02)24228523,羅氏家用新冠病毒抗原自我檢測套組,78,2022/05/04 14:57:02,快篩販賣時間星期一至五晚上7點，星期六，星期日下午5點
5911051365,大慶大藥局,基隆市中山區中和路１６８巷３弄２０號,121.717,25.14982,(02)24378640,羅氏家用新冠病毒抗原自我檢測套組,78,2022/05/04 14:57:02,無
5911051481,仁登藥局,基隆市中山區復興路１２２號,121.7262,25.14453,(02)24375789,羅氏家用新冠病毒抗原自我檢測套組,1,2022/05/04 14:57:02,無
5911051490,大哈密藥局,基隆市中山區中山二路５號,121.741,25.13678,(02)24285368,羅氏家用新冠病毒抗原自我檢測套組,76,2022/05/04 14:57:02,發放快篩時間 15:00開始，售完為止
5911051543,復興藥局,基隆市中山區復興路１２８、１３０、１３２、１３４號１、２樓,121.7262,25.1446,(02)24362566,羅氏家用新冠病毒抗原自我檢測套組,78,2022/05/04 14:57:02,快篩實名制，每天16:00開始販售，售完為止。
5911061272,立登藥局,基隆市安樂區麥金路１９７號１樓,121.7216,25.12079,(02)24334477,羅氏家用新冠病毒抗原自我檢測套組,78,2022/05/04 14:57:02,藥局快篩劑代售15:00開始販售 現場排隊
5911070011,信安藥局,基隆市信義區信二路９９號,121.7548,25.12912,(02)24238551,羅氏家用新冠病毒抗原自我檢測套組,78,2022/05/04 14:57:02,無
5911071590,基隆藥局,基隆市信義區東信路１６６、１６８號１、２樓,121.7646,25.12821,(02)24680955,羅氏家用新冠病毒抗原自我檢測套組,78,2022/05/04 14:57:02,快篩實名制，每天16:00開始販售，售完為止。
5911071607,家安藥師藥局,基隆市信義區信二路２５７、２５９號１樓,121.7478,25.1301,(02)24223917,羅氏家用新冠病毒抗原自我檢測套組,78,2022/05/04 14:57:02,星期一 ~ 星期六14:00開始銷售。
5912012979,哈佛藥局,新竹市東區北大路７２－１號,120.971,24.81178,(03)5326777,羅氏家用新冠病毒抗原自我檢測套組,51,2022/05/04 14:57:02,快篩販售時間：週一至周六14:50 週日08:00 請準備好不用找的錢 感謝
5912013341,康健藥局,新竹市東區中央路１２８－１號,120.9711,24.80687,(03)5359789,羅氏家用新冠病毒抗原自我檢測套組,78,2022/05/04 14:57:02,快篩販售時段: 早8:00-9:00 午13:00-14:00 晚17:00-18:00。當日若早上即售完，則下午晚上無販售。
5912013529,新莊藥局,新竹市東區光復路１段４７３號１樓,121.015,24.78421,(03)5634775,羅氏家用新冠病毒抗原自我檢測套組,78,2022/05/04 14:57:02,平日晚上10點
5912013547,佑全新竹光復藥局,新竹市東區仙水里光復路１段３５３號１樓,121.0176,24.78315,(03)6661826,羅氏家用新冠病毒抗原自我檢測套組,78,2022/05/04 14:57:02,（因快篩配送作業不及，5／4-5／5改為下午4點開賣，3:50發號碼牌。5／6開始恢復上午販售）上午9:30開賣，9:20發號碼牌
5912013565,合康連鎖藥局關新店,新竹市東區關新北路１６１號１樓,121.0204,24.78614,(03)5679666,羅氏家用新冠病毒抗原自我檢測套組,78,2022/05/04 14:57:02,快篩販售時間:17:00
5912013609,丁丁藥局,新竹市東區中華路二段９１號,120.9812,24.80794,(03)6117888,羅氏家用新冠病毒抗原自我檢測套組,1,2022/05/04 14:57:02,無
5912013627,合康連鎖藥局食品店,新竹市東區食品路１４０號１樓,120.977,24.79771,(03)5621111,羅氏家用新冠病毒抗原自我檢測套組,72,2022/05/04 14:57:02,實名快篩販售時間：下午17:00
5912013672,關東藥局,新竹市東區光復路１段３３２、３３４號１至２樓,121.0187,24.78289,(03)5777077,羅氏家用新冠病毒抗原自我檢測套組,78,2022/05/04 14:57:02,快篩實名制，每天16:00開始販售，售完為止。
5912013681,仁春藥局,新竹市東區慈濟路２５２號１樓,121.0153,24.79245,(03)6686718,羅氏家用新冠病毒抗原自我檢測套組,78,2022/05/04 14:57:02,5／4 實名制快篩 16:00開始販售
5912013690,佑全新竹食品藥局,新竹市東區食品路１７０號,120.9764,24.79735,(03)5627307,羅氏家用新冠病毒抗原自我檢測套組,61,2022/05/04 14:57:02,實名制快篩下午2點開賣1點40分發號碼牌實際庫存依物流到貨時間滾動式調整
5912040222,保健藥局,新竹市北區中山路１５３號１樓,120.9635,24.80324,(03)5242088,羅氏家用新冠病毒抗原自我檢測套組,13,2022/05/04 14:57:02,快篩販賣時段：下午2:00現場排隊至售完為止。
5912042173,保安藥局,新竹市北區西大路617號,120.9588,24.80991,(03)5258636,羅氏家用新冠病毒抗原自我檢測套組,38,2022/05/04 14:57:02,快篩販售時間:下午3:00起至售完為止
5912042422,幼能健保藥局,新竹市北區竹光路１０８號１樓,120.9592,24.8133,(03)5339750,羅氏家用新冠病毒抗原自我檢測套組,156,2022/05/04 14:57:02,快篩實際販售時間 下午3點
5912042520,盛安藥局,新竹市北區育英里３鄰中山路２８１號,120.9603,24.8012,(03)5225668,羅氏家用新冠病毒抗原自我檢測套組,1,2022/05/04 14:57:02,12:40開始販售快篩劑，國定假日與星期日休息
5912042664,永沛藥局,新竹市北區湳雅街２０９號,120.9741,24.82093,(03)5328563,羅氏家用新冠病毒抗原自我檢測套組,78,2022/05/04 14:57:02,快篩開賣時間平日15:00  PS:請自帶一張500鈔票，不收其他面額
5912042815,合康連鎖藥局西大店,新竹市北區西大路６３６、６３８號１樓,120.9585,24.8101,(03)5233111,羅氏家用新冠病毒抗原自我檢測套組,78,2022/05/04 14:57:02,17:00
5912042940,新竹北門藥局,新竹市北區中正路３６０、３６２號１樓,120.9629,24.81414,(03)5333234,羅氏家用新冠病毒抗原自我檢測套組,78,2022/05/04 14:57:02,無
5912051350,高晟藥師藥局,新竹市香山區大庄路59號,120.9279,24.78964,(03)5306645,羅氏家用新冠病毒抗原自我檢測套組,4,2022/05/04 14:57:02,下午2點銷售快篩
5912051430,三姓藥局,新竹市香山區中華路四段５７６號１、２樓,120.9297,24.78886,(03)5385886,羅氏家用新冠病毒抗原自我檢測套組,78,2022/05/04 14:57:02,快篩實名制，每天16:00開始販售，售完為止。
5917011934,一安堂藥局,臺中市中區臺灣大道一段２０號１樓,120.6847,24.13819,(04)22259616,羅氏家用新冠病毒抗原自我檢測套組,13,2022/05/04 14:57:02,14:00開始領取實名制快篩劑
5917020060,來安藥局,臺中市東區十甲東路４８８號１樓,120.7073,24.13824,(04)22116977,羅氏家用新冠病毒抗原自我檢測套組,14,2022/05/04 14:57:02,發快篩時間早上8點
5917020211,何藥局,臺中市東區精武路１８０號１樓,120.691,24.14765,(04)23605435,羅氏家用新冠病毒抗原自我檢測套組,78,2022/05/04 14:57:02,快篩下午4:00開始販售，現場排隊，直接販售，售完為止。
5917021656,仁康中西藥局,臺中市東區振興路４３９號１樓,120.7055,24.13032,(04)22151232,羅氏家用新冠病毒抗原自我檢測套組,98,2022/05/04 14:57:02,周一至周六，早上8:30發放號碼牌並開始販售.（販售至中午12:00止）
5917030146,新永富藥局,臺中市西區吉龍里美村路一段６７０號,120.6615,24.13555,(04)23766127,羅氏家用新冠病毒抗原自我檢測套組,78,2022/05/04 14:57:02,每日 晚上21:00 販售..健保卡實名制快篩 請自備500元／份
5917030646,華隆藥局,臺中市西區樂群街６之２號,120.6735,24.14025,(04)22243785,羅氏家用新冠病毒抗原自我檢測套組,41,2022/05/04 14:57:02,上午10:00開始販售快篩試劑，售完為止
5917030995,麗新健保大藥局,臺中市西區向上路一段１６２號,120.6612,24.1469,(04)23017100,羅氏家用新冠病毒抗原自我檢測套組,64,2022/05/04 14:57:02,週一至週日下午15:00至售完為止
5917032293,祥鶴大藥局,臺中市西區美村路一段六七三號一樓,120.6618,24.13561,(04)23710969,羅氏家用新冠病毒抗原自我檢測套組,64,2022/05/04 14:57:02,固定周一至周日早上８：００售快篩至售完
5917032382,中港大藥局,臺中市西區臺灣大道２段１３２號,120.6714,24.14995,(04)22080708,羅氏家用新冠病毒抗原自我檢測套組,27,2022/05/04 14:57:02,無
5917032613,向日睽藥局,臺中市西區林森路９８－２號１樓,120.6707,24.1379,(04)23731893,羅氏家用新冠病毒抗原自我檢測套組,151,2022/05/04 14:57:02,無
5917032800,壹藥局,臺中市西區美村路１段７７５號１樓,120.6618,24.13306,(04)23721998,羅氏家用新冠病毒抗原自我檢測套組,50,2022/05/04 14:57:02,星期一到星期日每天下午二點開始販售快篩試劑售完為止謝謝
5917040106,侑民藥局,臺中市南區興大路３９６巷４９號１樓,120.6712,24.11564,(04)22860146,羅氏家用新冠病毒抗原自我檢測套組,1,2022/05/04 14:57:02,週一至週日上午9點販賣防疫快篩試劑
5917040393,鴻儀大藥局,臺中市南區樹義里大慶街二段３－４號,120.6528,24.11405,(04)22611769,羅氏家用新冠病毒抗原自我檢測套組,121,2022/05/04 14:57:02,周一至周六下午13:00開始販售實名制快篩試劑，現場發放號碼牌，當日售完為止，星期日公休
5917050719,百鴻藥局,臺中市北區金龍里北屯路１３－１號,120.6914,24.15981,(04)22336330,羅氏家用新冠病毒抗原自我檢測套組,78,2022/05/04 14:57:02,固定周一至周五10.00--16.00 17.00--21.00開始販售口罩售完為止
5917050933,英才藥局,臺中市北區英才路２２９號,120.674,24.15558,(04)22012325,羅氏家用新冠病毒抗原自我檢測套組,112,2022/05/04 14:57:02,上午9~10:30及下午5~6:30依序發售口罩，週日公休。
5917052713,展弘藥局,臺中市北區漢口路４段３８０號,120.6841,24.16684,(04)22307388,羅氏家用新冠病毒抗原自我檢測套組,11,2022/05/04 14:57:02,實名制快篩每天8:30開始售完為止，星期日配合快篩配送而定
5917053550,嘉樂藥局,臺中市北區西屯路一段３５１－７號,120.6658,24.15956,(04)23263967,羅氏家用新冠病毒抗原自我檢測套組,106,2022/05/04 14:57:02,星期一~五8.30~12.30，14.00~21.30，星期六8.30-12.30
5917053649,博森藥局,臺中市北區健行路４９３號,120.6778,24.15905,(04)22068589,羅氏家用新冠病毒抗原自我檢測套組,41,2022/05/04 14:57:02,固定週一到週六，下午2:00到下午4:00以現場排隊方式販售防疫家用快篩。
5917060322,瑞康藥局,臺中市西屯區長安路二段２號１樓,120.6612,24.1724,(04)22914046,羅氏家用新冠病毒抗原自我檢測套組,147,2022/05/04 14:57:02,營業時間8:30~21:30 （家用快篩，酒精及防疫口罩）
5917063403,逢甲藥局,臺中市西屯區逢甲路１６２－１號１樓,120.6425,24.17809,(04)27085922,羅氏家用新冠病毒抗原自我檢測套組,39,2022/05/04 14:57:02,5／4快篩未到貨，早上請勿排隊
5917063725,永旭大藥局,臺中市西屯區逢甲路９２號１樓,120.6439,24.17883,(04)27087952,羅氏家用新冠病毒抗原自我檢測套組,78,2022/05/04 14:57:02,5／4 快篩將於15:00開始販售
5917070355,承諭藥局,臺中市南屯區黎明路２段１９９號,120.636,24.14698,(04)23849128,羅氏家用新冠病毒抗原自我檢測套組,78,2022/05/04 14:57:02,快篩實名制周一、二、四、五下午1:30；周三、六晚上7:00 ； 週日下午4:00
5917070659,德安藥局,臺中市南屯區文山里忠勇路１１５－６號１樓,120.6157,24.15096,(04)23894920,羅氏家用新冠病毒抗原自我檢測套組,42,2022/05/04 14:57:02,快篩實名制：週一至週六，下午1點販賣 （限量78份）
5917071996,乾生大藥局,臺中市南屯區大業路９５號,120.6524,24.15336,(04)23281277,羅氏家用新冠病毒抗原自我檢測套組,2,2022/05/04 14:57:02,010:30
5917072251,五六藥局,臺中市南屯區南屯路２段２４０號,120.6493,24.13696,(04)24757156,羅氏家用新冠病毒抗原自我檢測套組,78,2022/05/04 14:57:02,5／4 快篩下午 16 : 00 開始販售， 售完為止. （不發號碼牌）
5917072577,睦林藥局,臺中市南屯區黎明路一段１１５５號,120.6381,24.14089,(04)23818218,羅氏家用新冠病毒抗原自我檢測套組,16,2022/05/04 14:57:02,快篩銷售時間：8:00至22:00，售完為止
5917072644,全成藥局,臺中市南屯區大墩６街２２３號,120.6464,24.14254,(04)24712897,羅氏家用新冠病毒抗原自我檢測套組,78,2022/05/04 14:57:02,實名制快篩每日15:00開始販售-售完為止（庫存以現場為主）
5917072724,百芳大藥局,臺中市南屯區向上路二段４２１號,120.6377,24.1469,(04)23818307,羅氏家用新冠病毒抗原自我檢測套組,81,2022/05/04 14:57:02,周一到周六，晚上7:00開始販賣快篩，不發號碼牌。
5917080342,弘光藥局,臺中市北屯區太原路三段４５８號１樓,120.6951,24.16476,(04)22342999,羅氏家用新冠病毒抗原自我檢測套組,78,2022/05/04 14:57:02,早上7:30開始販賣防疫口罩（全年無休）
5917080379,大元藥局,臺中市北屯區北屯里昌平路一段２３號,120.6937,24.16657,(04)22357722,羅氏家用新冠病毒抗原自我檢測套組,78,2022/05/04 14:57:02,週一至週六每天晚上18:00至20:00販售快篩劑，週日晚上快篩劑不確定時間販售
5917080762,順泰大藥局,臺中市北屯區北屯村北屯路１１５號,120.6939,24.165,(04)22341477,羅氏家用新冠病毒抗原自我檢測套組,156,2022/05/04 14:57:02,周三及周日公休，其餘時間每日上午9:00開賣，不需發號碼牌
5917082659,信誼藥局,臺中市北屯區瀋陽路二段３１號１樓,120.6808,24.17398,(04)22478695,羅氏家用新冠病毒抗原自我檢測套組,156,2022/05/04 14:57:02,週一~週五全日上班時段，週六上午9:00-12:00販售口罩，周日公休。
5917083254,建祐藥局,臺中市北屯區太原路三段２６１號,120.6932,24.16505,(04)22389809,羅氏家用新冠病毒抗原自我檢測套組,77,2022/05/04 14:57:02,無
5921010072,統一藥局,臺南市東區中西里東門路１段２９１號,120.2186,22.98683,(06)2376638,羅氏家用新冠病毒抗原自我檢測套組,14,2022/05/04 14:57:02,早上9點到晚間9點半  星期日休假
5921012085,台安藥局,臺南市東區大同路一段１６３號,120.2113,22.98503,(06)2150011,羅氏家用新冠病毒抗原自我檢測套組,73,2022/05/04 14:57:02,快篩下午四點開始銷售
5921012870,麗生藥師藥局,臺南市東區崇德路５６５號,120.2276,22.97294,(06)3356868,羅氏家用新冠病毒抗原自我檢測套組,98,2022/05/04 14:57:02,快篩實名制販售時間14:30-16:00
5921013206,和德藥局,臺南市東區崇德路４９７號,120.2272,22.97435,(06)2882789,羅氏家用新冠病毒抗原自我檢測套組,15,2022/05/04 14:57:02,實名制快篩試劑販售時間14:30~17:00，開賣前10分鐘發號碼牌，售完即止
5921020096,豐陽藥局,臺南市南區文南里文南路１１５號,120.1898,22.98481,(06)2610628,羅氏家用新冠病毒抗原自我檢測套組,77,2022/05/04 14:57:02,週一至週日08:00 開始營業及販售防疫快篩試劑，售完為止.
5921020112,裕仁藥局,臺南市南區新興里新興路１９４號１樓,120.1936,22.97731,(06)2614263,羅氏家用新冠病毒抗原自我檢測套組,78,2022/05/04 14:57:02,實名制快篩週一到週六13:00起依序發號碼牌售完為止，5／4的快篩完售，實際庫存數應扣減5／1未收數量78份，週日店休。
5921020185,安心藥局,臺南市南區喜東里喜樹路１５１巷３３號,120.18,22.94099,(06)2622570,羅氏家用新冠病毒抗原自我檢測套組,78,2022/05/04 14:57:02,5月四日已經售完  庫存數字不正確
5921030298,銘豐藥局,臺南市中西區西賢一街４５號１樓,120.1776,23.00011,(06)2592517,羅氏家用新冠病毒抗原自我檢測套組,78,2022/05/04 14:57:02,星期一-日09:00-22:00.快篩實名制每日下午3點開始販售，發號碼牌.
5921040623,惠光藥局,臺南市北區文亢里文賢路２３６號,120.1938,23.0042,(06)2586316,羅氏家用新冠病毒抗原自我檢測套組,78,2022/05/04 14:57:02,快篩代售:5／4已到，下午4:00販售，星期日公休
5921040749,玖大藥局,臺南市北區勝利路３８３號,120.2187,23.00397,(06)2752048,羅氏家用新冠病毒抗原自我檢測套組,156,2022/05/04 14:57:02,快篩販售時間:星期一~五早上10:00-12:00
5921051582,丞功藥局,臺南市中西區成功路３１號,120.2095,22.99747,(06)2287641,羅氏家用新冠病毒抗原自我檢測套組,78,2022/05/04 14:57:02,星期一-六08:00-售完
5922010361,壽生堂藥局,嘉義市東區府路里延平街２８０號,120.4502,23.47683,(05)2225058,羅氏家用新冠病毒抗原自我檢測套組,20,2022/05/04 14:57:02,周一至周日上午09:00起，至20:00或售鑿為止。
5922010441,穎川保健藥局,嘉義市東區仁武里中山路２０４號,120.4517,23.48096,(05)2223609,羅氏家用新冠病毒抗原自我檢測套組,2,2022/05/04 14:57:02,固定周一到周日07:00開始快篩賣
5922010736,全民藥局,嘉義市東區新店里林森東路２８９ 號,120.4665,23.49007,(05)2777900,羅氏家用新冠病毒抗原自我檢測套組,78,2022/05/04 14:57:02,防疫口罩：週一至週六，早上9點，開始販售口罩。
5922010754,松柏藥局,嘉義市東區東平里民權路８７號,120.4618,23.48392,(05)2780909,羅氏家用新冠病毒抗原自我檢測套組,156,2022/05/04 14:57:02,防疫口罩及實名制快篩試劑於週一至週六，每日下午4:30開始販售，售完為止。
5922011966,源豪藥局,嘉義市東區光華路８２號,120.4529,23.4782,(05)2169696,羅氏家用新冠病毒抗原自我檢測套組,145,2022/05/04 14:57:02,周一至周六，售鑿為止。周日休
5922012285,聖安藥局,嘉義市東區仁武里民權路３６５號１樓,120.4506,23.48235,(05)2222941,羅氏家用新冠病毒抗原自我檢測套組,3,2022/05/04 14:57:02,每日8:30開始發放，每週四休息.
5922012392,維康藥局,嘉義市東區短竹里大雅路二段５６７號１樓,120.4663,23.47685,(05)2757663,羅氏家用新冠病毒抗原自我檢測套組,213,2022/05/04 14:57:02,＜領購快篩＞ 星期一  ~ 星期五 下午 2:00~5:00 。假日國定假日停售。
5922012874,德風藥局,嘉義市東區仁義里台林街１０８－４號１樓,120.4547,23.49514,(05)2716233,羅氏家用新冠病毒抗原自我檢測套組,78,2022/05/04 14:57:02,無
5922012909,昱安藥局,嘉義市東區成仁街１８０號,120.4521,23.48057,(05)2252395,羅氏家用新冠病毒抗原自我檢測套組,188,2022/05/04 14:57:02,購買時段星期（一）至（六）下午2:30-4:30
5922012945,大明藥局,嘉義市東區大雅路二段６８２號,120.4663,23.47719,(05)2760958,羅氏家用新冠病毒抗原自我檢測套組,17,2022/05/04 14:57:02,5／4今日號碼牌以發完畢。
5922012972,百佑藥局,嘉義市東區公明路８２號１樓,120.4602,23.48088,(05)2757387,羅氏家用新冠病毒抗原自我檢測套組,78,2022/05/04 14:57:02,固定周一至周六08:30開始發放號碼牌並依序販售，售完為止
5922013068,佑全嘉義吳鳳南藥局,嘉義市東區吳鳳南路５８５、５８７號,120.459,23.45639,(05)2399311,羅氏家用新冠病毒抗原自我檢測套組,16,2022/05/04 14:57:02,領取快篩14:00
5922013102,後庄藥局,嘉義市東區吳鳳南路６４９號,120.4594,23.45511,(05)2391233,羅氏家用新冠病毒抗原自我檢測套組,78,2022/05/04 14:57:02,快篩實名制，每天16:00開始販售，售完為止。
5922013148,後庄弘安藥局,嘉義市東區吳鳳南路２９８號１樓,120.4587,23.4566,(05)2305678,羅氏家用新冠病毒抗原自我檢測套組,19,2022/05/04 14:57:02,無
5922013184,軍輝啄木鳥藥局,嘉義市東區軍輝路２２２號,120.4588,23.455,(05)2395963,羅氏家用新冠病毒抗原自我檢測套組,78,2022/05/04 14:57:02,週一~日下午4:00開始
5922013193,民權藥局,嘉義市東區民權路１５５號１樓、１５７號１樓,120.4604,23.48374,(05)2775322,羅氏家用新冠病毒抗原自我檢測套組,78,2022/05/04 14:57:02,快篩實名制，每天16:00開始販售，售完為止。
5922020303,新宏祥藥局,嘉義市西區湖內里民生南路５７４號,120.4427,23.45504,(05)2355588,羅氏家用新冠病毒抗原自我檢測套組,21,2022/05/04 14:57:02,羅氏家用快篩:每日早上8點開始販售.售完為止
5922020509,全德藥局,嘉義市西區福民里興業西路２８９號,120.4392,23.46776,(05)2854263,羅氏家用新冠病毒抗原自我檢測套組,54,2022/05/04 14:57:02,營業時間請電話洽詢  販售：19 :30~20:30
5922020518,永安藥局,嘉義市西區西平里信義路４９之１號,120.4344,23.47431,(05)2358368,羅氏家用新冠病毒抗原自我檢測套組,1,2022/05/04 14:57:02,口罩：星期一至星期日9點販售，售完為止，現場排隊
5922020563,信康藥局,嘉義市西區翠岱里仁愛路２２６號,120.443,23.46984,(05)2161680,羅氏家用新冠病毒抗原自我檢測套組,78,2022/05/04 14:57:02,快篩星期一至星期五早上11:00開賣 星期六下午14:00開賣
5922020581,杏安藥局,嘉義市西區書院里民族路７８６號,120.4409,23.47535,(05)2271727,羅氏家用新冠病毒抗原自我檢測套組,5,2022/05/04 14:57:02,無
5922020634,利安藥局,嘉義市西區番社里中山路３４４號１樓,120.4473,23.47984,(05)2225756,羅氏家用新冠病毒抗原自我檢測套組,42,2022/05/04 14:57:02,無
5922020652,四維啄木鳥藥局,嘉義市西區德安路１６０號,120.4284,23.48403,(05)2810598,羅氏家用新冠病毒抗原自我檢測套組,27,2022/05/04 14:57:02,口罩：每天8:15，現場排隊
5922020769,安麗藥師藥局,嘉義市西區車店里廣州街２０６號,120.4302,23.46519,(05)2352395,羅氏家用新冠病毒抗原自我檢測套組,96,2022/05/04 14:57:02,快篩試劑販售時間上午9點~11點，下午2點~3:00點；六.日休息。
5922020812,海鴻藥師藥局,嘉義市西區民生南路５５２號,120.4433,23.45878,(05)2837758,羅氏家用新冠病毒抗原自我檢測套組,120,2022/05/04 14:57:02,固定每日上午8 : 00 直接排隊發放
5922020821,明興藥局,嘉義市西區仁愛路２４７號１樓,120.4425,23.47149,(05)2365938,羅氏家用新冠病毒抗原自我檢測套組,21,2022/05/04 14:57:02,快篩 周一至周六下午2點開賣  週日無
5922020858,大統藥局,嘉義市西區慶安里北興街１３６號,120.4421,23.48389,(05)2330230,羅氏家用新冠病毒抗原自我檢測套組,36,2022/05/04 14:57:02,5／4日預約已滿.有預約的民眾請於14:00點後領取
5922020867,庭一藥局,嘉義市西區文化路４４２號,120.4468,23.48856,(05)2325900,羅氏家用新冠病毒抗原自我檢測套組,36,2022/05/04 14:57:02,營業時間:周一至周六，0845-2045，周日及國定假日休假，貨到清點無誤後就開賣（電話故障，請多包涵）
5922020894,平良藥局,嘉義市西區致遠里興業西路８４號１樓,120.4443,23.46856,(05)2235220,羅氏家用新冠病毒抗原自我檢測套組,46,2022/05/04 14:57:02,休息時間:12點-下午3點
5922020974,嚴昔志藥局,嘉義市西區新民路７８５號１樓,120.4396,23.4706,(05)2853991,羅氏家用新冠病毒抗原自我檢測套組,78,2022/05/04 14:57:02,無
5922020983,睿安藥局,嘉義市西區八德路２７８號１樓,120.4303,23.49014,(05)2910678,羅氏家用新冠病毒抗原自我檢測套組,128,2022/05/04 14:57:02,快篩下午2:30開始販售 賣完為止 周日休息
5922020992,昭安藥局,嘉義市西區民生南路４７９號１樓,120.4437,23.45821,(05)2842240,羅氏家用新冠病毒抗原自我檢測套組,10,2022/05/04 14:57:02,無
5922021006,竹圍藥局,嘉義市西區友愛路２７０、２７２號,120.4339,23.4837,(05)2811233,羅氏家用新冠病毒抗原自我檢測套組,78,2022/05/04 14:57:02,快篩實名制，每天16:00開始販售，售完為止。
5922021024,理維藥局,嘉義市西區民生南路４０９號１樓,120.4436,23.45979,(05)2831110,羅氏家用新冠病毒抗原自我檢測套組,21,2022/05/04 14:57:02,5／4（三）13:30開賣。公費快篩到貨以及販售時間會於臉書粉絲團及LINE群組公告。（自費快篩限購）
5922028596,一安藥局,嘉義市西區福民里興業西路３１１號,120.4387,23.4677,(05)2859275,羅氏家用新冠病毒抗原自我檢測套組,44,2022/05/04 14:57:02,周一至周日早上9點至晚上10點半依發放號碼排依序售完
592202A349,力健藥局,嘉義市西區文化路５９１號,120.4443,23.49355,(05)2323217,羅氏家用新冠病毒抗原自我檢測套組,34,2022/05/04 14:57:02,營業時間為早上8:00至中午13:00，下午2:30至晚上9:30，口罩發放從早上8:30至售完為止
5931010235,友祥藥局,新北市板橋區裕民街１０７號,121.4599,25.02773,(02)22544666,羅氏家用新冠病毒抗原自我檢測套組,2,2022/05/04 14:57:02,無
5931010397,正成藥師藥局,新北市板橋區三民路２段１５４巷７號,121.4787,25.01515,(02)29512760,羅氏家用新冠病毒抗原自我檢測套組,78,2022/05/04 14:57:02,無
5931011161,全國藥局,新北市板橋區四川路１段２３１號,121.4601,25.00297,(02)29511212,羅氏家用新冠病毒抗原自我檢測套組,2,2022/05/04 14:57:02,健保快篩發放時間:星期一到星期六下午2點發放號碼牌~歡迎大家來領喔!
5931011447,日生大藥局,新北市板橋區中正路１巷１６弄１６號,121.4551,25.01209,(02)29675261,羅氏家用新冠病毒抗原自我檢測套組,78,2022/05/04 14:57:02,快篩試劑販售時間:週一至週六14:00-20:30  售完為止，周日休假
5931011947,長弘藥局,新北市板橋區龍泉街１１０號,121.4568,25.02454,(02)22558789,羅氏家用新冠病毒抗原自我檢測套組,156,2022/05/04 14:57:02,無
5931013781,佳和藥局,新北市板橋區文化路１段３８７巷５號１樓,121.4667,25.02193,(02)22589598,羅氏家用新冠病毒抗原自我檢測套組,15,2022/05/04 14:57:02,快篩5／4未到貨  改早上11:00 下午3:00販售-週日休
5931014224,大峰藥局,新北市板橋區莒光路１６８號１樓,121.4741,25.02314,(02)22510338,羅氏家用新冠病毒抗原自我檢測套組,1,2022/05/04 14:57:02,AM8:00起發放防疫口罩
5931014555,廣益藥局,新北市板橋區自由路２１號,121.4654,25.02296,(02)22545726,羅氏家用新冠病毒抗原自我檢測套組,78,2022/05/04 14:57:02,無
5931014635,健全藥局,新北市板橋區實踐路１２５號１樓,121.4642,25.00488,(02)89533330,羅氏家用新冠病毒抗原自我檢測套組,78,2022/05/04 14:57:02,無
5931015187,皇慶藥局,新北市板橋區南門街８１、８３號１、２樓及館前西路１１２巷７號,121.4568,25.0077,(02)29655351,羅氏家用新冠病毒抗原自我檢測套組,78,2022/05/04 14:57:02,實名防疫快篩號碼牌發放時間自15:00
5931015605,僑中藥師藥局,新北市板橋區僑中１街１０２巷５弄１５號１樓,121.4439,25.01262,(02)29692547,羅氏家用新冠病毒抗原自我檢測套組,78,2022/05/04 14:57:02,無
5931015687,正康健保藥局,新北市板橋區大觀路２段６５號１樓,121.4467,25.00246,(02)22756681,羅氏家用新冠病毒抗原自我檢測套組,78,2022/05/04 14:57:02,下午13:30依現場順序開始販售快篩，快篩配送絮亂庫存不準!!
5931015749,品品藥局,新北市板橋區中山路２段４０２號〈１樓〉,121.4827,25.02073,(02)29647917,羅氏家用新冠病毒抗原自我檢測套組,156,2022/05/04 14:57:02,星期六9:30-15:30.連假上班9:30-15:30（半天）快篩每日下午4點發.
5931016577,廣泰藥師藥局,新北市板橋區館前西路１５０號１樓,121.4556,25.00843,(02)89698381,羅氏家用新冠病毒抗原自我檢測套組,51,2022/05/04 14:57:02,無
5931016611,民川藥局,新北市板橋區四川路１段９７號１樓,121.4598,25.00544,(02)29520090,羅氏家用新冠病毒抗原自我檢測套組,150,2022/05/04 14:57:02,星期一~星期六（快篩下午3:00販售）
5931016808,正安健保藥局,新北市板橋區民族路２２４號（１樓）,121.4687,25.00733,(02)29526813,羅氏家用新冠病毒抗原自我檢測套組,154,2022/05/04 14:57:02,17時依現場順序開始販售.週六12點.電腦配送庫存不準..以現場數量為準
5931016924,裕苠藥局,新北市板橋區裕民街６號,121.4624,25.02921,(02)22535227,羅氏家用新冠病毒抗原自我檢測套組,78,2022/05/04 14:57:02,春節期間看診時段請電洽
5931017010,醫安藥局,新北市板橋區南雅南路１段１１號１樓及２樓,121.4565,25.00706,(02)29692588,羅氏家用新冠病毒抗原自我檢測套組,70,2022/05/04 14:57:02,全年無休，下午3點開始販售，依現場排隊為主
5931017047,永欣藥師藥局,新北市板橋區龍興街４６號１樓,121.4433,25.00094,(02)29687120,羅氏家用新冠病毒抗原自我檢測套組,74,2022/05/04 14:57:02,無
5931017056,迦佰麗藥局,新北市板橋區南雅南路２段１１－２４號（１樓）,121.454,25.00184,(02)29648498,羅氏家用新冠病毒抗原自我檢測套組,68,2022/05/04 14:57:02,營業時間10:00-22:30 實名制快篩每日15:00開賣（星期日休息）
5931017289,板橋大樹藥局,新北市板橋區忠孝路２８號（１樓）,121.4603,25.00176,(02)29555551,羅氏家用新冠病毒抗原自我檢測套組,78,2022/05/04 14:57:02,快篩實名制，每天16:00開始販售，售完為止。
5931017341,台安藥局,新北市板橋區中正路２０４號１樓、２樓、３樓,121.4561,25.01804,(02)29663600,羅氏家用新冠病毒抗原自我檢測套組,9,2022/05/04 14:57:02,無
5931017403,光澤醫美藥局,新北市板橋區四川路１段２１號（１樓）,121.4595,25.00689,(02)29551215,羅氏家用新冠病毒抗原自我檢測套組,156,2022/05/04 14:57:02,無
5931017618,新埔健保藥局,新北市板橋區自由路２號１樓,121.4654,25.02222,(02)22558878,羅氏家用新冠病毒抗原自我檢測套組,39,2022/05/04 14:57:02,無
5931017636,福澤藥局,新北市板橋區南雅南路１段８５號（１樓）,121.4556,25.00543,(02)29690013,羅氏家用新冠病毒抗原自我檢測套組,19,2022/05/04 14:57:02,口罩代售9:00-23:00
5931017752,泓泰藥局,新北市板橋區館前西路１４０號２樓,121.4563,25.0081,(02)29686559,羅氏家用新冠病毒抗原自我檢測套組,121,2022/05/04 14:57:02,無
5931017770,光環藥局,新北市板橋區光環路２段１６號１樓,121.4822,25.01476,(02)89520920,羅氏家用新冠病毒抗原自我檢測套組,43,2022/05/04 14:57:02,無
5931017789,明翠藥局,新北市板橋區四維路１４６、１４８號１、２樓,121.4651,25.02555,(02)22550201,羅氏家用新冠病毒抗原自我檢測套組,78,2022/05/04 14:57:02,快篩實名制，每天16:00開始販售，售完為止。
5931017805,利安藥師藥局,新北市板橋區南雅西路２段１１７號１樓、１１９號１樓,121.4524,25.01085,(02)29666951,羅氏家用新冠病毒抗原自我檢測套組,78,2022/05/04 14:57:02,快篩每日下午三點依現場順序販售，售完為止
5931017832,躍獅莒光藥局,新北市板橋區莒光路５８號１樓,121.4709,25.02421,(02)22556743,羅氏家用新冠病毒抗原自我檢測套組,156,2022/05/04 14:57:02,實名制快篩5／4下午2點50發號碼牌，每日78份
5931017841,莊敬健康人生藥局,新北市板橋區莊敬路８７號１樓,121.4728,25.02645,(02)22570028,羅氏家用新冠病毒抗原自我檢測套組,45,2022/05/04 14:57:02,實名快篩下午2:30發放號碼牌及販售，營業時間10:00-21:00
5931017869,躍獅國慶藥局,新北市板橋區國慶路１７９號（１樓）,121.4626,24.99636,(02)29641548,羅氏家用新冠病毒抗原自我檢測套組,156,2022/05/04 14:57:02,快篩實名制，每天14:00開始販售，售完為止
5931017985,松柏藥局,新北市板橋區松柏街９４號（１樓）,121.4767,25.03065,(02)82585223,羅氏家用新冠病毒抗原自我檢測套組,78,2022/05/04 14:57:02,快篩實名制，每天16:00開始販售，售完為止。
5931018026,莊敬藥局,新北市板橋區莊敬路１６３號（１樓）,121.4715,25.02456,(02)22551105,羅氏家用新冠病毒抗原自我檢測套組,78,2022/05/04 14:57:02,快篩實名制，每天16:00開始販售，售完為止。
5931018053,廣福健保藥局,新北市板橋區三民路１段７６號（１樓）,121.4793,25.02207,(02)29544288,羅氏家用新冠病毒抗原自我檢測套組,78,2022/05/04 14:57:02,實名制快篩每日下午16:00開始販售
5931018099,廣品藥局,新北市板橋區漢生西路８２號（１樓）,121.4628,25.01934,(02)22576880,羅氏家用新冠病毒抗原自我檢測套組,78,2022/05/04 14:57:02,實名制快篩 周一~周五下午16；00發放 週六.日 早上09；30發放 請勿打電話詢問 感謝配合
5931018115,振昌藥局,新北市板橋區溪崑二街１４號１樓,121.4288,24.99175,(02)26862119,羅氏家用新冠病毒抗原自我檢測套組,63,2022/05/04 14:57:02,快篩實名制14:50發放號碼牌，15:00開始憑號碼牌販售
5931018142,重慶藥局,新北市板橋區國慶路１２７號（１樓）,121.4608,24.99602,(02)29565586,羅氏家用新冠病毒抗原自我檢測套組,78,2022/05/04 14:57:02,快篩實名制，每天16:00開始販售，售完為止。
5931020044,唯安藥局,新北市三重區五華街１３０號,121.4916,25.08358,(02)29875750,羅氏家用新冠病毒抗原自我檢測套組,70,2022/05/04 14:57:02,無
5931020446,玉美藥局,新北市三重區力行路２段１３６巷４９弄２號,121.4793,25.07519,(02)22879836,羅氏家用新冠病毒抗原自我檢測套組,78,2022/05/04 14:57:02,實名制快篩販售時間:5／4下午5點   ** 沒有預先發號碼牌，現場販售.**
5931021023,義中藥局,新北市三重區大同北路１０７號,121.4942,25.06421,(02)29815088,羅氏家用新冠病毒抗原自我檢測套組,34,2022/05/04 14:57:02,無
5931021372,福昌大藥局,新北市三重區溪尾街２０５號,121.4886,25.08081,(02)29714069,羅氏家用新冠病毒抗原自我檢測套組,78,2022/05/04 14:57:02,口罩販賣時間上午9點至晚上11點
5931021532,龍門藥局,新北市三重區龍門路１８９號,121.4996,25.07322,(02)29756141,羅氏家用新冠病毒抗原自我檢測套組,118,2022/05/04 14:57:02,實名制快篩販售時間~星期一至星期六下午3點
5931023447,安泰藥局,新北市三重區正義北路３００－３號２樓,121.4953,25.06978,(02)89815379,羅氏家用新冠病毒抗原自我檢測套組,147,2022/05/04 14:57:02,5／2只有早上8:30--12:00營業下午.及晚上休息
5931023858,開元藥局,新北市三重區正義北路３２４號２樓,121.4949,25.07039,(02)29873976,羅氏家用新冠病毒抗原自我檢測套組,65,2022/05/04 14:57:02,無
5931024695,仁華藥局,新北市三重區五華街７３－１號１樓,121.4924,25.08295,(02)29806161,羅氏家用新冠病毒抗原自我檢測套組,78,2022/05/04 14:57:02,最近快篩到貨時間不固定 發放時間也不固定
5931024971,欽勝藥局,新北市三重區重陽路４段６號２樓,121.4906,25.06894,(02)29857389,羅氏家用新冠病毒抗原自我檢測套組,78,2022/05/04 14:57:02,無
5931025398,昌誠藥局,新北市三重區三和路４段１６１號１樓,121.4835,25.0785,(02)22876338,羅氏家用新冠病毒抗原自我檢測套組,161,2022/05/04 14:57:02,5／2 （休診）
5931025567,閎安藥局,新北市三重區重新路２段８５號１樓、２樓,121.4962,25.06181,(02)29881968,羅氏家用新冠病毒抗原自我檢測套組,85,2022/05/04 14:57:02,每日皆執行調劑業務，快篩代售時間每日下午三點發號碼牌並領取
5931025610,大樹三重藥局,新北市三重區正義北路６６號１樓,121.4972,25.06415,(02)29713188,羅氏家用新冠病毒抗原自我檢測套組,78,2022/05/04 14:57:02,口罩販售時間：14:00 - 16:00
5931025914,仁美藥局,新北市三重區慈愛街５１號１、２樓,121.4861,25.07908,(02)22805150,羅氏家用新冠病毒抗原自我檢測套組,78,2022/05/04 14:57:02,快篩實名制，每天16:00開始販售，售完為止。
5931025932,永吉藥局,新北市三重區車路頭街９１號１樓,121.4844,25.07422,(02)22860432,羅氏家用新冠病毒抗原自我檢測套組,78,2022/05/04 14:57:02,快篩實名制，每天16:00開始販售，售完為止。
5931025969,躍獅欣欣藥局,新北市三重區正義北路２３３號１樓,121.496,25.06915,(02)29816955,羅氏家用新冠病毒抗原自我檢測套組,78,2022/05/04 14:57:02,16:00開始販售，15:50發號碼牌，離開視同放棄。
5931025987,忠孝德榮藥局,新北市三重區忠孝路２段９７號１樓,121.4842,25.07005,(02)29800297,羅氏家用新冠病毒抗原自我檢測套組,156,2022/05/04 14:57:02,庫存須扣除未到貨78盒*實名制快篩* 週一至週日晚間19:00開始代售. 週六&周日中午12:00開始營業
5931026064,五華春天生活藥局,新北市三重區五華街７３號１、２樓,121.4925,25.08291,(02)29876838,羅氏家用新冠病毒抗原自我檢測套組,78,2022/05/04 14:57:02,快篩代售時間：週一至週日15：00，現場排隊購買，售完為止。（物流配送不及則例外，以門市公告為主）
5931026073,重陽藥局,新北市三重區重陽路４段３６、３８號１樓,121.4913,25.06975,(02)29880456,羅氏家用新冠病毒抗原自我檢測套組,78,2022/05/04 14:57:02,快篩實名制，每天16:00開始販售，售完為止。
5931026082,大有藥局,新北市三重區中正北路２１３號１、２樓及２１５號１、２樓,121.4763,25.07013,(02)29885771,羅氏家用新冠病毒抗原自我檢測套組,78,2022/05/04 14:57:02,快篩實名制，每天16:00開始販售，售完為止。
5931026091,重新藥局,新北市三重區重新路４段１２號１樓,121.4888,25.05775,(02)29742700,羅氏家用新冠病毒抗原自我檢測套組,80,2022/05/04 14:57:02,快篩實名制，每天16:00開始販售，售完為止。
5931030013,皇誼藥局,新北市永和區文化路３３號,121.5147,25.01499,(02)29278732,羅氏家用新冠病毒抗原自我檢測套組,78,2022/05/04 14:57:02,無
5931032759,友辰藥局,新北市永和區中正路３８０號１樓,121.5177,25.00123,(02)29267131,羅氏家用新冠病毒抗原自我檢測套組,1,2022/05/04 14:57:02,快篩配送時間不定，請電話諮詢，售完為止。5／4 下午2:00開賣
5931033032,弘光藥局,新北市永和區竹林路中興里６６巷１９號１樓,121.5201,25.01396,(02)29282000,羅氏家用新冠病毒抗原自我檢測套組,1,2022/05/04 14:57:02,早上9點至晚上10點 口罩代售號碼牌自1400開始發放
5931033087,康宏安藥局,新北市永和區保福路２段７８號１樓,121.5106,25.01331,(02)29288118,羅氏家用新冠病毒抗原自我檢測套組,78,2022/05/04 14:57:02,無
5931033194,廣惠藥局,新北市永和區中正路６４９號２樓,121.5152,25.01007,(02)29290675,羅氏家用新冠病毒抗原自我檢測套組,78,2022/05/04 14:57:02,今日快篩販售時間 15:00-售完為止
5931033201,級立健保藥局,新北市永和區保平路１３９號１樓,121.5102,25.00608,(02)29299995,羅氏家用新冠病毒抗原自我檢測套組,67,2022/05/04 14:57:02,快篩代售時間為下午15:00，週日不銷售
5931033363,保安藥局,新北市永和區保安路２１２號１樓,121.5075,25.01393,(02)29277623,羅氏家用新冠病毒抗原自我檢測套組,131,2022/05/04 14:57:02,快篩配送時間不一定，依配送時間決定。
5931033461,常安中西藥局,新北市永和區保平路２６號１樓,121.5122,25.00749,(02)29283530,羅氏家用新冠病毒抗原自我檢測套組,78,2022/05/04 14:57:02,每日下午三點開始實名制快篩
5931033541,大欣安藥局,新北市永和區得和路３７０號１樓,121.5244,24.99928,(02)29450808,羅氏家用新冠病毒抗原自我檢測套組,2,2022/05/04 14:57:02,5／3起快篩試劑PAM14:00開始發號碼牌跟販售
5931033578,悅美保健藥局,新北市永和區保生路２２巷２１號１樓,121.5073,25.00839,(02)22323515,羅氏家用新冠病毒抗原自我檢測套組,78,2022/05/04 14:57:02,周一至周六 上午11點到晚上10點（周六下午一點開始）（二）快篩完售（三）下午1:30售
5931033774,台化藥局,新北市永和區勵行街１１９號１樓,121.5175,25.01202,(02)22318585,羅氏家用新冠病毒抗原自我檢測套組,1,2022/05/04 14:57:02,無
5931033863,欣安大藥局,新北市永和區福和路２２１號１樓,121.5189,25.00749,(02)22326685,羅氏家用新冠病毒抗原自我檢測套組,1,2022/05/04 14:57:02,快篩試劑pm13:30發號碼牌暨銷售，售完為止。
5931033890,康杏安藥局,新北市永和區保平路９９號１樓,121.5114,25.00686,(02)29298968,羅氏家用新冠病毒抗原自我檢測套組,156,2022/05/04 14:57:02,快篩14:50發號碼牌.15:00開始販售，因延遲到貨問題5／4販售155人份
5931033961,永和大樹藥局,新北市永和區福和路１４３號１、２樓,121.5207,25.00766,(02)29233377,羅氏家用新冠病毒抗原自我檢測套組,78,2022/05/04 14:57:02,快篩實名制，每天16:00開始販售，售完為止。
5931040215,華新藥局,新北市中和區華新街７３號,121.5082,24.98392,(02)29448345,羅氏家用新冠病毒抗原自我檢測套組,78,2022/05/04 14:57:02,無
5931040662,仙正藥局,新北市中和區福美路３０９號,121.4969,25.00472,(02)22494081,羅氏家用新冠病毒抗原自我檢測套組,78,2022/05/04 14:57:02,無
5931040680,博健藥局,新北市中和區忠孝街３７巷４號,121.5112,24.98368,(02)29402107,羅氏家用新冠病毒抗原自我檢測套組,1,2022/05/04 14:57:02,無
5931040733,日發藥局,新北市中和區興南路２段５２－４號,121.5065,24.98507,(02)29424926,羅氏家用新冠病毒抗原自我檢測套組,78,2022/05/04 14:57:02,郵差當日配送時間延誤，固改成每天下午3點飯售實名制快篩
5931043529,新雙和藥師藥局,新北市中和區中正路２８１－８號１樓,121.4943,24.99374,(02)22404276,羅氏家用新冠病毒抗原自我檢測套組,2,2022/05/04 14:57:02,無
5931043565,一安藥妝藥局,新北市中和區中和路９號１.２樓,121.4998,25.00221,(02)22483778,羅氏家用新冠病毒抗原自我檢測套組,156,2022/05/04 14:57:02,下午3點開始發號碼牌販售快篩
5931043798,永成藥局,新北市中和區景平路１５６號１樓,121.5176,24.99222,(02)29407619,羅氏家用新冠病毒抗原自我檢測套組,155,2022/05/04 14:57:02,實名制快篩，下午三點領取號碼並開始販售（每日78份）
5931043921,良安藥局,新北市中和區連城路４７７巷１號１樓,121.4833,24.99555,(02)22225798,羅氏家用新冠病毒抗原自我檢測套組,313,2022/05/04 14:57:02,週六日不開店，實名制快篩，晚上9:00開始販售
5931044204,康廷安藥局,新北市中和區大勇街１６號１樓,121.5173,24.99277,(02)86683599,羅氏家用新冠病毒抗原自我檢測套組,78,2022/05/04 14:57:02,快篩14:50~14:55發號碼牌.15:00開始販售
5931044375,藥聯藥師藥局,新北市中和區宜安路１４３號１樓,121.5092,24.99858,(02)29481198,羅氏家用新冠病毒抗原自我檢測套組,33,2022/05/04 14:57:02,無
5931044848,和霖生活藥局,新北市中和區復興路２８９號１樓,121.5018,24.99015,(02)22458227,羅氏家用新冠病毒抗原自我檢測套組,79,2022/05/04 14:57:02,無
5931044973,佳禾藥局,新北市中和區自立路３２號１樓,121.5226,24.9928,(02)29428989,羅氏家用新冠病毒抗原自我檢測套組,74,2022/05/04 14:57:02,無
5931044991,曜群藥局,新北市中和區景安路２５號１樓,121.5079,24.99893,(02)89432206,羅氏家用新冠病毒抗原自我檢測套組,156,2022/05/04 14:57:02,週一至周六早上8:30販售實名制快篩
5931045041,大誠藥局,新北市中和區民享街８７號１樓,121.4744,25.00162,(02)22258394,羅氏家用新冠病毒抗原自我檢測套組,78,2022/05/04 14:57:02,實名制快篩 每日下午03:30開始販售，現場排隊
5931045050,日發藥師藥局,新北市中和區華新街１９２巷４０號１樓,121.5062,24.98368,(02)89411088,羅氏家用新冠病毒抗原自我檢測套組,78,2022/05/04 14:57:02,每日下午6點開始販售快篩（不發放號碼牌）
5931045069,禾昌藥局,新北市中和區中安街１７８巷２號１樓,121.5109,24.99954,(02)29267330,羅氏家用新冠病毒抗原自我檢測套組,4,2022/05/04 14:57:02,實名制快篩14:00開始販售／醫護警消優先
5931045130,四維藥局,新北市中和區四維街３７巷２號１樓,121.5124,24.98679,(02)86681345,羅氏家用新冠病毒抗原自我檢測套組,78,2022/05/04 14:57:02,快篩實名制，每天16:00開始販售，售完為止。
5931045327,景新藥局,新北市中和區景新街４２９號１樓,121.513,24.98908,(02)86686091,羅氏家用新冠病毒抗原自我檢測套組,77,2022/05/04 14:57:02,無
5931045363,順儷景安藥局,新北市中和區景安路１９６號１樓,121.5042,24.99153,(02)22433515,羅氏家用新冠病毒抗原自我檢測套組,78,2022/05/04 14:57:02,健保卡實名制快篩於下午3點開始販售，現場排隊不發號碼牌及預訂
5931045443,台昕藥局,新北市中和區復興路２５５號（１樓）,121.5032,24.9902,(02)22406080,羅氏家用新冠病毒抗原自我檢測套組,78,2022/05/04 14:57:02,無
5931051558,信龍大藥局,新北市新店區安康路２段５６號,121.515,24.96385,(02)22115533,羅氏家用新冠病毒抗原自我檢測套組,78,2022/05/04 14:57:02,實名制快篩15:00發放號碼牌，並同步販售，每人限持1卡購買1份，請備妥零鈔
5931052215,三民藥局,新北市新店區三民路７８號１樓－１,121.5348,24.97257,(02)89146301,羅氏家用新冠病毒抗原自我檢測套組,82,2022/05/04 14:57:02,實名制快篩試劑下午2點開始現場販售  周日休息
5931052251,昇育健康藥局,新北市新店區中正路７６巷１８號１樓,121.5443,24.97085,(02)86679631,羅氏家用新冠病毒抗原自我檢測套組,78,2022/05/04 14:57:02,無
5931052724,合康大藥局,新北市新店區中正路２６３－２號１樓,121.5384,24.97367,(02)29109888,羅氏家用新冠病毒抗原自我檢測套組,24,2022/05/04 14:57:02,快篩下午2點販售
5931052751,新康藥局,新北市新店區北新路１段１９５號１樓、２樓,121.5402,24.9648,(02)29178179,羅氏家用新冠病毒抗原自我檢測套組,23,2022/05/04 14:57:02,無
5931053034,康宜庭市公所藥局,新北市新店區北新路１段２８５號１樓,121.541,24.96707,(02)29151709,羅氏家用新冠病毒抗原自我檢測套組,1,2022/05/04 14:57:02,實名制快篩下午兩點開賣
5931053132,康宜庭碧潭藥局,新北市新店區北宜路１段４１號１樓,121.5384,24.95726,(02)29186266,羅氏家用新冠病毒抗原自我檢測套組,1,2022/05/04 14:57:02,14:00 發放號碼牌，同步販售
5931053178,長照藥局,新北市新店區如意街１６號１樓,121.4944,24.94838,(02)22153325,羅氏家用新冠病毒抗原自我檢測套組,78,2022/05/04 14:57:02,請注意丫~5／04日下午4:00篩劑開賣囉!（單號）自備500
5931053347,健詮藥局,新北市新店區建國路１１９號１樓,121.5398,24.97777,(02)29116312,羅氏家用新冠病毒抗原自我檢測套組,2,2022/05/04 14:57:02,11點發號碼牌，12點半-3點過卡買快篩。最新消息會公佈在臉書「健詮藥局」
5931060217,富國藥局,新北市新莊區富國路３１號,121.4189,25.02645,(02)29039334,羅氏家用新冠病毒抗原自我檢測套組,78,2022/05/04 14:57:02,5／4 實名制快篩15:30開始販售，現場排隊購買，不發號碼牌
5931060342,十安藥局,新北市新莊區中港路３１６號,121.4524,25.04544,(02)29922859,羅氏家用新冠病毒抗原自我檢測套組,81,2022/05/04 14:57:02,自111／04／01起不再販賣實名制口罩
5931060557,一安藥局,新北市新莊區立德里新泰路２６８號,121.446,25.04029,(02)29941618,羅氏家用新冠病毒抗原自我檢測套組,156,2022/05/04 14:57:02,實名制快篩發放時間為15:00  其他詳情請上FB查詢
5931060619,蘇藥局,新北市新莊區中平路６巷３７號,121.446,25.04284,(02)29917818,羅氏家用新冠病毒抗原自我檢測套組,75,2022/05/04 14:57:02,販售口罩時間  固定周1~周6 下午4點發放號碼牌並依序販售口罩  售完為止  6點以前未領取口罩 號碼牌作廢
5931060646,王藥局,新北市新莊區昌盛街３８號,121.4544,25.04988,(02)29922404,羅氏家用新冠病毒抗原自我檢測套組,39,2022/05/04 14:57:02,.0830開始發號碼牌.線上庫存餘額.有可能係持卡者尚未過卡.
5931060682,勝安藥局,新北市新莊區中正路３３４巷２３號１樓,121.4456,25.03585,(02)29963394,羅氏家用新冠病毒抗原自我檢測套組,68,2022/05/04 14:57:02,無
5931060824,禮安藥師藥局,新北市新莊區自立街１０９號１樓,121.4555,25.0455,(02)29942891,羅氏家用新冠病毒抗原自我檢測套組,65,2022/05/04 14:57:02,無
5931067136,蒲陽藥局,新北市新莊區中港路５１４號,121.4518,25.05187,(02)29930069,羅氏家用新冠病毒抗原自我檢測套組,78,2022/05/04 14:57:02,無
5931067403,建嘉藥局,新北市新莊區中誠街４２號１樓,121.4513,25.04812,(02)29925261,羅氏家用新冠病毒抗原自我檢測套組,78,2022/05/04 14:57:02,無
5931067565,豐年藥局,新北市新莊區中正路３７７巷１６號,121.4462,25.03395,(02)22071182,羅氏家用新冠病毒抗原自我檢測套組,78,2022/05/04 14:57:02,無
5931068464,健安藥局,新北市新莊區光和里民安西路２０９號１樓,121.4261,25.0147,(02)22043765,羅氏家用新冠病毒抗原自我檢測套組,117,2022/05/04 14:57:02,無
5931068599,建昌藥局,新北市新莊區福營里中正路５５７號,121.435,25.03254,(02)29015422,羅氏家用新冠病毒抗原自我檢測套組,1,2022/05/04 14:57:02,快篩代售時間:週一至週日14:30現場排隊購買，售完為止。（物流配送不及則例外，以門市公告為主）
5931068759,森活藥局,新北市新莊區民安路２２０－１號,121.426,25.02259,(02)22027927,羅氏家用新冠病毒抗原自我檢測套組,70,2022/05/04 14:57:02,上午8點至完售
5931068819,東京大藥局,新北市新莊區民安路１７６號１樓,121.4251,25.02392,(02)22063806,羅氏家用新冠病毒抗原自我檢測套組,63,2022/05/04 14:57:02,口罩代售時間為9:30開始現場排隊販售
5931068991,新莊健業藥局,新北市新莊區昌平街３７號１樓至２樓,121.4547,25.05221,(02)22798808,羅氏家用新冠病毒抗原自我檢測套組,151,2022/05/04 14:57:02,快篩實名制每天下午三點開始販售（不發號碼牌）
5931069498,新杏藥局,新北市新莊區新泰路９９號１樓,121.449,25.03497,(02)22011012,羅氏家用新冠病毒抗原自我檢測套組,76,2022/05/04 14:57:02,若有配貨，將固定於週一至週日14:50開始發放號碼牌、15:00開始依序販售快篩，售完為止。
5931069603,中信藥師藥局,新北市新莊區中信街８０號１樓,121.448,25.05311,(02)29969811,羅氏家用新冠病毒抗原自我檢測套組,78,2022/05/04 14:57:02,AM 07:30 開始
5931069765,健業藥妝藥局,新北市新莊區中和街１３０號１樓,121.4475,25.04809,(02)22796279,羅氏家用新冠病毒抗原自我檢測套組,78,2022/05/04 14:57:02,口罩販售資訊:下午3點~11點販售
593106A039,大仁藥局,新北市新莊區公園一路３２號１樓,121.4435,25.03531,(02)22776023,羅氏家用新冠病毒抗原自我檢測套組,156,2022/05/04 14:57:02,快篩販售時間:週一至週五 （16：30-17：30）， 週六（20：30-21：30）、週日公休
593106A566,一心春天藥局,新北市新莊區中和街１３號１樓、地下室,121.4481,25.04342,(02)89929482,羅氏家用新冠病毒抗原自我檢測套組,38,2022/05/04 14:57:02,快篩代售時間:週一至週日15:00現場排隊購買，售完為止。（物流配送不及則例外，以門市公告為主）
593106A600,全鎵藥局,新北市新莊區建中街２２號１樓,121.4493,25.03766,(02)22761550,羅氏家用新冠病毒抗原自我檢測套組,78,2022/05/04 14:57:02,16:00快篩開賣
593106A726,良和健保藥局,新北市新莊區龍安路４９號１樓,121.4158,25.02151,(02)29048157,羅氏家用新冠病毒抗原自我檢測套組,77,2022/05/04 14:57:02,快篩：晚上8點開始販售，星期六、日休息不代售
593106A931,建安藥局,新北市新莊區建安街１１７號、１１９號１樓,121.4262,25.02406,(02)22051969,羅氏家用新冠病毒抗原自我檢測套組,78,2022/05/04 14:57:02,快篩實名制，每天16:00開始販售，售完為止。
593106A977,丹鳳藥局,新北市新莊區中正路７４５、７４７號（１樓）,121.4227,25.0288,(02)29065755,羅氏家用新冠病毒抗原自我檢測套組,78,2022/05/04 14:57:02,快篩實名制，每天16:00開始販售，售完為止。
593106B027,樂福藥局,新北市新莊區幸福路４８號１樓、幸福路６４巷２弄１６號１樓,121.4577,25.04953,(02)29923388,羅氏家用新冠病毒抗原自我檢測套組,78,2022/05/04 14:57:02,下午三點半開始購買快篩實名制
593106B036,家嘉藥局,新北市新莊區自立街１０３號（１樓）,121.4553,25.04549,(02)89926488,羅氏家用新冠病毒抗原自我檢測套組,44,2022/05/04 14:57:02,快篩已到貨  下午場次號碼牌發放時間1100 今天已全數發完
593106B081,平安藥局,新北市新莊區民安西路６０號２樓,121.4273,25.02037,(02)22082368,羅氏家用新冠病毒抗原自我檢測套組,147,2022/05/04 14:57:02,無
593106B090,依都勇藥局,新北市新莊區自信街６３號（１樓）,121.4554,25.04829,(02)29901516,羅氏家用新冠病毒抗原自我檢測套組,4,2022/05/04 14:57:02,無
593106B107,大樹新莊藥局,新北市新莊區新泰路５９號１樓、２樓,121.4494,25.03405,(02)22010566,羅氏家用新冠病毒抗原自我檢測套組,78,2022/05/04 14:57:02,快篩實名制，每天16:00開始販售，售完為止。
593106B152,福原藥局,新北市新莊區中原東路７０號（１樓）,121.4632,25.05461,(02)85216190,羅氏家用新冠病毒抗原自我檢測套組,99,2022/05/04 14:57:02,無
593106B189,美康頭前藥局,新北市新莊區化成路３７３之５號１樓,121.4412,25.03785,(02)85219638,羅氏家用新冠病毒抗原自我檢測套組,91,2022/05/04 14:57:02,無
593106B205,藥師佛藥局,新北市新莊區中正路８８１之４號１樓,121.4175,25.02544,(02)29016625,羅氏家用新冠病毒抗原自我檢測套組,156,2022/05/04 14:57:02,快篩開賣:晚上七點！最快五點才能排隊！今日只到1箱，會預留警察消防人員額度，所以民眾購買額度不會是78盒！
