醫事機構代碼,醫事機構名稱,醫事機構地址,經度,緯度,醫事機構電話,廠牌項目,快篩試劑截至目前結餘存貨數量,來源資料時間,備註
2331260016,新北市貢寮區衛生所,新北市貢寮區朝陽街７０巷１０號、新北市貢寮區仁愛路１２８號,121.9095,25.02258,(02)24901431,羅氏家用新冠病毒抗原自我檢測套組,78,2022/05/07 07:20:02,快篩試劑販售時間為周一至周五早上9點開始販售，每日販售一箱，數量有限售完為止。
2333120015,新竹縣峨眉鄉衛生所,新竹縣峨眉鄉峨眉村峨眉街２鄰５號,121.0214,24.68842,(03)5800314,羅氏家用新冠病毒抗原自我檢測套組,78,2022/05/07 07:20:02,本所5月13日（五）下午眼科，自5月6日起販賣快篩試劑現場排隊12時至13時止，國定及例假日不賣
2333140017,新竹縣五峰鄉衛生所,新竹縣五峰鄉大隘村六鄰９９號,121.1194,24.63184,(03)5851005,羅氏家用新冠病毒抗原自我檢測套組,28,2022/05/07 07:20:02,無
2335110017,苗栗縣南庄鄉衛生所,苗栗縣南庄鄉東村大同路１７號,121,24.59733,(037)822024,羅氏家用新冠病毒抗原自我檢測套組,78,2022/05/07 07:20:02,口罩販賣時段:週一至週五上午8:00~下午5:00
2340170016,嘉義縣大埔鄉衛生所,嘉義縣大埔鄉大埔村５３－１號,120.5928,23.29397,(05)2521214,羅氏家用新冠病毒抗原自我檢測套組,78,2022/05/07 07:20:02,無
2341250013,臺南市南化區衛生所,臺南市南化區南化里２２６－１號,120.4793,23.0444,(06)5771139,羅氏家用新冠病毒抗原自我檢測套組,78,2022/05/07 07:20:02,5／7-5／8假日無販售       5／9日起調整實名制快篩試劑販售時間:下午2點30分-4點整售完提早結束。
2342130010,高雄市田寮區衛生所,高雄市田寮區南安里崗北路３２號,120.3594,22.87301,(07)6361504,羅氏家用新冠病毒抗原自我檢測套組,77,2022/05/07 07:20:02,巡迴醫療:每星期一、四下午及每月第一個有上班的星期三下午巡迴醫療
2342250017,高雄市茂林區衛生所,高雄市茂林區茂林里茂林巷８－４號,120.6641,22.88641,(07)6801046,羅氏家用新冠病毒抗原自我檢測套組,60,2022/05/07 07:20:02,夜間急診，請先撥電話07-6801046
2342260013,高雄市桃源區衛生所,高雄市桃源區桃源里南進巷１８８－１號,120.7642,23.15845,(07)6861126,羅氏家用新冠病毒抗原自我檢測套組,74,2022/05/07 07:20:02,IDS提供24小時服務
2342270019,高雄市那瑪夏區衛生所,高雄市那瑪夏區瑪雅里６鄰平和巷２５２號,120.7024,23.24708,(07)6701142,羅氏家用新冠病毒抗原自我檢測套組,275,2022/05/07 07:20:02,春節期間正常門診
2344011036,澎湖縣馬公市第三衛生所,澎湖縣馬公市西文里１１８之２號,119.5836,23.56813,(06)9211723,羅氏家用新冠病毒抗原自我檢測套組,23,2022/05/07 07:20:02,本所快篩試劑只提供離島衛生室（虎井、桶盤）販售，時間週一至週五08:30-17:00售完為止，星期六、日國定假日09:00-12:00。
2344030022,澎湖縣白沙鄉鳥嶼衛生所,澎湖縣白沙鄉鳥嶼村漁港新村３號,119.6599,23.66008,(06)9916092,羅氏家用新冠病毒抗原自我檢測套組,50,2022/05/07 07:20:02,非上班時間提供急診服務
2344030031,澎湖縣白沙鄉吉貝衛生所,澎湖縣白沙鄉吉貝村８－１３號,119.6138,23.74056,(06)9911430,羅氏家用新冠病毒抗原自我檢測套組,96,2022/05/07 07:20:02,無
2344050015,澎湖縣望安鄉衛生所,澎湖縣望安鄉西安村３６－７號,119.4972,23.36161,(06)9991036,羅氏家用新冠病毒抗原自我檢測套組,124,2022/05/07 07:20:02,夜間急診。口罩、快篩試劑販售時間為:每日08:00-12:00、13:30-17:30售完為止，如有餘數為離島未售出（東嶼坪、花嶼）。
2344050024,澎湖縣望安鄉將軍衛生所,澎湖縣望安鄉將軍村１２鄰將軍澳１之３號,119.5216,23.3615,(06)9902066,羅氏家用新冠病毒抗原自我檢測套組,149,2022/05/07 07:20:02,24小時急診
2344060011,澎湖縣七美鄉衛生所,澎湖縣七美鄉中和村埔內５４號,119.431,23.2041,(06)9971005,羅氏家用新冠病毒抗原自我檢測套組,45,2022/05/07 07:20:02,無
2345080017,衛生福利部花蓮醫院豐濱原住民分院,花蓮縣豐濱鄉豐濱村光豐路４１號,121.5215,23.60195,(03)8358141,羅氏家用新冠病毒抗原自我檢測套組,78,2022/05/07 07:20:02,*本院口罩每天販售，時間自上午8點至晚上9點  *本院週一至週五上下午皆有門診，星期六隔週提供門診，及24小時急診。
2345100014,花蓮縣富里鄉衛生所,花蓮縣富里鄉富里村中山路２０３號,121.2491,23.17847,(03)8831029,羅氏家用新冠病毒抗原自我檢測套組,156,2022/05/07 07:20:02,*內科:每週二下午東里玉蓮寺巡診 **牙科:每週二至卓溪醫療站***口罩販賣時間8:30起至11:00止
2345110010,花蓮縣秀林鄉衛生所,花蓮縣秀林鄉秀林村１２鄰秀林路８８號,121.6334,24.1269,(03)8612122,羅氏家用新冠病毒抗原自我檢測套組,78,2022/05/07 07:20:02,口罩代售時間上班日上午8:10至12時止（口罩限量故售完為止）
2345120016,花蓮縣萬榮鄉衛生所,花蓮縣萬榮鄉萬榮村１鄰１６號,121.4092,23.71558,(03)8751651,羅氏家用新冠病毒抗原自我檢測套組,104,2022/05/07 07:20:02,快篩試劑代售時間：週一至週五下午2點至下午4點，販售為止。
2345130012,花蓮縣卓溪鄉衛生所,花蓮縣卓溪鄉卓溪村中正路６５號,121.3033,23.33294,(03)8882592,羅氏家用新冠病毒抗原自我檢測套組,156,2022/05/07 07:20:02,快篩試劑代售時間：週一至週五上午8：30-11：00（售完即結束）
2346110014,台東縣綠島鄉衛生所,臺東縣綠島鄉中寮村１－１號,121.4696,22.67319,(089)672511,羅氏家用新冠病毒抗原自我檢測套組,78,2022/05/07 07:20:02,家用快篩實名制，販售時段為上午08:30至12:00，下午13:30至16:30（周一至周五），售完為止。）
2346130016,台東縣海端鄉衛生所,臺東縣海端鄉海端村３鄰２９號,121.1767,23.10094,(089)931391,羅氏家用新冠病毒抗原自我檢測套組,78,2022/05/07 07:20:02,星期一至星期五家用快篩試劑販售時間上午10點~12點（售完為止）
2346150018,台東縣金峰鄉衛生所,臺東縣金峰鄉賓茂村１鄰１４號,120.9606,22.53248,(089)772201,羅氏家用新冠病毒抗原自我檢測套組,78,2022/05/07 07:20:02,快篩試劑販售時間為星期一至星期五，早上8:30~12:00；下午1:30~5:00
2346160014,台東縣蘭嶼鄉衛生所,臺東縣蘭嶼鄉紅頭村３６號,121.5546,22.02493,(089)732575,羅氏家用新冠病毒抗原自我檢測套組,78,2022/05/07 07:20:02,販售口罩時間 星期一至星期五 8:00~12:00 13:30~17:30
2390050032,金門縣烈嶼鄉衛生所,金門縣烈嶼鄉西口村西方６－５號,118.2395,24.43519,(082)362078,羅氏家用新冠病毒抗原自我檢測套組,12,2022/05/07 07:20:02,快篩試劑販售時間:周一至周五下午1點至3點
2391030016,連江縣莒光鄉西莒衛生所,連江縣莒光鄉青帆村１４－１號,119.9331,25.97157,(083)689122,羅氏家用新冠病毒抗原自我檢測套組,324,2022/05/07 07:20:02,防疫口罩星期一至五09:00-17:00、（六）09:00-12:00現場購買
2391030026,連江縣莒光鄉東莒衛生所,連江縣莒光鄉大坪村３０－１號,119.9731,25.96113,(083)689038,羅氏家用新冠病毒抗原自我檢測套組,457,2022/05/07 07:20:02,防疫口罩星期一至星期日上午10:00-12:00收取健保卡，下午3:30至本所領取口罩。
5901010076,榮星藥局,臺北市松山區南京東路４段１３３巷５弄１號,121.5552,25.05214,(02)27124696,羅氏家用新冠病毒抗原自我檢測套組,78,2022/05/07 07:20:02,無
5901010165,傑安藥局,臺北市松山區八德路２段４３７巷７弄８號１樓,121.5473,25.04914,(02)27524155,羅氏家用新冠病毒抗原自我檢測套組,78,2022/05/07 07:20:02,9:30開始發號碼牌
5901010496,瑞昌大藥局,臺北市松山區民權東路３段１０３巷１０號,121.5449,25.06298,(02)27151881,羅氏家用新冠病毒抗原自我檢測套組,60,2022/05/07 07:20:02,無
5901011975,萬泰藥局,臺北市松山區敦化北路２２２巷３８號,121.5471,25.05994,(02)27135891,羅氏家用新冠病毒抗原自我檢測套組,15,2022/05/07 07:20:02,每日早上9.00販售快篩試劑
5901012409,家音藥局,臺北市松山區民生東路５段７３號,121.5585,25.05871,(02)37652080,羅氏家用新冠病毒抗原自我檢測套組,12,2022/05/07 07:20:02,實名制快篩販售時段公告，請追蹤美康健保藥局 家音店 FB粉絲頁，謝謝~
5901012516,惠登藥局,臺北市松山區民生東路３段１３０巷３４號,121.5461,25.0562,(02)25472432,羅氏家用新冠病毒抗原自我檢測套組,28,2022/05/07 07:20:02,實名制快篩下午2點販售
5901012561,松田藥局,臺北市松山區延吉街９－６號,121.5536,25.04701,(02)25798005,羅氏家用新冠病毒抗原自我檢測套組,78,2022/05/07 07:20:02,每日上午9:30開始實名制快篩販售
5901012712,立康大藥局,臺北市松山區八德路四段２－１號,121.5581,25.04812,(02)27471749,羅氏家用新冠病毒抗原自我檢測套組,77,2022/05/07 07:20:02,快篩時間：周一～周五9:30-14:00，18:00-21:30。周六10:30-12:30，18:00-20:00。周日暫停販售。如有修正以店面公告為主
5901012749,躍獅松和藥局,臺北市松山區八德路四段６６６－１號,121.5761,25.04979,(02)27492569,羅氏家用新冠病毒抗原自我檢測套組,78,2022/05/07 07:20:02,實名制快篩販售時段，每日下午4點販售，售完為止
5901012767,晨新藥局,臺北市松山區八德路４段９１巷１－１號,121.5608,25.04894,(02)27422951,羅氏家用新冠病毒抗原自我檢測套組,66,2022/05/07 07:20:02,本店星期一不販售快篩，其餘時間為下午2點至5點。若有修正依店內公告為主。
5901012963,綠之家藥局,臺北市松山區延壽街４２８號,121.5562,25.0562,(02)25289595,羅氏家用新冠病毒抗原自我檢測套組,78,2022/05/07 07:20:02,禮拜日不販售快篩
5901013095,康采藥局,臺北市松山區南京東路５段２９１巷１７－２號,121.5663,25.05236,(02)27670271,羅氏家用新冠病毒抗原自我檢測套組,18,2022/05/07 07:20:02,（已完售，庫存不準）快篩試劑每日16點販售，週日沒有販售
5901013120,誠康中西藥局,臺北市松山區南京東路５段５９巷３１弄４３號,121.5607,25.05346,(02)27619679,羅氏家用新冠病毒抗原自我檢測套組,20,2022/05/07 07:20:02,禮拜一到六早上7點發號碼牌，到貨時會用社群通知大家來取貨
5901013362,啄木鳥藥局,臺北市松山區八德路４段２０９號、２１１號（１、２層）,121.564,25.04894,(02)27422413,羅氏家用新冠病毒抗原自我檢測套組,39,2022/05/07 07:20:02,無
5901013451,新德大藥局,臺北市松山區饒河街２０４號,121.577,25.05074,(02)27673402,羅氏家用新冠病毒抗原自我檢測套組,57,2022/05/07 07:20:02,周一至周六上午九點開賣；快篩實名制（周日休息）
5901013620,躍獅敦北藥局,臺北市松山區民生東路４段８０巷５號１樓,121.5531,25.05713,(02)27155691,羅氏家用新冠病毒抗原自我檢測套組,115,2022/05/07 07:20:02,實名制快篩販售時間PM14:30 本店會預留28份供及人大廈住戶購買 剩餘數量供現場民眾排隊購買（14:30開始販購）
5901013693,民生盛康藥局,臺北市松山區民生東路５段２０４號１樓,121.5648,25.05826,(02)27460758,羅氏家用新冠病毒抗原自我檢測套組,92,2022/05/07 07:20:02,【每日70分】每日早上9:00發號碼牌，14:00~20:00拿號碼牌回來領取，每人限1張號碼牌，逾時不候
5901020616,龍護大藥局,臺北市大安區大安路１段２２４巷７號１Ｆ,121.5454,25.03401,(02)23250686,羅氏家用新冠病毒抗原自我檢測套組,78,2022/05/07 07:20:02,無
5901020732,赫慶藥局,臺北市大安區瑞安街２０８巷１１弄５號１樓,121.5408,25.02866,(02)27063497,羅氏家用新冠病毒抗原自我檢測套組,78,2022/05/07 07:20:02,快篩代售時間：星期一至六上午9點開始，不發號碼牌，星期日停售
5901020858,順天堂藥局,臺北市大安區龍泉街９６號,121.5292,25.02256,(02)23627149,羅氏家用新冠病毒抗原自我檢測套組,63,2022/05/07 07:20:02,實名制快篩早上9:30開始發放，每日78份，發完為止。禮拜日公休
5901020876,大興藥局,臺北市大安區通化街３９巷５０弄１５號１樓,121.5555,25.03056,(02)27053369,羅氏家用新冠病毒抗原自我檢測套組,14,2022/05/07 07:20:02,快篩試劑販售時間自08:30開始，現場排隊。（週日休息）
5901021248,永誠藥局,臺北市大安區忠孝東路４段２１６巷２５之１號,121.5531,25.03997,(02)27520273,羅氏家用新冠病毒抗原自我檢測套組,138,2022/05/07 07:20:02,上午9:30發放（不發號碼牌）
5901021382,建如藥局,臺北市大安區和平東路３段２２８巷１１號１Ｆ,121.5543,25.02174,(02)27331456,羅氏家用新冠病毒抗原自我檢測套組,78,2022/05/07 07:20:02,8:00先領取號碼牌並收取健保卡 .9:00後才領回健保卡及快篩 星期日休息
5901023073,世中欣藥局,臺北市大安區永康街２巷８號,121.5294,25.03315,(02)23938947,羅氏家用新冠病毒抗原自我檢測套組,21,2022/05/07 07:20:02,健保快篩：周一至周五， 早上10點開始販售。週六下午2點販售。週日停售.。
5901023313,安和藥局,臺北市大安區安和路１段１０２巷３號,121.5519,25.03433,(02)27092349,羅氏家用新冠病毒抗原自我檢測套組,33,2022/05/07 07:20:02,平日下午三點開始販賣賣完 78份結束
5901024310,躍獅新生藥局,臺北市大安區和平東路２段２０號,121.5362,25.02566,(02)23623367,羅氏家用新冠病毒抗原自我檢測套組,78,2022/05/07 07:20:02,快篩發放時間0900-1200。每日78份。星期日不販售
5901024427,博昱仁愛藥局,臺北市大安區仁愛路４段６５號,121.5469,25.03821,(02)87739258,羅氏家用新冠病毒抗原自我檢測套組,65,2022/05/07 07:20:02,實名制快篩每周一~五，9:00發放號碼牌收健保卡.下午2:00-4:00持號碼牌領取快篩.並收費和歸還健保
5901024669,百岳藥局,臺北市大安區和平東路２段３１１巷１１號,121.5452,25.02514,(02)27551037,羅氏家用新冠病毒抗原自我檢測套組,78,2022/05/07 07:20:02,快篩試劑販售時間:周一至周五10:30~12:00止
5901024767,杏一樂業藥局,臺北市大安區樂業街１６２號,121.5535,25.01958,(02)27383194,羅氏家用新冠病毒抗原自我檢測套組,78,2022/05/07 07:20:02,快篩下午三點現場直接販售（不發號碼牌）
5901024918,康祥藥局,臺北市大安區忠孝東路４段２１６巷２１號,121.5531,25.04025,(02)27817891,羅氏家用新冠病毒抗原自我檢測套組,78,2022/05/07 07:20:02,星期天11:00-19:00
5901024954,佑全大安敦南藥局,臺北市大安區敦化南路２段６３巷４６號,121.5512,25.03089,(02)23257579,羅氏家用新冠病毒抗原自我檢測套組,78,2022/05/07 07:20:02,早上10點發放號碼牌，同時開始販賣實名制快篩
5901025004,早安藥局,臺北市大安區建國南路２段１５１巷４２號１樓,121.5396,25.02865,(02)27002209,羅氏家用新冠病毒抗原自我檢測套組,48,2022/05/07 07:20:02,快篩早上9點發號碼牌留卡下午2點領取
5901090154,柯藥局,臺北市大同區重慶北路３段３３５巷６號,121.5144,25.07452,(02)25948515,羅氏家用新冠病毒抗原自我檢測套組,92,2022/05/07 07:20:02,库存已零如何歸零
5901091544,得意藥師藥局,臺北市大同區延平北路２段２２９號,121.5115,25.06029,(02)25534294,羅氏家用新冠病毒抗原自我檢測套組,7,2022/05/07 07:20:02,無
5901091884,躍獅雙蓮藥局,臺北市大同區涼州街４號,121.5147,25.06078,(02)25537551,羅氏家用新冠病毒抗原自我檢測套組,30,2022/05/07 07:20:02,實名制快篩：平日週一～五 下午３點開賣 （六、日停售）
5901092087,躍獅文昌藥局,臺北市大同區民生西路１０８號（實際營業：一層）,121.5197,25.0574,(02)25586189,羅氏家用新冠病毒抗原自我檢測套組,72,2022/05/07 07:20:02,無
5901100155,大信藥局,臺北市中山區林森北路１５９巷６號,121.5255,25.0517,(02)25719080,羅氏家用新冠病毒抗原自我檢測套組,1,2022/05/07 07:20:02,無
5901100342,順泰藥局,臺北市中山區錦州街２６６號,121.5348,25.06025,(02)25038916,羅氏家用新冠病毒抗原自我檢測套組,1,2022/05/07 07:20:02,無
5901100628,貢玄藥局,臺北市中山區錦州街２０７號,121.532,25.06039,(02)25637847,羅氏家用新冠病毒抗原自我檢測套組,68,2022/05/07 07:20:02,早上10點~11點領口罩
5901101509,永直藥局,臺北市中山區北安路５９５巷２弄６號,121.5483,25.08192,(02)85098059,羅氏家用新冠病毒抗原自我檢測套組,156,2022/05/07 07:20:02,今日號碼牌（5／6）已發完，周一至周六早上8點發號碼牌，下午2點到晚上8點販售（拿號碼牌來買）
5901101992,大愛藥師藥局,臺北市中山區吉林路２５５號１樓,121.5304,25.06165,(02)25424723,羅氏家用新冠病毒抗原自我檢測套組,42,2022/05/07 07:20:02,週一~週五13:55發放號碼牌14:00發放快篩，週六、週日休息
5901102444,啟美藥師藥局,臺北市中山區錦州街２８２號,121.5352,25.06024,(02)25178032,羅氏家用新冠病毒抗原自我檢測套組,78,2022/05/07 07:20:02,快篩 販售時間 20點開賣到21點，星期六日公休
5901102631,金生藥局,臺北市中山區長安東路２段１６７－１號,121.5407,25.04843,(02)87729808,羅氏家用新冠病毒抗原自我檢測套組,49,2022/05/07 07:20:02,販售實名制快篩時間為週一~週六早上09:00開始（售完為止）
5901102686,富宥康藥局,臺北市中山區北安路６０８巷５弄２２號,121.5496,25.08263,(02)25325277,羅氏家用新冠病毒抗原自我檢測套組,2,2022/05/07 07:20:02,無
5901103110,大直健康藥局,臺北市中山區北安路５９１號,121.5486,25.08194,(02)25323310,羅氏家用新冠病毒抗原自我檢測套組,107,2022/05/07 07:20:02,發號碼牌時間:09:00   販售時間:12:00-17:00
5901103227,建誠中西藥局,臺北市中山區龍江路３８５之１號,121.541,25.06511,(02)25158608,羅氏家用新冠病毒抗原自我檢測套組,22,2022/05/07 07:20:02,實名制快篩發放時間 週一至週六13:00-14:00
5901103405,大直永安藥局,臺北市中山區北安路５６７之２號,121.5482,25.08073,(02)25332125,羅氏家用新冠病毒抗原自我檢測套組,5,2022/05/07 07:20:02,今天下午兩點開始銷售
5901103558,佳頤中西藥局,臺北市中山區長春路１４７之１號,121.5323,25.05495,(02)25641479,羅氏家用新冠病毒抗原自我檢測套組,78,2022/05/07 07:20:02,實名制快篩販售時間為下午1點起，售完為止，其他販售細節以店內公告為主
5901103665,安悅藥局,臺北市中山區吉林路１８９號,121.5304,25.0597,(02)25419879,羅氏家用新冠病毒抗原自我檢測套組,56,2022/05/07 07:20:02,實名制快篩販售時間:早上11點~售完為止，不發號碼牌僅現場排隊（每周日不販售）
5901103727,盛康藥局,臺北市中山區吉林路３９９號１樓,121.5305,25.06587,(02)25969580,羅氏家用新冠病毒抗原自我檢測套組,3,2022/05/07 07:20:02,國定假日仍執行調劑業務
5901103736,杏一龍錦藥局,臺北市中山區龍江路２７９號１樓,121.5408,25.05973,(02)25174618,羅氏家用新冠病毒抗原自我檢測套組,78,2022/05/07 07:20:02,快篩提供時段週一到週六 9:00-12:00 週日不提供發放!!! 不發號碼牌 每日販售78人次 售完為止＞＜
5901103754,永育康暉藥局,臺北市中山區樂群二路２１０之２號１樓,121.5593,25.07952,(02)85012227,羅氏家用新冠病毒抗原自我檢測套組,1,2022/05/07 07:20:02,快篩試劑8:30開始販售，賣完為止
5901103772,興耀生活藥局,臺北市中山區林森北路４０５號（１樓）,121.5257,25.05943,(02)25818210,羅氏家用新冠病毒抗原自我檢測套組,65,2022/05/07 07:20:02,國定假日仍執行調劑業務
5901110133,泰成藥局,臺北市內湖區內湖路３段１３５號１樓,121.5899,25.08685,(02)27921231,羅氏家用新冠病毒抗原自我檢測套組,3,2022/05/07 07:20:02,口罩販售:上午9:00開始發號碼牌，9點同步販售.
5901110268,赫得藥局,臺北市內湖區康樂街７２巷１７弄４號１Ｆ,121.6178,25.06976,(02)26328642,羅氏家用新冠病毒抗原自我檢測套組,78,2022/05/07 07:20:02,每周日公休。快篩試劑於周一至周六，早上8:30開賣（賣完為止）。
5901112593,康健藥局,臺北市內湖區康樂街８０號,121.6189,25.07015,(02)26305825,羅氏家用新冠病毒抗原自我檢測套組,78,2022/05/07 07:20:02,無
5901112824,思恩藥局,臺北市內湖區成功路４段６１巷２６號,121.5932,25.08121,(02)27965808,羅氏家用新冠病毒抗原自我檢測套組,98,2022/05/07 07:20:02,快篩販售時間:禮拜一~五 14:00~17:00
5901113018,桔子藥局,臺北市內湖區內湖路２段３３３號,121.5917,25.08319,(02)27930052,羅氏家用新冠病毒抗原自我檢測套組,78,2022/05/07 07:20:02,早0900-1200，午1400-1700，晚1900-2100
5901113027,晟安藥局,臺北市內湖區金龍路１３５號,121.5902,25.08593,(02)87919320,羅氏家用新冠病毒抗原自我檢測套組,78,2022/05/07 07:20:02,快篩一~六早上10；00開始販售，星期日不營業
5901113367,瑞暉藥局,臺北市內湖區文德路１０５號,121.5837,25.0787,(02)26276828,羅氏家用新冠病毒抗原自我檢測套組,78,2022/05/07 07:20:02,營業時間: 09:00~22:00
5901113401,躍獅麗湖藥局,臺北市內湖區內湖路１段４０１之１號,121.5706,25.08188,(02)26276160,羅氏家用新冠病毒抗原自我檢測套組,78,2022/05/07 07:20:02,實名制快篩 9點發號碼牌 12點後憑號碼牌購買
5901113563,耀元藥局,臺北市內湖區康樂街１５０號,121.6192,25.07263,(02)26337369,羅氏家用新冠病毒抗原自我檢測套組,78,2022/05/07 07:20:02,週一至週六實名制快篩下午兩點販售，依現場排隊順序購買，沒有發放號碼牌。週日無販售。特殊情況依現場公告為主。
5901113652,加一藥師藥局,臺北市內湖區星雲街２４號１樓,121.5908,25.07804,(02)87912653,羅氏家用新冠病毒抗原自我檢測套組,167,2022/05/07 07:20:02,無
5901113741,原大藥局,臺北市內湖區內湖路１段７３７巷５０弄５號１樓,121.5788,25.08058,(02)26596358,羅氏家用新冠病毒抗原自我檢測套組,74,2022/05/07 07:20:02,9:00開賣快篩，不發號碼牌，現場售完為止。
5901120139,裕成藥局,臺北市南港區玉成街１６６巷１３號,121.5835,25.04433,(02)27851227,羅氏家用新冠病毒抗原自我檢測套組,51,2022/05/07 07:20:02,2／12~12／15公休
5901120308,加欣藥局,臺北市南港區南港路２段２６號,121.6054,25.05425,(02)27836222,羅氏家用新冠病毒抗原自我檢測套組,78,2022/05/07 07:20:02,星期日公休
5901121421,祥安藥局,臺北市南港區中坡南路２５號,121.5832,25.04329,(02)26547322,羅氏家用新冠病毒抗原自我檢測套組,18,2022/05/07 07:20:02,無
5901121583,健園藥局,臺北市南港區研究院路１段１９號１樓,121.6166,25.05401,(02)27851567,羅氏家用新冠病毒抗原自我檢測套組,78,2022/05/07 07:20:02,早上8點開賣 （政府有配送的狀況下） 沒發放號碼牌售完為止
5901121725,佳龍藥局,臺北市南港區研究院路２段８０號,121.6152,25.0454,(02)27885951,羅氏家用新冠病毒抗原自我檢測套組,31,2022/05/07 07:20:02,下午1點發號碼牌，下午1:30-2:30憑號碼牌、健保卡、現金領取快篩（逾時取消）禮拜六有販售
5901121841,泓安藥局,臺北市南港區興華路７５號,121.6061,25.05517,(02)27861083,羅氏家用新冠病毒抗原自我檢測套組,78,2022/05/07 07:20:02,星期一至星期日早上10:00開賣快篩試劑
5901121850,健涵藥局,臺北市南港區舊莊街１段１４７號,121.6205,25.03985,(02)27837285,羅氏家用新冠病毒抗原自我檢測套組,80,2022/05/07 07:20:02,發快篩時間：每日下午一點
5901121869,南港藥局,臺北市南港區南港路一段１６６號,121.6119,25.05536,(02)27829137,羅氏家用新冠病毒抗原自我檢測套組,78,2022/05/07 07:20:02,快篩販售時間晚上6:00~晚上8:00（每天78份，售完即止）（周日休息）
5901121912,成恩藥局,臺北市南港區成福路２３號,121.5867,25.04473,(02)27856602,羅氏家用新冠病毒抗原自我檢測套組,45,2022/05/07 07:20:02,快篩販賣時間：平日 週一到五 下午3:00~5:00
5901121985,勝安藥局,臺北市南港區舊莊街１段１６５號,121.6211,25.03949,(02)27828450,羅氏家用新冠病毒抗原自我檢測套組,34,2022/05/07 07:20:02,實名制快篩晚上21:00提供，倘提早額滿且經現場排隊者全體同意，即時銷售
5901122080,成福大藥局,臺北市南港區成福路８號,121.5859,25.04578,(02)27859221,羅氏家用新冠病毒抗原自我檢測套組,78,2022/05/07 07:20:02,無
5901150011,南風藥局,臺北市士林區美崙街１９號１樓,121.5233,25.09715,(02)28320375,羅氏家用新冠病毒抗原自我檢測套組,1,2022/05/07 07:20:02,快篩15:30現場排隊購買共七十份。每日保留8份，給華榮市場固定攤販（登記完為止）
5901150146,坤成泰藥局,臺北市士林區大南路４１２號,121.5162,25.08996,(02)28813903,羅氏家用新冠病毒抗原自我檢測套組,4,2022/05/07 07:20:02,實名制快篩販賣時間 早上9.30~12.00   下午2.00~6.00  賣完為止
5901150397,博惠藥局,臺北市士林區華榮街１６號,121.5236,25.09549,(02)28320379,羅氏家用新冠病毒抗原自我檢測套組,98,2022/05/07 07:20:02,（實名制快篩）週一至週六下午四點開始銷售，** 周日停售 **
5901150593,安寧藥局,臺北市士林區劍潭路９１號,121.5199,25.08285,(02)28803319,羅氏家用新冠病毒抗原自我檢測套組,78,2022/05/07 07:20:02,領藥星期1.3.5為 9:00~12:00.及16:00~20:00*星期2.4.6.--上午
5901152079,資生堂藥局,臺北市士林區承德路４段４０巷１７號１Ｆ,121.522,25.08107,(02)28857588,羅氏家用新冠病毒抗原自我檢測套組,78,2022/05/07 07:20:02,5／7周六快篩發下午一點
5901152471,得安藥局,臺北市士林區文林路１４０號,121.5267,25.08878,(02)28836336,羅氏家用新冠病毒抗原自我檢測套組,78,2022/05/07 07:20:02,星期三五六下午3:30---10:00   星期二 四日下午5:00--10:00
5901152640,仁大藥局,臺北市士林區社子街１３號１樓,121.5083,25.08769,(02)88113793,羅氏家用新冠病毒抗原自我檢測套組,1,2022/05/07 07:20:02,111.5.6.今日156份全數賣完。販售時間:週一至週六上午8:40開始，售完為止
5901152659,和樹藥局,臺北市士林區後港街４５巷１號１樓,121.5228,25.08444,(02)28821188,羅氏家用新冠病毒抗原自我檢測套組,78,2022/05/07 07:20:02,實名制快篩發放時間早上 9點30
5901153245,大東健保藥局,臺北市士林區大東路８６－４號,121.5257,25.09131,(02)28834672,羅氏家用新冠病毒抗原自我檢測套組,64,2022/05/07 07:20:02,實名制快篩販售以現場門口公告為主
5901153674,愛佳藥局,臺北市士林區承德路４段２２２之１號,121.5215,25.0885,(02)28811199,羅氏家用新冠病毒抗原自我檢測套組,78,2022/05/07 07:20:02,實名制快篩平日一~五下午5:00販售，假日（六、日）不販售
5901153727,前港盛康藥局,臺北市士林區前港街２８號,121.522,25.0846,(02)28831079,羅氏家用新冠病毒抗原自我檢測套組,78,2022/05/07 07:20:02,實名制快篩5／6 上午9點開始販售
5901153905,躍獅芝山藥局,臺北市士林區福華路１５４號（實際使用：１樓）,121.5227,25.10357,(02)28365822,羅氏家用新冠病毒抗原自我檢測套組,11,2022/05/07 07:20:02,無
5901154028,向宇藥局,臺北市士林區德行東路２１７號１樓,121.5328,25.10935,(02)88661101,羅氏家用新冠病毒抗原自我檢測套組,71,2022/05/07 07:20:02,無
5901154055,天母盛康藥局,臺北市士林區天母東路８巷８４號１樓,121.5304,25.11483,(02)28720208,羅氏家用新冠病毒抗原自我檢測套組,151,2022/05/07 07:20:02,實名制快篩每日14:00開始，賣完為止。
5901154073,中山盛康藥局,臺北市士林區中山北路７段１６２號１樓,121.5327,25.12416,(02)28771887,羅氏家用新冠病毒抗原自我檢測套組,76,2022/05/07 07:20:02,實名制快篩早上9:00-12:00發放號碼牌
5901154108,藥本家藥局,臺北市士林區中山北路７段１４巷２６號１樓,121.5328,25.11884,(02)28766682,羅氏家用新冠病毒抗原自我檢測套組,12,2022/05/07 07:20:02,無
5901160142,德昇藥局,臺北市北投區裕民二路２０號,121.517,25.11604,(02)28217565,羅氏家用新冠病毒抗原自我檢測套組,1,2022/05/07 07:20:02,週一至週五 &[5／7週六] 下午 2:30分 實名制快篩現場排隊發售
5901162306,上頤藥局,臺北市北投區中和街３２７號１樓,121.4997,25.14097,(02)28981230,羅氏家用新冠病毒抗原自我檢測套組,531,2022/05/07 07:20:02,無
5901162806,大家藥局,臺北市北投區光明路１８２號,121.5033,25.13566,(02)28959000,羅氏家用新冠病毒抗原自我檢測套組,63,2022/05/07 07:20:02,快篩早上9點開賣 售完為止 沒有號碼牌 現場排隊
5901162879,杏嘉藥局,臺北市北投區清江路６８號,121.5017,25.13044,(02)28942585,羅氏家用新冠病毒抗原自我檢測套組,19,2022/05/07 07:20:02,實名制快篩早上9點開始發放，售完為止
5901163107,小豬藥局,臺北市北投區東陽街４０３號１樓,121.5176,25.11244,(02)28217099,羅氏家用新冠病毒抗原自我檢測套組,73,2022/05/07 07:20:02,星期六.星期日不販售
5901163330,萬信藥局,臺北市北投區知行路３０５號（實際使用１樓）,121.4672,25.12214,(02)28583083,羅氏家用新冠病毒抗原自我檢測套組,78,2022/05/07 07:20:02,視到貨時間開賣
5901163438,漢藥局,臺北市北投區吉利街１４６號,121.508,25.11854,(02)28236598,羅氏家用新冠病毒抗原自我檢測套組,55,2022/05/07 07:20:02,快篩實名制領取時間：周一至周六下午2點現場排隊
5901163536,天富大藥局,臺北市北投區石牌路２段１７１號（實際使用：１樓）,121.518,25.11848,(02)28225812,羅氏家用新冠病毒抗原自我檢測套組,42,2022/05/07 07:20:02,週一至週六下午2-3點直接販售；週日暫停販售
5901163554,良哲藥局,臺北市北投區明德路１５７－４號（實際使用：１樓）,121.5209,25.11129,(02)28285516,羅氏家用新冠病毒抗原自我檢測套組,2,2022/05/07 07:20:02,實名制快篩販售時間：早上 9:00~9:30／下午 2:30~3:00（週六人力不足不販售／週日休息）
5901163563,躍獅光明藥局,臺北市北投區光明路５１號、５３號（實際使用：１樓）,121.4998,25.13286,(02)28915993,羅氏家用新冠病毒抗原自我檢測套組,1,2022/05/07 07:20:02,1.早上9:30發號碼牌.核對健保卡 2.等快篩到貨才開始賣，到貨時間不確定3.有號碼牌者請在晚上8點前領取，逾期作廢
5901163581,陳藥師藥局,臺北市北投區光明路２巷１３－２號（實際使用：１樓）,121.4997,25.13132,(02)28921971,羅氏家用新冠病毒抗原自我檢測套組,4,2022/05/07 07:20:02,無
5901163634,心樂藥局,臺北市北投區致遠一路２段１０５號１樓,121.5128,25.1131,(02)28210261,羅氏家用新冠病毒抗原自我檢測套組,14,2022/05/07 07:20:02,您好。發放快篩時間:周一二三五六早上8:30-09:00，週四加開早上10-11點，周一二三五 下午4:00-4:30，周日及國定假日休息
5901170139,福華藥局,臺北市信義區吳興街２８１巷３號１樓,121.5643,25.02656,(02)27208527,羅氏家用新冠病毒抗原自我檢測套組,78,2022/05/07 07:20:02,現階段下午1:30配合政府發售快篩試劑
5901170184,臺陽藥局,臺北市信義區大道路６１號,121.5823,25.04136,(02)27283403,羅氏家用新冠病毒抗原自我檢測套組,78,2022/05/07 07:20:02,快篩試劑早上9:30現場販售，週日沒有販售
5901170915,杏仁藥局,臺北市信義區大道路１３５號,121.5834,25.03901,(02)27262541,羅氏家用新冠病毒抗原自我檢測套組,24,2022/05/07 07:20:02,實名制快篩:週一至週五下午3點販售，週六週日無販售
5901172508,好康藥局,臺北市信義區莊敬路４１４號,121.5662,25.02716,(02)27232979,羅氏家用新冠病毒抗原自我檢測套組,9,2022/05/07 07:20:02,無
5901172544,麗中藥局,臺北市信義區福德街２１７號,121.5847,25.03841,(02)27594416,羅氏家用新冠病毒抗原自我檢測套組,78,2022/05/07 07:20:02,無
5901172651,康杏藥局,臺北市信義區福德街３０６號１樓,121.5874,25.03931,(02)27591510,羅氏家用新冠病毒抗原自我檢測套組,19,2022/05/07 07:20:02,無
5901172697,綠杏大藥局,臺北市信義區吳興街２４１號,121.5635,25.02745,(02)27582378,羅氏家用新冠病毒抗原自我檢測套組,85,2022/05/07 07:20:02,因快篩未及時到貨，5／1（日） 、5／2（一）暫停公費快篩購買兩天
5901172704,鴻濟藥局,臺北市信義區永吉路３２６巷２號１樓,121.5754,25.04507,(02)27645331,羅氏家用新冠病毒抗原自我檢測套組,22,2022/05/07 07:20:02,快篩販售時間:周一至周五: 15:00開始。週六.周日:視實際到貨情形請見門口公告
5901172740,信桉藥局,臺北市信義區莊敬路２３６號,121.5621,25.0296,(02)87860005,羅氏家用新冠病毒抗原自我檢測套組,234,2022/05/07 07:20:02,快篩販售 W1-5 11:00-20:00，W6 11:00-15:00
5901172964,榮泰藥局,臺北市信義區光復南路４１９巷１９號,121.5582,25.03659,(02)77296777,羅氏家用新冠病毒抗原自我檢測套組,44,2022/05/07 07:20:02,早上9:00開始發放實名制快篩號碼牌
5901173238,正和藥局,臺北市信義區吳興街２２５巷６號,121.5634,25.02782,(02)23455186,羅氏家用新冠病毒抗原自我檢測套組,1,2022/05/07 07:20:02,下午2點半發放快篩，週日無發放
5901173372,新永春藥局,臺北市信義區忠孝東路５段４２３巷１號,121.5753,25.04126,(02)27667385,羅氏家用新冠病毒抗原自我檢測套組,64,2022/05/07 07:20:02,快篩販售時間:每日13:00開始，售完為止
5901173407,康怡健保藥局,臺北市信義區吳興街４６７巷２弄１２號,121.5695,25.02381,(02)27206193,羅氏家用新冠病毒抗原自我檢測套組,2,2022/05/07 07:20:02,快篩早上9點開賣，賣完為止
5901173738,尚頤中西藥局,臺北市信義區虎林街１４５號,121.5767,25.03959,(02)27253818,羅氏家用新冠病毒抗原自我檢測套組,70,2022/05/07 07:20:02,無
5901173845,躍獅永吉藥局,臺北市信義區永吉路５２０號,121.5804,25.04521,(02)27658924,羅氏家用新冠病毒抗原自我檢測套組,46,2022/05/07 07:20:02,發放快篩時間為 9:30-10:30 （39人次） 20:30-21:30 （39人次） 星期日停發
5901173854,杏一後山埤藥局,臺北市信義區忠孝東路５段７７８號（實際營業地址：１樓）,121.5816,25.0434,(02)27274357,羅氏家用新冠病毒抗原自我檢測套組,3,2022/05/07 07:20:02,實名制快篩14:30開放排隊／14:55發放號碼牌
5901173934,躍獅光復藥局,臺北市信義區光復南路４１７之８號,121.5577,25.03682,(02)87862307,羅氏家用新冠病毒抗原自我檢測套組,50,2022/05/07 07:20:02,下午1點開始販售
5901173943,躍獅興雅藥局,臺北市信義區松德路１２８號,121.5745,25.03734,(02)87808429,羅氏家用新冠病毒抗原自我檢測套組,78,2022/05/07 07:20:02,14:00發號碼牌且同步開賣快篩，販賣至15:00或售完為止，週日無販售。
5901173961,北一忠孝藥局,臺北市信義區忠孝東路５段５２４巷１弄１６號１樓,121.5802,25.04133,(02)23464588,羅氏家用新冠病毒抗原自我檢測套組,32,2022/05/07 07:20:02,實名制快篩一~六販早上10點販售，周日不販售
5901180126,民生藥局,臺北市中正區濟南路２段４５－１號１樓,121.5305,25.0406,(02)23416470,羅氏家用新冠病毒抗原自我檢測套組,1,2022/05/07 07:20:02,4／15 公休無售口罩
5901180215,上海聯合藥局,臺北市中正區衡陽路３２號１樓,121.5126,25.04221,(02)23117744,羅氏家用新冠病毒抗原自我檢測套組,1,2022/05/07 07:20:02,無
5901180224,中心藥局,臺北市中正區汀州路３段１２１號,121.5303,25.01654,(02)23689889,羅氏家用新冠病毒抗原自我檢測套組,1,2022/05/07 07:20:02,實名制快篩因物流貨運配送調度，調整領取時間延後至下午3點
5901183323,和平藥局,臺北市中正區中華路２段４３號,121.5064,25.03508,(02)23755303,羅氏家用新冠病毒抗原自我檢測套組,10,2022/05/07 07:20:02,正常做業
5901183510,怡誠藥局,臺北市中正區汀州路２段２１２號,121.5237,25.02236,(02)23626905,羅氏家用新冠病毒抗原自我檢測套組,78,2022/05/07 07:20:02,無
5901183645,大愛生活藥局,臺北市中正區汀州路２段２３２號,121.5243,25.02189,(02)23661155,羅氏家用新冠病毒抗原自我檢測套組,31,2022/05/07 07:20:02,下午14:30開始發放快篩（不發號碼牌直接買）~~不要太早開始排隊啊啊啊啊
5901184080,活力健康藥妝藥局,臺北市中正區中華路２段３１５巷１號,121.5062,25.02795,(02)23392625,羅氏家用新冠病毒抗原自我檢測套組,1,2022/05/07 07:20:02,快篩14:00-15:00， 建議提早排隊
5901184106,信康藥局,臺北市中正區南昌路１段１４３號,121.5186,25.02953,(02)23961979,羅氏家用新冠病毒抗原自我檢測套組,1,2022/05/07 07:20:02,14:00開始販售實名制快篩
5901184473,中力藥局,臺北市中正區襄陽路１３之５號、１５號,121.5155,25.04349,(02)23313768,羅氏家用新冠病毒抗原自我檢測套組,78,2022/05/07 07:20:02,實名制快篩 販售時間：09:30~售完為止
5901184535,桐心藥局,臺北市中正區金華街１８之６號１樓,121.5202,25.03175,(02)23581663,羅氏家用新冠病毒抗原自我檢測套組,5,2022/05/07 07:20:02,無
5901184606,躍獅南寧藥局,臺北市中正區南昌路１段８１號,121.5178,25.03057,(02)23967072,羅氏家用新冠病毒抗原自我檢測套組,78,2022/05/07 07:20:02,上午10點售實名制快篩
5901184633,躍獅東門藥局,臺北市中正區金山南路１段１０８之１號（１樓）,121.5273,25.03538,(02)23920339,羅氏家用新冠病毒抗原自我檢測套組,34,2022/05/07 07:20:02,5／6銷售時間已結束。5／7下午兩點開始販售，不提早發放號碼牌
5901184713,建祥武昌藥局,臺北市中正區武昌街１段２９號１樓,121.5121,25.04416,(02)23314038,羅氏家用新冠病毒抗原自我檢測套組,78,2022/05/07 07:20:02,無
5901190177,信昌藥局,臺北市萬華區長泰街３６號１樓,121.5007,25.02336,(02)23054898,羅氏家用新冠病毒抗原自我檢測套組,1,2022/05/07 07:20:02,快篩實名制販售時間:週一~週日早上9:00起售完為止
5901193105,安誠貴陽藥局,臺北市萬華區貴陽街２段１４８號,121.5016,25.04017,(02)23812190,羅氏家用新冠病毒抗原自我檢測套組,156,2022/05/07 07:20:02,無
5901193196,青年宏越藥局,臺北市萬華區青年路４４號,121.5042,25.0255,(02)23011037,羅氏家用新冠病毒抗原自我檢測套組,96,2022/05/07 07:20:02,快篩六日不販售，禮拜一~五下午2:30-3:30，現場排隊
5901193301,富安藥局,臺北市萬華區萬大路４２６號,121.4981,25.02096,(02)23377878,羅氏家用新冠病毒抗原自我檢測套組,78,2022/05/07 07:20:02,快篩實名制：一人一卡，現場排隊，售完為止。【5／3早上暫停販售，販售時間待更新！】
5901200141,景美藥局,臺北市文山區景文街１２５號,121.5412,24.99033,(02)29335741,羅氏家用新冠病毒抗原自我檢測套組,78,2022/05/07 07:20:02,無
5901201568,康宜庭生活藥局,臺北市文山區興隆路４段６４號,121.5613,24.98514,(02)29385363,羅氏家用新冠病毒抗原自我檢測套組,6,2022/05/07 07:20:02,實名快篩14:00開賣 現場排隊
5901201826,舒博威藥局,臺北市文山區興隆路２段９５巷３號,121.547,24.99952,(02)29306805,羅氏家用新冠病毒抗原自我檢測套組,5,2022/05/07 07:20:02,早上8:30開始販售
5901202627,杏隆藥局,臺北市文山區羅斯福路５段２６１號,121.5395,25.00115,(02)29313151,羅氏家用新冠病毒抗原自我檢測套組,156,2022/05/07 07:20:02,快篩實名制採預約登記，至5／14已登記額滿。
5901202752,躍獅奕新藥局,臺北市文山區木新路２段２７５號,121.566,24.98292,(02)22340378,羅氏家用新冠病毒抗原自我檢測套組,66,2022/05/07 07:20:02,週一至週六下午1:30售實名制快篩，週日停售
5901202789,宜康藥局,臺北市文山區保儀路７號,121.5686,24.98872,(02)86619862,羅氏家用新冠病毒抗原自我檢測套組,15,2022/05/07 07:20:02,快篩平日下午一點半開始販售，國定假日及週末沒有販售
5901202949,萬隆大藥局,臺北市文山區羅斯福路５段２１８巷１５號,121.538,25.00203,(02)29334580,羅氏家用新冠病毒抗原自我檢測套組,83,2022/05/07 07:20:02,9：00~23：00
5901203179,健安藥局,臺北市文山區景興路１６５號,121.5447,24.99346,(02)29323757,羅氏家用新冠病毒抗原自我檢測套組,1,2022/05/07 07:20:02,周一到周六.下午三點開賣實名制快篩.現場排隊不發號碼牌
5901203204,躍獅新芳藥局,臺北市文山區興隆路３段１６號（實際營業地址：１樓）,121.5549,25.00062,(02)29308172,羅氏家用新冠病毒抗原自我檢測套組,78,2022/05/07 07:20:02,早上九點開始販售實名制快篩，售完為止
5901203268,躍獅木柵藥局,臺北市文山區指南路１段２８號,121.5695,24.98756,(02)86617752,羅氏家用新冠病毒抗原自我檢測套組,78,2022/05/07 07:20:02,政府快篩若有配貨每天早上9點開賣， 售完為止
5901203482,健康家藥局,臺北市文山區興隆路２段１３３號１樓,121.5481,25.00011,(02)29330858,羅氏家用新冠病毒抗原自我檢測套組,2,2022/05/07 07:20:02,實名制快篩下午一點開始販售，5／1店休
5902010132,宏恩藥局,高雄市鹽埕區教仁里瀨南街１３３號,120.2823,22.62472,(07)5211318,羅氏家用新冠病毒抗原自我檢測套組,36,2022/05/07 07:20:02,5／6 10:00開始販售 星期一至星期六10:00開始販售，星期日14:00開始販售
5902021153,世和藥局,高雄市鼓山區華豐里華夏路１９５號,120.2959,22.66936,(07)5522566,羅氏家用新冠病毒抗原自我檢測套組,41,2022/05/07 07:20:02,賣口罩時間：周一至週日每天早上7點半到下午9點，售完為止。
5902030063,紅心藥局,高雄市左營區崇德路２５５號,120.3041,22.67535,(07)3416697,羅氏家用新冠病毒抗原自我檢測套組,62,2022/05/07 07:20:02,早上8點30賣快篩到完
5902030090,宏仁藥局,高雄市左營區左營大路３９０號,120.2932,22.68702,(07)5817895,羅氏家用新冠病毒抗原自我檢測套組,70,2022/05/07 07:20:02,口罩代售時間自早上10:00開始，售完為止。
5902030634,有機藥局,高雄市左營區榮耀街３號,120.3216,22.67935,(07)3596429,羅氏家用新冠病毒抗原自我檢測套組,51,2022/05/07 07:20:02,平日:7:40~22:00 六:08:00~22:00 星期日公休
5902032450,可達藥局,高雄市左營區榮德街１７７號,120.3205,22.68359,(07)3420182,羅氏家用新冠病毒抗原自我檢測套組,77,2022/05/07 07:20:02,快篩販售時間週一～週六早上9點～11點。現場排隊，售完為止
5902050770,仁生藥局,高雄市三民區民享里熱河二街７８號,120.3006,22.64431,(07)3118765,羅氏家用新冠病毒抗原自我檢測套組,78,2022/05/07 07:20:02,上午:8點開始販售
5902056638,柏仁藥局,高雄市三民區覺民路５０４號,120.3317,22.64092,(07)3976016,羅氏家用新冠病毒抗原自我檢測套組,69,2022/05/07 07:20:02,實名制快篩下午3點開賣，現場排隊，售完為止
5902071528,岩生藥局,高雄市前金區自立一路１５－１號,120.2975,22.63437,(07)2863608,羅氏家用新冠病毒抗原自我檢測套組,38,2022/05/07 07:20:02,營業時間為24小時 過年期間正常營業
5902081328,東信藥局,高雄市苓雅區三多一路１８９號,120.3313,22.62258,(07)7613309,羅氏家用新冠病毒抗原自我檢測套組,67,2022/05/07 07:20:02,早上8:30開始發送號碼牌販售口罩，售完為止，假日正常販售
5902085344,意祥藥局,高雄市苓雅區武廟路１４２之１號,120.3276,22.63125,(07)7224835,羅氏家用新冠病毒抗原自我檢測套組,6,2022/05/07 07:20:02,藥局販售口罩時間，依藥局門口公告時間為主（售完為止）
5902085371,加和藥局,高雄市苓雅區和平一路１４３之７號,120.3205,22.62331,(07)7219332,羅氏家用新冠病毒抗原自我檢測套組,78,2022/05/07 07:20:02,快篩試劑每日下午2:30販售，務再來電詢問。星期天不販售快篩試劑
5902091100,佳加藥局,高雄市前鎮區瑞北路１１４號,120.3325,22.60923,(07)7228112,羅氏家用新冠病毒抗原自我檢測套組,40,2022/05/07 07:20:02,早上8:30開始銷售快篩  售完為止    星期日快篩停售
5902111670,桂林活力藥師藥局,高雄市小港區桂陽路４０號,120.3575,22.58194,(07)7931248,羅氏家用新冠病毒抗原自我檢測套組,21,2022/05/07 07:20:02,營業日09:00發放實名制快篩號碼牌.售完為止
5902111796,力安藥師藥局,高雄市小港區桂陽路316號１樓,120.3522,22.58211,(07)7918167,羅氏家用新冠病毒抗原自我檢測套組,78,2022/05/07 07:20:02,快篩實名制:週一~週六早上07:30.週日晚上8:00開始販售.售完即止
5903010510,安德豐原藥局,臺中市豐原區中正路２９５號１樓,120.7159,24.25142,(04)25200733,羅氏家用新冠病毒抗原自我檢測套組,5,2022/05/07 07:20:02,快篩0800發號碼牌，憑號碼牌領取時間1200-1900
5903020052,東勢福倫藥局,臺中市東勢區豐勢路４３８號,120.829,24.25586,(04)25876118,羅氏家用新冠病毒抗原自我檢測套組,78,2022/05/07 07:20:02,＜快篩＞ 5／7，5／8，5／9 早上08:30開賣.
5903030067,甲尚藥局,臺中市大甲區順天路１２９號１樓,120.622,24.3446,(04)26760885,羅氏家用新冠病毒抗原自我檢測套組,78,2022/05/07 07:20:02,實名制 快篩 早0800 開賣 （依經驗 約莫 0830 前完售）
5903040072,碧綠谷藥局,臺中市清水區中華路５２５號,120.5718,24.27605,(04)26281151,羅氏家用新冠病毒抗原自我檢測套組,20,2022/05/07 07:20:02,09:30發放快篩.星期日休息.癌症諮詢.慢箋領藥.長照特約.更年期.糖尿病.戒菸諮詢.孕期保健.小兒營養
5903050069,進騰藥局,臺中市沙鹿區鎮南路２段２３４號,120.5689,24.22394,(04)26314418,羅氏家用新冠病毒抗原自我檢測套組,61,2022/05/07 07:20:02,營業時間8:00-22:00，每日中午12點開始販售家用快篩
5903050103,北勢進騰藥局,臺中市沙鹿區北勢東路５０９之７號１樓,120.576,24.22526,(04)26330893,羅氏家用新冠病毒抗原自我檢測套組,78,2022/05/07 07:20:02,營業時間12:00-22:00，每日12:00販售實名制快篩
5903050256,大安心藥局,臺中市沙鹿區星河路１２－１號１樓,120.5679,24.25208,(04)26620082,羅氏家用新冠病毒抗原自我檢測套組,78,2022/05/07 07:20:02,快篩實名制每日上午9時開始販售，周日也有販售
5903070025,得安藥局,臺中市后里區四村路７８號,120.7129,24.30469,(04)25585333,羅氏家用新冠病毒抗原自我檢測套組,78,2022/05/07 07:20:02,快篩販賣時間 14:00~15:00（售完為止）
5903070105,后里藥局,臺中市后里區文明路１３３號１樓,120.7164,24.30682,(04)25590119,羅氏家用新冠病毒抗原自我檢測套組,52,2022/05/07 07:20:02,不缺貨+不累時 早上8點前 晚上8點後  請勿排隊群聚 注意身體健康
5903070141,甲后藥局,臺中市后里區甲后路一段２５３號１樓,120.727,24.30906,(04)25585273,羅氏家用新冠病毒抗原自我檢測套組,145,2022/05/07 07:20:02,周一到周六，快篩發放時段：09:00，14:30，19:00，限額售完為止。
5903090125,愛生藥師藥局,臺中市潭子區中山路２段４９１號,120.7051,24.21594,(04)25321819,羅氏家用新冠病毒抗原自我檢測套組,63,2022/05/07 07:20:02,早上8:40開始發放實名制快篩
5903090143,佳福藥局,臺中市潭子區中山路１段４３－１號,120.7023,24.19138,(04)25332982,羅氏家用新冠病毒抗原自我檢測套組,78,2022/05/07 07:20:02,每日中午12:00至下午3:00休息，星期六公休，營業日上午8:00快篩試劑開賣
5903100180,杏一大雅中清藥局,臺中市大雅區中清路四段３１、３３、３５號１樓,120.6448,24.22615,(04)25601791,羅氏家用新冠病毒抗原自我檢測套組,5,2022/05/07 07:20:02,週一~週六14:00販售（13:50發號碼牌）每人每卡限定1份500元!週日無販售!
5903150019,統元藥局,臺中市烏日區中華路５８３號,120.6342,24.10755,(04)23377588,羅氏家用新冠病毒抗原自我檢測套組,78,2022/05/07 07:20:02,快篩販售時間:早上9:00至12:00或（售完即止）.
5903160088,必安藥局,臺中市大肚區沙田路二段６３４號,120.5455,24.15084,(04)26992116,羅氏家用新冠病毒抗原自我檢測套組,78,2022/05/07 07:20:02,**限購1份**早上8點販售**每天固定78份，非156**
5903180053,皇昇藥局,臺中市霧峰區四德路５５６號１樓,120.6648,24.06008,(04)23397749,羅氏家用新冠病毒抗原自我檢測套組,117,2022/05/07 07:20:02,早上7:30點開始販售，現場排隊
5903190335,育賢德侑藥局,臺中市太平區育賢路１０７號、１０９號,120.7219,24.15768,(04)23920696,羅氏家用新冠病毒抗原自我檢測套組,78,2022/05/07 07:20:02,實名制快篩販售時間：星期一~星期日 早上8:30點開賣（售完為止）
5903190728,太平瑞昌藥局,臺中市太平區新興路２８號１樓,120.7124,24.15916,(04)23956319,羅氏家用新冠病毒抗原自我檢測套組,34,2022/05/07 07:20:02,無
5903200121,弘佑藥局,臺中市大里區成功路５１５號１樓,120.7032,24.09071,(04)24911234,羅氏家用新冠病毒抗原自我檢測套組,59,2022/05/07 07:20:02,實名制快篩試劑早上九點開始販售，無號碼牌。星期天公休
5903200229,信元藥局,臺中市大里區益民路２段３７２號１樓,120.684,24.11545,(04)24876051,羅氏家用新冠病毒抗原自我檢測套組,60,2022/05/07 07:20:02,下午5點發號碼牌並依序販賣
5903200621,德芳東榮藥局,臺中市大里區東榮路８號,120.6893,24.1102,(04)24863898,羅氏家用新冠病毒抗原自我檢測套組,9,2022/05/07 07:20:02,快篩販售時間：下午3點~6點，現場排隊，完售即停
5903200649,躍獅日新藥局,臺中市大里區日新路３４２號１樓,120.6925,24.11528,(04)24822345,羅氏家用新冠病毒抗原自我檢測套組,39,2022/05/07 07:20:02,每日9:00代售口罩及快篩（星期日公休）（週六到17:30）
5903200658,德芳成功藥局,臺中市大里區成功路５３５－３號１樓,120.7033,24.0913,(04)24920298,羅氏家用新冠病毒抗原自我檢測套組,21,2022/05/07 07:20:02,快篩販售時間:下午3點~6點
5903200738,杏一大里國光藥局,臺中市大里區國光路二段４１１號１樓,120.6796,24.10921,(04)24071492,羅氏家用新冠病毒抗原自我檢測套組,78,2022/05/07 07:20:02,周一至周六16:00~19:00，周日及補假日人力不足不販售
5903230094,平祐健保藥局,臺中市東區旱溪東路１段２９７號１樓,120.7009,24.13481,(04)22113898,羅氏家用新冠病毒抗原自我檢測套組,57,2022/05/07 07:20:02,早上九點開始販售!週六公休，週日正常販售!
5903230183,恒生藥局,臺中市東區樂業路３９５號１樓,120.7051,24.138,(04)22135179,羅氏家用新冠病毒抗原自我檢測套組,78,2022/05/07 07:20:02,快篩11點開始過卡，中午1~3點為清消時間 暫停發放。周日公休。另有提供領慢箋服務及保健食品，任何疑問請洽藥師。
5903240152,陽光藥局,臺中市西區中美街３０５號１樓,120.6601,24.14977,(04)23020711,羅氏家用新冠病毒抗原自我檢測套組,5,2022/05/07 07:20:02,早上9點開始銷售，庫存正確，直接來買。售完為止
5903240410,德芳美村藥局,臺中市西區美村路一段６８１、６８３號１樓,120.6618,24.13545,(04)23782848,羅氏家用新冠病毒抗原自我檢測套組,2,2022/05/07 07:20:02,周一到周五下午3點~6點
5903240447,大樹五權藥局,臺中市西區五權路９７－１號１樓,120.6717,24.14626,(04)22022910,羅氏家用新冠病毒抗原自我檢測套組,1,2022/05/07 07:20:02,快篩實名制，每天16:00開始販售，售完為止。
5903250505,心安藥局,臺中市南區國光路２４１號１樓,120.6794,24.12676,(04)22858773,羅氏家用新冠病毒抗原自我檢測套組,5,2022/05/07 07:20:02,每天下午三點排隊開賣，一人一卡，週日公休下次是5／7號.5／6已售完.
5903250658,田園藥局,臺中市南區學府路１６０號１樓,120.6742,24.12909,(04)22220605,羅氏家用新冠病毒抗原自我檢測套組,5,2022/05/07 07:20:02,每週三公休。每天13:30 開始販售，一人限一卡，依到貨數量販售
5903260163,康甫藥師藥局,臺中市北區進化北路３６６號１樓,120.6806,24.16333,(04)22366682,羅氏家用新冠病毒抗原自我檢測套組,3,2022/05/07 07:20:02,有關口罩販售：周一至周六早上9:30發號碼牌，下午3:00過後發售口罩。周日休息。
5903260421,忠明小林健保藥局,臺中市北區忠明路１６１號,120.6642,24.16235,(04)22013666,羅氏家用新冠病毒抗原自我檢測套組,78,2022/05/07 07:20:02,每日早上8點發號碼牌及收健保卡，下午4點半領回
5903260476,康媞藥局,臺中市北區北平路二段１２８號１樓,120.6774,24.17124,(04)22925388,羅氏家用新冠病毒抗原自我檢測套組,1,2022/05/07 07:20:02,無
5903260618,中清小林健保藥局,臺中市北區中清路一段８６、８８號１樓,120.6767,24.15622,(04)22034197,羅氏家用新冠病毒抗原自我檢測套組,73,2022/05/07 07:20:02,24小時營業無公休，早上八點發號碼牌，十二點以後過健保卡發放口罩.
5903260798,光恒藥局,臺中市北區五權路２６１號１樓,120.6767,24.15097,(04)22068638,羅氏家用新冠病毒抗原自我檢測套組,1,2022/05/07 07:20:02,快篩 周一到周六早上8:00到12:00 開放購買
5903270847,分子藥局,臺中市西屯區惠來路二段２３６－１號,120.6421,24.16318,(04)22513080,羅氏家用新冠病毒抗原自我檢測套組,49,2022/05/07 07:20:02,發放時間週一至週日早上10點起售完為止
5903270936,新元藥局,臺中市西屯區文心路三段５３２號１樓,120.6659,24.17267,(04)23121383,羅氏家用新冠病毒抗原自我檢測套組,1,2022/05/07 07:20:02,5／1-5／2公休，快篩為滾動式配送，請電洽04-23121383
5903271031,美十樂中科藥局,臺中市西屯區西屯路三段１６６－６５號１樓,120.6129,24.19035,(04)24610219,羅氏家用新冠病毒抗原自我檢測套組,468,2022/05/07 07:20:02,醫事人員卡片損壞，暫時無法販賣快篩
5903271157,富康家健保藥局,臺中市西屯區漢成四街８號１樓,120.6652,24.17026,(04)23174741,羅氏家用新冠病毒抗原自我檢測套組,15,2022/05/07 07:20:02,無
5903271308,祐生藥局,臺中市西屯區文華路３之１號１樓,120.6447,24.17535,(04)24517169,羅氏家用新冠病毒抗原自我檢測套組,192,2022/05/07 07:20:02,快篩發放時間：第一批中午12:00，第二批傍晚18:00，售完為止
5903280450,瑞安藥局,臺中市南屯區大墩路２６１號,120.6497,24.14302,(04)24750818,羅氏家用新冠病毒抗原自我檢測套組,39,2022/05/07 07:20:02,周一到周日每日早上9:00開始，賣完為止，營業至晚上22:00。
5903280781,美十樂藥局,臺中市南屯區東興路二段２７９號１樓,120.6528,24.1437,(04)24710219,羅氏家用新冠病毒抗原自我檢測套組,3,2022/05/07 07:20:02,政府快篩目前採當天配送到貨，當天販售，歡迎至門市加入群組，統一公告發放時間
5903280790,統一藥局,臺中市南屯區黎明路一段１１９號１樓,120.6261,24.11478,(04)24701966,羅氏家用新冠病毒抗原自我檢測套組,77,2022/05/07 07:20:02,實名制口罩販售時間為早上8:00~10:00售完為止! （週日售完關門休息。）
5903280807,大樹南屯藥局,臺中市南屯區向上路一段６４３號１樓,120.6486,24.14659,(04)24758887,羅氏家用新冠病毒抗原自我檢測套組,1,2022/05/07 07:20:02,快篩實名制，每天16:00開始販售，售完為止。
5903290661,康博中西健保藥局,臺中市北屯區后庄一街７號１樓,120.6644,24.1865,(04)24252468,羅氏家用新冠病毒抗原自我檢測套組,1,2022/05/07 07:20:02,快篩下午01:00發售53份；晚上06:00銷售25份.週六.日及假日下午06:30開始依配送滾動調整
5903290689,大德安藥局,臺中市北屯區景賢路２３６號,120.7241,24.16701,(04)24378351,羅氏家用新冠病毒抗原自我檢測套組,59,2022/05/07 07:20:02,口罩代售時間從週一到週六09:00~現場排隊售完為止星期日早上10:00起至售完為止
5903291159,均福藥局,臺中市北屯區軍福十三路１００號１樓,120.7308,24.17096,(04)24391169,羅氏家用新冠病毒抗原自我檢測套組,3,2022/05/07 07:20:02,快篩實名制規則:晚上七點依現場排隊順序發號碼牌 （周日公休不販售）
5905030038,美尚藥局,臺南市白河區白河里康樂路４３號,120.4148,23.34833,(06)6853538,羅氏家用新冠病毒抗原自我檢測套組,66,2022/05/07 07:20:02,快篩販售時間：星期一~五8:00-21:00 六07:00-18:00 售完為止 禮拜天視診所上班而定
5905130024,人大藥局,臺南市六甲區中山路７號,120.3513,23.23059,(06)6988802,羅氏家用新冠病毒抗原自我檢測套組,37,2022/05/07 07:20:02,快篩販售時間：星期一-日07:30-售完
5905140039,安安藥局隆田店,臺南市官田區中山路一段１５號１樓,120.3186,23.1927,(06)5795705,羅氏家用新冠病毒抗原自我檢測套組,1,2022/05/07 07:20:02,全日口罩販賣
5905170019,博士藥師專業藥局,臺南市七股區大埕里３５７號１樓,120.1416,23.14288,(06)7874226,羅氏家用新冠病毒抗原自我檢測套組,76,2022/05/07 07:20:02,早上7:30開始營業，也開始快篩實名制，W1-5 7:30~20:00 W6 7:30~18:00
5905200094,大華藥局,臺南市新市區大社里大社７０８號１樓,120.3176,23.08945,(06)5997119,羅氏家用新冠病毒抗原自我檢測套組,60,2022/05/07 07:20:02,週一至週五8:30、週六14:00發號碼牌收健保卡（現場排隊人數眾多會提前發放，避免群聚）。 收卡後兩小時再來取回。
5905270041,仁德市安藥師藥局,臺南市仁德區中正西路２５號,120.2244,22.91814,(06)2661933,羅氏家用新冠病毒抗原自我檢測套組,1,2022/05/07 07:20:02,快篩販賣：5／7.5／8.星期六.日~早上9點開始販售
5905270158,佳德藥局,臺南市仁德區德糖路４７０號１樓,120.2522,22.95128,(06)2796767,羅氏家用新冠病毒抗原自我檢測套組,78,2022/05/07 07:20:02,口罩發放時間:禮拜一至禮拜六8:30發號碼牌 9:00領取口罩，禮拜四和六只到中午12:00
5905280136,悅橙歸仁藥局,臺南市歸仁區大通路４３號１樓,120.296,22.9676,(06)2396660,羅氏家用新冠病毒抗原自我檢測套組,4,2022/05/07 07:20:02,實名制Covid-19快篩15:00開始現場販售至售完
5905310291,俐欣藥局,臺南市永康區大仁街２０６號１樓,120.2582,23.00553,(06)2050777,羅氏家用新冠病毒抗原自我檢測套組,12,2022/05/07 07:20:02,口罩販售時間：星期一~星期六10:00~13:00
5905311127,台南永康藥局,臺南市永康區中山南路８１６、８１６─１、２、３號１樓,120.2471,23.02099,(06)2020201,羅氏家用新冠病毒抗原自我檢測套組,1,2022/05/07 07:20:02,快篩實名制，每天16:00開始販售，售完為止。
5905320091,台和群康藥局,臺南市東區崇善路４７０號１樓,120.2295,22.97292,(06)2891360,羅氏家用新冠病毒抗原自我檢測套組,18,2022/05/07 07:20:02,每日0900後發售快篩試劑 數量有限售完為止
5905320751,倍加藥局,臺南市東區東門路一段２５５號１樓,120.2179,22.9872,(06)2364173,羅氏家用新冠病毒抗原自我檢測套組,78,2022/05/07 07:20:02,快篩販售時段 週一~週六 8:00~12:00 ＆ 14:30~21:30， 週日休息
5905320877,靈安藥局,臺南市東區大福里榮譽街３２－２號１樓,120.2163,22.97419,(06)2143727,羅氏家用新冠病毒抗原自我檢測套組,69,2022/05/07 07:20:02,週一至週五早上九點至晚上九點／週六早上九點至中午十二點
5905330113,進祥藥局,臺南市南區文南里健康路２段３４２－１號１樓,120.1879,22.98205,(06)2630571,羅氏家用新冠病毒抗原自我檢測套組,77,2022/05/07 07:20:02,週一到週六，早上9:00開始販售快篩，售完為止。
5905340164,田邊藥局,臺南市中西區中正路２３６號,120.1969,22.99326,(06)2200106,羅氏家用新冠病毒抗原自我檢測套組,78,2022/05/07 07:20:02,口罩下午1:00販售售完為止.請自備零錢，
5905340253,永華台安藥局,臺南市中西區永華路一段１８４、１８４－１號１、２、３樓,120.1919,22.98831,(06)2225531,羅氏家用新冠病毒抗原自我檢測套組,59,2022/05/07 07:20:02,10:00販售快篩試劑（若有收到配送）
5905340262,瑞城藥局,臺南市中西區赤嵌里忠義路二段１７６號１樓,120.2043,22.99649,(06)2215810,羅氏家用新冠病毒抗原自我檢測套組,1,2022/05/07 07:20:02,週四公休 週一二三五六日09:30販售快篩 FB公告最新販售訊息 歡迎追蹤 居隔常備藥販售中
5905350240,健康藥局,臺南市北區長榮路５段２１號,120.2206,23.00827,(06)2003078,羅氏家用新冠病毒抗原自我檢測套組,1,2022/05/07 07:20:02,9:00開始販售快篩，售完為止；六日停止販售快篩
5905350482,大欣藥局,臺南市北區公園路２０３號１樓,120.2077,22.99941,(06)2236828,羅氏家用新冠病毒抗原自我檢測套組,1,2022/05/07 07:20:02,快篩視當日物流情況有所不同，APP數量僅供參考~謝謝
5905370135,安南日日康藥局,臺南市安南區安和路五段３３號,120.2185,23.06398,(06)3550995,羅氏家用新冠病毒抗原自我檢測套組,11,2022/05/07 07:20:02,實名制快篩試劑周一至周六下午2點開始售完為止
5905380239,怡家藥局,臺南市安平區國平里華平路１４６─５號１樓,120.174,22.98438,(06)2970519,羅氏家用新冠病毒抗原自我檢測套組,3,2022/05/07 07:20:02,5／8週日加開0800快篩發售週一及六早0900到1100，週二、四、五晚1800到2000售完為止
5907010187,人人好藥局,高雄市鳳山區五甲三路１０巷７號１樓,120.3278,22.59336,(07)8151566,羅氏家用新冠病毒抗原自我檢測套組,34,2022/05/07 07:20:02,上午0830-1330下午1530-2100， 自2／11-2／29口罩販售周一三四五日，時間:9:00-12:00售完為止
5907010409,好郝藥局,高雄市鳳山區武松里經武路１７８號１樓,120.3642,22.63619,(07)7468840,羅氏家用新冠病毒抗原自我檢測套組,78,2022/05/07 07:20:02,營業日15:00開始販售快篩，售完為止
5907010427,好郝藥局鳳林店,高雄市鳳山區誠智里鳳林路２９０號,120.3779,22.62216,(07)7869188,羅氏家用新冠病毒抗原自我檢測套組,78,2022/05/07 07:20:02,健保快篩周一到周六（周日不販售）下午三點開始現場販售，售完為止
5907010927,元元鳳山藥局,高雄市鳳山區一甲里五甲二路３４８之１號１樓,120.3377,22.59955,(07)7529595,羅氏家用新冠病毒抗原自我檢測套組,82,2022/05/07 07:20:02,現場排隊，自備500元不找零!一至五下午3-6點。星期六下午2-5點。星期日公休
5907011200,和成藥局,高雄市鳳山區南成里和成路６５號１樓,120.3379,22.58986,(07)7961566,羅氏家用新冠病毒抗原自我檢測套組,33,2022/05/07 07:20:02,自2／11日~2／29日，營業日08:00~10:00為販賣口罩時間
5907011291,桂林活力藥師藥局鳳山店,高雄市鳳山區中正里瑞興路４８８號１樓,120.3719,22.63089,(07)7012827,羅氏家用新冠病毒抗原自我檢測套組,78,2022/05/07 07:20:02,早上9點發放號碼牌，發完號碼牌即售完
5907080125,仁武丁丁藥局,高雄市仁武區仁和里鳳仁路２１之８號,120.3558,22.6802,(07)3721896,羅氏家用新冠病毒抗原自我檢測套組,78,2022/05/07 07:20:02,自5月1日~5月31日，營業日9:00起為販賣快篩時間，售完為止。
5907080250,仁同藥局,高雄市仁武區八卦里永仁街７０６號１樓,120.3313,22.69072,(07)3736142,羅氏家用新冠病毒抗原自我檢測套組,71,2022/05/07 07:20:02,自5月01日~5月31日，營業日8:00起開始販售，當場刷卡領口罩
5907150024,安麗兒藥局路竹店,高雄市路竹區大社路５１號１樓,120.262,22.8632,(07)6071699,羅氏家用新冠病毒抗原自我檢測套組,78,2022/05/07 07:20:02,快篩實名制，週一至週六，早上8：30 開始，售完為止（週日無販售）
5907150202,永昌藥局,高雄市路竹區延平路８１號,120.2579,22.85786,(07)6964321,羅氏家用新冠病毒抗原自我檢測套組,39,2022/05/07 07:20:02,周一至周六上午10:00~12:30；下午15:30-18:00開始依序販售快篩試劑，售完為止。星期日休息。
5907160093,保生藥局,高雄市湖內區葉厝里保生路３４０．３４２號,120.2195,22.90733,(07)6990800,羅氏家用新冠病毒抗原自我檢測套組,1,2022/05/07 07:20:02,快篩實名制，每天16:00開始販售，售完為止。
5907200038,和德藥局梓官店,高雄市梓官區梓和里梓官路２３３號１樓,120.267,22.75975,(07)6191008,羅氏家用新冠病毒抗原自我檢測套組,1,2022/05/07 07:20:02,早上8點開始發號碼牌（1人限2張健保卡）.下午2點開始販售
5907290176,為安藥局,高雄市鼓山區九如四路９５９號,120.2788,22.65541,(07)5212912,羅氏家用新冠病毒抗原自我檢測套組,7,2022/05/07 07:20:02,快篩實名制販賣時間：星期一至星期六  10:00開始，賣完為止  星期日休息
5907300417,森森藥師藥局,高雄市左營區緯六路２１５號１樓,120.2874,22.69707,(07)5853600,羅氏家用新冠病毒抗原自我檢測套組,1,2022/05/07 07:20:02,快篩販售（W1~W5） 8~19點；（W6） 8:30~12點，售完為止
5907300659,維康藥局高榮店,高雄市左營區榮總路１６３號、１６５號,120.3216,22.6809,(07)3494540,羅氏家用新冠病毒抗原自我檢測套組,78,2022/05/07 07:20:02,平常日0900-1700為快篩販賣時間賣完為止！假日1000-1800
5907320866,意朋建興藥局,高雄市三民區建興路２２５號１樓,120.3251,22.64418,(07)3929507,羅氏家用新冠病毒抗原自我檢測套組,75,2022/05/07 07:20:02,口罩領取時間:W1~W日（AM1100~換完為止）
5907320946,熊安心藥局,高雄市三民區陽明路４０８號,120.3429,22.64609,(07)3815212,羅氏家用新冠病毒抗原自我檢測套組,37,2022/05/07 07:20:02,週一 ~ 週六快篩 14:00 販售
5907321078,振源藥局,高雄市三民區熱河一街３５５號１樓,120.3061,22.64365,(07)3112541,羅氏家用新冠病毒抗原自我檢測套組,11,2022/05/07 07:20:02,4／30起15:00開始販售快篩，六日皆有營業
5907330228,林森合豐藥局,高雄市新興區林森一路３７號１樓,120.305,22.62388,(07)2823313,羅氏家用新冠病毒抗原自我檢測套組,30,2022/05/07 07:20:02,無
5907350533,健群藥局,高雄市苓雅區安業路４０號,120.3231,22.62731,(07)7150097,羅氏家用新冠病毒抗原自我檢測套組,2,2022/05/07 07:20:02,無
5907350659,北京藥局林泉店,高雄市苓雅區林泉里３鄰林泉街３５號１樓,120.3192,22.62323,(07)7263030,羅氏家用新冠病毒抗原自我檢測套組,2,2022/05/07 07:20:02,營業時間早上8點到下午11點，快篩下午3點30分開始販售
5907360146,好芳鄰藥局,高雄市前鎮區光華二路２５７號,120.3179,22.61398,(07)3318657,羅氏家用新冠病毒抗原自我檢測套組,73,2022/05/07 07:20:02,4／28日起.上午08:20~11:00 為販賣快篩時間.售完為止（其餘時間不販賣）
5907360226,順康健保藥局,高雄市前鎮區一心二路６７號,120.3099,22.61142,(07)5364438,羅氏家用新冠病毒抗原自我檢測套組,14,2022/05/07 07:20:02,家用快篩販賣時間，每天早上9點開始，售完為止。
5907360520,大樹瑞福藥局,高雄市前鎮區瑞隆路１７０號１樓、２樓,120.3357,22.60598,(07)7271170,羅氏家用新冠病毒抗原自我檢測套組,78,2022/05/07 07:20:02,快篩實名制，每天16:00開始販售，售完為止。
5907360600,桂林活力藥師藥局草衙店,高雄市前鎮區草衙二路３６０號,120.323,22.57801,(07)8131819,羅氏家用新冠病毒抗原自我檢測套組,2,2022/05/07 07:20:02,9:00發放實名制快篩號碼牌.售完為止
5911011227,和平大藥局,基隆市中正區中正路７５０號,121.7696,25.1519,(02)24628151,羅氏家用新冠病毒抗原自我檢測套組,78,2022/05/07 07:20:02,無
5911011334,海大藥局,基隆市中正區新豐街２５５號１樓,121.7879,25.13621,(02)24699222,羅氏家用新冠病毒抗原自我檢測套組,78,2022/05/07 07:20:02,平日：8：30~12：00，15：00~21：30；星期日：~12：00
5911011469,維元社區藥局,基隆市中正區新豐街４４８號,121.7859,25.13568,(02)24601388,羅氏家用新冠病毒抗原自我檢測套組,24,2022/05/07 07:20:02,無
5911011496,源昌藥局,基隆市中正區北寧路384號1樓,121.7963,25.13946,(02)24691686,羅氏家用新冠病毒抗原自我檢測套組,31,2022/05/07 07:20:02,無
5911011521,禎宸藥局,基隆市中正區中正路１７５號１樓,121.7605,25.14233,(02)24620366,羅氏家用新冠病毒抗原自我檢測套組,1,2022/05/07 07:20:02,無
5911011585,雙鶴藥局,基隆市中正區義一路３５號１樓,121.7456,25.13309,(02)24263193,羅氏家用新冠病毒抗原自我檢測套組,5,2022/05/07 07:20:02,下午14:00開始販售
5911021438,正心藥局,基隆市七堵區南興路１０號１樓,121.7149,25.09755,(02)24563378,羅氏家用新冠病毒抗原自我檢測套組,78,2022/05/07 07:20:02,每日限量78盒， 星期一~六下午13:30發號碼牌，14:00開始販賣，星期日上午9:00發號碼牌，9:30開始販賣，12:00停止領取
5911041958,百福仁愛專業藥局,基隆市仁愛區仁四路５０號１樓,121.7413,25.12829,(02)24266699,羅氏家用新冠病毒抗原自我檢測套組,1,2022/05/07 07:20:02,4／30起，早上8:00販售快篩
5912011865,長青藥師藥局,新竹市東區民生路１４５號,120.9765,24.81063,(03)5439673,羅氏家用新冠病毒抗原自我檢測套組,78,2022/05/07 07:20:02,快篩實名制上午9；00 開始發放 ，週日不發放
5912012059,幼安藥局,新竹市東區三民里民族路１２８號,120.9775,24.80799,(03)5316337,羅氏家用新冠病毒抗原自我檢測套組,71,2022/05/07 07:20:02,快篩販賣時間 : 早上7 點30開始至晚上點售完為止
5912012746,安康藥局,新竹市東區民族路１１２號,120.9771,24.8077,(03)5437048,羅氏家用新冠病毒抗原自我檢測套組,74,2022/05/07 07:20:02,快篩試劑代售時段 : 早上8點到賣完為止送貨時間早上9點到下午2點
5912012773,博弘藥局,新竹市東區南大路３８７號,120.9684,24.79662,(03)5619470,羅氏家用新冠病毒抗原自我檢測套組,2,2022/05/07 07:20:02,快篩試劑販賣時間；上午8:00起至售完為止
5912012988,杏康健保特約藥局,新竹市東區光復路一段５２５巷２３號１樓,121.0135,24.78384,(03)5772966,羅氏家用新冠病毒抗原自我檢測套組,22,2022/05/07 07:20:02,週一至五09:00-21:00 （週六公休） 週日09:00-18:00
5912013261,禾心藥局,新竹市東區民生路２３１號１樓,120.9754,24.81199,(03)5332403,羅氏家用新冠病毒抗原自我檢測套組,39,2022/05/07 07:20:02,無
5912013341,康健藥局,新竹市東區中央路１２８－１號,120.9711,24.80687,(03)5359789,羅氏家用新冠病毒抗原自我檢測套組,78,2022/05/07 07:20:02,快篩販售時段: 早8:00-9:00 售完為止
5912013654,七二八藥局,新竹市東區明湖路１２４５號１樓,120.979,24.76774,(03)5200530,羅氏家用新冠病毒抗原自我檢測套組,1,2022/05/07 07:20:02,5／7政府快篩，12:30開始販售。
5912013690,佑全新竹食品藥局,新竹市東區食品路１７０號,120.9764,24.79735,(03)5627307,羅氏家用新冠病毒抗原自我檢測套組,19,2022/05/07 07:20:02,實名制快篩下午2點開賣1點40分發號碼牌實際庫存依物流到貨時間滾動式調整
5912042173,保安藥局,新竹市北區西大路617號,120.9588,24.80991,(03)5258636,羅氏家用新冠病毒抗原自我檢測套組,59,2022/05/07 07:20:02,快篩星期五到星期一早上7:30開始販售
5912042208,芳里藥局,新竹市北區延平路一段214巷2號,120.9544,24.80528,(03)5222989,羅氏家用新冠病毒抗原自我檢測套組,78,2022/05/07 07:20:02,星期日營業時間調整為9:00-18:00。快篩販售時間為早上8點，禮拜天為9點
5912042404,豐盛藥局,新竹市北區光華二街３５號,120.9747,24.81816,(03)5335651,羅氏家用新冠病毒抗原自我檢測套組,35,2022/05/07 07:20:02,實名制快篩:早上9點開始發號碼牌，13-22點領取快篩
5912042459,閎安專業藥局,新竹市北區延平路三段６８７號１樓,120.9367,24.8407,(03)5368675,羅氏家用新冠病毒抗原自我檢測套組,31,2022/05/07 07:20:02,快篩販售時間:中午12:00，週日公休
5912042637,中福藥局,新竹市北區中福路８３號,120.9327,24.8408,(03)5366996,羅氏家用新冠病毒抗原自我檢測套組,78,2022/05/07 07:20:02,快篩販售時間：上午09:00
5912042959,躍獅光華藥局,新竹市北區光華東街３６－１號１樓,120.9743,24.81586,(03)5331281,羅氏家用新冠病毒抗原自我檢測套組,78,2022/05/07 07:20:02,實際販售時間:AM08:30
5912050040,速安藥局,新竹市香山區中華路６段６７６號,120.9161,24.73088,(035)371557,羅氏家用新冠病毒抗原自我檢測套組,43,2022/05/07 07:20:02,口罩販售時間
5912051449,金正好藥局,新竹市香山區中華路四段５１２號１樓,120.9324,24.79011,(03)5305525,羅氏家用新冠病毒抗原自我檢測套組,111,2022/05/07 07:20:02,無
5917010126,永大藥局,臺中市中區錦上里民族路１２２號,120.6786,24.14054,(04)22210180,羅氏家用新冠病毒抗原自我檢測套組,5,2022/05/07 07:20:02,09:00開始代售快篩，人多會發號碼牌
5917011945,正三吉藥局,臺中市中區臺灣大道一段９５號,120.6831,24.13911,(04)22207700,羅氏家用新冠病毒抗原自我檢測套組,78,2022/05/07 07:20:02,快篩販售時間 14:00~17:00
5917020060,來安藥局,臺中市東區十甲東路４８８號１樓,120.7073,24.13824,(04)22116977,羅氏家用新冠病毒抗原自我檢測套組,60,2022/05/07 07:20:02,發快篩時間早上8點
5917020104,七星中西藥局,臺中市東區東信里十甲東路４０６巷１號１樓,120.7061,24.13603,(04)22123014,羅氏家用新冠病毒抗原自我檢測套組,54,2022/05/07 07:20:02,無
5917021656,仁康中西藥局,臺中市東區振興路４３９號１樓,120.7055,24.13032,(04)22151232,羅氏家用新冠病毒抗原自我檢測套組,78,2022/05/07 07:20:02,週一到週六，上午08:30發號碼牌就開始販售，週日公休
5917030128,太信藥局,臺中市西區三民路一段９５－１號１樓,120.6698,24.13322,(04)23718318,羅氏家用新冠病毒抗原自我檢測套組,65,2022/05/07 07:20:02,健保卡快篩請0900自備500元／份
5917030226,九和大藥局向上店,臺中市西區向上路一段１９２號１樓,120.6605,24.14684,(04)23020148,羅氏家用新冠病毒抗原自我檢測套組,2,2022/05/07 07:20:02,周一~六08:00開始。周日08:00~中午12:00，下午休息。
5917030600,永昇藥局,臺中市西區東昇里朝陽街４５號,120.6701,24.13522,(04)23717280,羅氏家用新冠病毒抗原自我檢測套組,2,2022/05/07 07:20:02,無
5917032908,佑恩藥師藥局,臺中市西區精誠路６７號１樓,120.6553,24.15224,(04)23100058,羅氏家用新冠病毒抗原自我檢測套組,78,2022/05/07 07:20:02,實名制快篩周一到周六，早上9:00，周日下午2:10開始販賣
5917050424,中心藥局,臺中市北區五權路２７９號１樓,120.6777,24.15169,(04)22012985,羅氏家用新冠病毒抗原自我檢測套組,43,2022/05/07 07:20:02,口罩每日上午8:00發放號碼牌，依序販售。全年無休。
5917050433,松鶴藥局,臺中市北區文莊里篤行路２２４號,120.6738,24.15187,(04)22028790,羅氏家用新冠病毒抗原自我檢測套組,46,2022/05/07 07:20:02,口罩每日上午8:30開始販售，現場排隊售完為止。（全年無休）
5917053514,學士藥局,臺中市北區學士路１３號之１樓,120.6823,24.15372,(04)22015008,羅氏家用新冠病毒抗原自我檢測套組,78,2022/05/07 07:20:02,固定周一到周日，早上09:50開始發放號碼牌及販賣快篩
5917060331,宏吉藥局,臺中市西屯區大福里長安路二段３１６號１樓,120.6673,24.17773,(04)22910825,羅氏家用新冠病毒抗原自我檢測套組,55,2022/05/07 07:20:02,快篩試劑.防疫口罩.酒精上午7：30開始販售，營業至21:00（週日正常營業）
5917062353,典安大藥局,臺中市西屯區西屯路３段１５９－６０號,120.6177,24.18807,(04)24616571,羅氏家用新冠病毒抗原自我檢測套組,78,2022/05/07 07:20:02,每天10:00發放快篩
5917062531,久揚大藥局,臺中市西屯區工業區一路９８之１６號,120.6138,24.17453,(04)23580738,羅氏家用新冠病毒抗原自我檢測套組,78,2022/05/07 07:20:02,未發號碼牌，星期一至六早上9:00開始販賣口罩，星期日不一定
5917062559,德康藥局,臺中市西屯區福和里中工三路１５６號,120.6181,24.17737,(04)23583373,羅氏家用新冠病毒抗原自我檢測套組,11,2022/05/07 07:20:02,每天早上9:00開始，不發號碼牌，現場排隊領口罩
5917063676,百惠藥師藥局,臺中市西屯區漢口路二段２４７號,120.6649,24.16696,(04)23169852,羅氏家用新冠病毒抗原自我檢測套組,3,2022/05/07 07:20:02,實名制快篩購買時間:星期一至五:早上9-11  ， 星期六早上10-12 ，星期日店休.
5917063725,永旭大藥局,臺中市西屯區逢甲路９２號１樓,120.6439,24.17883,(04)27087952,羅氏家用新冠病毒抗原自我檢測套組,1,2022/05/07 07:20:02,5／6起實名快篩，星期一到五早上10點開始，星期六日中午12點開始排隊販售。
5917070186,濟安堂藥局,臺中市南屯區南屯路二段７８８號,120.6378,24.14028,(04)23899603,羅氏家用新冠病毒抗原自我檢測套組,122,2022/05/07 07:20:02,快篩販售時間都固定每天早上7點40分開始（現場排隊.）
5917070417,康元藥局,臺中市南屯區黎明路２段２８１號１樓,120.6355,24.14863,(04)22548622,羅氏家用新冠病毒抗原自我檢測套組,5,2022/05/07 07:20:02,星期一~星期六早上九點發放號碼牌  星期日早上10點
5917072564,恒安藥局,臺中市南屯區南屯路２段１１９號,120.652,24.13585,(04)24722887,羅氏家用新冠病毒抗原自我檢測套組,4,2022/05/07 07:20:02,5／6 快篩試劑下午3:00開始販售
5917080342,弘光藥局,臺中市北屯區太原路三段４５８號１樓,120.6951,24.16476,(04)22342999,羅氏家用新冠病毒抗原自我檢測套組,34,2022/05/07 07:20:02,早上7:30開始販賣防疫口罩（全年無休）
5917082882,世富藥局,臺中市北屯區北屯路２９９－３號１樓,120.6961,24.16825,(04)22317085,羅氏家用新冠病毒抗原自我檢測套組,47,2022/05/07 07:20:02,營業早上08:00-12:00，下午15:00-21:00.星期六晚上休息.星期日休息
5917083058,福益藥局,臺中市北屯區東山路１段１８８－７號,120.7093,24.17085,(04)24367031,羅氏家用新冠病毒抗原自我檢測套組,47,2022/05/07 07:20:02,快篩販售時間:   7:00開始~售完為止（星期日休息）
5917083272,吉富康藥局,臺中市北屯區大連路三段９９號１樓,120.6935,24.17494,(04)22473057,羅氏家用新冠病毒抗原自我檢測套組,39,2022/05/07 07:20:02,營業時間早上9點至晚上9點，快篩早上9點開賣，中午12:30至14:00午休及清消，周日公休
5917083334,瑞東大藥局,臺中市北屯區東山路一段２４６之３號,120.7179,24.17542,(04)24373799,羅氏家用新冠病毒抗原自我檢測套組,77,2022/05/07 07:20:02,5／6 快篩 已售完
5921010072,統一藥局,臺南市東區中西里東門路１段２９１號,120.2186,22.98683,(06)2376638,羅氏家用新冠病毒抗原自我檢測套組,65,2022/05/07 07:20:02,早上9點到晚間9點半  星期日休假
5921012049,小太陽藥局,臺南市東區東光里東平路１３號,120.2336,22.9947,(06)2099858,羅氏家用新冠病毒抗原自我檢測套組,22,2022/05/07 07:20:02,藥局營業時間為星期一至星期六10:00~21:30，星期天休息  實名制快篩試劑10:00開始販售，售完為止
5921020130,裕祥藥局,臺南市南區明興里金華路１段２２８號,120.1902,22.96689,(06)2635796,羅氏家用新冠病毒抗原自我檢測套組,156,2022/05/07 07:20:02,口罩販售時間:星期一~六 07:30開始
5921020185,安心藥局,臺南市南區喜東里喜樹路１５１巷３３號,120.18,22.94099,(06)2622570,羅氏家用新冠病毒抗原自我檢測套組,65,2022/05/07 07:20:02,五月六日已售完: 五月七日 五月九日早上七時30分開賣 星期日休假
5921021851,海山藥局,臺南市南區新興路４００號,120.1881,22.97514,(06)2617788,羅氏家用新冠病毒抗原自我檢測套組,1,2022/05/07 07:20:02,實名制快篩代售:AM11:00~售完（一人一卡限購一份，請自備零錢）**星期日無代售**
5921040221,好鄰居藥局,臺南市北區西華里公園路１２８號２樓７室,120.2076,22.99889,(06)2219015,羅氏家用新冠病毒抗原自我檢測套組,80,2022/05/07 07:20:02,固定星期一至星期六8:30-21:15販賣口罩，星期天休息
5921040276,全一藥局,臺南市北區大豐里和緯路四段９５巷３８號,120.1912,23.0076,(06)2580021,羅氏家用新冠病毒抗原自我檢測套組,78,2022/05/07 07:20:02,快篩實名制，每天上午08:00開始販售（週日有）
5921060072,翰昌藥局,臺南市安南區溪東里北安路二段１１９號,120.2046,23.0272,(06)2596372,羅氏家用新冠病毒抗原自我檢測套組,59,2022/05/07 07:20:02,無
5921060321,慈安藥局,臺南市安南區大安街５３號,120.1919,23.03148,(06)2551117,羅氏家用新冠病毒抗原自我檢測套組,78,2022/05/07 07:20:02,下午2:00
5921060385,樂成藥局,臺南市安南區安和路一段１５９巷８３號,120.2115,23.03032,(06)2568576,羅氏家用新冠病毒抗原自我檢測套組,55,2022/05/07 07:20:02,無
5921061668,新資生藥師藥局,臺南市安南區城北路５２號１樓,120.1309,23.06296,(06)2571153,羅氏家用新冠病毒抗原自我檢測套組,78,2022/05/07 07:20:02,星期一~星期六早上10-12發售
5921071226,康活藥局,臺南市安平區健康三街１８６號,120.1686,22.98883,(06)2936483,羅氏家用新冠病毒抗原自我檢測套組,4,2022/05/07 07:20:02,快篩晚上18:00開賣.
5922010441,穎川保健藥局,嘉義市東區仁武里中山路２０４號,120.4517,23.48096,(05)2223609,羅氏家用新冠病毒抗原自我檢測套組,54,2022/05/07 07:20:02,固定周一到周日07:00開始快篩賣
5922010496,乙展藥局,嘉義市東區蘭井里蘭井街７０號,120.4551,23.47807,(05)2279556,羅氏家用新冠病毒抗原自我檢測套組,37,2022/05/07 07:20:02,快篩07:10開始至售完（星期日不定期休息）
5922012285,聖安藥局,嘉義市東區仁武里民權路３６５號１樓,120.4506,23.48235,(05)2222941,羅氏家用新冠病毒抗原自我檢測套組,78,2022/05/07 07:20:02,每日8:30開始發放，每週四休息.
5922012909,昱安藥局,嘉義市東區成仁街１８０號,120.4521,23.48057,(05)2252395,羅氏家用新冠病毒抗原自我檢測套組,1,2022/05/07 07:20:02,購買時段星期（一）至（六）下午4:00-5:00
5922020303,新宏祥藥局,嘉義市西區湖內里民生南路５７４號,120.4427,23.45504,(05)2355588,羅氏家用新冠病毒抗原自我檢測套組,75,2022/05/07 07:20:02,羅氏家用快篩:每日早上8點開始販售.售完為止
5922020358,泰春藥局,嘉義市西區學圃里民生北路６６號,120.4468,23.47543,(05)2224118,羅氏家用新冠病毒抗原自我檢測套組,60,2022/05/07 07:20:02,快篩試劑販售時間：早上9點至晚上9點
5922020661,大正藥局,嘉義市西區書院里民族路７０２號,120.4435,23.47554,(05)2285812,羅氏家用新冠病毒抗原自我檢測套組,66,2022/05/07 07:20:02,早上8:00開始販售~售完為止 !
592202A296,秉原藥局,嘉義市西區書院里民族路７００號,120.4435,23.47554,(05)2285811,羅氏家用新冠病毒抗原自我檢測套組,78,2022/05/07 07:20:02,早上8:00開始販售~售完為止!
592202A349,力健藥局,嘉義市西區文化路５９１號,120.4443,23.49355,(05)2323217,羅氏家用新冠病毒抗原自我檢測套組,6,2022/05/07 07:20:02,營業時間為早上8:00至中午13:00，下午2:30至晚上9:30，口罩發放從早上8:30至售完為止
592202A518,徠的安藥師藥局,嘉義市西區保安里世賢路１段６鄰５４９號,120.4306,23.48982,(05)2318532,羅氏家用新冠病毒抗原自我檢測套組,3,2022/05/07 07:20:02,無
5931010217,皇安藥局,新北市板橋區中山路２段２４１號,121.4772,25.01757,(02)29524089,羅氏家用新冠病毒抗原自我檢測套組,78,2022/05/07 07:20:02,快篩星期一三五單號，星期二四號雙號
5931010342,宏達大藥局,新北市板橋區莒光路１７號,121.47,25.02478,(02)22572345,羅氏家用新冠病毒抗原自我檢測套組,156,2022/05/07 07:20:02,快篩 晚上20:00開始販售! 不要打電話來 問題這麼多就到現場 也不給你問
5931010397,正成藥師藥局,新北市板橋區三民路２段１５４巷７號,121.4787,25.01515,(02)29512760,羅氏家用新冠病毒抗原自我檢測套組,78,2022/05/07 07:20:02,無
5931010477,華傳綜合大藥局,新北市板橋區大智街４０號,121.455,25.01515,(02)29670029,羅氏家用新冠病毒抗原自我檢測套組,74,2022/05/07 07:20:02,週一至週六早上8:30開始發售實名制快篩，週日停售。
5931011009,祥聖藥局,新北市板橋區溪崑二街１１２巷３５弄１號,121.4253,24.98921,(02)26835677,羅氏家用新冠病毒抗原自我檢測套組,78,2022/05/07 07:20:02,5／7（六）下午1:30 販售。5／8（週日）早上9:00~10:00販售。5／9（一）下午1:30販售。
5931011054,國光藥師藥局,新北市板橋區國光路１７２號,121.4605,25.01825,(02)29698181,羅氏家用新冠病毒抗原自我檢測套組,94,2022/05/07 07:20:02,無
5931011152,福勝堂藥局,新北市板橋區三民路２段１５３巷２弄２號,121.4795,25.01488,(02)89647157,羅氏家用新冠病毒抗原自我檢測套組,34,2022/05/07 07:20:02,無
5931011250,錦龍藥局,新北市板橋區長安街１３８巷１弄１１４號,121.4743,25.0103,(02)29522290,羅氏家用新冠病毒抗原自我檢測套組,76,2022/05/07 07:20:02,週一至周日早上8:30~開始發售， 售完為止。
5931012042,喬治藥局,新北市板橋區國慶路１５５號１樓,121.4616,24.99617,(02)29630787,羅氏家用新冠病毒抗原自我檢測套組,78,2022/05/07 07:20:02,數量依現場為主。13:00開賣，如排隊人數過半，將開始販售。離開隊伍，視同放棄排隊。星期日公休無販售
5931014439,旭全藥局,新北市板橋區金門街３３１號,121.4294,24.98582,(02)26860526,羅氏家用新冠病毒抗原自我檢測套組,78,2022/05/07 07:20:02,星期1~6上午9:30~10:30 星期天上午9:30~下午5:00
5931014537,友虹藥師藥局,新北市板橋區國光路１６號,121.457,25.01739,(02)29691181,羅氏家用新冠病毒抗原自我檢測套組,31,2022/05/07 07:20:02,早上十點開始販賣到十一點
5931015687,正康健保藥局,新北市板橋區大觀路２段６５號１樓,121.4467,25.00246,(02)22756681,羅氏家用新冠病毒抗原自我檢測套組,78,2022/05/07 07:20:02,下午13:30依現場順序開始販售快篩，快篩配送絮亂庫存不準!!
5931015721,新進發大藥局,新北市板橋區大同街２４號１樓,121.4787,25.0275,(02)22593926,羅氏家用新冠病毒抗原自我檢測套組,47,2022/05/07 07:20:02,快篩上午10點開門即賣，排隊不發號碼
5931016755,禾田藥局,新北市板橋區大觀路２段２６５巷１２號（１樓）,121.4428,24.99858,(02)29659899,羅氏家用新冠病毒抗原自我檢測套組,29,2022/05/07 07:20:02,8：30發放號碼牌，9：30-21：30來購買，當日未刷健保卡購買者視為無效
5931016808,正安健保藥局,新北市板橋區民族路２２４號（１樓）,121.4687,25.00733,(02)29526813,羅氏家用新冠病毒抗原自我檢測套組,78,2022/05/07 07:20:02,17時依現場順序開始販售.週六12點.電腦配送庫存不準..以現場數量為準
5931017270,躍獅新埔藥局,新北市板橋區陽明街４７號１樓,121.4637,25.02386,(02)22543932,羅氏家用新冠病毒抗原自我檢測套組,78,2022/05/07 07:20:02,無
5931017574,福安藥局,新北市板橋區國泰街７６巷２４、２６號１樓,121.4672,25.00702,(02)29540875,羅氏家用新冠病毒抗原自我檢測套組,77,2022/05/07 07:20:02,【週日快篩照常販售。】
5931017636,福澤藥局,新北市板橋區南雅南路１段８５號（１樓）,121.4556,25.00543,(02)29690013,羅氏家用新冠病毒抗原自我檢測套組,78,2022/05/07 07:20:02,口罩代售9:00-23:00
5931017654,葆康藥局,新北市板橋區四川路２段２４５巷３號（１樓）,121.4507,24.99346,(02)89678373,羅氏家用新冠病毒抗原自我檢測套組,78,2022/05/07 07:20:02,下午四點開始販售實名制快篩，不用抽號碼牌，直接排隊購買。
5931017716,星辰藥局,新北市板橋區實踐路４９號（１樓）,121.4638,25.00679,(02)89521666,羅氏家用新冠病毒抗原自我檢測套組,9,2022/05/07 07:20:02,換快篩請自備$500 沒這麼多$500可以找
5931017869,躍獅國慶藥局,新北市板橋區國慶路１７９號（１樓）,121.4626,24.99636,(02)29641548,羅氏家用新冠病毒抗原自我檢測套組,156,2022/05/07 07:20:02,快篩實名制，每天14:00開始販售，售完為止
5931017903,吉發藥局,新北市板橋區文化路１段１８８巷５弄１５號（１樓）,121.4674,25.01986,(02)22577381,羅氏家用新冠病毒抗原自我檢測套組,78,2022/05/07 07:20:02,無
5931018017,有田藥局,新北市板橋區忠孝路１８１號（１樓）,121.4642,25.00262,(02)29598095,羅氏家用新冠病毒抗原自我檢測套組,75,2022/05/07 07:20:02,早上十點開始販售，售完為止
5931018106,力安藥局,新北市板橋區莒光路１９６巷８號（１樓）,121.4738,25.02255,(02)22503349,羅氏家用新冠病毒抗原自我檢測套組,39,2022/05/07 07:20:02,快篩實名制，早上9點依現場順序開始販售快篩，售完為止。
5931018124,大楓藥師藥局,新北市板橋區懷仁街８４號（１樓）,121.4774,25.01819,(02)29560576,羅氏家用新冠病毒抗原自我檢測套組,1,2022/05/07 07:20:02,快篩販售時間  下午13:30開始，售完為止。
5931020400,新迪化中西藥局,新北市三重區三陽路２７號１樓,121.4855,25.05893,(02)29884755,羅氏家用新冠病毒抗原自我檢測套組,78,2022/05/07 07:20:02,快篩實名制中午12點開始販售，發號碼牌
5931020919,東裕藥局,新北市三重區重新路４段１２２號,121.487,25.05652,(02)29773255,羅氏家用新冠病毒抗原自我檢測套組,78,2022/05/07 07:20:02,實名制快篩販售時間:AM9:00開始現場排隊，售完為止.（星期日休息）
5931021416,國星藥局,新北市三重區溪尾街１０９號,121.4898,25.07867,(02)29859203,羅氏家用新冠病毒抗原自我檢測套組,70,2022/05/07 07:20:02,無
5931021532,龍門藥局,新北市三重區龍門路１８９號,121.4996,25.07322,(02)29756141,羅氏家用新冠病毒抗原自我檢測套組,78,2022/05/07 07:20:02,實名制快篩販售時間~星期一至星期六下午3點
5931023349,迪化藥局,新北市三重區中華路７７號,121.4836,25.06267,(02)29834445,羅氏家用新冠病毒抗原自我檢測套組,1,2022/05/07 07:20:02,實名制快篩每日早上九點發牌號／週日食藥署暫停供應快篩
5931023447,安泰藥局,新北市三重區正義北路３００－３號２樓,121.4953,25.06978,(02)89815379,羅氏家用新冠病毒抗原自我檢測套組,78,2022/05/07 07:20:02,5／2只有早上8:30--12:00營業下午.及晚上休息
5931024168,合康健保藥局,新北市三重區三和路４段３８４號１樓,121.4824,25.0789,(02)22869999,羅氏家用新冠病毒抗原自我檢測套組,78,2022/05/07 07:20:02,快篩試劑販售時間每日早上0845
5931024515,陳藥局,新北市三重區三民街７７號,121.4858,25.06293,(02)29848601,羅氏家用新冠病毒抗原自我檢測套組,38,2022/05/07 07:20:02,實名制快篩每日78人份販售時間: 周一到五 晚上7:30~9:00，週六 下午4:00~5:30現場購買沒有發號碼牌，星期天公休
5931024588,陽光藥師藥局,新北市三重區三和路２段１８２號１樓,121.4987,25.06886,(02)29788120,羅氏家用新冠病毒抗原自我檢測套組,61,2022/05/07 07:20:02,無
5931024873,捷元健保藥局,新北市三重區三賢街１８５號１樓,121.4863,25.08731,(02)82877107,羅氏家用新冠病毒抗原自我檢測套組,78,2022/05/07 07:20:02,快篩9:00開賣 每周日公休不販售
5931024962,建祥三和藥局,新北市三重區三和路２段１６０號１樓,121.4992,25.06853,(02)29703379,羅氏家用新冠病毒抗原自我檢測套組,78,2022/05/07 07:20:02,實名制快篩10:00發放號碼牌
5931025174,小林健保藥局,新北市三重區文化北路６１－１號１樓,121.4987,25.0663,(02)29763895,羅氏家用新冠病毒抗原自我檢測套組,2,2022/05/07 07:20:02,快篩販售時間公告於「小林健保藥局」粉絲專頁
5931025398,昌誠藥局,新北市三重區三和路４段１６１號１樓,121.4835,25.0785,(02)22876338,羅氏家用新冠病毒抗原自我檢測套組,5,2022/05/07 07:20:02,5／2 （休診）
5931025567,閎安藥局,新北市三重區重新路２段８５號１樓、２樓,121.4962,25.06181,(02)29881968,羅氏家用新冠病毒抗原自我檢測套組,4,2022/05/07 07:20:02,每日皆執行調劑業務，快篩代售時間每日下午三點發號碼牌並領取
5931025638,華安生活藥局,新北市三重區重新路２段１２６號１樓,121.4963,25.0616,(02)29756534,羅氏家用新冠病毒抗原自我檢測套組,51,2022/05/07 07:20:02,國定例假日執行調劑業務
5931025692,杏一三重集成藥局,新北市三重區集成路４３號１樓,121.4893,25.05271,(02)29743410,羅氏家用新冠病毒抗原自我檢測套組,59,2022/05/07 07:20:02,5／5 暫停販售  5／6下午三點開始發放號碼牌
5931025745,恆源藥局,新北市三重區仁興街２８巷４１號１樓,121.4982,25.07515,(02)29765002,羅氏家用新冠病毒抗原自我檢測套組,78,2022/05/07 07:20:02,國定假日有提供調劑業務
5931025790,銀河藥局,新北市三重區五華街２４７號１樓,121.4892,25.08623,(02)28578688,羅氏家用新冠病毒抗原自我檢測套組,5,2022/05/07 07:20:02,實名制快篩販售時間：周一至週五下午三點，周六上午十點，星期日不販售
5931025807,永福藥局,新北市三重區永福街３號１樓,121.4827,25.07837,(02)22861161,羅氏家用新冠病毒抗原自我檢測套組,78,2022/05/07 07:20:02,15:00排隊拿號碼牌買快篩
5931025996,信義忠孝藥局,新北市三重區忠孝路２段４０號１樓,121.4854,25.07056,(02)89813529,羅氏家用新冠病毒抗原自我檢測套組,1,2022/05/07 07:20:02,早上8:30發放號碼牌 自備500+健保卡 12:00以後領取快篩歸還健保卡
5931026064,五華春天生活藥局,新北市三重區五華街７３號１、２樓,121.4925,25.08291,(02)29876838,羅氏家用新冠病毒抗原自我檢測套組,1,2022/05/07 07:20:02,快篩代售時間：週一至週日15：00，現場排隊購買，售完為止。（物流配送不及則例外，以門市公告為主）
5931030013,皇誼藥局,新北市永和區文化路３３號,121.5147,25.01499,(02)29278732,羅氏家用新冠病毒抗原自我檢測套組,78,2022/05/07 07:20:02,無
5931032133,宸安藥局,新北市永和區得和路３８５號１樓,121.5251,24.99943,(02)22328274,羅氏家用新冠病毒抗原自我檢測套組,1,2022/05/07 07:20:02,星期一至六 實名制快篩  PM2:00-3；00； 星期日公休
5931032302,威康藥局,新北市永和區中正路１５３號,121.5163,24.9984,(02)29461128,羅氏家用新冠病毒抗原自我檢測套組,9,2022/05/07 07:20:02,無
5931033078,博昇藥局,新北市永和區仁愛路２２號１樓,121.5148,25.01361,(02)29267273,羅氏家用新冠病毒抗原自我檢測套組,4,2022/05/07 07:20:02,8：20開始發號碼牌、收健保卡、500元，下午3：00至6：00領取實名制快篩。星期日8：30至9：30現場販售實名制快篩。
5931033103,皇家藥師藥局,新北市永和區中正路７２０號１樓,121.5158,25.01017,(02)89216867,羅氏家用新冠病毒抗原自我檢測套組,78,2022/05/07 07:20:02,無
5931033363,保安藥局,新北市永和區保安路２１２號１樓,121.5075,25.01393,(02)29277623,羅氏家用新冠病毒抗原自我檢測套組,78,2022/05/07 07:20:02,快篩配送時間不一定，依配送時間決定。目前時段下午3點開始，售完為止。
5931033461,常安中西藥局,新北市永和區保平路２６號１樓,121.5122,25.00749,(02)29283530,羅氏家用新冠病毒抗原自我檢測套組,2,2022/05/07 07:20:02,每日下午三點開始實名制快篩
5931033621,永正健康人生藥局,新北市永和區中正路１９１、１９３號１樓、１９７號２樓,121.5171,24.99931,(02)29467351,羅氏家用新冠病毒抗原自我檢測套組,78,2022/05/07 07:20:02,實名制快篩9點開賣
5931033774,台化藥局,新北市永和區勵行街１１９號１樓,121.5175,25.01202,(02)22318585,羅氏家用新冠病毒抗原自我檢測套組,1,2022/05/07 07:20:02,無
5931034039,叁品藥局,新北市永和區秀朗路２段１１８號１樓,121.5244,25.00152,(02)29208800,羅氏家用新冠病毒抗原自我檢測套組,4,2022/05/07 07:20:02,實名制快篩 下午一點發放號碼牌
5931034084,柏愛藥局,新北市永和區竹林路５７號１樓,121.5183,25.01386,(02)89285609,羅氏家用新冠病毒抗原自我檢測套組,78,2022/05/07 07:20:02,實名制快篩每日0930開賣.國定假日營業時間0900-1700
5931034119,仁愛陽光藥局,新北市永和區仁愛路１４３號１樓,121.5114,25.01293,(02)89213691,羅氏家用新冠病毒抗原自我檢測套組,2,2022/05/07 07:20:02,快篩代售時段14:00，售完為止...
5931034128,富康活力永和藥局,新北市永和區中和路４２９號１樓,121.5094,25.00093,(02)29263191,羅氏家用新冠病毒抗原自我檢測套組,78,2022/05/07 07:20:02,無
5931034137,永杏中西藥局,新北市永和區竹林路１１８號１樓,121.5198,25.01141,(02)89210338,羅氏家用新冠病毒抗原自我檢測套組,1,2022/05/07 07:20:02,實名制快篩下午一點開賣，請留意FB官方訊息
5931034146,亮點藥局,新北市永和區竹林路７１號１樓,121.5186,25.01355,(02)89253895,羅氏家用新冠病毒抗原自我檢測套組,102,2022/05/07 07:20:02,快篩發放時段 下午16:30-18:00
5931034208,正銨藥局,新北市永和區得和路２４７－１號（１樓）,121.5206,25.00009,(02)29288100,羅氏家用新冠病毒抗原自我檢測套組,22,2022/05/07 07:20:02,星期1~6下午1:45發號碼牌.星期日休息
5931040019,大榮藥局,新北市中和區中山路２段１２７號,121.5026,25.00337,(02)22497965,羅氏家用新冠病毒抗原自我檢測套組,56,2022/05/07 07:20:02,實名制快篩早上9:30現場排隊販售
5931040055,瑞發藥局,新北市中和區民享街５６－１號,121.474,25.00236,(02)22235319,羅氏家用新冠病毒抗原自我檢測套組,1,2022/05/07 07:20:02,口罩代售時間自08:00；號碼牌發放時間自08:00
5931040297,信隆大藥局,新北市中和區安樂路６號１至２樓,121.5118,24.99168,(02)29426196,羅氏家用新冠病毒抗原自我檢測套組,1,2022/05/07 07:20:02,無
5931040322,宏信藥局,新北市中和區永貞路２６２巷４號,121.5139,25.0039,(02)29294976,羅氏家用新冠病毒抗原自我檢測套組,78,2022/05/07 07:20:02,如有到貨每日早上7點30分準時開賣快篩試劑
5931040475,顧藥局,新北市中和區圓通路１４０號,121.4983,24.99583,(02)22470133,羅氏家用新冠病毒抗原自我檢測套組,2,2022/05/07 07:20:02,快篩周一到周六營業*.早上點開賣.售完為止
5931040662,仙正藥局,新北市中和區福美路３０９號,121.4969,25.00472,(02)22494081,羅氏家用新冠病毒抗原自我檢測套組,68,2022/05/07 07:20:02,無
5931040671,吉立藥局,新北市中和區自立路１８３號１樓,121.5236,24.99187,(02)29450561,羅氏家用新冠病毒抗原自我檢測套組,78,2022/05/07 07:20:02,實名制口罩販售時間，星期一~星期六，早上0900-1200
5931042326,璟福藥局,新北市中和區安平路７６號１樓,121.511,24.99652,(02)29408669,羅氏家用新冠病毒抗原自我檢測套組,69,2022/05/07 07:20:02,無
5931042648,恩溢藥局,新北市中和區復興路７９號１樓.２樓,121.5035,24.9902,(02)22452450,羅氏家用新冠病毒抗原自我檢測套組,3,2022/05/07 07:20:02,無
5931042899,家家藥局,新北市中和區民德路４３號,121.469,25.00219,(02)29587512,羅氏家用新冠病毒抗原自我檢測套組,78,2022/05/07 07:20:02,實名制快篩早上09:00販售，若人數眾多會發號碼牌，有拿到者可現場領取。
5931043109,育新藥局,新北市中和區中安街４０巷６號,121.5127,25.00305,(02)29283479,羅氏家用新冠病毒抗原自我檢測套組,18,2022/05/07 07:20:02,週一、二、三、五、六早上八點開始販售，售完為止（四、日無販賣）
5931043234,康荃優生保健藥局,新北市中和區福祥路６６號１樓,121.4994,25.00494,(02)22486532,羅氏家用新冠病毒抗原自我檢測套組,2,2022/05/07 07:20:02,無
5931043627,銓家藥局,新北市中和區員山路３１９號１-２樓,121.4812,25.0006,(02)22257728,羅氏家用新冠病毒抗原自我檢測套組,59,2022/05/07 07:20:02,實名制快篩 下午3點販售 前15分鐘發號碼牌
5931043636,雙合藥局,新北市中和區中正路２９１號１樓,121.4941,24.99375,(02)22476607,羅氏家用新冠病毒抗原自我檢測套組,4,2022/05/07 07:20:02,無
5931043798,永成藥局,新北市中和區景平路１５６號１樓,121.5176,24.99222,(02)29407619,羅氏家用新冠病毒抗原自我檢測套組,78,2022/05/07 07:20:02,實名制快篩，下午三點領取號碼並開始販售（每日78份）
5931043921,良安藥局,新北市中和區連城路４７７巷１號１樓,121.4833,24.99555,(02)22225798,羅氏家用新冠病毒抗原自我檢測套組,8,2022/05/07 07:20:02,週六日不開店，實名制快篩，晚上9:00開始販售
5931044017,幸福連鎖藥局,新北市中和區忠孝街１２２號１樓,121.5122,24.98581,(02)29410771,羅氏家用新冠病毒抗原自我檢測套組,1,2022/05/07 07:20:02,無
5931044044,宥元藥局,新北市中和區德光路６２號１樓,121.4696,25.00398,(02)89535473,羅氏家用新冠病毒抗原自我檢測套組,21,2022/05/07 07:20:02,週一至周六10:30-22:00發放口罩
5931044133,康富力藥局,新北市中和區仁愛街３２號１樓,121.5109,24.98843,(02)29429896,羅氏家用新冠病毒抗原自我檢測套組,78,2022/05/07 07:20:02,快篩代售時間：周一至周五9:30、週六14:00
5931044393,躍獅康銓藥局,新北市中和區莒光路１４６號１樓,121.4725,25.00088,(02)29646452,羅氏家用新冠病毒抗原自我檢測套組,52,2022/05/07 07:20:02,實名制快篩 每日上午09:10開始販售，週日店休
5931044464,健暉藥局,新北市中和區連城路４８７號１樓,121.4829,24.99552,(02)22231437,羅氏家用新冠病毒抗原自我檢測套組,78,2022/05/07 07:20:02,實名快篩 早上10點 39份 ／ 晚上7點 39份 賣完為止
5931044580,躍獅天晴藥局,新北市中和區和平街９號１樓,121.5095,24.99025,(02)29491931,羅氏家用新冠病毒抗原自我檢測套組,78,2022/05/07 07:20:02,無
5931044624,奕采藥局,新北市中和區宜安路７７號１樓,121.5109,24.99733,(02)29429770,羅氏家用新冠病毒抗原自我檢測套組,54,2022/05/07 07:20:02,週一至週六10:00~12:00販售實名制快篩9:00發號碼牌（週日停售）
5931044660,吉佑藥局,新北市中和區大勇街３４號１樓,121.5174,24.99345,(02)89416539,羅氏家用新冠病毒抗原自我檢測套組,73,2022/05/07 07:20:02,無
5931044884,壹品藥局,新北市中和區福祥路５５號１樓,121.4992,25.00474,(02)22481818,羅氏家用新冠病毒抗原自我檢測套組,74,2022/05/07 07:20:02,實名制快篩下午1點發放號碼牌
5931044973,佳禾藥局,新北市中和區自立路３２號１樓,121.5226,24.9928,(02)29428989,羅氏家用新冠病毒抗原自我檢測套組,67,2022/05/07 07:20:02,快篩資訊 每天早上9點發號碼牌同時開始販售
5931044982,萊恩藥局,新北市中和區景安路２０９號１樓,121.5046,24.99192,(02)29468395,羅氏家用新冠病毒抗原自我檢測套組,30,2022/05/07 07:20:02,每週星期一到星期六（星期天依店內公告），早上9點發號碼牌押健保卡，12點後領取快篩
5931045112,景安藥局,新北市中和區景德街１４１號１樓及景平路１１１巷６０弄５６號,121.5175,24.99156,(02)86688215,羅氏家用新冠病毒抗原自我檢測套組,57,2022/05/07 07:20:02,實名制快篩每日販售時段08:10~21:00，請持健保卡現場排隊依序購買，售完為止。
5931045292,福欣藥局,新北市中和區中和路１４８號１樓,121.504,24.99961,(02)22485500,羅氏家用新冠病毒抗原自我檢測套組,82,2022/05/07 07:20:02,無
5931045372,伍品藥局,新北市中和區莊敬路３５號１樓,121.5007,25.00503,(02)82456789,羅氏家用新冠病毒抗原自我檢測套組,70,2022/05/07 07:20:02,實名制快篩下午14:00點發號碼牌，請自備500元紙鈔　－　15:00後取回健保卡 感謝！（週日）停止販售快篩！
5931045461,富康活力遠東藥局,新北市中和區建八路１０之１號１樓,121.4865,24.99805,(02)82262299,羅氏家用新冠病毒抗原自我檢測套組,78,2022/05/07 07:20:02,因屬園區大樓，販售時間請依LINE社群公告
5931045498,好意藥局,新北市中和區景新街４６７巷３號１樓,121.5136,24.98825,(02)89416598,羅氏家用新冠病毒抗原自我檢測套組,78,2022/05/07 07:20:02,週日無販售快篩試劑
5931050444,活元藥局,新北市新店區民族路４９號１樓,121.5403,24.97854,(02)29125526,羅氏家用新冠病毒抗原自我檢測套組,78,2022/05/07 07:20:02,快篩代售時間平日早上10:00開始   星期日休息
5931052135,椿萱藥局,新北市新店區建國路６９號,121.5404,24.9759,(02)29188311,羅氏家用新冠病毒抗原自我檢測套組,25,2022/05/07 07:20:02,無
5931052288,躍獅正新藥局,新北市新店區中正路５７之１號１樓,121.5443,24.96989,(02)89145930,羅氏家用新冠病毒抗原自我檢測套組,82,2022/05/07 07:20:02,星期一至六9:00為領取快篩號碼牌，20:00以前帶號碼牌來取快篩
5931052653,正升藥局,新北市新店區順安街６１號１樓,121.5407,24.98637,(02)29139493,羅氏家用新冠病毒抗原自我檢測套組,58,2022/05/07 07:20:02,無
5931052715,陽光健康藥局,新北市新店區安民街２１４號,121.5174,24.9722,(02)22123919,羅氏家用新冠病毒抗原自我檢測套組,78,2022/05/07 07:20:02,實名制快篩於早上9點開始販售  以現場排隊為主
5931052984,北一藥師藥局,新北市新店區北新路２段１６０號１樓、２樓,121.5431,24.97563,(02)89115686,羅氏家用新冠病毒抗原自我檢測套組,3,2022/05/07 07:20:02,14:30發完號碼牌即發口罩，勿持號碼牌離開，叫號未到視同放棄
5931053007,康曜藥師藥局,新北市新店區安康路２段２０４號１樓,121.5103,24.95964,(02)86669660,羅氏家用新冠病毒抗原自我檢測套組,3,2022/05/07 07:20:02,[週一至週五]13:20發號碼牌／13:30開始販售  [例假日無販售]
5931053070,美康中正藥局,新北市新店區中正路２１５號１、２樓,121.5397,24.97284,(02)29112669,羅氏家用新冠病毒抗原自我檢測套組,78,2022/05/07 07:20:02,無號牌.自主排隊.自主管理.快篩 1430-2200 唷~
5931053089,昇活藥局,新北市新店區安民街２６９巷２號１樓,121.5173,24.9731,(02)22114166,羅氏家用新冠病毒抗原自我檢測套組,8,2022/05/07 07:20:02,無
5931053123,大吉藥局,新北市新店區中正路３０號１樓,121.5452,24.96977,(02)29110151,羅氏家用新冠病毒抗原自我檢測套組,36,2022/05/07 07:20:02,實名制快篩，早上0905開賣，現場排隊販售，賣完為止。六日【無】販售
5931053141,禾康藥局,新北市新店區德正街４４號１樓,121.5443,24.97143,(02)29160596,羅氏家用新冠病毒抗原自我檢測套組,2,2022/05/07 07:20:02,無
5931053169,貳品藥局,新北市新店區新和街７５號１樓,121.5205,24.98612,(02)89418890,羅氏家用新冠病毒抗原自我檢測套組,78,2022/05/07 07:20:02,實名制快篩下午一點半依排隊順序發售
5931053383,大豐藥局,新北市新店區北新路３段５３號之１（１樓）,121.5417,24.9807,(02)89113196,羅氏家用新冠病毒抗原自我檢測套組,5,2022/05/07 07:20:02,每日下午2點發號碼牌同步販售實名制快篩試劑 請自備500元
5931060146,海山藥局,新北市新莊區景德路４２５號,121.4447,25.03331,(02)22019804,羅氏家用新冠病毒抗原自我檢測套組,78,2022/05/07 07:20:02,無
5931060315,文安藥局,新北市新莊區福壽街１１６號,121.458,25.05095,(02)29978477,羅氏家用新冠病毒抗原自我檢測套組,30,2022/05/07 07:20:02,每日上午9點開始.現場排隊.售完為止
5931060342,十安藥局,新北市新莊區中港路３１６號,121.4524,25.04544,(02)29922859,羅氏家用新冠病毒抗原自我檢測套組,3,2022/05/07 07:20:02,自111／04／01起不再販賣實名制口罩
5931060628,錄新藥局,新北市新莊區後港一路７６巷１０弄１號,121.427,25.02604,(02)22051849,羅氏家用新冠病毒抗原自我檢測套組,156,2022/05/07 07:20:02,無
5931060815,祐全大藥局,新北市新莊區建安街８８號,121.4262,25.02423,(02)22026008,羅氏家用新冠病毒抗原自我檢測套組,83,2022/05/07 07:20:02,快篩代售時間:10:00；現場排隊售完為止.週日不營業
5931060824,禮安藥師藥局,新北市新莊區自立街１０９號１樓,121.4555,25.0455,(02)29942891,羅氏家用新冠病毒抗原自我檢測套組,1,2022/05/07 07:20:02,無
5931067403,建嘉藥局,新北市新莊區中誠街４２號１樓,121.4513,25.04812,(02)29925261,羅氏家用新冠病毒抗原自我檢測套組,78,2022/05/07 07:20:02,無
5931067985,蘋果藥局,新北市新莊區八德街１０５號,121.4242,25.02112,(02)22053933,羅氏家用新冠病毒抗原自我檢測套組,5,2022/05/07 07:20:02,快篩試劑代售時間自14:00開始過卡販售.若排隊人數提前到達.則提前開賣
5931068464,健安藥局,新北市新莊區光和里民安西路２０９號１樓,121.4261,25.0147,(02)22043765,羅氏家用新冠病毒抗原自我檢測套組,78,2022/05/07 07:20:02,無
5931068722,庭安藥局,新北市新莊區民有里西盛街１７２號１樓,121.4281,25.01901,(02)22080528,羅氏家用新冠病毒抗原自我檢測套組,78,2022/05/07 07:20:02,早上9:30開始販售實名制快篩.賣完為止週日公休
5931069201,招安藥師藥局,新北市新莊區西盛街３３８號１樓,121.428,25.01436,(02)22085138,羅氏家用新冠病毒抗原自我檢測套組,4,2022/05/07 07:20:02,5／1 5／2 並無快篩試劑到貨 請勿來電或來店購買
5931069603,中信藥師藥局,新北市新莊區中信街８０號１樓,121.448,25.05311,(02)29969811,羅氏家用新冠病毒抗原自我檢測套組,155,2022/05/07 07:20:02,AM 07:30 開始
593106A093,環球藥局,新北市新莊區中港路４３６號１、２樓,121.452,25.05105,(02)29901934,羅氏家用新冠病毒抗原自我檢測套組,27,2022/05/07 07:20:02,營業時間8-23，全年無休  **實名制快篩，每日下午3點發放號碼牌**
593106A155,日榮藥局,新北市新莊區龍安路４６１號１樓,121.4248,25.0186,(02)22051523,羅氏家用新冠病毒抗原自我檢測套組,5,2022/05/07 07:20:02,快篩販賣平日 8:30 周六 9點開賣 限早上
593106A584,記安大藥局,新北市新莊區天祥街４６號１樓,121.4169,25.02893,(02)22095331,羅氏家用新冠病毒抗原自我檢測套組,7,2022/05/07 07:20:02,無
593106A637,薇妮藥妝藥局,新北市新莊區民安路９９號１樓,121.4245,25.02524,(02)82010817,羅氏家用新冠病毒抗原自我檢測套組,9,2022/05/07 07:20:02,無
593106A646,薇妮雙鳳藥局,新北市新莊區雙鳳路２１號１樓,121.4167,25.02677,(02)29076993,羅氏家用新冠病毒抗原自我檢測套組,78,2022/05/07 07:20:02,實名制快篩每日早上9:00現場排隊購買，無發號碼牌
593106A708,宏福藥局,新北市新莊區自信街５５號１樓,121.455,25.04836,(02)29985225,羅氏家用新冠病毒抗原自我檢測套組,33,2022/05/07 07:20:02,快篩販賣時段:上午7:00起至售完為止
593106A824,家禾藥局,新北市新莊區立信五街６號１樓,121.4445,25.05148,(02)29972121,羅氏家用新冠病毒抗原自我檢測套組,78,2022/05/07 07:20:02,若有配送會在12:00及18:00固定販售各39份，不提前販售，沒有發放號碼牌，請耐心等待。人手不足若無法接電話請見諒。
593106A897,陽光豐年藥局,新北市新莊區豐年街１４號１樓,121.4463,25.03287,(02)22060665,羅氏家用新冠病毒抗原自我檢測套組,87,2022/05/07 07:20:02,無
593106A922,德翰藥局,新北市新莊區四維路１７１巷１、３號１樓,121.4226,25.0215,(02)22025576,羅氏家用新冠病毒抗原自我檢測套組,78,2022/05/07 07:20:02,無
593106A995,美德心藥局,新北市新莊區中平路３６７號１樓,121.4446,25.05226,(02)29989025,羅氏家用新冠病毒抗原自我檢測套組,70,2022/05/07 07:20:02,快篩實名制，每天14:30發號碼牌，持號碼牌依現場順序排隊購買，售完為止。（如物流配送不及，則另行公告）
593106B072,小林健保藥局,新北市新莊區昌明街３８之１號１樓,121.4565,25.05237,(02)29911764,羅氏家用新冠病毒抗原自我檢測套組,68,2022/05/07 07:20:02,無
593106B081,平安藥局,新北市新莊區民安西路６０號２樓,121.4273,25.02037,(02)22082368,羅氏家用新冠病毒抗原自我檢測套組,83,2022/05/07 07:20:02,無
593106B125,樂安生活藥局,新北市新莊區雙鳳路２７號１、２樓,121.4165,25.02702,(02)29069899,羅氏家用新冠病毒抗原自我檢測套組,80,2022/05/07 07:20:02,上午九點發放政府快篩，現場排隊。
593106B296,廣元藥局,新北市新莊區雙鳳路２號（１樓）,121.4175,25.02688,(02)29044988,羅氏家用新冠病毒抗原自我檢測套組,44,2022/05/07 07:20:02,快篩實名制5／8開始每日17:00販售
5931070053,仁一藥局,新北市樹林區中正路６２２號,121.4102,25.016,(02)26893915,羅氏家用新冠病毒抗原自我檢測套組,78,2022/05/07 07:20:02,快篩代售時間自08:30；現場排隊
5931070080,耀鴻藥局,新北市樹林區中山路３段７６號,121.3936,24.97239,(02)26808989,羅氏家用新冠病毒抗原自我檢測套組,78,2022/05/07 07:20:02,每天都有發放口罩
5931070213,明川藥師藥局,新北市樹林區三福街１號,121.4093,25.0169,(02)26894728,羅氏家用新冠病毒抗原自我檢測套組,78,2022/05/07 07:20:02,實名制快篩:早上11:00販售
5931070348,久青藥局,新北市樹林區東華街３３號,121.4151,24.98177,(02)86844326,羅氏家用新冠病毒抗原自我檢測套組,4,2022/05/07 07:20:02,快篩 11:00 販售，不領號碼牌
5931070366,聖和藥局,新北市樹林區太元街５０號,121.4183,24.97967,(02)86866609,羅氏家用新冠病毒抗原自我檢測套組,78,2022/05/07 07:20:02,中午12:30分開始發放快篩
5931071523,蔚海藥局,新北市樹林區鎮前街１７號１樓,121.4259,24.99263,(02)86754203,羅氏家用新冠病毒抗原自我檢測套組,78,2022/05/07 07:20:02,固定每日早上8點45分發放快篩， 發完為止
5931072066,琉璃水藥師藥局,新北市樹林區龍興街２１號１樓,121.403,25.01614,(02)26764262,羅氏家用新冠病毒抗原自我檢測套組,78,2022/05/07 07:20:02,無
5931072299,小蜜蜂中西健保藥局,新北市樹林區東榮街１１８號１樓,121.4154,24.9823,(02)86853677,羅氏家用新冠病毒抗原自我檢測套組,78,2022/05/07 07:20:02,快篩試劑發售時間：基本為早上八點   PS：如政府配送不及，發售時間會現場另行公告。
5931072404,伯安綜合藥局,新北市樹林區中華路１０８號１樓,121.4183,24.98074,(02)86856551,羅氏家用新冠病毒抗原自我檢測套組,41,2022/05/07 07:20:02,初一至初五春節休息
5931072422,三樹食在好健康藥局,新北市樹林區學成路６００號１樓,121.3818,24.94584,(02)26807101,羅氏家用新冠病毒抗原自我檢測套組,273,2022/05/07 07:20:02,實名制快篩販售時間周一～周四19-20點
5931081305,佑家藥局,新北市鶯歌區中正三路１５１號１樓,121.3367,24.94007,(02)26798282,羅氏家用新冠病毒抗原自我檢測套組,4,2022/05/07 07:20:02,星期一至六，下午1:30發號碼牌   每日提供8份給醫護警消等緊急使用
5931081396,祐康藥局,新北市鶯歌區建國路３６號,121.356,24.95596,(02)26771223,羅氏家用新冠病毒抗原自我檢測套組,63,2022/05/07 07:20:02,快篩代售時段:星期一&四 上午8:30~9:30；星期二三五六 下午3:00~4:00；星期日公休。
5931081421,萊爾康健保藥局,新北市鶯歌區永明街１７號１樓,121.3385,24.95548,(02)26775092,羅氏家用新冠病毒抗原自我檢測套組,78,2022/05/07 07:20:02,星期一到星期六9:30開始販售  星期天會前一天公告
5931081458,食在好健康藥局,新北市鶯歌區國慶街１６５號１樓,121.3512,24.95312,(02)26702559,羅氏家用新冠病毒抗原自我檢測套組,115,2022/05/07 07:20:02,實名制快篩販賣時間週一到週四19:00~20:00 （請自備散鈔）
5931081556,易加藥局,新北市鶯歌區尖山路１３７巷４號,121.3469,24.94851,(02)26705686,羅氏家用新冠病毒抗原自我檢測套組,78,2022/05/07 07:20:02,快篩早上8:55發號碼牌，9:00開始販售，星期日公休
5931090117,大和藥局,新北市三峽區民生街１５０號,121.3722,24.93491,(02)26711010,羅氏家用新冠病毒抗原自我檢測套組,58,2022/05/07 07:20:02,無
5931091865,大新藥局,新北市三峽區大義路２５９號１樓,121.3774,24.94638,(02)86713204,羅氏家用新冠病毒抗原自我檢測套組,1,2022/05/07 07:20:02,實名制快篩下午2:50開始發號碼牌 3:00販售
5931091892,三峽藥局,新北市三峽區介壽路１段２７號１樓,121.3757,24.93321,(02)26738868,羅氏家用新冠病毒抗原自我檢測套組,1,2022/05/07 07:20:02,快篩實名制，每天16:00開始販售，售完為止。
5931091972,三峽大昌藥局,新北市三峽區民生街５６號１樓,121.3752,24.93635,(02)26711560,羅氏家用新冠病毒抗原自我檢測套組,2,2022/05/07 07:20:02,無
5931092022,瑞達美藥局,新北市三峽區民權街１８０號１樓,121.3678,24.92983,(02)86741627,羅氏家用新冠病毒抗原自我檢測套組,78,2022/05/07 07:20:02,若政府有配送則早上9點10分開始發號碼牌，拿到號碼牌要離開請先寄卡付費，否則視同放棄
5931092040,一大藥局,新北市三峽區橫溪路２３號１樓,121.3964,24.93584,(02)86766677,羅氏家用新冠病毒抗原自我檢測套組,37,2022/05/07 07:20:02,無
5931092200,金美藥局,新北市三峽區大同路２３８號１樓,121.3663,24.92573,(02)86715859,羅氏家用新冠病毒抗原自我檢測套組,32,2022/05/07 07:20:02,無
5931092219,北大藥局,新北市三峽區大義路９號１樓,121.3788,24.94372,(02)26738535,羅氏家用新冠病毒抗原自我檢測套組,58,2022/05/07 07:20:02,快篩發放依政府實際到貨時間為主會公告在臉書粉專
5931100154,尚運藥局,新北市淡水區學府路５１巷１弄２０號,121.4473,25.16892,(02)26225149,羅氏家用新冠病毒抗原自我檢測套組,183,2022/05/07 07:20:02,無
5931100163,昇運藥局,新北市淡水區中山路１５７－１號,121.4405,25.17287,(02)26222083,羅氏家用新冠病毒抗原自我檢測套組,87,2022/05/07 07:20:02,無
5931101704,聖天藥局,新北市淡水區重建街２１８號,121.4413,25.1748,(02)26215677,羅氏家用新冠病毒抗原自我檢測套組,1,2022/05/07 07:20:02,實名制快篩試劑正常到貨早上9:00販售 星期日休息
5931101973,良順藥局,新北市淡水區中山北路１段２４號１樓,121.4417,25.1751,(02)26218111,羅氏家用新冠病毒抗原自我檢測套組,32,2022/05/07 07:20:02,快篩販售時間為週一至週六每日上午10:00. 週日為下午6:00
5931102078,躍獅竹圍藥局,新北市淡水區民生路４６號,121.4617,25.13781,(02)28090565,羅氏家用新冠病毒抗原自我檢測套組,15,2022/05/07 07:20:02,晚上7點販售快篩
5931102372,日揚藥局,新北市淡水區民族路３０巷５號,121.4612,25.13623,(02)26242059,羅氏家用新冠病毒抗原自我檢測套組,52,2022/05/07 07:20:02,5／7（六）下午1:00快篩實名制。5／8（日）公休無代售快篩實名制。
5931110034,麒豐藥局,新北市汐止區樟樹一路１３５巷２號,121.6421,25.0656,(02)26434737,羅氏家用新冠病毒抗原自我檢測套組,36,2022/05/07 07:20:02,實名制口罩銷售時間9:30~21:00
5931112083,裕和藥局,新北市汐止區宜興街４號１樓,121.6211,25.04126,(02)26609119,羅氏家用新冠病毒抗原自我檢測套組,47,2022/05/07 07:20:02,晚上9.00領實名制快篩時間
5931112270,汐心藥局,新北市汐止區福德一路１５０號,121.6366,25.06687,(02)86932859,羅氏家用新冠病毒抗原自我檢測套組,64,2022/05/07 07:20:02,無
5931112314,杏光藥局,新北市汐止區建成路５９巷１９號１樓,121.6617,25.07287,(02)26411340,羅氏家用新冠病毒抗原自我檢測套組,78,2022/05/07 07:20:02,快篩每日早上十點販售  不發號碼牌
5931112510,汐興藥局,新北市汐止區中興路１１３號１樓、２樓,121.632,25.06494,(02)26927733,羅氏家用新冠病毒抗原自我檢測套組,1,2022/05/07 07:20:02,無
5931112789,富康東科藥局,新北市汐止區新台五路１段９６號Ｃ棟１樓Ｃ１５號,121.6483,25.06047,(02)26969222,羅氏家用新冠病毒抗原自我檢測套組,1,2022/05/07 07:20:02,每日九點至下午六點開放購買口罩，周六周日公休
5931113080,宗齡藥局,新北市汐止區康寧街４５９巷２２號１樓,121.6313,25.06974,(02)26952788,羅氏家用新冠病毒抗原自我檢測套組,72,2022/05/07 07:20:02,固定上午9點30分開始販售實名制快篩，現場排隊無號碼牌，謝謝您。
5931113106,穎又安中西藥局,新北市汐止區樟樹一路１３５巷１３號１樓,121.6416,25.06546,(02)26412348,羅氏家用新冠病毒抗原自我檢測套組,79,2022/05/07 07:20:02,實名制快篩如有配送，早上九點開始賣，現場排隊，不發號碼牌
5931113115,躍獅大同藥局,新北市汐止區新興路７號１樓,121.6565,25.06493,(02)26418399,羅氏家用新冠病毒抗原自我檢測套組,56,2022/05/07 07:20:02,每日15:30販售實名制快篩
5931113133,祐欣藥局,新北市汐止區中興路２４０號１樓,121.6296,25.06805,(02)26950778,羅氏家用新冠病毒抗原自我檢測套組,78,2022/05/07 07:20:02,實名制快篩-每日早上9點開始發放號碼牌，發完78張號碼即=售完!! 請不要看帳面庫存!!
5931113197,博昱忠孝藥局,新北市汐止區忠孝東路２７８號（１樓）,121.6637,25.06809,(02)86423838,羅氏家用新冠病毒抗原自我檢測套組,1,2022/05/07 07:20:02,下午兩點開始賣快篩
5931120049,本平藥局,新北市瑞芳區瑞芳街４５號,121.8076,25.10913,(02)24972167,羅氏家用新冠病毒抗原自我檢測套組,2,2022/05/07 07:20:02,無
5931130241,協成藥局,新北市土城區延吉街３３３號,121.4652,24.98411,(02)22653212,羅氏家用新冠病毒抗原自我檢測套組,58,2022/05/07 07:20:02,快篩大約早上10點賣
5931130358,盛安大藥局,新北市土城區中央路１段２５８號,121.4442,24.98436,(02)22668525,羅氏家用新冠病毒抗原自我檢測套組,52,2022/05/07 07:20:02,無
5931131579,祥安大藥局,新北市土城區立德路４２－１號,121.4636,24.98727,(02)22629707,羅氏家用新冠病毒抗原自我檢測套組,78,2022/05/07 07:20:02,無
5931131882,裕達藥局,新北市土城區延吉街１７１號,121.4697,24.98577,(02)22739328,羅氏家用新冠病毒抗原自我檢測套組,12,2022/05/07 07:20:02,下午2點開賣快篩，星期日休息
5931132263,立新藥局,新北市土城區光明街５號１樓,121.4421,24.97475,(02)82626111,羅氏家用新冠病毒抗原自我檢測套組,38,2022/05/07 07:20:02,快篩試劑下午3點開始銷售
5931132343,誠安藥局,新北市土城區中央路４段３６號１樓,121.4207,24.96088,(02)22677737,羅氏家用新冠病毒抗原自我檢測套組,78,2022/05/07 07:20:02,快篩代售時段：平日晚上8點，售完為止
5931132389,凱一藥局,新北市土城區裕民路９２巷２１弄８號１樓,121.4501,24.98629,(02)22707679,羅氏家用新冠病毒抗原自我檢測套組,78,2022/05/07 07:20:02,服務時間10:00~21:00，每週二休息。實名制快篩皆於營業日的10:00開賣。
5931132405,小倉藥局,新北市土城區青雲路１９０號１樓,121.4591,24.98221,(02)22744257,羅氏家用新冠病毒抗原自我檢測套組,51,2022/05/07 07:20:02,快篩發放早上八點領號碼牌，一人卡限一張號碼牌，隨即憑號碼牌購買快篩，賣完為止。
5931132594,元蒼藥局,新北市土城區學府路１段６９號１樓,121.4571,24.98825,(02)22733868,羅氏家用新冠病毒抗原自我檢測套組,60,2022/05/07 07:20:02,無
5931132610,久安藥局,新北市土城區廣明街７０號１樓,121.455,24.9938,(02)89671097,羅氏家用新冠病毒抗原自我檢測套組,78,2022/05/07 07:20:02,每日依現場排隊於9:30開始販售，售完為止。5／1號勞動節 無販售
5931132807,健業藥局,新北市土城區中央路２段２２３－１０號,121.4407,24.97312,(02)22704798,羅氏家用新冠病毒抗原自我檢測套組,78,2022/05/07 07:20:02,無
5931132950,美康藥妝藥局,新北市土城區延吉街２５４號１樓,121.4664,24.98465,(02)22616868,羅氏家用新冠病毒抗原自我檢測套組,58,2022/05/07 07:20:02,實名制快篩前一天若有到貨，則隔日三點販售
5931133037,國安健保藥局,新北市土城區延和路１０９號１樓,121.4678,24.99033,(02)22614933,羅氏家用新冠病毒抗原自我檢測套組,29,2022/05/07 07:20:02,無
5931133564,城恩藥局,新北市土城區學成路３４號１樓,121.4527,24.9873,(02)22735808,羅氏家用新冠病毒抗原自我檢測套組,4,2022/05/07 07:20:02,無
5931133591,土城人藥局,新北市土城區中央路２段２１３巷２號１樓,121.4413,24.97392,(02)22705068,羅氏家用新冠病毒抗原自我檢測套組,80,2022/05/07 07:20:02,無
5931140238,謚安中西藥局,新北市蘆洲區永平街６號,121.4596,25.09055,(02)22836375,羅氏家用新冠病毒抗原自我檢測套組,78,2022/05/07 07:20:02,無
5931141726,松展多利日式連鎖藥粧藥局,新北市蘆洲區民族路１６１號,121.4793,25.08817,(02)22882586,羅氏家用新冠病毒抗原自我檢測套組,3,2022/05/07 07:20:02,防疫物資每日下午02:00開始販售
5931142018,福您安中西藥局,新北市蘆洲區長安街２４６巷６號１樓,121.458,25.08615,(02)82858322,羅氏家用新冠病毒抗原自我檢測套組,78,2022/05/07 07:20:02,無
5931142296,蓁美健康藥局,新北市蘆洲區九芎街９０巷２１號,121.4647,25.08116,(02)22827527,羅氏家用新冠病毒抗原自我檢測套組,78,2022/05/07 07:20:02,上午10點販售實名制快篩 庫存以實際到貨量為主
5931142796,乙安藥局,新北市蘆洲區長安街１７９號１樓,121.4607,25.08158,(02)22888277,羅氏家用新冠病毒抗原自我檢測套組,1,2022/05/07 07:20:02,無
5931143266,中美永結藥局,新北市蘆洲區長安街１８５號１樓,121.4605,25.08169,(02)22887676,羅氏家用新冠病毒抗原自我檢測套組,50,2022/05/07 07:20:02,無
5931143355,昭陽藥局,新北市蘆洲區復興路２３０號１樓,121.4793,25.08936,(02)82867077,羅氏家用新冠病毒抗原自我檢測套組,44,2022/05/07 07:20:02,無
5931151302,宏安藥局,新北市五股區成泰路２段１３６號,121.4382,25.08369,(02)22915932,羅氏家用新冠病毒抗原自我檢測套組,77,2022/05/07 07:20:02,口罩販售時間:每日08:15~23:00售完為止 星期日如果前一日還有庫存，當日照常販售
5931160105,泰林中西藥局,新北市泰山區泰林路２段２０６號,121.4333,25.06144,(02)22978367,羅氏家用新冠病毒抗原自我檢測套組,19,2022/05/07 07:20:02,快篩如前一天有到貨，隔天早上8點半準時開賣，星期天沒有營業。
5931160141,日泰藥局,新北市泰山區泰林路２段２２７號,121.4323,25.06194,(02)29095989,羅氏家用新冠病毒抗原自我檢測套組,5,2022/05/07 07:20:02,下午兩點開始販售實名制快篩，不預留健保卡。每日提供10份確診個案與居隔民眾。
5931161344,北安藥妝藥局,新北市泰山區明志路２段６１號,121.4292,25.0526,(02)22967199,羅氏家用新冠病毒抗原自我檢測套組,2,2022/05/07 07:20:02,早上9:30開始發號碼牌
5931170067,宏宇藥局,新北市林口區中正路２８８號１樓,121.3887,25.07776,(02)26031948,羅氏家用新冠病毒抗原自我檢測套組,156,2022/05/07 07:20:02,實名制快篩販售時間:周一至周六 下午兩點，售完為止
5931171251,喜樂藥師藥局,新北市林口區麗林里公園路１５號１樓,121.3665,25.06762,(02)26005566,羅氏家用新冠病毒抗原自我檢測套組,1,2022/05/07 07:20:02,快篩實名制，每天14:00開始販售，售完為止，週日休息
5931171644,蛋寶寶藥局,新北市林口區民有街１５８號１樓,121.3725,25.07595,(02)26097371,羅氏家用新冠病毒抗原自我檢測套組,78,2022/05/07 07:20:02,5／21起 周六不販售快篩
5931171671,欣穎藥局,新北市林口區文化二路１段５３５號１樓,121.3843,25.0829,(02)26069786,羅氏家用新冠病毒抗原自我檢測套組,13,2022/05/07 07:20:02,實名制快篩:下午3點-5點。只收紙鈔。周日公休
5931171680,一家好藥局,新北市林口區中山路５００號,121.3794,25.08303,(02)26028270,羅氏家用新冠病毒抗原自我檢測套組,45,2022/05/07 07:20:02,無
5931171733,長欣藥局,新北市林口區中山路１８８號１樓之３,121.3894,25.07908,(02)26013171,羅氏家用新冠病毒抗原自我檢測套組,58,2022/05/07 07:20:02,快篩開賣時間早上9點10分 周日公休  身障.警消醫護可優先購買
5931171742,唯恩藥局,新北市林口區麗園一街９巷１號１樓之２,121.3768,25.07139,(02)26005805,羅氏家用新冠病毒抗原自我檢測套組,78,2022/05/07 07:20:02,快篩發放固定13點，領取號碼牌
5931171813,力行藥局,新北市林口區文化３路１段４２３、４２５號１、２樓,121.3653,25.07438,(02)26080711,羅氏家用新冠病毒抗原自我檢測套組,4,2022/05/07 07:20:02,快篩實名制，每天16:00開始販售，售完為止。
5931171895,奇異果三井藥局,新北市林口區文化三路１段２４１號１樓,121.3632,25.07147,(02)26068650,羅氏家用新冠病毒抗原自我檢測套組,78,2022/05/07 07:20:02,實名制快篩每日13:00開賣喔
5931181195,健康小站藥局,新北市深坑區埔新里北深路２段７５號,121.6184,25.00373,(02)26629568,羅氏家用新冠病毒抗原自我檢測套組,78,2022/05/07 07:20:02,販售時間
5931231225,小蘋果藥局,新北市八里區中山路１段２２９號,121.411,25.1576,(02)26108206,羅氏家用新冠病毒抗原自我檢測套組,74,2022/05/07 07:20:02,無
5931250042,信芳藥局,新北市雙溪區中華路５０號,121.866,25.03761,(02)24931301,羅氏家用新冠病毒抗原自我檢測套組,78,2022/05/07 07:20:02,無
5931270026,仁又堂藥局,新北市金山區信義路１７號,121.6373,25.22091,(02)24982468,羅氏家用新冠病毒抗原自我檢測套組,1,2022/05/07 07:20:02,無
5931271103,躍獅五福藥局,新北市金山區中山路９９號１樓,121.6399,25.21925,(02)24081608,羅氏家用新冠病毒抗原自我檢測套組,1,2022/05/07 07:20:02,口罩販售時段:早上八點至售完為止
5931280013,萬里藥局,新北市萬里區瑪鍊路９０號,121.6837,25.18504,(02)24922235,羅氏家用新冠病毒抗原自我檢測套組,280,2022/05/07 07:20:02,無
5931281083,焦藥局,新北市萬里區港東新邨６號１樓,121.6569,25.20989,(02)24923188,羅氏家用新冠病毒抗原自我檢測套組,156,2022/05/07 07:20:02,5／7 於7:00發號碼牌， 9:00-12:00販售.
5932010019,家佳藥局,桃園市桃園區瑞慶里莊一街８０號,121.2937,25.02199,(03)3175618,羅氏家用新冠病毒抗原自我檢測套組,10,2022/05/07 07:20:02,藥局不看診，周休二日
5932010202,安琪兒藥局,桃園市桃園區莊敬路二段７６號１樓,121.2934,25.02282,(03)3016965,羅氏家用新冠病毒抗原自我檢測套組,78,2022/05/07 07:20:02,無
5932010328,七加恩聯合藥局,桃園市桃園區中埔二街１２３號１樓,121.2959,25.01191,(03)3029302,羅氏家用新冠病毒抗原自我檢測套組,78,2022/05/07 07:20:02,1-5，8:15 發號碼牌  W6 8:45  庫存量不等於實際量
5932010917,幸運草健保藥局,桃園市桃園區縣府路２８０號,121.2994,24.99316,(03)3379977,羅氏家用新冠病毒抗原自我檢測套組,6,2022/05/07 07:20:02,快篩販售時間：平日8:00起售完為止，週六9:00開始
5932011503,文安藥局,桃園市桃園區中正路６９９號,121.3032,25.00685,(03)3558999,羅氏家用新冠病毒抗原自我檢測套組,20,2022/05/07 07:20:02,實名制快篩領取時間每日早上07:00~080發放78份，請各位不要，不要，不要再打電話來問了，謝謝
5932011870,永祥大藥局,桃園市桃園區永安路５２８號,121.2986,25.00181,(03)3337161,羅氏家用新冠病毒抗原自我檢測套組,4,2022/05/07 07:20:02,口罩販賣時段：週一至週六早上9點
5932012402,聖昌藥師藥局,桃園市桃園區莊敬里中正路１２３８號１樓,121.2975,25.01898,(03)3266654,羅氏家用新冠病毒抗原自我檢測套組,39,2022/05/07 07:20:02,每日早上8:15開始賣快篩試劑
5932012493,吉生藥局,桃園市桃園區延平路３２號,121.3141,24.98537,(03)3626220,羅氏家用新冠病毒抗原自我檢測套組,1,2022/05/07 07:20:02,無
5932012813,桃園大興藥局,桃園市桃園區大興西路二段７６巷３號,121.2984,25.01183,(03)3013222,羅氏家用新冠病毒抗原自我檢測套組,18,2022/05/07 07:20:02,快篩實名制，每天16:00開始販售，售完為止。
5932013034,永明藥師藥局,桃園市桃園區永安路２６４號,121.304,24.99839,(03)3343606,羅氏家用新冠病毒抗原自我檢測套組,78,2022/05/07 07:20:02,實名制快篩試劑，早上8點多開始依衛福部規範憑健保卡，一人一卡一份（5劑入），每份500元。售出後不退換。
5932013374,芳鄰藥局,桃園市桃園區昆明路３９號,121.3173,24.98372,(03)3679498,羅氏家用新冠病毒抗原自我檢測套組,78,2022/05/07 07:20:02,無
5932013392,桃園中正藥局,桃園市桃園區中正路３７３號,121.3079,24.99955,(03)3381600,羅氏家用新冠病毒抗原自我檢測套組,13,2022/05/07 07:20:02,快篩實名制，每天16:00開始販售，售完為止。
5932013409,欣立藥局,桃園市桃園區龍安街１８１－１號１樓,121.2782,24.99294,(03)3792001,羅氏家用新冠病毒抗原自我檢測套組,59,2022/05/07 07:20:02,快篩代售時間：晚上6點至銷售完畢。
5932013650,金安藥局,桃園市桃園區南華街１４８號,121.3077,24.99269,(03)3398088,羅氏家用新冠病毒抗原自我檢測套組,67,2022/05/07 07:20:02,無
5932013687,桃園春日藥局,桃園市桃園區春日路８７８號,121.3096,25.01561,(03)3580101,羅氏家用新冠病毒抗原自我檢測套組,1,2022/05/07 07:20:02,快篩實名制，每天16:00開始販售，售完為止。
5932014013,力行藥局,桃園市桃園區力行路９８號,121.3027,25.00206,(03)3391368,羅氏家用新冠病毒抗原自我檢測套組,78,2022/05/07 07:20:02,每日14點開賣售78份為止不發號碼牌，若14點前沒來排隊，肯定買不到請別問了現場爆忙，若15點後還有庫存78以上是隔天賣
5932014077,新資生民安大藥局,桃園市桃園區民安路９８號１樓,121.2997,24.99691,(03)3310098,羅氏家用新冠病毒抗原自我檢測套組,29,2022/05/07 07:20:02,每日14:00開賣.售完為止.臉書粉專會公告最新訊息.可關注
5932014102,小飛象藥局,桃園市桃園區慈文路１９２號,121.3041,25.00907,(03)3552771,羅氏家用新冠病毒抗原自我檢測套組,78,2022/05/07 07:20:02,5／7 [09:30] 開賣78份，再打來問一律掛電話。不發放號碼牌，請自行計算人數。即起調劑確診者之視訊處方，請自保。
5932014111,鴻發藥師藥局,桃園市桃園區大有路５４３號,121.3171,25.0149,(03)3582468,羅氏家用新冠病毒抗原自我檢測套組,78,2022/05/07 07:20:02,實聯快篩:早上09:30發放號碼牌，限當日下午2~4點憑牌購買，逾時不候請見諒
5932014166,華康中西藥局,桃園市桃園區中埔六街３號１號,121.2964,25.01549,(03)3166920,羅氏家用新冠病毒抗原自我檢測套組,78,2022/05/07 07:20:02,營業時間:週一~周六:9:00-21:30。週日10:00-18:30 （5／6快篩已售完）（5／7實名快篩早上9:20領號碼牌）
5932014184,浤安藥局,桃園市桃園區慈德街１號１樓,121.3019,25.00685,(03)3577665,羅氏家用新冠病毒抗原自我檢測套組,78,2022/05/07 07:20:02,14:00開始發放實名制快篩
5932014433,樺品藥局,桃園市桃園區中華路４８號１樓,121.3104,24.99093,(03)3476667,羅氏家用新冠病毒抗原自我檢測套組,75,2022/05/07 07:20:02,營業時間:9:30-21:30，11:00取號碼牌購買快篩
5932014442,新光藥局,桃園市桃園區大有路１７２號,121.3209,25.00752,(03)3310133,羅氏家用新冠病毒抗原自我檢測套組,48,2022/05/07 07:20:02,營業時間:週一至週五10:00-22:00；快篩下午2:00開始，賣完為止，不發號碼牌
5932018628,民富大藥局,桃園市桃園區大有路４８８號,121.3186,25.01277,(03)3469976,羅氏家用新冠病毒抗原自我檢測套組,88,2022/05/07 07:20:02,快篩販賣時段：暫定週一至週五14:00-15:00， 週六.日不發放以現場公告時間為主
5932019045,大一藥局,桃園市桃園區中山路684之一號一樓,121.2946,24.9912,(03)2171836,羅氏家用新冠病毒抗原自我檢測套組,1,2022/05/07 07:20:02,快篩試劑每日下午3點半發號碼牌，4點開賣。星期日停售。
593201A640,大心藥局,桃園市桃園區中平路１４１號,121.2934,24.98627,(03)2209842,羅氏家用新冠病毒抗原自我檢測套組,78,2022/05/07 07:20:02,9:00發號碼牌，號碼牌當天有效，9:30開始販售，11:00前結束販售，以號碼牌為準請勿遺失
5932020360,日進藥局,桃園市中壢區中山東路二段１５６號,121.2394,24.95276,(03)4569132,羅氏家用新冠病毒抗原自我檢測套組,78,2022/05/07 07:20:02,政府實名制快篩販售時間:每日早上08:00~售完為止！
5932020502,禾安藥局,桃園市中壢區福德路５２號１F,121.2587,24.97445,(03)4627066,羅氏家用新冠病毒抗原自我檢測套組,77,2022/05/07 07:20:02,快篩實名制:早上八點營業（售完為止）週日公休
5932021090,新生藥師藥局,桃園市中壢區民權路５２號,121.2172,24.95608,(03)4919796,羅氏家用新冠病毒抗原自我檢測套組,4,2022/05/07 07:20:02,販賣時段：0840
5932021269,優良藥局,桃園市中壢區長春路２０號,121.2499,24.97907,(03)4612336,羅氏家用新冠病毒抗原自我檢測套組,1,2022/05/07 07:20:02,快篩販售時間10:00
5932021689,立康專業藥局,桃園市中壢區莊敬路８６５號,121.2543,24.96376,(03)4553121,羅氏家用新冠病毒抗原自我檢測套組,78,2022/05/07 07:20:02,快篩實名制販售時間週一到週五下午14:00販售 週六週日早上10:00販售 現場排隊
5932022159,躍獅新明藥局,桃園市中壢區新明路６６號１樓,121.215,24.95868,(03)2813361,羅氏家用新冠病毒抗原自我檢測套組,39,2022/05/07 07:20:02,快篩販賣時段：14:00~售完為止，現場排隊 ， 星期天沒有販售快篩
5932022257,星康生活藥局,桃園市中壢區中美路二段94號,121.2218,24.96005,(03)4252869,羅氏家用新冠病毒抗原自我檢測套組,2,2022/05/07 07:20:02,9:00開始發放，售完為止
5932023021,辰鴻藥局,桃園市中壢區環中東路１１０號,121.2585,24.96527,(03)4638639,羅氏家用新冠病毒抗原自我檢測套組,156,2022/05/07 07:20:02,周一至週六 9:00開始，政府滾動式調整配貨
5932023558,德春藥局,桃園市中壢區中山路４４５號,121.2165,24.95668,(03)4933495,羅氏家用新冠病毒抗原自我檢測套組,52,2022/05/07 07:20:02,快篩試劑6AM發號碼牌，8AM領試劑
5932023647,樂謙藥師藥局,桃園市中壢區龍東路１３４號,121.2522,24.92929,(03)4662775,羅氏家用新冠病毒抗原自我檢測套組,70,2022/05/07 07:20:02,實名快篩每日下午2點、晚上6點 各發39份
5932023656,思琁藥師藥局,桃園市中壢區中北路二段４３０號,121.2331,24.95448,(03)4162189,羅氏家用新冠病毒抗原自我檢測套組,1,2022/05/07 07:20:02,週一~週五早上10:30發快篩..週六公休..週日看到貨狀況再另行公告
5932023718,鈞育藥局,桃園市中壢區吉林路１２７號,121.2504,24.98381,(03)4622031,羅氏家用新冠病毒抗原自我檢測套組,34,2022/05/07 07:20:02,販賣時段：W1至W5：13:00至售完，W六日不販售
5932023889,華勛藥局,桃園市中壢區華勛街１１２、１１４號,121.2597,24.95065,(03)4161881,羅氏家用新冠病毒抗原自我檢測套組,1,2022/05/07 07:20:02,快篩實名制，每天16:00開始販售，售完為止。
5932023987,薰衣草藥局,桃園市中壢區新生路３３５號１樓,121.2231,24.96495,(03)4253330,羅氏家用新冠病毒抗原自我檢測套組,1,2022/05/07 07:20:02,週日無販售，其餘販售時間依粉絲團公告
5932024108,佳愷藥局,桃園市中壢區中北路４７號,121.2368,24.95614,(03)4664735,羅氏家用新冠病毒抗原自我檢測套組,16,2022/05/07 07:20:02,視配貨狀況禮拜三、禮拜五、禮拜六早上9點至11點販售。若未到貨則無法開賣，有任何疑問請致電聯繫許藥師0933-595-819
5932024180,小瓢蟲藥局,桃園市中壢區正大街２５號１樓,121.2047,24.95836,(03)4020967,羅氏家用新冠病毒抗原自我檢測套組,3,2022/05/07 07:20:02,營業時間：上午0830-1200，下午1400-1730，晚上1800-2130
5932024260,新資生福州大藥局,桃園市中壢區福州二街４０９號,121.232,24.96789,(03)3606180,羅氏家用新冠病毒抗原自我檢測套組,35,2022/05/07 07:20:02,營業時間：星期六 日 上午0900至下午1000
5932029676,中日大藥局,桃園市中壢區中北路二段７８號,121.225,24.95063,(03)4285068,羅氏家用新冠病毒抗原自我檢測套組,78,2022/05/07 07:20:02,快篩11點前到貨，11點開始販售；11點後到貨，到貨開始販售
593202B483,千葉大藥局,桃園市中壢區新生路三Ｏ七號,121.223,24.96434,(03)4251886,羅氏家用新冠病毒抗原自我檢測套組,78,2022/05/07 07:20:02,快篩販賣時段：滾動式配送.滾動式販售.（正常時間配送 於早上8點販售）
5932030080,吉壽藥局,桃園市大溪區員林路三段４２號,121.2648,24.88175,(03)3802049,羅氏家用新冠病毒抗原自我檢測套組,78,2022/05/07 07:20:02,快篩試劑販賣時段：星期一~五晚上7:00起及星期六、日上午8:30起。由於近日進貨庫存異常，另78份為隔日販售！請諒解。
5932030160,永耘藥局,桃園市大溪區介壽路６４號,121.2946,24.92239,(03)3804770,羅氏家用新冠病毒抗原自我檢測套組,78,2022/05/07 07:20:02,快篩試劑販賣時段: 週一至週日早上8:00
5932031710,甯慶藥局,桃園市大溪區介壽路１１７９號,121.2841,24.90002,(03)3801199,羅氏家用新冠病毒抗原自我檢測套組,1,2022/05/07 07:20:02,口罩販賣時段：13:00-15:00 自備零錢
5932042124,佑健藥師藥局,桃園市楊梅區中山北路二段一Ｏ八號一樓,121.1699,24.90855,(03)4315478,羅氏家用新冠病毒抗原自我檢測套組,44,2022/05/07 07:20:02,快篩販賣時段上午9點開始現場排隊， 售完為止
5932043274,躍獅天明藥局,桃園市楊梅區大成路１７７號,121.1457,24.91247,(03)2888295,羅氏家用新冠病毒抗原自我檢測套組,234,2022/05/07 07:20:02,快篩販售時間：週一至週五上午8：00售完為止，週六日不販售
5932043309,資生楊梅大藥局,桃園市楊梅區楊新路１００號,121.1449,24.91341,(03)2889590,羅氏家用新冠病毒抗原自我檢測套組,14,2022/05/07 07:20:02,每日快篩代售時間14:00-21:00
5932043345,家安藥局,桃園市楊梅區中興路１３２號,121.1851,24.91655,(03)4811626,羅氏家用新冠病毒抗原自我檢測套組,120,2022/05/07 07:20:02,5／6實名制快篩試劑，下午2點販售
5932050215,九德藥局,桃園市蘆竹區中山路６９號,121.3003,25.05242,(03)3116868,羅氏家用新冠病毒抗原自我檢測套組,62,2022/05/07 07:20:02,口罩販賣時段：中午12點
5932051472,康而美聖安藥師藥局,桃園市蘆竹區南山路一段二之一號,121.2916,25.04879,(03)3228753,羅氏家用新冠病毒抗原自我檢測套組,3,2022/05/07 07:20:02,暫停止販售
5932052442,喜多福藥局,桃園市蘆竹區山腳里南山路三段２６５號１樓,121.2859,25.08434,(03)3240083,羅氏家用新冠病毒抗原自我檢測套組,34,2022/05/07 07:20:02,星期一~星期六，早上8點開始販售
5932052531,竹康藥師藥局,桃園市蘆竹區大竹路５２５號,121.2594,25.02374,(03)3139657,羅氏家用新冠病毒抗原自我檢測套組,73,2022/05/07 07:20:02,實名制快篩販賣時段：週一至週日14:30
5932052559,大新長青藥師藥局,桃園市蘆竹區大新路４６７號,121.2483,25.02408,(03)3131413,羅氏家用新冠病毒抗原自我檢測套組,8,2022/05/07 07:20:02,快篩14:00開始販售
5932052835,悅兒藥局,桃園市蘆竹區忠孝西路１８６號,121.2892,25.04011,(03)3126967,羅氏家用新冠病毒抗原自我檢測套組,78,2022/05/07 07:20:02,快篩販賣時段：週一到週日 14:30 開賣
5932052979,南崁藥局,桃園市蘆竹區中正路２５１、２５３、２５５號,121.2921,25.04695,(03)3522022,羅氏家用新冠病毒抗原自我檢測套組,157,2022/05/07 07:20:02,快篩實名制，每天16:00開始販售，售完為止。
5932053010,辰安藥局,桃園市蘆竹區上興路２１６號１樓,121.2601,25.01896,(03)3136631,羅氏家用新冠病毒抗原自我檢測套組,78,2022/05/07 07:20:02,5／6號碼牌已發完；08:00AM 發號碼牌；系統進貨已含隔日庫存!*本藥局實名制快篩規則統一公告臉書
5932053074,南崁丁丁藥局,桃園市蘆竹區南崁路１段５０號,121.2893,25.05126,(03)3115646,羅氏家用新冠病毒抗原自我檢測套組,78,2022/05/07 07:20:02,9:00開始營業
5932053083,健力藥局,桃園市蘆竹區奉化路１３６號,121.2888,25.03924,(03)2221918,羅氏家用新冠病毒抗原自我檢測套組,65,2022/05/07 07:20:02,快篩下午三點開賣，週五停賣
5932053092,敏新藥局,桃園市蘆竹區海山路１４號,121.2862,25.08615,(03)3248202,羅氏家用新冠病毒抗原自我檢測套組,78,2022/05/07 07:20:02,快篩現場排隊購買，售完為止。星期天無販售
5932060140,大園藥局,桃園市大園區中華路４９號,121.1982,25.0667,(03)3865034,羅氏家用新冠病毒抗原自我檢測套組,82,2022/05/07 07:20:02,快篩販賣時段：上午7:00 開始售完為止 若遇無收到配送 另行公告
5932070253,高田藥師藥局,桃園市龜山區山鶯路７６號,121.3237,24.99004,(03)3336363,羅氏家用新冠病毒抗原自我檢測套組,8,2022/05/07 07:20:02,口罩販賣時段：早上11:00-早上11:30
5932076157,安康藥局,桃園市龜山區萬壽路二段９５７號一樓,121.3379,24.99506,(03)3597032,羅氏家用新冠病毒抗原自我檢測套組,78,2022/05/07 07:20:02,口罩販賣時段:周一至周六營業時間
5932076791,誠安生活藥局,桃園市龜山區文化七路７９之２號,121.3635,25.05166,(03)3271997,羅氏家用新冠病毒抗原自我檢測套組,1,2022/05/07 07:20:02,實名制快篩試劑每日下午三點啟售。5／7.8週六週日不販售
5932076844,帕米爾藥局,桃園市龜山區萬壽路二段９９１號,121.3369,24.99464,(03)3295522,羅氏家用新冠病毒抗原自我檢測套組,2,2022/05/07 07:20:02,星期一~六:家用快篩試劑販賣時段：14:30~售完。不發號碼牌，請直接排隊購買。
5932077109,嘉惠中西藥局,桃園市龜山區文化七路７９－１號１樓,121.3635,25.05151,(03)3183837,羅氏家用新冠病毒抗原自我檢測套組,1,2022/05/07 07:20:02,實名制快篩週一~週六13:30開始販售
5932077172,佑全藥局,桃園市龜山區幸福三街３１號,121.3347,24.98763,(03)3193036,羅氏家用新冠病毒抗原自我檢測套組,6,2022/05/07 07:20:02,政府快篩試劑販賣時段：14:00-14:30
5932077270,明昌藥局,桃園市龜山區中興里萬壽路二段１１９１－６號,121.3318,24.99291,(03)3501205,羅氏家用新冠病毒抗原自我檢測套組,1,2022/05/07 07:20:02,無
5932077298,家和藥局,桃園市龜山區建國東路９７號,121.3252,24.98754,(03)3196416,羅氏家用新冠病毒抗原自我檢測套組,3,2022/05/07 07:20:02,快篩販賣時段：週一至週日15:00-17:00
5932077305,全興藥局,桃園市龜山區光峰路１５３號１樓,121.3427,25.0026,(03)3597901,羅氏家用新冠病毒抗原自我檢測套組,41,2022/05/07 07:20:02,上午8:30開始販售實名制快篩試劑，禮拜日公休。
5932077378,佑昌藥局,桃園市龜山區民生北路一段５３４號,121.298,25.044,(03)3120760,羅氏家用新冠病毒抗原自我檢測套組,13,2022/05/07 07:20:02,實名制快篩發放時間 14:00
5932077510,左外野藥局,桃園市龜山區文光街６號１樓,121.3802,25.05471,(03)3271503,羅氏家用新冠病毒抗原自我檢測套組,77,2022/05/07 07:20:02,5月6日（週五）10:00-12:00加班販售快篩  *不發號碼牌 請直接排隊購買
5932077609,新資生中興大藥局,桃園市龜山區中興路３５０號１樓,121.3352,24.9917,(03)3596959,羅氏家用新冠病毒抗原自我檢測套組,79,2022/05/07 07:20:02,快篩試劑早上10點開始到中午12點止 不發號碼牌
5932077618,大山藥局,桃園市龜山區中興路１段１８、２２、２４號１樓,121.3379,24.99376,(03)3191057,羅氏家用新冠病毒抗原自我檢測套組,145,2022/05/07 07:20:02,無
5932077645,美康萬壽藥局,桃園市龜山區萬壽路１段３２５號１、２樓,121.4024,25.0169,(02)82000001,羅氏家用新冠病毒抗原自我檢測套組,156,2022/05/07 07:20:02,下午兩點開始發號碼牌販售公費快篩
5932080197,和生藥局,桃園市八德區興豐路５８８號,121.2935,24.9305,(03)3688368,羅氏家用新冠病毒抗原自我檢測套組,46,2022/05/07 07:20:02,無
5932083303,吉康生活藥局,桃園市八德區義勇街１２０號,121.3045,24.96354,(03)3768577,羅氏家用新冠病毒抗原自我檢測套組,78,2022/05/07 07:20:02,周休二日，周一到周五09.:30發放快篩號碼牌 銷售時間 09:30-11:30
5932083527,新大明藥局,桃園市八德區大明街二一號一樓,121.2958,24.96902,(03)3618284,羅氏家用新冠病毒抗原自我檢測套組,41,2022/05/07 07:20:02,快篩上午6.10開始領號碼牌領完為止假ㄖ無休
5932083545,興豐藥局,桃園市八德區介壽路二段一一七五號,121.2975,24.93165,(03)3654229,羅氏家用新冠病毒抗原自我檢測套組,78,2022/05/07 07:20:02,實名制快篩 早上07:30開始販售（售完為止）
5932083670,保健藥局,桃園市八德區介壽路一段８３３號２樓,121.3,24.96168,(03)3669486,羅氏家用新冠病毒抗原自我檢測套組,202,2022/05/07 07:20:02,無
5932083974,晨鴻藥師藥局,桃園市八德區桃鶯路７號１樓,121.3265,24.97179,(03)3764299,羅氏家用新冠病毒抗原自我檢測套組,24,2022/05/07 07:20:02,快篩為早上8:30跟晚上6:00領取號碼牌，因有送貨時間及短少的因素，所以快篩地圖數量參考就好，請勿再打電話詢問 謝謝
5932084248,佑兒康藥局,桃園市八德區永豐路５７０號,121.2718,24.97541,(03)3709680,羅氏家用新冠病毒抗原自我檢測套組,2,2022/05/07 07:20:02,快篩販售時間:  每週一.二.四.五.六 下午2:30 開始 ； 每週三.日 晚上8:50開始
5932084480,大躍藥局,桃園市八德區高城里高城路４８號１樓,121.276,24.97932,(03)3786958,羅氏家用新冠病毒抗原自我檢測套組,78,2022/05/07 07:20:02,快篩領取時間以當天到貨狀況為主，現場排隊無發放號碼牌
5932084533,柚兒藥局,桃園市八德區興仁里豐田三路７９號,121.2875,24.9285,(03)3652002,羅氏家用新冠病毒抗原自我檢測套組,78,2022/05/07 07:20:02,快篩販賣時間：08:40  周一至周六 （ 周日休息 ）
5932084668,奕成健保大藥局,桃園市八德區興豐路６７３號１樓,121.2958,24.93121,(03)3732113,羅氏家用新冠病毒抗原自我檢測套組,11,2022/05/07 07:20:02,早上10:30發放39份、晚上9:30發放39份  （六、日無放快篩）
5932084677,杏一八德介壽藥局,桃園市八德區介壽路一段７７１號１樓,121.3003,24.96305,(03)3665542,羅氏家用新冠病毒抗原自我檢測套組,78,2022/05/07 07:20:02,假日及國定假日不賣快篩.平日早上10點 開始賣
5932084695,康馥藥局,桃園市八德區金和路５３號１樓,121.2971,24.95494,(03)3749620,羅氏家用新冠病毒抗原自我檢測套組,78,2022/05/07 07:20:02,口罩販賣時段：15:00 ， 週日14:30開始營業；星期六公休。
5932084739,元冠大藥局,桃園市八德區豐德路１７號,121.295,24.92466,(03)3657868,羅氏家用新冠病毒抗原自我檢測套組,78,2022/05/07 07:20:02,無
5932084748,井三原健保藥局,桃園市八德區介壽路１段９５６號,121.2992,24.95842,(03)2184078,羅氏家用新冠病毒抗原自我檢測套組,78,2022/05/07 07:20:02,實名制快篩週一至週六早上8:30開賣，週日不販售快篩，實際庫存依現場為主
5932084775,安平藥局,桃園市八德區興豐路６５２號１樓,121.2954,24.93085,(03)3732071,羅氏家用新冠病毒抗原自我檢測套組,63,2022/05/07 07:20:02,快篩販售時間平日7:40＜假日8:40＞如遇多人則提早販售避免群聚
5932084793,美康健保藥局,桃園市八德區桃鶯路９１號１、２樓,121.328,24.97036,(03)3613624,羅氏家用新冠病毒抗原自我檢測套組,78,2022/05/07 07:20:02,無
5932099132,龍大藥局,桃園市龍潭區中正路一六九號,121.217,24.86616,(03)4993793,羅氏家用新冠病毒抗原自我檢測套組,1,2022/05/07 07:20:02,無
5932099623,中興藥師藥局,桃園市龍潭區中興路３９９號,121.2308,24.87293,(03)4091005,羅氏家用新冠病毒抗原自我檢測套組,15,2022/05/07 07:20:02,快篩販賣時間-早上9:15發號碼牌、9:30開始販售‧‧‧週六、日停售
5932099696,大立健保藥局,桃園市龍潭區民族路 １９２號１樓,121.2354,24.84074,(03)4093487,羅氏家用新冠病毒抗原自我檢測套組,38,2022/05/07 07:20:02,實名制快篩早上7:00領取
5932099776,愛心藥局,桃園市龍潭區五福街１５巷３號,121.2177,24.86528,(03)4706717,羅氏家用新冠病毒抗原自我檢測套組,78,2022/05/07 07:20:02,口罩販賣時段：0800～售完
5932100210,福澤中豐藥局,桃園市平鎮區中豐路３４５號,121.2116,24.91034,(03)4283805,羅氏家用新冠病毒抗原自我檢測套組,3,2022/05/07 07:20:02,家用快篩販賣時段15:30至售完為止
5932100354,世新藥局,桃園市平鎮區廣泰路７５之２號,121.2052,24.94629,(03)4941234,羅氏家用新冠病毒抗原自我檢測套組,1,2022/05/07 07:20:02,實名制快篩13:30販售
5932100612,名康藥局,桃園市平鎮區金陵路二段７２號,121.2228,24.94162,(03)4577559,羅氏家用新冠病毒抗原自我檢測套組,24,2022/05/07 07:20:02,（若政府有配送快篩） 下午兩點開始販售，一人一卡，自備500元．（無發號碼牌）
5932100925,譽達藥局,桃園市平鎮區育達路２４０號１樓,121.2072,24.95155,(03)4922990,羅氏家用新冠病毒抗原自我檢測套組,43,2022/05/07 07:20:02,快篩星期一到五下午三點開始，現場領取，口罩地圖不準，以現場門口公告為主
5932100952,家樂藥局,桃園市平鎮區中豐路山頂段２１號１樓,121.2121,24.90367,(03)4191468,羅氏家用新冠病毒抗原自我檢測套組,2,2022/05/07 07:20:02,早上8點開始發放快篩，請依序排隊，一人限領一份並請準備好500避免找零，謝謝
5932100989,南勢長青藥師藥局,桃園市平鎮區中豐路南勢二段５３１號,121.2116,24.90828,(03)4030060,羅氏家用新冠病毒抗原自我檢測套組,27,2022/05/07 07:20:02,實名制快篩試劑，平日下午2:30過卡販售!
5932101137,平鎮延平藥局,桃園市平鎮區延平路二段４３０巷７９—１６號,121.206,24.94458,(03)4918187,羅氏家用新冠病毒抗原自我檢測套組,128,2022/05/07 07:20:02,周一~周六，下午1點~3點販售公費快篩，12:58發放號碼牌，每日30份，請自備500元，不找零
5932120016,吉利藥師藥局,桃園市觀音區富源里新富路１７０５號,121.1326,24.99095,(03)4901701,羅氏家用新冠病毒抗原自我檢測套組,28,2022/05/07 07:20:02,口罩販賣時段：週一至週六早上7:30起，售完為止
5932120105,新惠安藥局,桃園市觀音區崙坪里忠愛路一段３３號,121.1672,24.99356,(03)4981650,羅氏家用新冠病毒抗原自我檢測套組,77,2022/05/07 07:20:02,口罩販賣時段：07:30至售完為止）
5932124265,弘宗藥局,桃園市觀音區中山路１５號,121.0822,25.03671,(03)4735659,羅氏家用新冠病毒抗原自我檢測套組,42,2022/05/07 07:20:02,口罩販賣時段：
5932124390,合春藥局,桃園市觀音區新生路４６號,121.1359,25.01399,(03)4982300,羅氏家用新冠病毒抗原自我檢測套組,78,2022/05/07 07:20:02,每日早上8點開始販售
5933010055,聯合大藥局,新竹縣關西鎮西安里正義路９１號,121.176,24.79408,(03)5877767,羅氏家用新冠病毒抗原自我檢測套組,76,2022/05/07 07:20:02,快篩販賣時段：每天早上八點至售完為止
5933010064,明德藥局,新竹縣關西鎮中山路１８號,121.1778,24.79152,(03)5874335,羅氏家用新冠病毒抗原自我檢測套組,64,2022/05/07 07:20:02,無
5933010082,仁泰藥局,新竹縣關西鎮石光里６鄰２６８號,121.1307,24.81263,(03)5868391,羅氏家用新冠病毒抗原自我檢測套組,78,2022/05/07 07:20:02,無
5933011178,康和藥局,新竹縣關西鎮正義路７９號,121.1759,24.79386,(03)5870068,羅氏家用新冠病毒抗原自我檢測套組,48,2022/05/07 07:20:02,依看診時間供民眾取藥
5933011258,安東藥師藥局,新竹縣關西鎮中山路６２號,121.1766,24.79147,(03)5872385,羅氏家用新冠病毒抗原自我檢測套組,78,2022/05/07 07:20:02,口罩販賣時段：星期一至六08:00-21:00、星期日08:00-17:00
5933050102,健新藥局,新竹縣竹北市中正西路２７１號,120.9968,24.84255,(03)5527300,羅氏家用新冠病毒抗原自我檢測套組,39,2022/05/07 07:20:02,每日早上7-8販售快篩.星期四早上9點（有正常到貨時）
5933050424,健安藥局,新竹縣竹北市中山路４５８號,121.0113,24.83861,(03)5536591,羅氏家用新冠病毒抗原自我檢測套組,40,2022/05/07 07:20:02,上午 08:30~12:00 下午15:00:18:00 晚上 19:00~21:00（另外星期五下午看診時間17:00~18:00， 國定假日上午門診。）
5933052384,長康藥師藥局,新竹縣竹北市光明一路212號,121.0156,24.83066,(03)6572696,羅氏家用新冠病毒抗原自我檢測套組,46,2022/05/07 07:20:02,自5月6日起固定周一至周日早上7點30分開始販售快篩試劑，售完為止
5933052535,嘉岳藥局,新竹縣竹北市勝利三街３８號,121.0265,24.82321,(03)6585707,羅氏家用新冠病毒抗原自我檢測套組,14,2022/05/07 07:20:02,快篩試劑代售時間: 上午10 點，現場排隊.請自備零錢，健保卡。
5933052731,欣欣藥局,新竹縣竹北市成功八路１００號,121.0168,24.81817,(03)6676287,羅氏家用新冠病毒抗原自我檢測套組,78,2022/05/07 07:20:02,快篩實名制，若正常到貨，早上8點開始販售。
5933053023,禾坊藥局,新竹縣竹北市科大一路８５號,121.0095,24.82142,(03)5588797,羅氏家用新冠病毒抗原自我檢測套組,39,2022/05/07 07:20:02,快篩販賣時段：每日09:00，營業時間9:00~22:00，除週六9:00~18:00
5933053283,艾美藥局,新竹縣竹北市中正西路８２號１樓,121.0026,24.84005,(03)5557760,羅氏家用新冠病毒抗原自我檢測套組,76,2022/05/07 07:20:02,快篩試劑／口罩代售時段：星期一至星期日07:45-售完為止（12-15時休息）若排隊人數過多將提早開賣
5933053345,仁品藥局,新竹縣竹北市福興東路二段１２６號,121.0281,24.81475,(03)6579718,羅氏家用新冠病毒抗原自我檢測套組,78,2022/05/07 07:20:02,8:00-22:00
5933061570,湖口藥局,新竹縣湖口鄉民族路４５號,121.0472,24.90602,(03)5991842,羅氏家用新冠病毒抗原自我檢測套組,1,2022/05/07 07:20:02,實名制快篩販賣時段：星期一~六14:30開賣
5933061650,勝利大藥局,新竹縣湖口鄉勝利村漢陽路１號,121.0262,24.86326,(03)5987520,羅氏家用新冠病毒抗原自我檢測套組,10,2022/05/07 07:20:02,實名制快篩10點開始（5／2暫停，沒有到貨）
5933061758,宏安藥局,新竹縣湖口鄉中山路二段１１０號一樓,121.0436,24.90155,(03)5996335,羅氏家用新冠病毒抗原自我檢測套組,78,2022/05/07 07:20:02,快篩試劑代售時段: 周一至周五 9-11AM. 週六3-5PM. 周日不販售. 採現場排隊 售完為止.
5933080119,建仁藥局,新竹縣新豐鄉建興路一段１２２號,120.9951,24.87287,(03)5595850,羅氏家用新冠病毒抗原自我檢測套組,38,2022/05/07 07:20:02,快篩試劑AM7:00開始過卡.賣完為止（發售時間請勿打電話）
5933081447,彰懷藥局,新竹縣新豐鄉新興路75號1樓,120.9926,24.86639,(03)5572995,羅氏家用新冠病毒抗原自我檢測套組,78,2022/05/07 07:20:02,周一至星期日，每日早上八點開始販售，售完為止
5933081483,第一調劑藥局,新竹縣新豐鄉建興路一段１５４號,120.9947,24.87441,(03)5575001,羅氏家用新冠病毒抗原自我檢測套組,65,2022/05/07 07:20:02,無
5933081616,立果藥局,新竹縣新豐鄉尚仁街１３８號,120.9927,24.86946,(03)5571766,羅氏家用新冠病毒抗原自我檢測套組,3,2022/05/07 07:20:02,實名制快篩1400準時開售。營業時間並非販售快篩時間，請勿一早就來排隊
5933090071,新華方西藥局,新竹縣芎林鄉文山路515號,121.0779,24.77693,(03)5926352,羅氏家用新冠病毒抗原自我檢測套組,96,2022/05/07 07:20:02,販售時間:07:00-21:00售完為止.
5934010086,圓滿堂藥局,宜蘭縣宜蘭市中山路３段４８號,121.7524,24.75614,(03)9323413,羅氏家用新冠病毒抗原自我檢測套組,57,2022/05/07 07:20:02,口罩代售時間自上午7:30開始至售完止（星期日有代售口罩，早上8:00至售完止
5934010228,中一藥局,宜蘭縣宜蘭市慈安路４１－３號,121.7623,24.75944,(03)9385962,羅氏家用新冠病毒抗原自我檢測套組,78,2022/05/07 07:20:02,星期一至星期六上午9:00開始販售快篩.售完為止
5934011529,宜生藥局,宜蘭縣宜蘭市新民路１１１號,121.7551,24.75716,(03)9327893,羅氏家用新冠病毒抗原自我檢測套組,22,2022/05/07 07:20:02,周一至周六 上午8點至上午 9點 （或售完為止）5月7日台電停電 休息一日
5934011565,微風藥師藥局,宜蘭縣宜蘭市神農路２段４６號,121.7509,24.75084,(03)9362880,羅氏家用新冠病毒抗原自我檢測套組,131,2022/05/07 07:20:02,星期一至星期六7:30開始發放號碼牌至售完為止
5934011636,興南藥局,宜蘭縣宜蘭市中山路３段１７８號,121.7532,24.75975,(03)9310984,羅氏家用新冠病毒抗原自我檢測套組,68,2022/05/07 07:20:02,上午7:30開賣，賣完為止
5934011958,栢心藥局,宜蘭縣宜蘭市宜興路１段１１１號,121.7561,24.7514,(03)9357277,羅氏家用新冠病毒抗原自我檢測套組,78,2022/05/07 07:20:02,週一~週六（週四下午休息），快篩試劑下午14:30開始販售
5934012222,康泰藥局,宜蘭縣宜蘭市聖後街１７７號,121.7532,24.75886,(03)9358715,羅氏家用新冠病毒抗原自我檢測套組,1,2022/05/07 07:20:02,每日快篩實名制8：30販售，現場排隊，售完為止
5934020224,源生藥局,宜蘭縣羅東鎮忠孝路８９號,121.7652,24.67759,(03)9563476,羅氏家用新冠病毒抗原自我檢測套組,61,2022/05/07 07:20:02,執業時段請電洽藥局
5934021374,博雅藥師藥局,宜蘭縣羅東鎮維揚路２８號,121.7625,24.67243,(03)9519007,羅氏家用新冠病毒抗原自我檢測套組,78,2022/05/07 07:20:02,5／7週六，早上7:30開賣快篩
5934021409,德芳藥局,宜蘭縣羅東鎮公正路２５６號,121.7662,24.6797,(03)9557166,羅氏家用新冠病毒抗原自我檢測套組,66,2022/05/07 07:20:02,公費快篩W1-5早上7:30開賣，週四9:00
5934031165,宏一藥局,宜蘭縣蘇澳鎮中山路１段２９號,121.8524,24.59604,(03)9962125,羅氏家用新冠病毒抗原自我檢測套組,62,2022/05/07 07:20:02,快篩販售時間 ~ 5／7（六） 07:00
5934061065,心星藥局,宜蘭縣壯圍鄉吉祥村壯五路３１５號１樓,121.7846,24.74675,(03)9382258,羅氏家用新冠病毒抗原自我檢測套組,78,2022/05/07 07:20:02,物流運送快篩機制為高機動屬性，藥局營業時間為週一至週日 08:00~21:00，歡迎您來電洽詢，心星藥局關心您的健康.
5934081174,和康藥局,宜蘭縣冬山鄉義成路３段３５１號１樓,121.7676,24.66619,(03)9680650,羅氏家用新冠病毒抗原自我檢測套組,3,2022/05/07 07:20:02,實名制快篩販售：週一至週六下午1點，售完為止。
5934091081,五結健保藥局,宜蘭縣五結鄉五結路二段４３７號,121.7958,24.68437,(03)9503200,羅氏家用新冠病毒抗原自我檢測套組,1,2022/05/07 07:20:02,周一二四五六8點開賣，週三14點開賣
5934100030,三星健保藥局,宜蘭縣三星鄉三星路５段５１號,121.6515,24.66588,(03)9895816,羅氏家用新冠病毒抗原自我檢測套組,2,2022/05/07 07:20:02,快篩試劑禮拜一到六早上10點開始購買，現場排隊，售完為止
5935010222,正欣藥局,苗栗縣苗栗市清華里褔星街６０號,120.8273,24.57283,(037)264502,羅氏家用新冠病毒抗原自我檢測套組,41,2022/05/07 07:20:02,早上7點開始販賣快篩試劑
5935012299,瑞展藥局,苗栗縣苗栗市中正路７３號,120.8245,24.56824,(037)271658,羅氏家用新冠病毒抗原自我檢測套組,78,2022/05/07 07:20:02,口罩販賣時段：08:00~10:00
5935021323,國豐藥師藥局,苗栗縣苑裡鎮苑北里２鄰天下路１８６號,120.6546,24.44612,(037)866516,羅氏家用新冠病毒抗原自我檢測套組,1,2022/05/07 07:20:02,快篩開賣資訊請看FB（國豐藥師藥局） 粉絲團
5935042037,康壯藥局,苗栗縣竹南鎮博愛街４３９號,120.8655,24.68894,(037)463732,羅氏家用新冠病毒抗原自我檢測套組,78,2022/05/07 07:20:02,口罩販賣時段：07:30-售完
5935042055,崧博藥師藥局,苗栗縣竹南鎮龍山路３段３７號,120.8775,24.70162,(037)639822,羅氏家用新冠病毒抗原自我檢測套組,1,2022/05/07 07:20:02,無
5935050066,義春藥局,苗栗縣頭份市珊湖里中正三路７２號,120.9557,24.68088,(037)601433,羅氏家用新冠病毒抗原自我檢測套組,70,2022/05/07 07:20:02,口罩販賣時段：營業時間-售完
5935050164,辰安藥局,苗栗縣頭份市尖豐路３２號,120.8803,24.66364,(037)633632,羅氏家用新冠病毒抗原自我檢測套組,54,2022/05/07 07:20:02,無
5935050208,三峰藥局,苗栗縣頭份市新華里中正一路７８號,120.9259,24.68655,(037)668239,羅氏家用新冠病毒抗原自我檢測套組,1,2022/05/07 07:20:02,實名制快篩：週一至週六下午1點排隊直接購買；週日休息。
5935050253,泉興藥局,苗栗縣頭份市仁愛里民族路２８號,120.9073,24.68299,(037)664367,羅氏家用新冠病毒抗原自我檢測套組,45,2022/05/07 07:20:02,快篩試劑販賣時段：07:00-23:00
5935051947,森品藥局,苗栗縣頭份市建國路２段１５０、１５２、１５６號,120.9032,24.69653,(037)672378,羅氏家用新冠病毒抗原自我檢測套組,4,2022/05/07 07:20:02,營業時間：9:00-22:30
5935091156,信安藥局,苗栗縣公館鄉大同路７８號,120.8281,24.50026,(037)237849,羅氏家用新冠病毒抗原自我檢測套組,6,2022/05/07 07:20:02,實名制快篩試劑販售時間:星期一到星期六下午3點，周日不販售!
5935100025,仁興藥局,苗栗縣銅鑼鄉銅鑼村中正路９７號,120.7868,24.48602,(037)983792,羅氏家用新冠病毒抗原自我檢測套組,47,2022/05/07 07:20:02,快篩販賣時段：09:00-售完
5935130023,民享藥局,苗栗縣三義鄉廣盛村中正路１４７之３號,120.772,24.41316,(037)871498,羅氏家用新冠病毒抗原自我檢測套組,46,2022/05/07 07:20:02,口罩販賣時段：早上7點開始到售完
5936010486,輝生藥局,臺中市豐原區鐮村路４１１號,120.7223,24.22695,(04)25379563,羅氏家用新冠病毒抗原自我檢測套組,55,2022/05/07 07:20:02,防疫口罩販售時段早上07:00
5936010628,協安大藥局,臺中市豐原區府前街６３號,120.7184,24.24957,(04)25200808,羅氏家用新冠病毒抗原自我檢測套組,4,2022/05/07 07:20:02,實名制快篩販售時間為每日下午兩點。
5936020115,東生藥局,臺中市東勢區中寧里豐勢路４９１號,120.8279,24.258,(04)25873647,羅氏家用新冠病毒抗原自我檢測套組,55,2022/05/07 07:20:02,周一至周日上午9:00至12:00販售口罩
5936040021,持田健保藥局,臺中市清水區鰲峰路24號,120.5742,24.26938,(04)26229133,羅氏家用新冠病毒抗原自我檢測套組,78,2022/05/07 07:20:02,週一至週六早上8:30發送快篩號碼牌，請勿離開現場售完為止.
5936050239,信輝藥局,臺中市沙鹿區美仁里沙田路１４１號,120.5592,24.23637,(04)26622135,羅氏家用新冠病毒抗原自我檢測套組,39,2022/05/07 07:20:02,每日8:00開始販售快篩。
5936051432,日新藥局,臺中市沙鹿區日新街１１７號,120.56,24.23702,(04)26633100,羅氏家用新冠病毒抗原自我檢測套組,30,2022/05/07 07:20:02,*每日下午3:00開始販售*固定周一到周六
5936060137,南昌藥局,臺中市梧棲區中央路二段４６５號,120.543,24.26099,(04)26565073,羅氏家用新冠病毒抗原自我檢測套組,78,2022/05/07 07:20:02,防疫口罩販售時間：每日上午7:30開始發放號碼牌、7:30開始領口罩。
5936090037,皇杰藥局,臺中市潭子區潭興路２段４２９號,120.7083,24.21068,(04)25367109,羅氏家用新冠病毒抗原自我檢測套組,58,2022/05/07 07:20:02,星期日有賣口罩，星期一沒有口罩賣.
5936171457,德康藥局,臺中市龍井區新興路１３７號,120.5829,24.1822,(04)26320137,羅氏家用新冠病毒抗原自我檢測套組,52,2022/05/07 07:20:02,週一~週六早上9點15分開始販售-現場排隊~全年無休 慢簽領藥.母嬰用品.營養保健.嬰幼兒奶粉尿布
5936191851,佑昇藥局,臺中市太平區中平路１６號１樓,120.7207,24.13334,(04)22783697,羅氏家用新冠病毒抗原自我檢測套組,39,2022/05/07 07:20:02,無
593620B183,綠洲藥局,臺中市大里區塗城路６０３號,120.7038,24.08804,(04)24932626,羅氏家用新冠病毒抗原自我檢測套組,22,2022/05/07 07:20:02,快篩販售時間:週一至週五9:00開始.週六下午2點開始.週日休息
5937010613,榮源藥局,彰化縣彰化市忠權里辭修路１２８巷９號,120.5374,24.08608,(04)7229432,羅氏家用新冠病毒抗原自我檢測套組,78,2022/05/07 07:20:02,快篩實名制每日早上8:00開賣
5937012671,康好健保藥局,彰化縣彰化市光南里旭光路２９１號,120.544,24.07072,(04)7234725,羅氏家用新冠病毒抗原自我檢測套組,3,2022/05/07 07:20:02,1400開始販售實名制快篩
5937012831,華恩健保藥局,彰化縣彰化市華山路２１０號,120.5375,24.07547,(04)7239977,羅氏家用新冠病毒抗原自我檢測套組,1,2022/05/07 07:20:02,快篩販售:下午2點
5937012975,龍泰藥局,彰化縣彰化市信義里中正路１段４５０號１樓,120.5422,24.08258,(04)7254720,羅氏家用新冠病毒抗原自我檢測套組,3,2022/05/07 07:20:02,周一到周六，早上9:30-12:00販售快篩試劑
5937013418,曉陽藥局,彰化縣彰化市西安里曉陽路２０２號,120.5373,24.07311,(04)7270989,羅氏家用新冠病毒抗原自我檢測套組,78,2022/05/07 07:20:02,現場排隊，請自備零錢。週一至週五早上9：30，週六下午3：30 （休息：中午12：00-15：30，18：00-19：30 ）
5937013472,建國春生中西藥局,彰化縣彰化市建國北路１５０號,120.5498,24.09435,(04)7225047,羅氏家用新冠病毒抗原自我檢測套組,3,2022/05/07 07:20:02,下午2點發放號碼牌 發完即開始依序購買
5937013552,芳澤藥局,彰化縣彰化市中山路三段４３４號,120.5658,24.08861,(04)7380381,羅氏家用新冠病毒抗原自我檢測套組,4,2022/05/07 07:20:02,快篩實名制-週一至週五下午3點開始販售，星期六日休息
5937013570,彰化藥局,彰化縣彰化市永安街２７８、２８０號,120.5438,24.08977,(04)7287877,羅氏家用新冠病毒抗原自我檢測套組,78,2022/05/07 07:20:02,快篩實名制，每天16:00開始販售，售完為止。
5937013749,中央啄木鳥藥局,彰化縣彰化市中央路２０６號,120.5285,24.06637,(04)7639581,羅氏家用新冠病毒抗原自我檢測套組,1,2022/05/07 07:20:02,13:30開始販售，若未收到配送，則以收到時間開始
5937031470,弘佳藥局,彰化縣和美鎮仁愛里道周路５５６號,120.4929,24.1102,(04)7576611,羅氏家用新冠病毒抗原自我檢測套組,67,2022/05/07 07:20:02,快篩有賣.
5937031541,友誼藥局和美店,彰化縣和美鎮和東里仁化路１４７、１４９號,120.4964,24.11017,(04)7550866,羅氏家用新冠病毒抗原自我檢測套組,78,2022/05/07 07:20:02,早上9::00-10:00發快篩，六日不發售。
5937041190,仁信藥局,彰化縣北斗鎮中正路137號,120.5219,23.87342,(04)8873357,羅氏家用新冠病毒抗原自我檢測套組,22,2022/05/07 07:20:02,周日公休 早上8:30發放號碼牌 11:00開放領取快篩
5937041501,台丞藥局,彰化縣北斗鎮光復路１９７號,120.5241,23.87407,(04)8873311,羅氏家用新冠病毒抗原自我檢測套組,16,2022/05/07 07:20:02,無
5937050322,必安藥局,彰化縣員林市仁美里育英路１７４號,120.5741,23.96417,(04)8324986,羅氏家用新冠病毒抗原自我檢測套組,77,2022/05/07 07:20:02,無
5937050331,金鴻安大藥局,彰化縣員林市中正路３２３號,120.5733,23.95618,(04)8344210,羅氏家用新冠病毒抗原自我檢測套組,37,2022/05/07 07:20:02,早上7點至晚上10點，民眾可持健保卡買快篩
5937050411,高藥局,彰化縣員林市東和里員水路二段５０５號,120.5773,23.95592,(04)8327808,羅氏家用新冠病毒抗原自我檢測套組,65,2022/05/07 07:20:02,無
5937051598,添霖大藥局,彰化縣員林市民生里中正路２７０號,120.5743,23.95493,(04)8319765,羅氏家用新冠病毒抗原自我檢測套組,58,2022/05/07 07:20:02,每日早上6:00開始發放號碼牌，售完為止（全年無休）
5937052059,華衛藥局,彰化縣員林市惠來里南昌路９６號,120.5719,23.95464,(04)8397503,羅氏家用新冠病毒抗原自我檢測套組,1,2022/05/07 07:20:02,快篩販售時間8:20至09:50
5937052273,員林鼎澄藥局,彰化縣員林市仁愛里三民東街２５２號,120.58,23.95997,(04)8330918,羅氏家用新冠病毒抗原自我檢測套組,78,2022/05/07 07:20:02,實名制快篩，星期一-六每日下午2點開始依現場排隊販售
5937052504,佑全員林中正藥局,彰化縣員林市中正路１３５，１３７號１樓,120.5714,23.96324,(04)8368669,羅氏家用新冠病毒抗原自我檢測套組,2,2022/05/07 07:20:02,無
5937060088,合生大藥局,彰化縣溪湖鎮湖東里員鹿路二段４０６號,120.4858,23.95663,(04)8851560,羅氏家用新冠病毒抗原自我檢測套組,39,2022/05/07 07:20:02,.當日快篩劑配送時間不定到貨.即刻販售
5937070128,良安藥局,彰化縣田中鎮北路里員集路二段６１４號,120.5855,23.86359,(04)8743196,羅氏家用新冠病毒抗原自我檢測套組,70,2022/05/07 07:20:02,營業時間:星期一至星期六早上8:00~晚上9點，星期日下午休息
5937071296,大眾藥局,彰化縣田中鎮斗中路一段１４２號,120.5821,23.86092,(04)8749723,羅氏家用新冠病毒抗原自我檢測套組,78,2022/05/07 07:20:02,每日早上8點開始販售（星期六日休息）
5937081461,育民健保藥局,彰化縣二林鎮東和里新生路７２號,120.3684,23.90094,(04)8953956,羅氏家用新冠病毒抗原自我檢測套組,70,2022/05/07 07:20:02,無
5937081587,嘉信藥局,彰化縣二林鎮中山路１４０號,120.3667,23.8998,(04)8954029,羅氏家用新冠病毒抗原自我檢測套組,77,2022/05/07 07:20:02,無
5937111062,福興永安藥局,彰化縣福興鄉沿海路４段７３７號,120.4258,24.04239,(04)7745268,羅氏家用新冠病毒抗原自我檢測套組,33,2022/05/07 07:20:02,星期一至星期六 早上7點開始販售快篩試劑
5937120043,啟仁藥局,彰化縣秀水鄉安東村文化街１５巷２號,120.5021,24.03589,(04)7694953,羅氏家用新冠病毒抗原自我檢測套組,49,2022/05/07 07:20:02,快篩 早上7:30開始販售（一 至日）
5937120052,效生藥局,彰化縣秀水鄉民生街９０８號,120.4945,24.02615,(04)7683931,羅氏家用新冠病毒抗原自我檢測套組,56,2022/05/07 07:20:02,早上7:00開始發號碼牌
5937130049,明志藥局,彰化縣花壇鄉三春村彰員路１段５４２號,120.5679,24.01439,(04)7867702,羅氏家用新冠病毒抗原自我檢測套組,55,2022/05/07 07:20:02,周一至周日9:00開始販賣口罩
5937131171,祥安藥局,彰化縣花壇鄉彰員路３段８９號,120.5463,24.04459,(04)7863460,羅氏家用新冠病毒抗原自我檢測套組,78,2022/05/07 07:20:02,實名制快篩早上8:20開始現場販售
5937151119,誠品藥局,彰化縣大村鄉大村村茄苳路１段２３３號,120.5449,23.99936,(04)8529206,羅氏家用新冠病毒抗原自我檢測套組,78,2022/05/07 07:20:02,週日公休。
5937171157,安麗兒藥局埔心店,彰化縣埔心鄉義民村員鹿路２段４３４號１樓,120.5417,23.95288,(04)8295129,羅氏家用新冠病毒抗原自我檢測套組,46,2022/05/07 07:20:02,12；50發放號碼牌，13:00開始販售
5937180030,生春大藥局,彰化縣永靖鄉東門路２３３號,120.547,23.92143,(04)8220929,羅氏家用新冠病毒抗原自我檢測套組,75,2022/05/07 07:20:02,週一至週六早上7點50分開始營業 週日公休
5937180094,天喜生大藥局,彰化縣永靖鄉永西村西門路４１號,120.545,23.9228,(04)8221821,羅氏家用新冠病毒抗原自我檢測套組,80,2022/05/07 07:20:02,每個星期天暫停發放
5937180138,詹藥局,彰化縣永靖鄉浮圳村浮圳路４３３號,120.5618,23.91485,(04)8225691,羅氏家用新冠病毒抗原自我檢測套組,62,2022/05/07 07:20:02,8- 20點 服務  （午休12點到下午2點）週日  歡迎電話詢問
