醫事機構代碼,醫事機構名稱,醫事機構地址,經度,緯度,醫事機構電話,廠牌項目,快篩試劑截至目前結餘存貨數量,來源資料時間,備註
2331200010,新北市坪林區衛生所,新北市坪林區坪林街１０４號,121.7095,24.93592,(02)26656272,羅氏家用新冠病毒抗原自我檢測套組,154,2022/04/30 19:51:02,防疫口罩販售服務時間，星期一至五09:00-12:00 。（倘若遇政府規定補班日，仍會提供販售口罩服務）
2331240014,新北市平溪區衛生所,新北市平溪區公園街１７號１樓,121.7365,25.02469,(02)24951015,羅氏家用新冠病毒抗原自我檢測套組,156,2022/04/30 19:51:02,快篩試劑販售時間:週一至週五上午9:00至12:00 ，上午9:00開始發放號碼牌，限額78盒，若提前售完，即截止當日販售服務。
2331260016,新北市貢寮區衛生所,新北市貢寮區朝陽街７０巷１０號、新北市貢寮區仁愛路１２８號,121.9095,25.02258,(02)24901431,羅氏家用新冠病毒抗原自我檢測套組,156,2022/04/30 19:51:02,星期一至星期日上午8點購買防疫口罩，售完為止.
2331290014,新北市烏來區衛生所,新北市烏來區新烏路５段１０９號,121.548,24.87197,(02)26617200,羅氏家用新冠病毒抗原自我檢測套組,171,2022/04/30 19:51:02,無
2333140017,新竹縣五峰鄉衛生所,新竹縣五峰鄉大隘村六鄰９９號,121.1194,24.63184,(03)5851005,羅氏家用新冠病毒抗原自我檢測套組,151,2022/04/30 19:51:02,無
2334110013,宜蘭縣大同鄉衛生所,宜蘭縣大同鄉崙埤村朝陽４０號,121.6088,24.67785,(03)9801175,羅氏家用新冠病毒抗原自我檢測套組,76,2022/04/30 19:51:02,防疫口罩販賣時間本所（週一到週六）8:20-10:20  衛生室販賣時間為星期一、二、四、五下午，詳細事項請至本所網站查詢.
2335110017,苗栗縣南庄鄉衛生所,苗栗縣南庄鄉東村大同路１７號,121,24.59733,(037)822024,羅氏家用新冠病毒抗原自我檢測套組,156,2022/04/30 19:51:02,口罩販賣時段:週一至週五上午8:00~下午5:00
2335150011,苗栗縣造橋鄉衛生所,苗栗縣造橋鄉造橋村１４鄰８－２號,120.8643,24.63672,(037)542755,羅氏家用新冠病毒抗原自我檢測套組,142,2022/04/30 19:51:02,口罩販賣時段：08:30-售完（含假日）
2335170013,苗栗縣獅潭鄉衛生所,苗栗縣獅潭鄉新店村１３０之６號,120.9201,24.53961,(037)931309,羅氏家用新冠病毒抗原自我檢測套組,156,2022/04/30 19:51:02,口罩販賣時段：08:30-16:00
2335180019,苗栗縣泰安鄉衛生所,苗栗縣泰安鄉清安村２鄰７２號,120.9083,24.44722,(037)941054,羅氏家用新冠病毒抗原自我檢測套組,156,2022/04/30 19:51:02,口罩販賣時段：星期一~五：8:30~15：00。
2336210034,臺中市和平區梨山衛生所,臺中市和平區中正路１２號１樓、６８號１樓,121.2592,24.25678,(04)25989540,羅氏家用新冠病毒抗原自我檢測套組,78,2022/04/30 19:51:02,提供24小時急診待診服務，111年4月28日起，快篩試劑販售時段為周一至周五0900-12:00，六日及國定假日為0900-1100
2338070010,南投縣鹿谷鄉衛生所,南投縣鹿谷鄉中正路二段２０號,120.7542,23.74488,(049)2752002,羅氏家用新冠病毒抗原自我檢測套組,156,2022/04/30 19:51:02,快篩試劑販售時間 上班日（星期一至星期五）14:00~16:00
2338120015,南投縣信義鄉衛生所,南投縣信義鄉明德村玉山路４５號,120.8547,23.69653,(049)2791148,羅氏家用新冠病毒抗原自我檢測套組,156,2022/04/30 19:51:02,快篩試劑販售時間星期一至星期五上午09：00-11：00，現場排隊發售，國定假日不販賣。
2340170016,嘉義縣大埔鄉衛生所,嘉義縣大埔鄉大埔村５３－１號,120.5928,23.29397,(05)2521214,羅氏家用新冠病毒抗原自我檢測套組,156,2022/04/30 19:51:02,無
2342130010,高雄市田寮區衛生所,高雄市田寮區南安里崗北路３２號,120.3594,22.87301,(07)6361504,羅氏家用新冠病毒抗原自我檢測套組,85,2022/04/30 19:51:02,巡迴醫療:每星期一、四下午及每月第一個有上班的星期三下午巡迴醫療
2342180010,高雄市永安區衛生所,高雄市永安區永安路２６號,120.2254,22.81879,(07)6912015,羅氏家用新冠病毒抗原自我檢測套組,78,2022/04/30 19:51:02,無
2342250017,高雄市茂林區衛生所,高雄市茂林區茂林里茂林巷８－４號,120.6641,22.88641,(07)6801046,羅氏家用新冠病毒抗原自我檢測套組,267,2022/04/30 19:51:02,夜間急診，請先撥電話07-6801046
2342260013,高雄市桃源區衛生所,高雄市桃源區桃源里南進巷１８８－１號,120.7642,23.15845,(07)6861126,羅氏家用新冠病毒抗原自我檢測套組,185,2022/04/30 19:51:02,IDS提供24小時服務
2342270019,高雄市那瑪夏區衛生所,高雄市那瑪夏區瑪雅里６鄰平和巷２５２號,120.7024,23.24708,(07)6701142,羅氏家用新冠病毒抗原自我檢測套組,243,2022/04/30 19:51:02,春節期間正常門診
2343260017,屏東縣三地門鄉衛生所,屏東縣三地門鄉三地村行政街４號,120.653,22.71477,(08)7991284,羅氏家用新冠病毒抗原自我檢測套組,92,2022/04/30 19:51:02,假日及夜間提供待診；星期一至五快篩販售時間0900~1200；1400~1700賣完為止
2343270013,屏東縣霧台鄉衛生所,屏東縣霧台鄉霧台村神山巷６８號,120.7261,22.74989,(08)7902232,羅氏家用新冠病毒抗原自我檢測套組,189,2022/04/30 19:51:02,無
2343290015,屏東縣泰武鄉衛生所,屏東縣泰武鄉佳平村１７９號,120.6327,22.59212,(08)7832059,羅氏家用新冠病毒抗原自我檢測套組,104,2022/04/30 19:51:02,4／2-4／5門診照常
2343300016,屏東縣來義鄉衛生所,屏東縣來義鄉古樓村中正路９０號,120.632,22.52584,(08)7850103,羅氏家用新冠病毒抗原自我檢測套組,98,2022/04/30 19:51:02,無
2343320018,屏東縣獅子鄉衛生所,屏東縣獅子鄉楓林村楓林二巷３１號,120.7057,22.18402,(08)8771324,羅氏家用新冠病毒抗原自我檢測套組,106,2022/04/30 19:51:02,特休日：每年農曆除夕、初一
2343330014,屏東縣牡丹鄉衛生所,屏東縣牡丹鄉石門村１９號,120.7469,22.10105,(08)8831013,羅氏家用新冠病毒抗原自我檢測套組,78,2022/04/30 19:51:02,無
2344030013,澎湖縣白沙鄉衛生所,澎湖縣白沙鄉赤崁村３５９號,119.5982,23.66669,(06)9931044,羅氏家用新冠病毒抗原自我檢測套組,156,2022/04/30 19:51:02,星期日上午門診看診（每月最後一個星期日休診）； 星期五上午巡迴醫療
2344030022,澎湖縣白沙鄉鳥嶼衛生所,澎湖縣白沙鄉鳥嶼村漁港新村３號,119.6599,23.66008,(06)9916092,羅氏家用新冠病毒抗原自我檢測套組,153,2022/04/30 19:51:02,非上班時間提供急診服務
2344030031,澎湖縣白沙鄉吉貝衛生所,澎湖縣白沙鄉吉貝村８－１３號,119.6138,23.74056,(06)9911430,羅氏家用新冠病毒抗原自我檢測套組,213,2022/04/30 19:51:02,無
2344050015,澎湖縣望安鄉衛生所,澎湖縣望安鄉西安村３６－７號,119.4972,23.36161,(06)9991036,羅氏家用新冠病毒抗原自我檢測套組,125,2022/04/30 19:51:02,夜間急診。口罩、快篩試劑販售時間為:每日08:00-12:00、13:30-17:30售完為止，如有餘數為離島未售出（東嶼坪、花嶼衛生室）。
2344050024,澎湖縣望安鄉將軍衛生所,澎湖縣望安鄉將軍村１２鄰將軍澳１之３號,119.5216,23.3615,(06)9902066,羅氏家用新冠病毒抗原自我檢測套組,225,2022/04/30 19:51:02,24小時急診
2345080017,花蓮縣豐濱鄉衛生所,花蓮縣豐濱鄉豐濱村光豐路３９號,121.5215,23.60195,(03)8791156,羅氏家用新冠病毒抗原自我檢測套組,107,2022/04/30 19:51:02,*本院口罩每天販售，時間自上午8點至晚上9點  *本院週一至週五上下午皆有門診，星期六隔週提供門診，及24小時急診。
2345100014,花蓮縣富里鄉衛生所,花蓮縣富里鄉富里村中山路２０３號,121.2491,23.17847,(03)8831029,羅氏家用新冠病毒抗原自我檢測套組,78,2022/04/30 19:51:02,*內科:每週二下午東里玉蓮寺巡診 **牙科:每週二至卓溪醫療站***口罩販賣時間8:30起至11:00止
2345110010,花蓮縣秀林鄉衛生所,花蓮縣秀林鄉秀林村１２鄰秀林路８８號,121.6334,24.1269,(03)8612122,羅氏家用新冠病毒抗原自我檢測套組,48,2022/04/30 19:51:02,口罩代售時間上班日上午8:10至12時止（口罩限量故售完為止）
2345120016,花蓮縣萬榮鄉衛生所,花蓮縣萬榮鄉萬榮村１鄰１６號,121.4092,23.71558,(03)8751651,羅氏家用新冠病毒抗原自我檢測套組,78,2022/04/30 19:51:02,快篩試劑代售時間：週一至週五下午2點至下午4點，販售為止。
2345130012,花蓮縣卓溪鄉衛生所,花蓮縣卓溪鄉卓溪村中正路６５號,121.3033,23.33294,(03)8882592,羅氏家用新冠病毒抗原自我檢測套組,78,2022/04/30 19:51:02,販賣口罩服務時段每周一至周五早上8點45分至11點45分，星期一至星期四安排巡迴醫療點販售（售完即結束）
2346050013,台東縣大武鄉衛生所,臺東縣大武鄉大武村復興路２－２號,120.9078,22.36414,(089)791143,羅氏家用新冠病毒抗原自我檢測套組,159,2022/04/30 19:51:02,24小時急診服務
2346070015,臺東縣東河鄉衛生所,臺東縣東河鄉東河村南東河路１０鄰３００號,121.3031,22.96846,(089)896289,羅氏家用新冠病毒抗原自我檢測套組,156,2022/04/30 19:51:02,快篩試劑販售時間:◆平日（星期一三四五）上午9-11時販售，星期二下午13-15時販售售完為止。
2346120010,台東縣延平鄉衛生所,臺東縣延平鄉桃源村昇平路１１號,121.0855,22.90217,(089)561358,羅氏家用新冠病毒抗原自我檢測套組,78,2022/04/30 19:51:02,星期一至星期五上午8:30-11:30下午13:30-16:30販售快篩試劑並發放號碼牌，遇國定假日休息
2346130016,台東縣海端鄉衛生所,臺東縣海端鄉海端村３鄰２９號,121.1767,23.10094,(089)931391,羅氏家用新冠病毒抗原自我檢測套組,78,2022/04/30 19:51:02,星期一至星期五口罩販售時間上午8點~12點（售完為止）
2346150018,台東縣金峰鄉衛生所,臺東縣金峰鄉賓茂村１鄰１４號,120.9606,22.53248,(089)772201,羅氏家用新冠病毒抗原自我檢測套組,156,2022/04/30 19:51:02,代售口罩時間:星期一至星期五為上午8:00-12:00，下午1:30-5:30
2346160014,台東縣蘭嶼鄉衛生所,臺東縣蘭嶼鄉紅頭村３６號,121.5546,22.02493,(089)732575,羅氏家用新冠病毒抗原自我檢測套組,156,2022/04/30 19:51:02,販售口罩時間 星期一至星期五 8:00~12:00 13:30~17:30
2390050032,金門縣烈嶼鄉衛生所,金門縣烈嶼鄉西口村西方６－５號,118.2395,24.43519,(082)362078,羅氏家用新冠病毒抗原自我檢測套組,156,2022/04/30 19:51:02,快篩試劑販售時間:周一至周五下午1點至3點
2391020010,連江縣北竿鄉衛生所,連江縣北竿鄉塘岐村２８１－６號,119.9991,26.22617,(083)655592,羅氏家用新冠病毒抗原自我檢測套組,78,2022/04/30 19:51:02,新冠快篩試劑販售於週一至周六每日上午08:30-12:00開放購買。
2391030016,連江縣莒光鄉西莒衛生所,連江縣莒光鄉青帆村１４－１號,119.9331,25.97157,(083)689122,羅氏家用新冠病毒抗原自我檢測套組,218,2022/04/30 19:51:02,防疫口罩星期一至五09:00-17:00、（六）09:00-12:00現場購買
2391030026,連江縣莒光鄉東莒衛生所,連江縣莒光鄉大坪村３０－１號,119.9731,25.96113,(083)689038,羅氏家用新冠病毒抗原自我檢測套組,226,2022/04/30 19:51:02,防疫口罩星期一至星期日上午10:00-12:00收取健保卡，下午3:30至本所領取口罩。
2391040012,連江縣東引鄉衛生所,連江縣東引鄉中柳村１２３號,120.4904,26.36701,(083)677206,羅氏家用新冠病毒抗原自我檢測套組,83,2022/04/30 19:51:02,防疫口罩每日10:00-12:00現場購買
5901010272,德靈藥局,臺北市松山區富錦街５４８號,121.5667,25.06178,(02)27646998,羅氏家用新冠病毒抗原自我檢測套組,78,2022/04/30 19:51:02,節期間2／4-2／10休息. .
5901012598,婕登藥局,臺北市松山區八德路４段６９９號,121.5766,25.05021,(02)27482893,羅氏家用新冠病毒抗原自我檢測套組,1,2022/04/30 19:51:02,無
5901013693,民生盛康藥局,臺北市松山區民生東路５段２０４號１樓,121.5648,25.05826,(02)27460758,羅氏家用新冠病毒抗原自我檢測套組,52,2022/04/30 19:51:02,每日早上9:00發號碼牌，11:00~20:00拿號碼牌回來領取，每人限兩張，逾時不候
5901020385,延吉大藥局,臺北市大安區延吉街１５３號１樓,121.5548,25.04066,(02)27819227,羅氏家用新冠病毒抗原自我檢測套組,78,2022/04/30 19:51:02,無
5901020563,施寶藥局,臺北市大安區安東街５０－５號１樓,121.5426,25.04277,(02)27114175,羅氏家用新冠病毒抗原自我檢測套組,78,2022/04/30 19:51:02,週一至週五早上11點到下午8點.周六周日及公訂例假日公休
5901024098,杏一瑞安藥局,臺北市大安區瑞安街２０８巷１１弄１號,121.5406,25.02866,(02)27096710,羅氏家用新冠病毒抗原自我檢測套組,78,2022/04/30 19:51:02,3點發快篩，前5分鐘發牌
5901024838,昶青藥局,臺北市大安區濟南路３段２２之１號,121.5346,25.04008,(02)27515678,羅氏家用新冠病毒抗原自我檢測套組,78,2022/04/30 19:51:02,每天下午13:00販售快篩實名制
5901100333,明美藥局,臺北市中山區長春路６９號,121.5266,25.05502,(02)25365419,羅氏家用新冠病毒抗原自我檢測套組,78,2022/04/30 19:51:02,口罩周一至周五，16:30-18:30販售
5901101250,美日藥局,臺北市中山區天津街６６號１樓,121.5233,25.05136,(02)25631662,羅氏家用新冠病毒抗原自我檢測套組,78,2022/04/30 19:51:02,實名制快篩於營業日下午4點開始發號碼牌
5901102837,正傑健保藥局,臺北市中山區長安東路２段１８１號,121.5426,25.04839,(02)27310181,羅氏家用新冠病毒抗原自我檢測套組,2,2022/04/30 19:51:02,下午四點開始販售
5901103236,誠意中西藥局,臺北市中山區林森北路６１３號,121.5258,25.06647,(02)25950951,羅氏家用新冠病毒抗原自我檢測套組,1,2022/04/30 19:51:02,無
5901103325,仁一藥局,臺北市中山區林森北路５２０號,121.5255,25.06232,(02)25711742,羅氏家用新冠病毒抗原自我檢測套組,1,2022/04/30 19:51:02,快篩發放時間每日下午2點
5901103405,大直永安藥局,臺北市中山區北安路５６７之２號,121.5482,25.08073,(02)25332125,羅氏家用新冠病毒抗原自我檢測套組,78,2022/04/30 19:51:02,週一到週日下午兩點  開始銷售快篩試劑
5901103530,農安盛康藥局,臺北市中山區農安街２６７號,121.5358,25.06477,(02)25038205,羅氏家用新冠病毒抗原自我檢測套組,35,2022/04/30 19:51:02,早上九點發號碼牌 開始發放實名制快篩
5901110311,永安藥局,臺北市內湖區文德路２１０巷３０弄４８號,121.5852,25.07723,(02)26586658,羅氏家用新冠病毒抗原自我檢測套組,1,2022/04/30 19:51:02,口罩販售時間早上10點開始發號碼牌  同時販售
5901112726,高昱藥局,臺北市內湖區陽光街３２１巷２６號２樓之１５,121.5786,25.07236,(02)87519962,羅氏家用新冠病毒抗原自我檢測套組,78,2022/04/30 19:51:02,週六日預約
5901121734,湳港藥局,臺北市南港區研究院路１段１０１巷１２號,121.6167,25.05175,(02)27892200,羅氏家用新冠病毒抗原自我檢測套組,78,2022/04/30 19:51:02,週一至週日，2:30開賣（政府有配送的況狀下）（沒有發放號碼牌），售完為止
5901121985,勝安藥局,臺北市南港區舊莊街１段１６５號,121.6211,25.03949,(02)27828450,羅氏家用新冠病毒抗原自我檢測套組,78,2022/04/30 19:51:02,實名制快篩固定晚上21:00提供，現場排隊不分號碼牌
5901150593,安寧藥局,臺北市士林區劍潭路９１號,121.5199,25.08285,(02)28803319,羅氏家用新冠病毒抗原自我檢測套組,78,2022/04/30 19:51:02,領藥星期1.3.5為 9:00~12:00.及16:00~20:00*星期2.4.6.--上午
5901152471,得安藥局,臺北市士林區文林路１４０號,121.5267,25.08878,(02)28836336,羅氏家用新冠病毒抗原自我檢測套組,78,2022/04/30 19:51:02,星期一二三五六下午3:30---10:00   星期 四日下午5:00--10:00
5901152640,仁大藥局,臺北市士林區社子街１３號１樓,121.5083,25.08769,(02)88113793,羅氏家用新冠病毒抗原自我檢測套組,78,2022/04/30 19:51:02,111.4.30.本日尚未收到配送快篩試劑，暫停販售
5901153674,愛佳藥局,臺北市士林區承德路４段２２２之１號,121.5215,25.0885,(02)28811199,羅氏家用新冠病毒抗原自我檢測套組,78,2022/04/30 19:51:02,實名制快篩平日一~五下午3:00販售，假日（六、日）不販售
5901154108,藥本家藥局,臺北市士林區中山北路７段１４巷２６號１樓,121.5328,25.11884,(02)28766682,羅氏家用新冠病毒抗原自我檢測套組,78,2022/04/30 19:51:02,無
5901160053,天蓮藥局,臺北市北投區石牌路１段１６６巷１１５號,121.5155,25.11192,(02)28211824,羅氏家用新冠病毒抗原自我檢測套組,39,2022/04/30 19:51:02,週六，週日各販售39劑快篩
5901160099,進春藥局,臺北市北投區明德路１５１號,121.5206,25.11086,(02)28216938,羅氏家用新冠病毒抗原自我檢測套組,233,2022/04/30 19:51:02,無休
5901160428,九福藥局,臺北市北投區公館路２３６號,121.5081,25.12612,(02)28953009,羅氏家用新冠病毒抗原自我檢測套組,4,2022/04/30 19:51:02,★週日店休未營業. 快篩下午1點發號碼牌
5901162306,上頤藥局,臺北市北投區中和街３２７號１樓,121.4997,25.14097,(02)28981230,羅氏家用新冠病毒抗原自我檢測套組,78,2022/04/30 19:51:02,無
5901163509,吉利春天生活藥局,臺北市北投區吉利街１２０號,121.5068,25.11851,(02)28253256,羅氏家用新冠病毒抗原自我檢測套組,1,2022/04/30 19:51:02,無
5901170059,必欣藥局,臺北市信義區松仁路２６４號,121.5696,25.02425,(02)27225060,羅氏家用新冠病毒抗原自我檢測套組,78,2022/04/30 19:51:02,實名制快篩販售時間：星期一至星期六晚上20：00開始
5901173738,尚頤中西藥局,臺北市信義區虎林街１４５號,121.5767,25.03959,(02)27253818,羅氏家用新冠病毒抗原自我檢測套組,8,2022/04/30 19:51:02,無
5901174066,愛維喜藥局,臺北市信義區莊敬路２７８號１樓,121.5627,25.02882,(02)27586989,羅氏家用新冠病毒抗原自我檢測套組,78,2022/04/30 19:51:02,無
5901183396,慶安藥局,臺北市中正區徐州路２６號,121.5234,25.04061,(02)23582385,羅氏家用新冠病毒抗原自我檢測套組,78,2022/04/30 19:51:02,無
5901183645,大愛生活藥局,臺北市中正區汀州路２段２３２號,121.5243,25.02189,(02)23661155,羅氏家用新冠病毒抗原自我檢測套組,78,2022/04/30 19:51:02,下午14:30開始發放快篩（不發號碼牌直接買）~~不要太早開始排隊啊啊啊啊
5901184375,大盛藥局,臺北市中正區中華路１段２１巷１６號,121.5105,25.04645,(02)23713838,羅氏家用新冠病毒抗原自我檢測套組,78,2022/04/30 19:51:02,周日及國定假日公休
5901184553,珍忻藥局,臺北市中正區南昌路１段６５號,121.5174,25.03107,(02)23965115,羅氏家用新冠病毒抗原自我檢測套組,1,2022/04/30 19:51:02,健保快篩發放:13:20及18:20分兩梯次發號碼牌
5901190668,聯慶大藥局,臺北市萬華區萬大路３０６號１樓,121.5003,25.02495,(02)23039850,羅氏家用新冠病毒抗原自我檢測套組,1,2022/04/30 19:51:02,無
5901200105,建興藥局,臺北市文山區木柵路２段８１號１樓,121.561,24.98889,(02)29399993,羅氏家用新冠病毒抗原自我檢測套組,78,2022/04/30 19:51:02,無
5901200114,健群藥局,臺北市文山區景興路４１號,121.5448,24.99717,(02)29328898,羅氏家用新冠病毒抗原自我檢測套組,78,2022/04/30 19:51:02,無
5901200123,瑞安藥局,臺北市文山區溪口街６９－１號１樓,121.5393,24.99512,(02)29312888,羅氏家用新冠病毒抗原自我檢測套組,78,2022/04/30 19:51:02,早上8:30起服務星期日休息
5901201728,東京晟藥局,臺北市文山區辛亥路４段９７號,121.5587,25.00684,(02)29356354,羅氏家用新冠病毒抗原自我檢測套組,3,2022/04/30 19:51:02,周日不銷售實名制快篩，預領號碼牌購買
5901202047,華君藥局,臺北市文山區興隆路２段６０號,121.5478,24.99955,(02)29319510,羅氏家用新冠病毒抗原自我檢測套組,1,2022/04/30 19:51:02,每天12:00開始販售快篩
5901203375,大樹景美藥局,臺北市文山區羅斯福路６段２３４之１號,121.5404,24.99244,(02)29322951,羅氏家用新冠病毒抗原自我檢測套組,2,2022/04/30 19:51:02,快篩實名制，每天16:00開始販售，售完為止。
5901203400,富康活力睦新藥局,臺北市文山區木新路３段２１６號,121.5595,24.98153,(02)29393666,羅氏家用新冠病毒抗原自我檢測套組,78,2022/04/30 19:51:02,無
5902020012,永松藥局,高雄市鼓山區鼓山三路１３０－１５號,120.2802,22.66454,(07)5810657,羅氏家用新冠病毒抗原自我檢測套組,16,2022/04/30 19:51:02,周一到周日早上9點開始賣口罩，到晚上10點.
5902022801,裕康中西大藥局,高雄市鼓山區裕誠路１５１９號,120.2951,22.66479,(07)5555352,羅氏家用新冠病毒抗原自我檢測套組,2,2022/04/30 19:51:02,藥局販售口罩時間，依藥局門口公告時間為主（售完為止）
5902022874,康爾喜藥局,高雄市鼓山區慶豐街５０號,120.2935,22.66647,(07)5222650,羅氏家用新冠病毒抗原自我檢測套組,4,2022/04/30 19:51:02,早上9點半後開始販售口罩，營業時間為早上9:10至晚間10:00
5902032450,可達藥局,高雄市左營區榮德街１７７號,120.3205,22.68359,(07)3420182,羅氏家用新冠病毒抗原自我檢測套組,45,2022/04/30 19:51:02,無
5902040210,益民藥局,高雄市楠梓區建楠路４７號,120.3287,22.72659,(07)3522161,羅氏家用新冠病毒抗原自我檢測套組,78,2022/04/30 19:51:02,星期一至星期五 號碼牌發放時間自10:00  星期六   不發放口罩   星期日號碼牌發放時間自 15:00
5902040532,聯亞藥局,高雄市楠梓區軍校路７１０號,120.293,22.70779,(07)3638387,羅氏家用新冠病毒抗原自我檢測套組,78,2022/04/30 19:51:02,口罩販賣時段：上午8：30起至售完為止
5902050298,瑞鶴藥局,高雄市三民區寶德里義德路２５號,120.3352,22.64301,(07)3862757,羅氏家用新冠病毒抗原自我檢測套組,11,2022/04/30 19:51:02,下午2:00至4:30午休勿擾，每日09:00至21:00發售快篩。
5902050350,日星藥局,高雄市三民區寶龍里惠德街３８號,120.3241,22.64741,(07)3845188,羅氏家用新冠病毒抗原自我檢測套組,52,2022/04/30 19:51:02,銷售口罩時間:星期一至五16:00-22:00；星期六09:00-11:30，售完為止
5902050565,澄和藥局,高雄市三民區澄和路６６號,120.3445,22.64474,(07)3923111,羅氏家用新冠病毒抗原自我檢測套組,1,2022/04/30 19:51:02,快篩試劑- 販售時間自下午14:00起至售完為止
5902050636,嘉益藥局,高雄市三民區重慶街３０號,120.302,22.64223,(07)3110157,羅氏家用新冠病毒抗原自我檢測套組,4,2022/04/30 19:51:02,無
5902050798,友泰藥局,高雄市三民區中和街１６９號,120.2868,22.6388,(07)3125236,羅氏家用新冠病毒抗原自我檢測套組,59,2022/04/30 19:51:02,無
5902051240,明皇藥局,高雄市三民區寶國里義華路１８１號,120.3399,22.64276,(07)3860121,羅氏家用新冠病毒抗原自我檢測套組,11,2022/04/30 19:51:02,藥局販售口罩時間，依藥局門口公告時間為主（售完為止）
5902051642,安寧藥局,高雄市三民區嫩江街３９號,120.2981,22.64208,(07)3217585,羅氏家用新冠病毒抗原自我檢測套組,20,2022/04/30 19:51:02,星日不賣口罩
5902051786,億生藥局,高雄市三民區南台路２００號,120.2982,22.63706,(07)2873436,羅氏家用新冠病毒抗原自我檢測套組,78,2022/04/30 19:51:02,「藥局販售口罩時間，依藥局門口公告時間為主（售完為止）」
5902056754,大家藥局,高雄市三民區鼎中路２２９號１樓,120.3191,22.66421,(07)3107632,羅氏家用新冠病毒抗原自我檢測套組,74,2022/04/30 19:51:02,實名制快篩販售時間-08:30-12:00
5902057368,崧民藥師藥局,高雄市三民區金鼎路２２８號,120.3238,22.66483,(07)3102496,羅氏家用新冠病毒抗原自我檢測套組,78,2022/04/30 19:51:02,服務時間9:00-22:30自01／01日~1月29日
5902057484,永勝藥局,高雄市三民區褒忠街１１４號,120.334,22.64262,(07)3814643,羅氏家用新冠病毒抗原自我檢測套組,11,2022/04/30 19:51:02,口罩代售時間14:00--16:00.現場排隊.週日休
5902057546,華南藥局,高雄市三民區中和街１２４號,120.2878,22.63941,(07)3127483,羅氏家用新冠病毒抗原自我檢測套組,9,2022/04/30 19:51:02,快篩代售時間9:00起，售完為止，12點-1點，5點-6點30分用餐時間不代售，週日不代售。
5902060025,連作藥局,高雄市新興區大同一路２０３－１號,120.3003,22.62856,(07)2154716,羅氏家用新冠病毒抗原自我檢測套組,56,2022/04/30 19:51:02,快篩試紙領用時間為每日下午2點  4／29日起，28日已售完
5902071546,中華藥局,高雄市前金區中華四路３６３號,120.2987,22.62137,(07)2712779,羅氏家用新冠病毒抗原自我檢測套組,8,2022/04/30 19:51:02,星期日固定休假
5902080474,弘宗藥局,高雄市苓雅區武智街２號,120.3356,22.62303,(07)7211088,羅氏家用新冠病毒抗原自我檢測套組,10,2022/04/30 19:51:02,8:00~22:00（營業時段）
5902080858,福興藥局,高雄市苓雅區成功一路５２號,120.2983,22.6131,(07)3331862,羅氏家用新冠病毒抗原自我檢測套組,18,2022/04/30 19:51:02,每日上午九點販賣快篩試劑售完止.營業時間9-21時.
5902084785,新良安藥局,高雄市苓雅區苓雅二路１０６號,120.2987,22.61731,(07)3386980,羅氏家用新冠病毒抗原自我檢測套組,41,2022/04/30 19:51:02,早上9點開始代售實名制快篩
5902085148,召祐健保藥局,高雄市苓雅區正義路９３號,120.3385,22.63037,(07)7493719,羅氏家用新冠病毒抗原自我檢測套組,11,2022/04/30 19:51:02,無
5902085184,惠春藥局,高雄市苓雅區武慶三路９６號,120.3319,22.62043,(07)7611358,羅氏家用新冠病毒抗原自我檢測套組,63,2022/04/30 19:51:02,「藥局販售口罩時間，依藥局門口公告時間為主（售完為止）」
5902085344,意祥藥局,高雄市苓雅區武廟路１４２之１號,120.3276,22.63125,(07)7224835,羅氏家用新冠病毒抗原自我檢測套組,1,2022/04/30 19:51:02,藥局販售口罩時間，依藥局門口公告時間為主（售完為止）
5902090087,久億藥局,高雄市前鎮區保泰路３５１號,120.3341,22.60289,(07)7619333,羅氏家用新冠病毒抗原自我檢測套組,3,2022/04/30 19:51:02,無實名制口罩
5902091128,北京藥局,高雄市前鎮區公正路３１號,120.3322,22.60291,(07)7113100,羅氏家用新冠病毒抗原自我檢測套組,78,2022/04/30 19:51:02,口罩發放方式，上午9；00現場過健保卡領取口罩。
5902092296,迎廣藥局,高雄市前鎮區林森三路１５０號２樓,120.3089,22.61357,(07)3321466,羅氏家用新冠病毒抗原自我檢測套組,8,2022/04/30 19:51:02,週一至周六08:30至12:00  15:00至18:00   星期日休
5902092956,慈濟健保藥局,高雄市前鎮區鎮州路２１１號,120.3082,22.58819,(07)8159788,羅氏家用新冠病毒抗原自我檢測套組,24,2022/04/30 19:51:02,每天早上8點開始賣.售完為止藥局販售口罩時間，依藥局門口公告時間為主（售完為止）
5902100033,旗后藥局,高雄市旗津區中洲三路７１５號,120.2705,22.61096,(07)5715838,羅氏家用新冠病毒抗原自我檢測套組,78,2022/04/30 19:51:02,無
5902111670,桂林活力藥師藥局,高雄市小港區桂陽路４０號,120.3575,22.58194,(07)7931248,羅氏家用新冠病毒抗原自我檢測套組,78,2022/04/30 19:51:02,自2／11日~2／29日，營業日08:30及13:00各50份為販賣口罩時間.售完為止
5903010458,心之藥局,臺中市豐原區中山路５０４號,120.7149,24.25009,(04)25254959,羅氏家用新冠病毒抗原自我檢測套組,77,2022/04/30 19:51:02,周一至周五 12:30
5903050103,北勢進騰藥局,臺中市沙鹿區北勢東路５０９之７號１樓,120.576,24.22526,(04)26330893,羅氏家用新冠病毒抗原自我檢測套組,78,2022/04/30 19:51:02,營業時間12:00-22:00，每日12:00販售實名制快篩
5903090143,佳福藥局,臺中市潭子區中山路１段４３－１號,120.7023,24.19138,(04)25332982,羅氏家用新冠病毒抗原自我檢測套組,78,2022/04/30 19:51:02,每日中午12:00至下午3:00休息，星期六公休
5903150135,全品藥局,臺中市烏日區公園路２４０之１號１樓,120.6254,24.10234,(04)23362690,羅氏家用新冠病毒抗原自我檢測套組,78,2022/04/30 19:51:02,防疫口罩每日上午8時30分開始販售
5903180115,永合藥局,臺中市霧峰區中正路９６５號,120.6989,24.06597,(04)23391910,羅氏家用新冠病毒抗原自我檢測套組,78,2022/04/30 19:51:02,無
5903180133,正開心大藥局,臺中市霧峰區中正路９５１號１樓,120.6987,24.06565,(04)23396940,羅氏家用新冠病毒抗原自我檢測套組,77,2022/04/30 19:51:02,週一~週五09:00販賣快篩試劑，賣完為止。
5903190586,樹孝炘星藥局,臺中市太平區樹孝路４７６號１樓,120.7203,24.15735,(04)23929578,羅氏家用新冠病毒抗原自我檢測套組,78,2022/04/30 19:51:02,快篩早上8:00開賣，售完為止！周六固定休息
5903240465,德恩藥師藥局,臺中市西區精誠路２５２號１樓,120.6549,24.14949,(04)23102358,羅氏家用新冠病毒抗原自我檢測套組,14,2022/04/30 19:51:02,無
5903260449,喜樂藥局,臺中市北區中清路１段３１號,120.677,24.1529,(04)22060423,羅氏家用新冠病毒抗原自我檢測套組,10,2022/04/30 19:51:02,無
5903260654,康新藥局,臺中市北區五權路２３２號,120.677,24.15078,(04)22020008,羅氏家用新冠病毒抗原自我檢測套組,23,2022/04/30 19:51:02,無
5903260798,光恒藥局,臺中市北區五權路２６１號１樓,120.6767,24.15097,(04)22068638,羅氏家用新冠病毒抗原自我檢測套組,78,2022/04/30 19:51:02,快篩 周一到周六早上8:00到12:00 開放購買
5903270963,源興大藥局,臺中市西屯區西屯路二段１２號,120.6622,24.16387,(04)23143045,羅氏家用新冠病毒抗原自我檢測套組,156,2022/04/30 19:51:02,口罩販售時間：每日早上9點至售完為止。
5903271031,美十樂中科藥局,臺中市西屯區西屯路三段１６６－６５號１樓,120.6129,24.19035,(04)24610219,羅氏家用新冠病毒抗原自我檢測套組,234,2022/04/30 19:51:02,固定周一至周日10:00開始販售口罩
5903271139,百吉藥局,臺中市西屯區青海路一段７１號１樓,120.6547,24.1644,(04)23135698,羅氏家用新冠病毒抗原自我檢測套組,78,2022/04/30 19:51:02,無
5903280450,瑞安藥局,臺中市南屯區大墩路２６１號,120.6497,24.14302,(04)24750818,羅氏家用新冠病毒抗原自我檢測套組,39,2022/04/30 19:51:02,周一到周日每日早上9:00開始，賣完為止，營業至晚上22:00。
5903290063,承恩藥局,臺中市北屯區北屯路４４１－１號１樓,120.7008,24.17977,(04)22467857,羅氏家用新冠病毒抗原自我檢測套組,78,2022/04/30 19:51:02,實名制快篩販售時間為早上11點開始（12:00-15:00中午休息） ； 星期六休息
5903290661,康博中西健保藥局,臺中市北屯區后庄一街７號１樓,120.6644,24.1865,(04)24252468,羅氏家用新冠病毒抗原自我檢測套組,1,2022/04/30 19:51:02,快篩發放於下午01:00作業.週六.日及假日下午06:30開始
5903290901,帥帥藥局,臺中市北屯區東山路一段３００－２號,120.7204,24.1759,(04)24378188,羅氏家用新冠病毒抗原自我檢測套組,78,2022/04/30 19:51:02,星期一至星期五下午15:00販賣快篩試劑，六.日無販售。
5903291006,五和健保藥局,臺中市北屯區崇德路二段４６０號１樓,120.6863,24.18001,(04)22415533,羅氏家用新冠病毒抗原自我檢測套組,78,2022/04/30 19:51:02,週六公休 。周一至周五 14:30 發號碼牌 15:00販售； 週日 9:00發號碼牌 10:00販售
5903291159,均福藥局,臺中市北屯區軍福十三路１００號１樓,120.7308,24.17096,(04)24391169,羅氏家用新冠病毒抗原自我檢測套組,1,2022/04/30 19:51:02,快篩實名制規則:晚上七點依現場排隊順序發號碼牌 （周日公休不販售）
5905030038,美尚藥局,臺南市白河區白河里康樂路４３號,120.4148,23.34833,(06)6853538,羅氏家用新冠病毒抗原自我檢測套組,78,2022/04/30 19:51:02,口罩販售時間：星期一~五7:00-21:40 六07:00-18:30 禮拜天視診所上班而定
5905040105,幸福藥局,臺南市麻豆區光復路１２７號１樓,120.245,23.18435,(06)5720977,羅氏家用新冠病毒抗原自我檢測套組,78,2022/04/30 19:51:02,早8:30~12:00  午2:30~6:00  星期日固定休
5905070185,宇康藥局,臺南市善化區蓮潭里蓮潭南街１５０號１樓,120.3077,23.11199,(06)5830963,羅氏家用新冠病毒抗原自我檢測套組,218,2022/04/30 19:51:02,無
5905310540,裕安藥局,臺南市永康區中華二路３８５號,120.2315,23.0083,(06)3133251,羅氏家用新冠病毒抗原自我檢測套組,78,2022/04/30 19:51:02,早8:30-1200／午15:00-18:00／晚18:30-21:00。周日午14:00-17:00
5905310988,小東藥局,臺南市永康區小東路５７３號１樓,120.2369,22.99867,(06)3127169,羅氏家用新冠病毒抗原自我檢測套組,78,2022/04/30 19:51:02,周一至周五PM 3:00-5:00時段內販售快篩，售完為止
5905311010,樂丞藥局,臺南市永康區中正北路６０號１樓,120.2406,23.04138,(06)2433319,羅氏家用新冠病毒抗原自我檢測套組,1,2022/04/30 19:51:02,快篩販售時間：晚上七點開賣至售完
5905320564,杏一台南崇德藥局,臺南市東區崇德路６７４號,120.2274,22.96762,(06)2671939,羅氏家用新冠病毒抗原自我檢測套組,1,2022/04/30 19:51:02,防疫口罩發送時間:周一至周日:下午:15:00
5905350302,旻恩藥局,臺南市北區公園里北門路二段３７－１號,120.2123,22.99817,(06)2260590,羅氏家用新冠病毒抗原自我檢測套組,4,2022/04/30 19:51:02,口罩領取時間:週一至周五早上09:00-12:00 下午2:30-5:30 晚間6:30-9:00。周六早上09-12下午2:30-5:30售完為止
5905350535,開元台安藥局,臺南市北區開元路２８８號１樓,120.2226,23.00852,(06)2818061,羅氏家用新冠病毒抗原自我檢測套組,78,2022/04/30 19:51:02,4／30停賣快篩
5905380177,凱順藥局,臺南市安平區育平里健康三街３９號１樓,120.168,22.98595,(06)2999752,羅氏家用新冠病毒抗原自我檢測套組,17,2022/04/30 19:51:02,快篩試劑每日9:00開始，售完為止。
5907010178,華美藥局,高雄市鳳山區建國路三段１６１號,120.3535,22.6367,(07)7452732,羅氏家用新冠病毒抗原自我檢測套組,21,2022/04/30 19:51:02,快篩營業時間即開始販售，若有患者領藥會優先處理領藥
5907010212,北京藥局中崙店,高雄市鳳山區中崙四路１６號１樓,120.3519,22.59971,(07)7550655,羅氏家用新冠病毒抗原自我檢測套組,78,2022/04/30 19:51:02,營業時間上午08:00~下午11:00發口罩時間為上午:9:00售完為止00
5907010301,高大藥局,高雄市鳳山區南華路１８２號,120.3381,22.60295,(07)7718671,羅氏家用新冠病毒抗原自我檢測套組,78,2022/04/30 19:51:02,快篩試劑每日 12:00 - 20:00 發放。  周日店休
5907010365,科健藥局,高雄市鳳山區八德路２４６－５號１樓,120.3568,22.63853,(07)7777868,羅氏家用新冠病毒抗原自我檢測套組,9,2022/04/30 19:51:02,下午3:30開始換購
5907010454,上泰健保藥局,高雄市鳳山區鎮西里中華街２７號１樓,120.3559,22.62698,(07)7455127,羅氏家用新冠病毒抗原自我檢測套組,23,2022/04/30 19:51:02,快篩實名制，每天10:00開始販售，售完為止。
5907010525,長青連鎖藥局光遠店,高雄市鳳山區光遠路２７１號１樓,120.3588,22.62596,(07)7103487,羅氏家用新冠病毒抗原自我檢測套組,14,2022/04/30 19:51:02,無
5907011086,閤康藥局,高雄市鳳山區忠義里中山西路３７６－７號１樓,120.3412,22.62897,(07)7197787,羅氏家用新冠病毒抗原自我檢測套組,17,2022/04/30 19:51:02,快篩販售:每週一至週六 時間早上10:30開始.售完為止!
5907011175,鳳西藥局,高雄市鳳山區忠義里中山西路２３８號１樓,120.3471,22.62831,(07)7902717,羅氏家用新冠病毒抗原自我檢測套組,17,2022/04/30 19:51:02,快篩實名制，每天16:00開始販售，售完為止。
5907011406,長青連鎖藥局大士店,高雄市鳳山區五甲一路１３９號１樓,120.3562,22.61968,(07)7104618,羅氏家用新冠病毒抗原自我檢測套組,4,2022/04/30 19:51:02,無
5907030152,旗山藥局,高雄市旗山區中華路２３號,120.4841,22.88027,(07)6621158,羅氏家用新冠病毒抗原自我檢測套組,4,2022/04/30 19:51:02,快篩實名制，每天16:00開始販售，售完為止。
5907060221,淑德健保藥局,高雄市大寮區內坑里淑德新村１號３樓,120.3707,22.58833,(07)7923556,羅氏家用新冠病毒抗原自我檢測套組,80,2022/04/30 19:51:02,無
5907060230,華思中西藥局,高雄市大寮區永芳里進學路１２２號１樓,120.3933,22.60468,(07)7835567,羅氏家用新冠病毒抗原自我檢測套組,14,2022/04/30 19:51:02,星期一~星期六 下午四點販售實名制快篩  星期天店休
5907080321,德杏藥局,高雄市仁武區永仁街２０號１樓,120.3297,22.68191,(07)3735936,羅氏家用新冠病毒抗原自我檢測套組,18,2022/04/30 19:51:02,快篩實名制發放預計下午14:00開放 加入ＬＩＮＥ會有即時訊息：@291fipdc
5907140126,天德藥局阿蓮店,高雄市阿蓮區南蓮里忠孝路１６８、１７０號,120.3304,22.87917,(07)6311566,羅氏家用新冠病毒抗原自我檢測套組,2,2022/04/30 19:51:02,發售口罩時間：8:00~21:00販售口罩 禮拜日停售
5907150239,固德藥局,高雄市路竹區金平路３１２號,120.269,22.86954,(07)6978641,羅氏家用新冠病毒抗原自我檢測套組,78,2022/04/30 19:51:02,無
5907240014,博林健保藥局,高雄市內門區觀亭里中正路１６０巷５１號,120.4539,22.9232,(07)6671883,羅氏家用新冠病毒抗原自我檢測套組,78,2022/04/30 19:51:02,自2／11日~2／29日，營業日07:40~18:00為販賣口罩時間，售完為止
5907300239,左野藥局,高雄市左營區崇德路２２２號,120.3052,22.675,(07)3486883,羅氏家用新冠病毒抗原自我檢測套組,1,2022/04/30 19:51:02,營業時間09:00-22:30（實名制快篩試劑販售時間15:00-20:00售完為止!）
5907300346,正心藥師藥局,高雄市左營區左營大路４７３之２號,120.295,22.68946,(07)5880386,羅氏家用新冠病毒抗原自我檢測套組,78,2022/04/30 19:51:02,無
5907300417,森森藥師藥局,高雄市左營區緯六路２１５號１樓,120.2874,22.69707,(07)5853600,羅氏家用新冠病毒抗原自我檢測套組,38,2022/04/30 19:51:02,星期一至五 8~19點；星期六 8:30~12點
5907300588,明禾藥局,高雄市左營區華夏路１７３２號１樓,120.3204,22.68777,(07)3493734,羅氏家用新冠病毒抗原自我檢測套組,25,2022/04/30 19:51:02,快篩販賣時間下午2點
5907300677,佳寧峰藥局,高雄市左營區部後街２號,120.2886,22.6834,(07)5886408,羅氏家用新冠病毒抗原自我檢測套組,60,2022/04/30 19:51:02,口罩，快篩試劑販賣時段:上午8:30起至售完為止
5907300702,禾順左營藥局,高雄市左營區自由三路４１０號２樓,120.3127,22.67563,(07)3592582,羅氏家用新冠病毒抗原自我檢測套組,78,2022/04/30 19:51:02,星期一~星期六 實名制快篩劑發放時間13:30~15:00 （周日公休）
5907300748,翔生藥局合群店,高雄市左營區緯六路２５６號,120.2871,22.6976,(07)5880055,羅氏家用新冠病毒抗原自我檢測套組,78,2022/04/30 19:51:02,實名制快篩販售時間：星期一至星期五，售完為止
5907300800,元大藥師健保藥局,高雄市左營區榮德街３２７號,120.3211,22.68636,(07)3507531,羅氏家用新冠病毒抗原自我檢測套組,10,2022/04/30 19:51:02,09:30開始販賣口罩.售完為止
5907300882,得孚社區藥局,高雄市左營區重立路５３３號１樓,120.3098,22.67955,(07)3410121,羅氏家用新冠病毒抗原自我檢測套組,46,2022/04/30 19:51:02,營業日上午09:30-11:30為販賣口罩時間.售完為止
5907300944,左營藥局,高雄市左營區華夏路３２５號,120.2972,22.67167,(07)5501017,羅氏家用新冠病毒抗原自我檢測套組,2,2022/04/30 19:51:02,快篩實名制，每天16:00開始販售，售完為止。
5907300980,大路藥局,高雄市左營區左營大路５５－２號１樓,120.2877,22.6813,(07)5851001,羅氏家用新冠病毒抗原自我檢測套組,2,2022/04/30 19:51:02,快篩實名制，每天16:00開始販售，售完為止。
5907301021,杏一左營自由藥局,高雄市左營區自由二路３９７號,120.3084,22.66541,(07)5509511,羅氏家用新冠病毒抗原自我檢測套組,3,2022/04/30 19:51:02,週日無提供快篩實聯制服務
5907310137,青田藥局,高雄市楠梓區監理南街６８號,120.3188,22.72897,(07)3648257,羅氏家用新冠病毒抗原自我檢測套組,78,2022/04/30 19:51:02,無
5907310173,安健藥局,高雄市楠梓區鳳楠路２５０號,120.3296,22.72617,(07)3520167,羅氏家用新冠病毒抗原自我檢測套組,10,2022/04/30 19:51:02,2／06起營業日早上8點開始販賣，周六日早上8:30 .售完為止
5907320259,明誠藥局,高雄市三民區明誠一路１７２號,120.3273,22.65994,(07)3108636,羅氏家用新冠病毒抗原自我檢測套組,1,2022/04/30 19:51:02,星期一到星期六早上9點售快篩.星期日下午3點售快篩
5907320464,建元健保藥局,高雄市三民區興昌街８３巷９號,120.3181,22.64621,(07)3927865,羅氏家用新冠病毒抗原自我檢測套組,7,2022/04/30 19:51:02,無
5907320768,心樂保健藥局,高雄市三民區光裕路７８號１樓,120.3331,22.63789,(07)3855377,羅氏家用新冠病毒抗原自我檢測套組,78,2022/04/30 19:51:02,星期一到星期四上午8:30-12:00，下午15:00-18:00（口罩售完為止）. 星期五下午14:00-17:00，18:00-20:30（售完為止）
5907320811,力生藥局,高雄市三民區鼎中路１６８號１樓,120.3194,22.6622,(07)3105231,羅氏家用新冠病毒抗原自我檢測套組,2,2022/04/30 19:51:02,營業日星期一~星期五11點起、星期六~星期日晚上6點 開始販賣（實名制快篩）.售完為止
5907320919,心寬福藥局,高雄市三民區大順二路７１８號一樓,120.3193,22.65359,(07)3832366,羅氏家用新冠病毒抗原自我檢測套組,2,2022/04/30 19:51:02,週一到週五上午9:00-12:00、下午14:00-20:00，週六下午14:00-20:00販售口罩，週日公休。
5907350177,佳康藥局,高雄市苓雅區建國一路３３４號,120.3247,22.63293,(07)2266685,羅氏家用新冠病毒抗原自我檢測套組,74,2022/04/30 19:51:02,口罩代售時間:一至四8:30-21:00、五六8:30-16:30
5907350328,安杏藥局,高雄市苓雅區四維二路９４－１７號,120.3197,22.62273,(07)7511739,羅氏家用新冠病毒抗原自我檢測套組,65,2022/04/30 19:51:02,快篩試劑代售時間自早上9:00點服務
5907350533,健群藥局,高雄市苓雅區安業路４０號,120.3231,22.62731,(07)7150097,羅氏家用新冠病毒抗原自我檢測套組,78,2022/04/30 19:51:02,無
5907350659,北京藥局林泉店,高雄市苓雅區林泉里３鄰林泉街３５號１樓,120.3192,22.62323,(07)7263030,羅氏家用新冠病毒抗原自我檢測套組,234,2022/04/30 19:51:02,無
5907360566,祥安健保藥局,高雄市前鎮區復興三路３９３號１樓,120.3116,22.61373,(07)3340393,羅氏家用新冠病毒抗原自我檢測套組,3,2022/04/30 19:51:02,無
5907360664,忠純藥局,高雄市前鎮區中華五路１００９號１樓,120.3056,22.60341,(07)3366886,羅氏家用新冠病毒抗原自我檢測套組,2,2022/04/30 19:51:02,快篩實名制，每天16:00開始販售，售完為止。
5907380175,新朋友藥師藥局小港店,高雄市小港區漢民路２５４號,120.3531,22.56653,(07)8065361,羅氏家用新冠病毒抗原自我檢測套組,78,2022/04/30 19:51:02,每週六公休
5907380184,桂林活力藥師藥局孔鳳店,高雄市小港區孔鳳路５６１號１樓,120.3586,22.58393,(07)7912331,羅氏家用新冠病毒抗原自我檢測套組,78,2022/04/30 19:51:02,無
5907380353,桂林活力藥師藥局漢民店,高雄市小港區漢民路６９１－１及６９１－２號１樓,120.3614,22.56762,(07)8010636,羅氏家用新冠病毒抗原自我檢測套組,79,2022/04/30 19:51:02,無
5911011334,海大藥局,基隆市中正區新豐街２５５號１樓,121.7879,25.13621,(02)24699222,羅氏家用新冠病毒抗原自我檢測套組,78,2022/04/30 19:51:02,平日：8：30~12：00，15：00~21：30；星期日：~12：00
5911011469,維元社區藥局,基隆市中正區新豐街４４８號,121.7859,25.13568,(02)24601388,羅氏家用新冠病毒抗原自我檢測套組,77,2022/04/30 19:51:02,營業時間:早上8:30-晚上10:30
5911031318,安安藥局,基隆市暖暖區源遠路１６８號,121.7492,25.09815,(02)24585577,羅氏家用新冠病毒抗原自我檢測套組,78,2022/04/30 19:51:02,每週六公休，每日08:30販售快篩
5911041403,佑昌藥局,基隆市仁愛區南榮路１７號,121.7423,25.12697,(02)24293309,羅氏家用新冠病毒抗原自我檢測套組,5,2022/04/30 19:51:02,無
5911041690,佑聖藥局,基隆市仁愛區仁二路１８８號,121.7451,25.12864,(02)24201762,羅氏家用新冠病毒抗原自我檢測套組,73,2022/04/30 19:51:02,即日起口罩販售時間由下午兩點開始，周日公休
5911041958,百福仁愛專業藥局,基隆市仁愛區仁四路５０號１樓,121.7413,25.12829,(02)24266699,羅氏家用新冠病毒抗原自我檢測套組,78,2022/04/30 19:51:02,4／30起，早上8:00販售快篩
5911041967,東隆藥局,基隆市仁愛區仁二路１０５號２樓,121.7482,25.12742,(02)24260727,羅氏家用新冠病毒抗原自我檢測套組,78,2022/04/30 19:51:02,無
5911071607,家安藥師藥局,基隆市信義區信二路２５７、２５９號１樓,121.7478,25.1301,(02)24223917,羅氏家用新冠病毒抗原自我檢測套組,78,2022/04/30 19:51:02,星期一 ~ 星期五13:30開始銷售。
5912012988,杏康健保特約藥局,新竹市東區光復路一段５２５巷２３號１樓,121.0135,24.78384,(03)5772966,羅氏家用新冠病毒抗原自我檢測套組,78,2022/04/30 19:51:02,週一至五09:00-21:00 （週六公休） 週日09:00-18:00
5917011847,郭藥局,臺中市中區平等街一二四號,120.682,24.1426,(04)22200005,羅氏家用新冠病毒抗原自我檢測套組,5,2022/04/30 19:51:02,無
5917011934,一安堂藥局,臺中市中區臺灣大道一段２０號１樓,120.6847,24.13819,(04)22259616,羅氏家用新冠病毒抗原自我檢測套組,3,2022/04/30 19:51:02,14:00開始領取實名制快篩劑
5917032382,中港大藥局,臺中市西區臺灣大道２段１３２號,120.6714,24.14995,(04)22080708,羅氏家用新冠病毒抗原自我檢測套組,79,2022/04/30 19:51:02,無
5917060108,博新藥局,臺中市西屯區福安里中工三路２２０號,120.6153,24.17541,(04)23583412,羅氏家用新冠病毒抗原自我檢測套組,2,2022/04/30 19:51:02,星期一至六早上9點開始販賣無號碼牌星期日休營
5917070186,濟安堂藥局,臺中市南屯區南屯路二段７８８號,120.6378,24.14028,(04)23899603,羅氏家用新冠病毒抗原自我檢測套組,78,2022/04/30 19:51:02,政府配送時間不定...販售時間都固定每天早上7點40分（4／30剛收到要明天銷售））
5917072724,百芳大藥局,臺中市南屯區向上路二段４２１號,120.6377,24.1469,(04)23818307,羅氏家用新冠病毒抗原自我檢測套組,3,2022/04/30 19:51:02,周一到周六，早上9:30開始販賣快篩，不發號碼牌。
5917082300,蔡宗耀中西藥局,臺中市北屯區平德里河北路２段６１號,120.6831,24.16994,(04)22341880,羅氏家用新冠病毒抗原自我檢測套組,3,2022/04/30 19:51:02,早上9點30分至下午12點30分，下午3點至8點發口罩，有發號碼牌。
5921012334,家庭藥局,臺南市東區崇文里生產路３６９─３號,120.2278,22.96502,(06)2607298,羅氏家用新冠病毒抗原自我檢測套組,2,2022/04/30 19:51:02,無
5921020185,安心藥局,臺南市南區喜東里喜樹路１５１巷３３號,120.18,22.94099,(06)2622570,羅氏家用新冠病毒抗原自我檢測套組,78,2022/04/30 19:51:02,快篩服務時間 星期一至星期五 上午8時至10時
5921032185,西門藥局,臺南市中西區西門路２段２０９號,120.199,22.9949,(06)2211222,羅氏家用新冠病毒抗原自我檢測套組,78,2022/04/30 19:51:02,星期一-五09:30-售完
5921040749,玖大藥局,臺南市北區勝利路３８３號,120.2187,23.00397,(06)2752048,羅氏家用新冠病毒抗原自我檢測套組,78,2022/04/30 19:51:02,星期一~六13:00~15:00
5921041924,芳鄰藥局,臺南市北區公園北路１５２號,120.2084,23.00521,(06)2811101,羅氏家用新冠病毒抗原自我檢測套組,31,2022/04/30 19:51:02,星期一~六8點到12點
5922010281,上安中西藥局,嘉義市東區府路里延平街２３８號之１,120.4502,23.47683,(05)2231005,羅氏家用新冠病毒抗原自我檢測套組,78,2022/04/30 19:51:02,本藥局販售實名制快篩試劑:營業日:上午七點半至八點；下午兩點至下午四點（特殊狀況例外）
5922013175,森活中西藥局,嘉義市東區吳鳳北路２０８號一樓,120.4533,23.47931,(05)2288518,羅氏家用新冠病毒抗原自我檢測套組,68,2022/04/30 19:51:02,8:30開始發放號碼牌，12:00~14:00領取快篩
5922020509,全德藥局,嘉義市西區福民里興業西路２８９號,120.4392,23.46776,(05)2854263,羅氏家用新冠病毒抗原自我檢測套組,6,2022/04/30 19:51:02,營業時間請電話洽詢，口罩販售：19點~21點
5922020769,安麗藥師藥局,嘉義市西區車店里廣州街２０６號,120.4302,23.46519,(05)2352395,羅氏家用新冠病毒抗原自我檢測套組,78,2022/04/30 19:51:02,快篩試劑販售時間早上9點~11點50分，下午1點30分~5:00點；六.日休息。5／1勞動節連休3天。
5931010315,優良藥局,新北市板橋區莊敬路９３號,121.4727,25.02628,(02)22550251,羅氏家用新冠病毒抗原自我檢測套組,73,2022/04/30 19:51:02,無
5931010342,宏達大藥局,新北市板橋區莒光路１７號,121.47,25.02478,(02)22572345,羅氏家用新冠病毒抗原自我檢測套組,78,2022/04/30 19:51:02,快篩 晚上20:00開始販售! 不要打電話來 問題這麼多就到現場 也不給你問
5931010708,一誠藥局,新北市板橋區府中路６２號,121.4569,25.00965,(02)29673956,羅氏家用新冠病毒抗原自我檢測套組,78,2022/04/30 19:51:02,無
5931015909,向康藥局,新北市板橋區實踐路１４７號１樓,121.4643,25.00437,(02)29637248,羅氏家用新冠病毒抗原自我檢測套組,78,2022/04/30 19:51:02,下午2點開始販售實名制快篩
5931017001,聯康藥局,新北市板橋區南雅南路２段１３６號（１樓）,121.4518,24.99656,(02)89674888,羅氏家用新冠病毒抗原自我檢測套組,70,2022/04/30 19:51:02,無
5931017270,躍獅新埔藥局,新北市板橋區陽明街４７號１樓,121.4637,25.02386,(02)22543932,羅氏家用新冠病毒抗原自我檢測套組,78,2022/04/30 19:51:02,無
5931017494,佑全板橋四川藥局,新北市板橋區四川路１段４７１號１樓,121.4573,24.99744,(02)29559598,羅氏家用新冠病毒抗原自我檢測套組,78,2022/04/30 19:51:02,快篩販售時間：周一到周五1500開始，週六日公休，現場排隊
5931017752,泓泰藥局,新北市板橋區館前西路１４０號２樓,121.4563,25.0081,(02)29686559,羅氏家用新冠病毒抗原自我檢測套組,2,2022/04/30 19:51:02,無
5931017770,光環藥局,新北市板橋區光環路２段１６號１樓,121.4822,25.01476,(02)89520920,羅氏家用新冠病毒抗原自我檢測套組,78,2022/04/30 19:51:02,無
5931018099,廣品藥局,新北市板橋區漢生西路８２號（１樓）,121.4628,25.01934,(02)22576880,羅氏家用新冠病毒抗原自我檢測套組,76,2022/04/30 19:51:02,無
5931023581,大重仁藥局,新北市三重區重新路５段５９２號１樓,121.4694,25.04539,(02)29958283,羅氏家用新冠病毒抗原自我檢測套組,78,2022/04/30 19:51:02,無
5931024426,甜心健康生活藥局,新北市三重區福祉里集美街４５號１樓,121.488,25.05542,(02)29762223,羅氏家用新冠病毒抗原自我檢測套組,4,2022/04/30 19:51:02,無
5931025192,榮康藥局,新北市三重區成功路８１號１樓,121.4886,25.05131,(02)29772723,羅氏家用新冠病毒抗原自我檢測套組,78,2022/04/30 19:51:02,[4／30 六-暫停發售]。5／1星期日- 加場發售11:00am開賣。 星期一、四14:00發售。星期二、五20:00發售。星期一、六11:00發售。
5931025281,吉盛健保藥局,新北市三重區頂崁街２１０巷４６號１樓,121.4753,25.06803,(02)29801666,羅氏家用新冠病毒抗原自我檢測套組,78,2022/04/30 19:51:02,快篩實名制上午8:30開始販售，不發放號碼牌，排隊購買，星期日公休
5931030531,成功藥局,新北市永和區成功路１段１３３號,121.5269,25.00171,(02)29293622,羅氏家用新冠病毒抗原自我檢測套組,78,2022/04/30 19:51:02,營業時間 09:00 -20:00
5931030568,仲景藥局,新北市永和區竹林路２１３巷１號,121.521,25.00893,(02)89281687,羅氏家用新冠病毒抗原自我檢測套組,1,2022/04/30 19:51:02,營業時間早上9:30~晚上10:30
5931032188,原大藥局,新北市永和區永和路１段２０號１樓,121.513,25.00471,(02)29272767,羅氏家用新冠病毒抗原自我檢測套組,78,2022/04/30 19:51:02,下午1點可領取
5931032811,華特健康藥局,新北市永和區永貞路３６２號１樓,121.5102,25.00667,(02)29264391,羅氏家用新冠病毒抗原自我檢測套組,4,2022/04/30 19:51:02,無
5931033345,御生藥局,新北市永和區中山路１段２７９號１樓,121.5071,25.00706,(02)29235658,羅氏家用新冠病毒抗原自我檢測套組,78,2022/04/30 19:51:02,販賣快篩試劑時間  週一~週五  早上九點
5931033523,永奕藥局,新北市永和區永平路２８６之１號１樓,121.5077,25.01208,(02)22327709,羅氏家用新冠病毒抗原自我檢測套組,78,2022/04/30 19:51:02,無
5931033890,康杏安藥局,新北市永和區保平路９９號１樓,121.5114,25.00686,(02)29298968,羅氏家用新冠病毒抗原自我檢測套組,78,2022/04/30 19:51:02,111／4／30今日無領售快篩服務
5931034146,亮點藥局,新北市永和區竹林路７１號１樓,121.5186,25.01355,(02)89253895,羅氏家用新冠病毒抗原自我檢測套組,121,2022/04/30 19:51:02,快篩發放時段 下午16:30-18:00
5931040242,天立藥局,新北市中和區莒光路１２２號,121.4724,25.00173,(02)29578831,羅氏家用新冠病毒抗原自我檢測套組,78,2022/04/30 19:51:02,於下午15:00憑健保卡（一人一卡）購買實名制快篩。
5931043921,良安藥局,新北市中和區連城路４７７巷１號１樓,121.4833,24.99555,(02)22225798,羅氏家用新冠病毒抗原自我檢測套組,234,2022/04/30 19:51:02,週六日不開店
5931044848,和霖生活藥局,新北市中和區復興路２８９號１樓,121.5018,24.99015,(02)22458227,羅氏家用新冠病毒抗原自我檢測套組,78,2022/04/30 19:51:02,口罩販賣時段:上午9:00至下午22:00
5931045461,富康活力遠東藥局,新北市中和區建八路１０之１號１樓,121.4865,24.99805,(02)82262299,羅氏家用新冠病毒抗原自我檢測套組,78,2022/04/30 19:51:02,早上8:00~晚19:00
5931052751,新康藥局,新北市新店區北新路１段１９５號１樓、２樓,121.5402,24.9648,(02)29178179,羅氏家用新冠病毒抗原自我檢測套組,73,2022/04/30 19:51:02,無
5931060342,十安藥局,新北市新莊區中港路３１６號,121.4524,25.04544,(02)29922859,羅氏家用新冠病毒抗原自我檢測套組,9,2022/04/30 19:51:02,自111／04／01起不再販賣實名制口罩
5931068464,健安藥局,新北市新莊區光和里民安西路２０９號１樓,121.4261,25.0147,(02)22043765,羅氏家用新冠病毒抗原自我檢測套組,78,2022/04/30 19:51:02,無
5931068991,新莊健業藥局,新北市新莊區昌平街３７號１樓至２樓,121.4547,25.05221,(02)22798808,羅氏家用新冠病毒抗原自我檢測套組,78,2022/04/30 19:51:02,快篩實名制下午三點開始販售
593106A093,環球藥局,新北市新莊區中港路４３６號１、２樓,121.452,25.05105,(02)29901934,羅氏家用新冠病毒抗原自我檢測套組,78,2022/04/30 19:51:02,營業時間8-23，全年無休
593106A155,日榮藥局,新北市新莊區龍安路４６１號１樓,121.4248,25.0186,(02)22051523,羅氏家用新冠病毒抗原自我檢測套組,49,2022/04/30 19:51:02,無
593106A379,輔大美康藥局,新北市新莊區中正路５１０號之１，１樓,121.4341,25.03294,(02)29013056,羅氏家用新冠病毒抗原自我檢測套組,1,2022/04/30 19:51:02,實名制快篩9:20發號碼牌／9:30過卡+收費
593106A726,良和健保藥局,新北市新莊區龍安路４９號１樓,121.4158,25.02151,(02)29048157,羅氏家用新冠病毒抗原自我檢測套組,78,2022/04/30 19:51:02,口罩：早上9點發號碼牌，星期六休息不代售口罩
593106B036,家嘉藥局,新北市新莊區自立街１０３號（１樓）,121.4553,25.04549,(02)89926488,羅氏家用新冠病毒抗原自我檢測套組,6,2022/04/30 19:51:02,無
593106B081,平安藥局,新北市新莊區民安西路６０號２樓,121.4273,25.02037,(02)22082368,羅氏家用新冠病毒抗原自我檢測套組,54,2022/04/30 19:51:02,無
593106B189,美康頭前藥局,新北市新莊區化成路３７３之５號１樓,121.4412,25.03785,(02)85219638,羅氏家用新冠病毒抗原自我檢測套組,78,2022/04/30 19:51:02,無
5931072066,琉璃水藥師藥局,新北市樹林區龍興街２１號１樓,121.403,25.01614,(02)26764262,羅氏家用新冠病毒抗原自我檢測套組,78,2022/04/30 19:51:02,無
5931072404,伯安綜合藥局,新北市樹林區中華路１０８號１樓,121.4183,24.98074,(02)86856551,羅氏家用新冠病毒抗原自我檢測套組,78,2022/04/30 19:51:02,初一至初五春節休息
5931072422,三樹食在好健康藥局,新北市樹林區學成路６００號１樓,121.3818,24.94584,(02)26807101,羅氏家用新冠病毒抗原自我檢測套組,156,2022/04/30 19:51:02,實名制快篩販售時間周一～周四19-20點（請自備散鈔）
5931081458,食在好健康藥局,新北市鶯歌區國慶街１６５號１樓,121.3512,24.95312,(02)26702559,羅氏家用新冠病毒抗原自我檢測套組,161,2022/04/30 19:51:02,實名制快篩販賣時間週一到週四19:00~20:00 （請自備散鈔）
5931081494,康群藥局,新北市鶯歌區建國路２０２號１樓,121.3494,24.95357,(02)26796690,羅氏家用新冠病毒抗原自我檢測套組,78,2022/04/30 19:51:02,*星期五休診不發放口罩，其餘上班日上午九點開始發放*現場排隊
5931081547,信義健保藥局,新北市鶯歌區信義街６３號１樓,121.3534,24.95571,(02)86775563,羅氏家用新冠病毒抗原自我檢測套組,78,2022/04/30 19:51:02,4／30 晚上店休，暫不發放
5931091623,兆康藥局,新北市三峽區中華路２２號１樓,121.3742,24.93265,(02)26717875,羅氏家用新冠病毒抗原自我檢測套組,113,2022/04/30 19:51:02,無
5931091696,祥祐藥局,新北市三峽區文化路１２５號１樓,121.3699,24.93598,(02)26738080,羅氏家用新冠病毒抗原自我檢測套組,28,2022/04/30 19:51:02,無
5931092200,金美藥局,新北市三峽區大同路２３８號１樓,121.3663,24.92573,(02)86715859,羅氏家用新冠病毒抗原自我檢測套組,234,2022/04/30 19:51:02,無
5931102489,水源藥局,新北市淡水區水源街１段１３３號１樓,121.447,25.172,(02)26295233,羅氏家用新冠病毒抗原自我檢測套組,42,2022/04/30 19:51:02,快篩實名制，每天16:00開始販售，售完為止。
5931110258,春德堂藥局,新北市汐止區新台五路１段２２０號,121.6561,25.06311,(02)26422048,羅氏家用新冠病毒抗原自我檢測套組,78,2022/04/30 19:51:02,實名制快篩 周一~周六 1300~1500 現場購買 （30號無販售
5931111586,品康藥局,新北市汐止區湖前街４７號１樓,121.632,25.07005,(02)26954441,羅氏家用新冠病毒抗原自我檢測套組,1,2022/04/30 19:51:02,下午2點販售實名制快篩
5931111844,福恩藥師大藥局,新北市汐止區福德二路１７１之１號１樓,121.6307,25.06506,(02)26940835,羅氏家用新冠病毒抗原自我檢測套組,78,2022/04/30 19:51:02,無
5931112083,裕和藥局,新北市汐止區宜興街４號１樓,121.6211,25.04126,(02)26609119,羅氏家用新冠病毒抗原自我檢測套組,78,2022/04/30 19:51:02,早上9.30-晚上9.00領實名制口罩時間
5931112789,富康東科藥局,新北市汐止區新台五路１段９６號Ｃ棟１樓Ｃ１５號,121.6483,25.06047,(02)26969222,羅氏家用新冠病毒抗原自我檢測套組,78,2022/04/30 19:51:02,每日九點至下午六點開放購買口罩，周六周日公休
5931121279,大埔藥局,新北市瑞芳區大埔路１２８－３號１樓,121.762,25.10079,(02)24587020,羅氏家用新冠病毒抗原自我檢測套組,78,2022/04/30 19:51:02,無
5931131579,祥安大藥局,新北市土城區立德路４２－１號,121.4636,24.98727,(02)22629707,羅氏家用新冠病毒抗原自我檢測套組,78,2022/04/30 19:51:02,無
5931132245,萬昌健保藥局,新北市土城區中央路４段１６０號,121.417,24.95827,(02)22678057,羅氏家用新冠病毒抗原自我檢測套組,13,2022/04/30 19:51:02,3月2日起周一至周五15:00發號碼牌及販賣口罩  周六 10:00直接販售
5931132343,誠安藥局,新北市土城區中央路４段３６號１樓,121.4207,24.96088,(02)22677737,羅氏家用新冠病毒抗原自我檢測套組,80,2022/04/30 19:51:02,執業時段請電洽藥局
5931132538,宏奇藥局,新北市土城區延吉街１２６號１樓,121.4695,24.98586,(02)82619585,羅氏家用新冠病毒抗原自我檢測套組,78,2022/04/30 19:51:02,無
5931133331,城安大藥局,新北市土城區金城路３段４０號,121.4656,24.98639,(02)22646561,羅氏家用新冠病毒抗原自我檢測套組,78,2022/04/30 19:51:02,無
5931133546,宏林保健藥局,新北市土城區裕民路１３４號（１樓）,121.4515,24.98622,(02)82615919,羅氏家用新冠病毒抗原自我檢測套組,1,2022/04/30 19:51:02,無
5931151660,祐康藥師藥局,新北市五股區五福路３６號１樓,121.4339,25.08922,(02)82921335,羅氏家用新冠病毒抗原自我檢測套組,78,2022/04/30 19:51:02,口罩代售時間:一至六早上8:30開始販售， 星期日早上9:00
5931161513,苗園健保特約藥局,新北市泰山區仁愛路９２號１樓,121.4331,25.05534,(02)22970736,羅氏家用新冠病毒抗原自我檢測套組,77,2022/04/30 19:51:02,每日下午兩點開始販售（週六日公休），每日限量70組，另8組供給醫護警消第一線人員及確診者之緊急狀況使用
5931181104,介新大藥局,新北市深坑區文化街９４號,121.6172,25.002,(02)26648149,羅氏家用新冠病毒抗原自我檢測套組,78,2022/04/30 19:51:02,執業時段請電洽藥局
5931231225,小蘋果藥局,新北市八里區中山路１段２２９號,121.411,25.1576,(02)26108206,羅氏家用新冠病毒抗原自我檢測套組,78,2022/04/30 19:51:02,無
5931250015,松南藥局,新北市雙溪區中華路２９號,121.8658,25.03728,(02)24931085,羅氏家用新冠病毒抗原自我檢測套組,71,2022/04/30 19:51:02,週一至週五營業至晚上21點.週六至20點週日至12點
5931250042,信芳藥局,新北市雙溪區中華路５０號,121.866,25.03761,(02)24931301,羅氏家用新冠病毒抗原自我檢測套組,78,2022/04/30 19:51:02,無
5931281074,北海岸藥局,新北市萬里區瑪鍊路９８號,121.6906,25.17868,(02)24922022,羅氏家用新冠病毒抗原自我檢測套組,78,2022/04/30 19:51:02,6／25.26.27早上8:00-12:00拿藥，下午休診
5932011870,永祥大藥局,桃園市桃園區永安路５２８號,121.2986,25.00181,(03)3337161,羅氏家用新冠病毒抗原自我檢測套組,32,2022/04/30 19:51:02,口罩販賣時段：週一至週六早上9點
5932012902,天濟堂藥局,桃園市桃園區桃鶯路３８８之８號,121.3231,24.97623,(03)3614983,羅氏家用新冠病毒抗原自我檢測套組,78,2022/04/30 19:51:02,每月最後一個週日固定公休
5932014031,大廟藥局,桃園市桃園區中山路１５８號１樓,121.3091,24.99342,(03)3337006,羅氏家用新冠病毒抗原自我檢測套組,5,2022/04/30 19:51:02,無
5932014442,新光藥局,桃園市桃園區大有路１７２號,121.3209,25.00752,(03)3310133,羅氏家用新冠病毒抗原自我檢測套組,78,2022/04/30 19:51:02,營業時間:10:00-22:00
593201A604,藝文啄木鳥藥局,桃園市桃園區中正路１３５７、１３５９、１３６１號,121.2951,25.02292,(03)3467698,羅氏家用新冠病毒抗原自我檢測套組,1,2022/04/30 19:51:02,口罩販賣時段：週一至週日13:00起
5932020360,日進藥局,桃園市中壢區中山東路二段１５６號,121.2394,24.95276,(03)4569132,羅氏家用新冠病毒抗原自我檢測套組,78,2022/04/30 19:51:02,營業時間:早上08:30至晚上09:30（周日下午休息）
5932023094,中壢民權藥局,桃園市中壢區民權路３２６、３２８號,121.2054,25.0001,(03)4014961,羅氏家用新冠病毒抗原自我檢測套組,1,2022/04/30 19:51:02,實聯制快篩每天78份週一至週六下午1350拿取號碼牌1400開始販售.依序入場販售.過號視同放棄
5932023254,博鈞藥局,桃園市中壢區元化路２２６號２樓,121.2266,24.96106,(03)4256093,羅氏家用新冠病毒抗原自我檢測套組,1,2022/04/30 19:51:02,無
5932023656,思琁藥師藥局,桃園市中壢區中北路二段４３０號,121.2331,24.95448,(03)4162189,羅氏家用新冠病毒抗原自我檢測套組,78,2022/04/30 19:51:02,無
5932024153,中民社區藥局,桃園市中壢區民族路２段１８２號,121.2036,24.95743,(03)4922642,羅氏家用新冠病毒抗原自我檢測套組,79,2022/04/30 19:51:02,營業時間:0830~1230，1300~1700
5932040246,龍泰藥局,桃園市楊梅區民族路五段１４７巷２號,121.1736,24.9586,(03)4901525,羅氏家用新冠病毒抗原自我檢測套組,78,2022/04/30 19:51:02,口罩販售時間：08:00開賣至11:00
5932042320,家康藥師藥局,桃園市楊梅區文化街二三二之一號,121.1851,24.91622,(03)4810893,羅氏家用新冠病毒抗原自我檢測套組,78,2022/04/30 19:51:02,快篩販售時間：12:00-13:00
5932050215,九德藥局,桃園市蘆竹區中山路６９號,121.3003,25.05242,(03)3116868,羅氏家用新冠病毒抗原自我檢測套組,69,2022/04/30 19:51:02,口罩販賣時段：AM09:00-PM10:00
5932052308,南崁宜安藥師藥局,桃園市蘆竹區南崁路２４８號,121.2934,25.04918,(03)3220686,羅氏家用新冠病毒抗原自我檢測套組,78,2022/04/30 19:51:02,快篩販賣時段：12:30～13:30
5932053010,辰安藥局,桃園市蘆竹區上興路２１６號１樓,121.2601,25.01896,(03)3136631,羅氏家用新冠病毒抗原自我檢測套組,78,2022/04/30 19:51:02,早上08:00 發號碼牌*本藥局實名制快篩規則將統一公告在臉書 （4／30已完售 PS此系統庫存為5／1的數量）
5932077510,左外野藥局,桃園市龜山區文光街６號１樓,121.3802,25.05471,(03)3271503,羅氏家用新冠病毒抗原自我檢測套組,110,2022/04/30 19:51:02,快篩販售時間:19:30-20:30 （週五公休）
5932080035,慶昇藥局,桃園市八德區桃鶯路一Ｏ二號,121.3279,24.97006,(03)3648037,羅氏家用新冠病毒抗原自我檢測套組,3,2022/04/30 19:51:02,口罩販賣時段：9:00~12:00
5932083303,吉康生活藥局,桃園市八德區義勇街１２０號,121.3045,24.96354,(03)3768577,羅氏家用新冠病毒抗原自我檢測套組,78,2022/04/30 19:51:02,無
5932083974,晨鴻藥師藥局,桃園市八德區桃鶯路７號１樓,121.3265,24.97179,(03)3764299,羅氏家用新冠病毒抗原自我檢測套組,79,2022/04/30 19:51:02,兒童口罩早上8:30領取號碼牌 一定發完 因為一天只有20個名額 ，請勿再打電話詢問 謝謝
5932084695,康馥藥局,桃園市八德區金和路５３號１樓,121.2971,24.95494,(03)3749620,羅氏家用新冠病毒抗原自我檢測套組,78,2022/04/30 19:51:02,口罩販賣時段：15:00 ， 週日14:30開始營業；星期六公休。
5932084793,美康健保藥局,桃園市八德區桃鶯路９１號１、２樓,121.328,24.97036,(03)3613624,羅氏家用新冠病毒抗原自我檢測套組,78,2022/04/30 19:51:02,無
5932084828,阿爾富山藥局,桃園市八德區桃鶯路４號１樓,121.3261,24.97167,(03)3763350,羅氏家用新冠病毒抗原自我檢測套組,1,2022/04/30 19:51:02,8:00-22:00
5932099150,繕葆藥局,桃園市龍潭區中興路３０９號,121.2335,24.8737,(03)4803831,羅氏家用新冠病毒抗原自我檢測套組,78,2022/04/30 19:51:02,口罩販賣時段：8:30-售完為止
5932099383,龍星藥局,桃園市龍潭區中正路二八四號二樓,121.2175,24.86201,(03)4707390,羅氏家用新冠病毒抗原自我檢測套組,11,2022/04/30 19:51:02,上午8~11下午16~18晚上19~21，六、日9~12門診.口罩販賣
5932099516,１Ｏ１藥師聯合藥局,桃園市龍潭區中正路４４號,121.2144,24.86893,(03)4708593,羅氏家用新冠病毒抗原自我檢測套組,78,2022/04/30 19:51:02,口罩販賣時段：下午13:30 到 21:00點
5932100210,福澤中豐藥局,桃園市平鎮區中豐路３４５號,121.2116,24.91034,(03)4283805,羅氏家用新冠病毒抗原自我檢測套組,7,2022/04/30 19:51:02,家用快篩販賣時段15:30至售完為止
5932101217,夢田藥局,桃園市平鎮區東光路１１３號１樓,121.2533,24.91609,(03)4601966,羅氏家用新冠病毒抗原自我檢測套組,78,2022/04/30 19:51:02,實名制快篩販售時間週一～週五『早上08:30開始』，一人僅限一張健保卡，請自備500元，不收銅板。售完為止
5932109973,新英藥局,桃園市平鎮區中豐路208號1樓,121.2163,24.94219,(03)4687729,羅氏家用新冠病毒抗原自我檢測套組,60,2022/04/30 19:51:02,快篩銷售時段:每日早上8:20開始  售完為止  祝大家平安健康
5933011178,康和藥局,新竹縣關西鎮正義路７９號,121.1759,24.79386,(03)5870068,羅氏家用新冠病毒抗原自我檢測套組,78,2022/04/30 19:51:02,依看診時間供民眾取藥
5933011196,高平堂藥局,新竹縣關西鎮正義路66號,121.1762,24.79269,(03)5872263,羅氏家用新冠病毒抗原自我檢測套組,1,2022/04/30 19:51:02,相關公告 請搜尋FB【高平堂藥局】
5933011267,關西藥局,新竹縣關西鎮中山路６８號,121.1764,24.79148,(03)5171121,羅氏家用新冠病毒抗原自我檢測套組,1,2022/04/30 19:51:02,快篩實名制，每天16:00開始販售，售完為止。
5933030324,健通藥局,新竹縣竹東鎮東寧路三段１０１號一樓,121.0864,24.73901,(03)5947630,羅氏家用新冠病毒抗原自我檢測套組,78,2022/04/30 19:51:02,實名制快篩早上8點排隊過卡售完為止  4／30，5／1，無販售
5933031652,合康藥局,新竹縣竹東鎮興農街１１號,121.0861,24.73988,(03)5103818,羅氏家用新冠病毒抗原自我檢測套組,1,2022/04/30 19:51:02,實名制快篩時段：下午17:00~22:30
5933031714,健康人生藥局,新竹縣竹東鎮中興路四段１９５號５２館Ｂ１１６室,121.0489,24.77287,(03)5910472,羅氏家用新冠病毒抗原自我檢測套組,78,2022/04/30 19:51:02,實名制快篩星期一到五13:50放發號碼牌，14:00開賣，領完號碼牌現場領取快篩試劑，請勿離開，離開視同放棄
5933053265,金慧藥局,新竹縣竹北市科大二街１８５號一樓,121.0112,24.81944,(03)5586687,羅氏家用新冠病毒抗原自我檢測套組,78,2022/04/30 19:51:02,無
5933091112,暘光藥局,新竹縣芎林鄉文山路385號,121.0803,24.77533,(03)5121001,羅氏家用新冠病毒抗原自我檢測套組,78,2022/04/30 19:51:02,無
5934010077,華大藥局,宜蘭縣宜蘭市新民路６４號,121.7568,24.75682,(03)9356412,羅氏家用新冠病毒抗原自我檢測套組,78,2022/04/30 19:51:02,無
5934011529,宜生藥局,宜蘭縣宜蘭市新民路１１１號,121.7551,24.75716,(03)9327893,羅氏家用新冠病毒抗原自我檢測套組,80,2022/04/30 19:51:02,周一至周六 上午8點至上午 9點 （或售完為止）4月30 5月1日 無販售快篩
5934021409,德芳藥局,宜蘭縣羅東鎮公正路２５６號,121.7662,24.6797,(03)9557166,羅氏家用新冠病毒抗原自我檢測套組,78,2022/04/30 19:51:02,本藥局不販售口罩
5934021481,怡林藥局,宜蘭縣羅東鎮興東南路１７４號,121.7675,24.67243,(03)9541926,羅氏家用新冠病毒抗原自我檢測套組,78,2022/04/30 19:51:02,8；00開賣，不發號碼牌現刷現買售完為止.
5934021525,喜樂藥師藥局,宜蘭縣羅東鎮中山路３段１７１號,121.7697,24.67491,(03)9547113,羅氏家用新冠病毒抗原自我檢測套組,9,2022/04/30 19:51:02,無
5934031263,皇超藥局,宜蘭縣蘇澳鎮華山路３號,121.8698,24.58087,(03)9951309,羅氏家用新冠病毒抗原自我檢測套組,78,2022/04/30 19:51:02,4／30沒有販售快篩試劑
5934081156,樂心藥局,宜蘭縣冬山鄉義成路３段５０２號,121.7682,24.66745,(03)9585950,羅氏家用新冠病毒抗原自我檢測套組,1,2022/04/30 19:51:02,本藥局無販售口罩
5935011738,佳禾藥局,苗栗縣苗栗市青苗里建台街7號,120.821,24.55742,(037)373041,羅氏家用新冠病毒抗原自我檢測套組,78,2022/04/30 19:51:02,快篩試劑7：30發號碼牌8：00開始販賣，販賣時段：營業時間至售完為止
5935050253,泉興藥局,苗栗縣頭份市仁愛里民族路２８號,120.9073,24.68299,(037)664367,羅氏家用新冠病毒抗原自我檢測套組,6,2022/04/30 19:51:02,快篩試劑販賣時段：07:00-23:00
5935051849,懷生中西藥局,苗栗縣頭份市中正路１９號,120.9068,24.68432,(037)672357,羅氏家用新冠病毒抗原自我檢測套組,18,2022/04/30 19:51:02,口罩販賣時段：07:00售完為止
5935051938,吉品藥局,苗栗縣頭份市中正路９號,120.9065,24.68438,(037)676898,羅氏家用新冠病毒抗原自我檢測套組,30,2022/04/30 19:51:02,口罩07:00起發放，發完為止。如有更動不另行通知
5935071172,健安藥局,苗栗縣卓蘭鎮上新里上新七之１１號,120.8297,24.30834,(04)25899617,羅氏家用新冠病毒抗原自我檢測套組,8,2022/04/30 19:51:02,口罩販賣時段：營業時段早上7:30至售完
5935071216,萊恩藥局,苗栗縣卓蘭鎮上新里上新7之1號,120.83,24.30719,(04)25899369,羅氏家用新冠病毒抗原自我檢測套組,78,2022/04/30 19:51:02,口罩販賣時段：08:00-售完
5935071261,林大藥局,苗栗縣卓蘭鎮中正路３２號,120.8254,24.31074,(042)5891630,羅氏家用新冠病毒抗原自我檢測套組,78,2022/04/30 19:51:02,無
5935081169,景元藥局,苗栗縣大湖鄉中正路９７號,120.8664,24.42265,(037)996465,羅氏家用新冠病毒抗原自我檢測套組,78,2022/04/30 19:51:02,每天下午兩點開始販售快篩試劑
5935090015,永信藥局,苗栗縣公館鄉館中村榮光街１６號,120.8271,24.50226,(037)223597,羅氏家用新冠病毒抗原自我檢測套組,48,2022/04/30 19:51:02,每日下午3點開始販售快篩
5936192198,德侑健保藥局,臺中市太平區中山路４段８６之１號,120.7108,24.1496,(04)23959617,羅氏家用新冠病毒抗原自我檢測套組,1,2022/04/30 19:51:02,每日上午8點30分開始販售口罩，售完為止
5936209796,永欣藥局,臺中市大里區新里里新興路２４號,120.6773,24.09864,(04)24077085,羅氏家用新冠病毒抗原自我檢測套組,1,2022/04/30 19:51:02,無
5937012671,康好健保藥局,彰化縣彰化市光南里旭光路２９１號,120.544,24.07072,(04)7234725,羅氏家用新冠病毒抗原自我檢測套組,36,2022/04/30 19:51:02,1400開始販售實名制快篩
5937012751,福田藥局,彰化縣彰化市光復路２０號,120.5452,24.08102,(04)7296058,羅氏家用新冠病毒抗原自我檢測套組,78,2022/04/30 19:51:02,固定周一到周六，早上8:00營業， 8:00發放號碼牌，立即開始販售口罩
5937012957,康好藥局南校店,彰化縣彰化市華北里南校街１０４號,120.5451,24.07213,(04)7283491,羅氏家用新冠病毒抗原自我檢測套組,77,2022/04/30 19:51:02,實名制快篩試劑早上9點開始販售，賣完為止
5937013285,大仁藥局,彰化縣彰化市忠孝里辭修路８０號１樓,120.5385,24.08752,(04)7282678,羅氏家用新冠病毒抗原自我檢測套組,27,2022/04/30 19:51:02,4／30只有早上診.5／2正常看診 5／1 5／8 5／15 5／22 5／29 休診 5／7  5／21晚上休診5／14 5／28下午晚上休診
5937013347,康禾藥局,彰化縣彰化市崙平里建和街５２號,120.5322,24.07063,(04)7624077,羅氏家用新冠病毒抗原自我檢測套組,78,2022/04/30 19:51:02,固定周一至周五下午一點發放快篩試劑，售完為止
5937013730,佳漾藥局,彰化縣彰化市延平路５８８號１樓,120.5374,24.06301,(04)7135518,羅氏家用新冠病毒抗原自我檢測套組,78,2022/04/30 19:51:02,無
5937021330,順安藥局,彰化縣鹿港鎮泰興里復興路１２５號,120.4386,24.05279,(04)7765510,羅氏家用新冠病毒抗原自我檢測套組,78,2022/04/30 19:51:02,星期一至五與星期日:上班時間內皆可販售口罩    星期六停止販售口罩
5937051703,員林健康藥局,彰化縣員林市中正路２２４號１樓,120.5747,23.95417,(04)8396798,羅氏家用新冠病毒抗原自我檢測套組,26,2022/04/30 19:51:02,10月11日雙十連假有營業
5937051847,天一藥局,彰化縣員林市光明里中正路４４１號,120.5724,23.95817,(04)8384875,羅氏家用新冠病毒抗原自我檢測套組,1,2022/04/30 19:51:02,固定周一到周六，早上14:30開始販賣防疫口罩（現場排隊）。
5937052031,天天藥局,彰化縣員林市鎮興里員東路一段５５號,120.5991,23.96355,(04)8385573,羅氏家用新冠病毒抗原自我檢測套組,15,2022/04/30 19:51:02,固定周一到周六上午8:30發放號碼牌，8:30開始販售口罩。
5937052120,家展藥局,彰化縣員林市三民街３５－１號,120.5731,23.95849,(04)8367768,羅氏家用新冠病毒抗原自我檢測套組,78,2022/04/30 19:51:02,無
5937052255,淑德藥局,彰化縣員林市仁美里中山路２段１１０、１１２號,120.5713,23.96388,(04)8359155,羅氏家用新冠病毒抗原自我檢測套組,3,2022/04/30 19:51:02,周日沒營業。
5937052264,醫聯藥師藥局,彰化縣員林市三條里員東路二段４１０號１樓,120.5811,23.95898,(04)8360617,羅氏家用新冠病毒抗原自我檢測套組,7,2022/04/30 19:51:02,無
5937052317,員郭藥局,彰化縣員林市三民街３８－１號,120.573,23.95862,(04)8356201,羅氏家用新冠病毒抗原自我檢測套組,15,2022/04/30 19:51:02,無
5937052451,統信藥局,彰化縣員林市正興街３７２號,120.5722,23.95997,(04)8367089,羅氏家用新冠病毒抗原自我檢測套組,21,2022/04/30 19:51:02,無
5937052513,正光藥局員林店,彰化縣員林市三民東街３１０、３１２號,120.5814,23.96036,(04)8328765,羅氏家用新冠病毒抗原自我檢測套組,78,2022/04/30 19:51:02,實名制快篩下午13:30開始販售
5937052559,知心健康藥局,彰化縣員林市三民東街１９６號１樓,120.5788,23.95965,(04)8396161,羅氏家用新冠病毒抗原自我檢測套組,20,2022/04/30 19:51:02,無
5937081489,二林順順藥局,彰化縣二林鎮仁愛路４５１號,120.3691,23.9036,(04)8951351,羅氏家用新冠病毒抗原自我檢測套組,78,2022/04/30 19:51:02,無
5937081596,二林藥局,彰化縣二林鎮斗苑路五段３９號,120.3709,23.89951,(04)8950010,羅氏家用新冠病毒抗原自我檢測套組,1,2022/04/30 19:51:02,快篩實名制，每天16:00開始販售，售完為止。
5937091065,寓埔藥局,彰化縣線西鄉寓埔村中華路４８號１樓,120.463,24.13446,(04)7589805,羅氏家用新冠病毒抗原自我檢測套組,78,2022/04/30 19:51:02,快篩販賣時間:周一~五早上11:00~12:00售完為止   週六 週日公休
5937101217,友誼藥局,彰化縣伸港鄉新港村中山路１５號,120.4864,24.14731,(047)980591,羅氏家用新冠病毒抗原自我檢測套組,78,2022/04/30 19:51:02,4／29 快篩實名制時間:10:30；因為業務繁忙，故星期一.六.日不發放快篩
5937131153,武田藥局,彰化縣花壇鄉長沙村中正路１２０號,120.5441,24.02719,(04)7878683,羅氏家用新冠病毒抗原自我檢測套組,78,2022/04/30 19:51:02,星期一至星期六早上8點30分開始販售  *星期日休息*
5937151137,萬來藥局,彰化縣大村鄉福興村山腳路８０－９號,120.5856,23.98996,(04)8535565,羅氏家用新冠病毒抗原自我檢測套組,78,2022/04/30 19:51:02,9:00開始販售口罩至售完為止。
5937181279,佳恩藥局,彰化縣永靖鄉永西村瑚璉路３０２號,120.547,23.92421,(04)8235753,羅氏家用新冠病毒抗原自我檢測套組,3,2022/04/30 19:51:02,快篩實名制 :電話預約制，當日早上9點開始預約（4／30已額滿）
5937190107,張藥局,彰化縣社頭鄉社頭村清水岩路３６７號,120.5895,23.89967,(04)8734660,羅氏家用新冠病毒抗原自我檢測套組,1,2022/04/30 19:51:02,快篩試劑早上8:15開賣，周日公休
5937211094,田尾藥局,彰化縣田尾鄉饒平村光復路２段６６９號,120.5313,23.89053,(04)8836725,羅氏家用新冠病毒抗原自我檢測套組,78,2022/04/30 19:51:02,無
5938022019,安欣藥局,南投縣埔里鎮中山路三段９８號,120.9633,23.96631,(04)2906620,羅氏家用新冠病毒抗原自我檢測套組,78,2022/04/30 19:51:02,口罩代售時間:周一至周六早上自08:30-12:00:周一至週五下午3:00-6:00；現場排隊；週六下午至周日全天休
5938022180,久泰藥局,南投縣埔里鎮南興街３２４、３２６號,120.9634,23.96481,(049)2980968,羅氏家用新冠病毒抗原自我檢測套組,7,2022/04/30 19:51:02,無
5938032515,草屯丁丁藥局,南投縣草屯鎮太平路二段１７９號,120.6831,23.97335,(049)2330058,羅氏家用新冠病毒抗原自我檢測套組,8,2022/04/30 19:51:02,快篩實名制早上9點開始販售，發號碼牌
5938041569,竹山福倫藥局,南投縣竹山鎮竹山里集山路三段858號,120.6857,23.75881,(049)2658518,羅氏家用新冠病毒抗原自我檢測套組,78,2022/04/30 19:51:02,5／1 下午1點現場排隊販售
5938041694,仁惠藥局,南投縣竹山鎮集山路二段９９號,120.7135,23.79961,(049)2622158,羅氏家用新冠病毒抗原自我檢測套組,39,2022/04/30 19:51:02,星期一至五10:00-19:00售口罩
5938041809,維淇藥師藥局,南投縣竹山鎮集山路三段８１６－１號,120.6863,23.75949,(049)2653689,羅氏家用新冠病毒抗原自我檢測套組,36,2022/04/30 19:51:02,早上8：30~晚上21：00，星期六下午晚上及星期日休息
5938091149,得康藥局,南投縣魚池鄉魚池村魚池街３７３號,120.937,23.89672,(049)2899630,羅氏家用新冠病毒抗原自我檢測套組,1,2022/04/30 19:51:02,星期一至五上午8:45.星期六早上8:45開始販售快篩試劑
5938100063,興安藥局,南投縣國姓鄉石門村國姓路２７８－１號,120.8568,24.04001,(049)2721133,羅氏家用新冠病毒抗原自我檢測套組,78,2022/04/30 19:51:02,正常8:30開始營業，（若消毒完成提早8:00開始販賣口罩）
5939010504,桂賓藥局,雲林縣斗六市信義里鎮北路３號,120.5432,23.71143,(05)5332138,羅氏家用新冠病毒抗原自我檢測套組,141,2022/04/30 19:51:02,無
5939012133,鎮東藥局,雲林縣斗六市中華路４６０號,120.5516,23.70846,(05)5332449,羅氏家用新冠病毒抗原自我檢測套組,78,2022/04/30 19:51:02,星期二. 五 下午及晚上休息  星期六全天休息 （國定假日 星期日 9:00開始 晚上7:30 休息 ）
5939031585,利芳藥局,雲林縣虎尾鎮光復路３１０號,120.4385,23.71011,(05)6311016,羅氏家用新冠病毒抗原自我檢測套組,78,2022/04/30 19:51:02,販賣口罩時間:0830-賣完為止
5939032724,虎尾藥局,雲林縣虎尾鎮林森路二段１１７、１１９號,120.4298,23.70595,(05)6336330,羅氏家用新冠病毒抗原自我檢測套組,234,2022/04/30 19:51:02,新開業，健保系統線路建置中，尚無法使用健保系統販售實名制快篩試劑。
5939071276,慈生藥局,雲林縣古坑鄉麻園村平和２２號,120.5203,23.6351,(05)5828222,羅氏家用新冠病毒抗原自我檢測套組,152,2022/04/30 19:51:02,週三.四.六.日下午3-5點販售實名制快篩
5939071329,光明藥局,雲林縣古坑鄉東和村文化路１３９－９號,120.5675,23.68493,(05)5263736,羅氏家用新冠病毒抗原自我檢測套組,78,2022/04/30 19:51:02,無
5939131400,正鴻健保藥局,雲林縣麥寮鄉表福路３５號,120.255,23.74769,(05)6938786,羅氏家用新冠病毒抗原自我檢測套組,78,2022/04/30 19:51:02,周一至周五早上八點到晚上八點，星期六早上八點到下午四點
5939171039,嘉民藥局,雲林縣元長鄉長南村元南路６２號,120.3124,23.64811,(05)7880513,羅氏家用新冠病毒抗原自我檢測套組,20,2022/04/30 19:51:02,無
5939171093,和平藥局,雲林縣元長鄉下寮村東興路３３號,120.334,23.61849,(05)7862551,羅氏家用新冠病毒抗原自我檢測套組,12,2022/04/30 19:51:02,販賣口罩時間：0800開賣，賣完為止
5939171100,維恩健保藥局,雲林縣元長鄉長北村中山路５８號,120.3133,23.65138,(05)7882062,羅氏家用新冠病毒抗原自我檢測套組,15,2022/04/30 19:51:02,無
5939181133,陽明藥局,雲林縣四湖鄉中正路４２２號,120.2251,23.63476,(05)7876519,羅氏家用新冠病毒抗原自我檢測套組,78,2022/04/30 19:51:02,0800---販售結束
5939191326,順生藥局,雲林縣口湖鄉口湖村口湖路３２４號,120.1811,23.58524,(05)7895799,羅氏家用新冠病毒抗原自我檢測套組,78,2022/04/30 19:51:02,早上9點開放領取口罩（星期六休息）
5939200011,優生藥局,雲林縣水林鄉水林路９９巷２號,120.247,23.57205,(05)7856307,羅氏家用新冠病毒抗原自我檢測套組,78,2022/04/30 19:51:02,販賣快篩試劑時間:5月1日早上8點有販售
5939201158,健安藥局,雲林縣水林鄉松北村蔦松路６９之１號,120.2318,23.51741,(05)7841025,羅氏家用新冠病毒抗原自我檢測套組,78,2022/04/30 19:51:02,販賣口罩時間7:30開始販賣（周一至周日全天供應，售完為止）
5940031359,家寶藥局,嘉義縣大林鎮平林里中興路２６４號,120.4613,23.60269,(05)2649000,羅氏家用新冠病毒抗原自我檢測套組,3,2022/04/30 19:51:02,08:00~售罄
5940041435,嘉方藥局,嘉義縣民雄鄉中樂村昇平路５８號,120.4303,23.55781,(05)2066747,羅氏家用新冠病毒抗原自我檢測套組,19,2022/04/30 19:51:02,早上08:00開始販賣，賣完為止
5940041515,福樂藥局,嘉義縣民雄鄉福樂村建國路三段２５６號,120.4391,23.52621,(05)2130802,羅氏家用新冠病毒抗原自我檢測套組,4,2022/04/30 19:51:02,周一~周五08:00-12:00 16:00-20:00周六 08:00-12:00
5940050069,明生藥局,嘉義縣溪口鄉溪東村民生街１５５號,120.3962,23.60334,(05)2698027,羅氏家用新冠病毒抗原自我檢測套組,78,2022/04/30 19:51:02,08:00~售罄
5940120137,德安藥局,嘉義縣水上鄉南和村後寮２６之６號,120.362,23.41007,(05)2688835,羅氏家用新冠病毒抗原自我檢測套組,78,2022/04/30 19:51:02,星期日公休
5940120191,大嘉藥局,嘉義縣水上鄉正義路１巷１６號,120.4006,23.43044,(05)2689031,羅氏家用新冠病毒抗原自我檢測套組,47,2022/04/30 19:51:02,08:00~售罄
5940121303,宏益藥局,嘉義縣水上鄉正義路５１號,120.3995,23.43025,(05)2601714,羅氏家用新冠病毒抗原自我檢測套組,19,2022/04/30 19:51:02,快篩販售時間: 禮拜一~禮拜日上午8:00~12:00   下午15:00~18:00  晚上18:30~20:30    售完為止
5940141289,好鄰居藥局,嘉義縣竹崎鄉灣橋村灣橋３４１號,120.5053,23.49111,(05)2793899,羅氏家用新冠病毒抗原自我檢測套組,78,2022/04/30 19:51:02,周一至六 08:00；周日 09:00
5940141305,東義藥局,嘉義縣竹崎鄉獅埜村東義２０－１８號,120.4898,23.51273,(05)2110957,羅氏家用新冠病毒抗原自我檢測套組,53,2022/04/30 19:51:02,無
5941181054,年豐藥局,臺南市將軍區忠嘉里忠興４２－１０號１樓,120.158,23.20163,(06)7946247,羅氏家用新冠病毒抗原自我檢測套組,48,2022/04/30 19:51:02,星期一~日18:00~20:00
5941270163,太子藥局,臺南市仁德區太子里太子路３３８號,120.2577,22.99146,(06)2729906,羅氏家用新冠病毒抗原自我檢測套組,2,2022/04/30 19:51:02,早上7點半開始販售；實際庫存為0 系統有誤 並非2
5942010269,大華藥局,高雄市鳳山區青年路二段４６６號,120.3515,22.6441,(07)7774881,羅氏家用新冠病毒抗原自我檢測套組,78,2022/04/30 19:51:02,4／28起營業日0830-1200 1530-2100為快篩販賣時間，售完為止
5942010812,一仁藥局,高雄市鳳山區自由路２００號,120.3495,22.62562,(07)7425004,羅氏家用新冠病毒抗原自我檢測套組,19,2022/04/30 19:51:02,因物流延宕 4／30 實名制快篩15:00 開始販售
5942011579,建保藥局,高雄市鳳山區八德路２８９號,120.3553,22.63856,(07)7762100,羅氏家用新冠病毒抗原自我檢測套組,1,2022/04/30 19:51:02,週一至週六9:00~20:00販賣口罩，售完為止，周日公休
5942013331,泰安藥局,高雄市鳳山區仁愛路６－１號,120.3731,22.6226,(07)7037838,羅氏家用新冠病毒抗原自我檢測套組,17,2022/04/30 19:51:02,自4月起，中午時間（12：30~2：30）不販售實名制口罩。
5942013448,祝安藥師藥局,高雄市鳳山區鳳松路３９之５號,120.3613,22.63387,(07)7476550,羅氏家用新冠病毒抗原自我檢測套組,28,2022/04/30 19:51:02,口罩代售時間下午15:00-18:00販售
5942020130,建成藥局,高雄市岡山區台上里大仁路９７號,120.3016,22.8053,(07)6210458,羅氏家用新冠病毒抗原自我檢測套組,78,2022/04/30 19:51:02,至8／31日，營業日販賣口罩時間13:30-18:00或至售完為止
5942030092,天明藥局,高雄市旗山區大同路至誠巷１５號,120.4818,22.88361,(07)6621311,羅氏家用新冠病毒抗原自我檢測套組,4,2022/04/30 19:51:02,營業日8:00~發號碼牌 8:30領至下午9:00為販賣口罩時間，售完為止8:00
5942030225,吉本藥局,高雄市旗山區旗南里中洲路４７４－１號,120.465,22.83976,(07)6663226,羅氏家用新冠病毒抗原自我檢測套組,3,2022/04/30 19:51:02,營業日0800~2200，14:00開始發號碼牌14:30起為配售口罩時間.售完為止；周六公休無配售口罩；
5942030234,賽珠藥局,高雄市旗山區新山里延平一路４９６號,120.4832,22.89004,(07)6616068,羅氏家用新冠病毒抗原自我檢測套組,78,2022/04/30 19:51:02,無
5942051555,健人藥師藥局,高雄市林園區東林里東林東路２０號,120.3964,22.50372,(07)6463158,羅氏家用新冠病毒抗原自我檢測套組,14,2022/04/30 19:51:02,實名制防疫快篩販售時間:周一 ~六:下午1點~3點，周日不販售
5942100071,皇佳藥局,高雄市鳥松區仁美里高碼二路１２號,120.3893,22.65769,(07)7312918,羅氏家用新冠病毒抗原自我檢測套組,78,2022/04/30 19:51:02,實名制快篩，晚上八點開始販售至晚上九點，週日無販售
5942220032,文殊堂藥局,高雄市甲仙區西安里文化路２２號,120.5894,23.08194,(07)6752176,羅氏家用新冠病毒抗原自我檢測套組,78,2022/04/30 19:51:02,自2／11日~2／29日，營業日07:30起為販賣口罩時間，售完為止。
5943012427,寶慷藥局,屏東縣屏東市中正路三九八號,120.493,22.68328,(08)7350558,羅氏家用新冠病毒抗原自我檢測套組,7,2022/04/30 19:51:02,快篩領取時間下午14:00.售完為止
5943013880,一二藥局,屏東縣屏東市廣東路１０９４號,120.484,22.68769,(08)7324688,羅氏家用新冠病毒抗原自我檢測套組,78,2022/04/30 19:51:02,今日無防疫快篩
5943014350,恩典藥局,屏東縣屏東市廣東路５６４號,120.4989,22.68319,(08)7368718,羅氏家用新冠病毒抗原自我檢測套組,78,2022/04/30 19:51:02,9:00~17:00
5943031708,東港好厝邊藥局,屏東縣東港鎮成功路２５２號１樓,120.4553,22.46833,(08)8338233,羅氏家用新冠病毒抗原自我檢測套組,12,2022/04/30 19:51:02,口罩販售時間:上午8:00開始，售完為止，週日不開業
5943041348,恆春啄木鳥藥局,屏東縣恆春鎮恒南路２８號,120.7476,21.99145,(08)8883990,羅氏家用新冠病毒抗原自我檢測套組,78,2022/04/30 19:51:02,自2／11日~2／29日，營業日8:30~21:00，為販賣口罩時間，若11:00過後仍有剩餘口罩則16:00-18:00繼續販賣，賣完為止
5943050169,新萬安藥局,屏東縣萬丹鄉萬安村萬丹路一段１１３號,120.4894,22.58628,(08)7772035,羅氏家用新冠病毒抗原自我檢測套組,1,2022/04/30 19:51:02,口罩販售時間早上8：30~22:00
5943125205,萬巒健保藥局,屏東縣萬巒鄉褒忠路７７號,120.5705,22.57219,(08)7815919,羅氏家用新冠病毒抗原自我檢測套組,78,2022/04/30 19:51:02,自2／11日~2／29日，營業日09:00發號碼牌，14:30~21:00為販賣口罩時間，售完為止。
5943161130,新鴻藥局,屏東縣枋寮鄉中山路３１１號,120.5923,22.37052,(08)8783321,羅氏家用新冠病毒抗原自我檢測套組,20,2022/04/30 19:51:02,04／01~04／31早上8:00開始，售完為止。
5943181089,佳恩藥局,屏東縣崁頂鄉興農路４８號,120.5102,22.5132,(08)8635908,羅氏家用新冠病毒抗原自我檢測套組,78,2022/04/30 19:51:02,早上8點~10點販賣口罩  星期日3點~4點販賣口罩
5944011433,東文藥局,澎湖縣馬公市東文里文山路６６號,119.5846,23.56228,(06)9221433,羅氏家用新冠病毒抗原自我檢測套組,156,2022/04/30 19:51:02,口罩販售:每日上午8:00 星期六無販售
5944020558,全民藥局,澎湖縣湖西鄉湖西村１５０－３號,119.6603,23.5844,(06)9920403,羅氏家用新冠病毒抗原自我檢測套組,156,2022/04/30 19:51:02,中午12:00-13:30休息；口罩：週一至週五早上8:00發放號碼牌及販售~12:00；週六早上8:00發放號碼牌及販售~10:00；週日休息。
5945010047,邱藥局,花蓮縣花蓮市忠孝街４８號,121.6066,23.97397,(03)8324573,羅氏家用新冠病毒抗原自我檢測套組,78,2022/04/30 19:51:02,販售時間星期1到星期5下午15點 星期6.日沒有販售 78組是星期1的庫存
5945012096,林森藥局,花蓮縣花蓮市林森路３０９之１號B１,121.6034,23.98008,(03)8336321,羅氏家用新冠病毒抗原自我檢測套組,78,2022/04/30 19:51:02,（快篩試劑周一到週五8:20-10點販售）門診上午8:15-11點.下午2點-4點.週1.3.5晚上6:15-8:15.週2.4晚上6點15-8點
5945013057,富強健康藥局,花蓮縣花蓮市國裕里２２鄰富強路１２８號,121.5971,23.99707,(03)8571839,羅氏家用新冠病毒抗原自我檢測套組,1,2022/04/30 19:51:02,營業時間: 上午 8:30~13:00 下午 17:30~21:30 公休日:另行通知。
5945013299,柏陞藥局,花蓮縣花蓮市和平路４９８號,121.6013,23.97698,(03)8315339,羅氏家用新冠病毒抗原自我檢測套組,2,2022/04/30 19:51:02,下午16:00~19:00販售快篩
5945021086,安康鳳林藥局,花蓮縣鳳林鎮仁愛街１０號１樓,121.4503,23.74937,(03)8762227,羅氏家用新冠病毒抗原自我檢測套組,2,2022/04/30 19:51:02,快篩星期一~六早上十點發號碼牌，售完為止。
5945051226,仁里藥局,花蓮縣吉安鄉中正路１段１６３號,121.5917,23.96568,(03)8512569,羅氏家用新冠病毒抗原自我檢測套組,78,2022/04/30 19:51:02,快篩領購時間:下午5~7點（週六日休息）
5945051520,洄瀾藥局,花蓮縣吉安鄉中山路三段２７９號,121.5708,23.97767,(03)8525217,羅氏家用新冠病毒抗原自我檢測套組,1,2022/04/30 19:51:02,快篩分兩時段販售，（早上8:00）（下午3:30）三，六無下午，禮拜天休息
5945051619,仁愛藥局,花蓮縣吉安鄉慶豐村中山路三段２８０號,121.5712,23.97783,(03)8511635,羅氏家用新冠病毒抗原自我檢測套組,78,2022/04/30 19:51:02,無
5945051673,上善藥局,花蓮縣吉安鄉吉安路二段３９號,121.5617,23.97128,(03)8535618,羅氏家用新冠病毒抗原自我檢測套組,78,2022/04/30 19:51:02,4／30~5／2休息（快篩領取時間:上午9~11）
5945051735,杏一吉安建國藥局,花蓮縣吉安鄉建國路１段１４１、１４３號１樓,121.5911,23.98589,(03)8575611,羅氏家用新冠病毒抗原自我檢測套組,78,2022/04/30 19:51:02,平日中午12點開賣快篩
5946080552,伯安健康藥局,臺東縣長濱鄉長濱村１０鄰長濱路１０５號,121.4515,23.31496,(089)832519,羅氏家用新冠病毒抗原自我檢測套組,114,2022/04/30 19:51:02,無
5946101118,伯安藥局,臺東縣池上鄉新生路１１６號,121.2187,23.12315,(089)863585,羅氏家用新冠病毒抗原自我檢測套組,78,2022/04/30 19:51:02,早0800-1200，午1400-1800，晚1800-2000
5946101127,開心藥局,臺東縣池上鄉中山路１３６號,121.2158,23.12238,(089)861151,羅氏家用新冠病毒抗原自我檢測套組,1,2022/04/30 19:51:02,快篩實名制週一至週五中午12點開始販售，週六依人力彈性調整，週日休息
