醫事機構代碼,醫事機構名稱,醫事機構地址,經度,緯度,醫事機構電話,廠牌項目,快篩試劑截至目前結餘存貨數量,來源資料時間,備註
2331260016,新北市貢寮區衛生所,新北市貢寮區朝陽街７０巷１０號、新北市貢寮區仁愛路１２８號,121.9095,25.02258,(02)24901431,羅氏家用新冠病毒抗原自我檢測套組,78,2022/05/04 18:17:02,星期一至星期日上午8點購買防疫口罩，售完為止.
2331290014,新北市烏來區衛生所,新北市烏來區新烏路５段１０９號,121.548,24.87197,(02)26617200,羅氏家用新冠病毒抗原自我檢測套組,78,2022/05/04 18:17:02,無
2333140017,新竹縣五峰鄉衛生所,新竹縣五峰鄉大隘村六鄰９９號,121.1194,24.63184,(03)5851005,羅氏家用新冠病毒抗原自我檢測套組,78,2022/05/04 18:17:02,無
2335180019,苗栗縣泰安鄉衛生所,苗栗縣泰安鄉清安村２鄰７２號,120.9083,24.44722,(037)941054,羅氏家用新冠病毒抗原自我檢測套組,78,2022/05/04 18:17:02,口罩販賣時段：星期一~五：8:30~15：00。
2338070010,南投縣鹿谷鄉衛生所,南投縣鹿谷鄉中正路二段２０號,120.7542,23.74488,(049)2752002,羅氏家用新冠病毒抗原自我檢測套組,78,2022/05/04 18:17:02,快篩試劑販售時間 上班日（星期一至星期五）14:00~16:00
2338120015,南投縣信義鄉衛生所,南投縣信義鄉明德村玉山路４５號,120.8547,23.69653,(049)2791148,羅氏家用新冠病毒抗原自我檢測套組,78,2022/05/04 18:17:02,快篩試劑販售時間星期一至星期五上午09：00-11：00，現場排隊發售，國定假日不販賣。
2340170016,嘉義縣大埔鄉衛生所,嘉義縣大埔鄉大埔村５３－１號,120.5928,23.29397,(05)2521214,羅氏家用新冠病毒抗原自我檢測套組,84,2022/05/04 18:17:02,無
2342130010,高雄市田寮區衛生所,高雄市田寮區南安里崗北路３２號,120.3594,22.87301,(07)6361504,羅氏家用新冠病毒抗原自我檢測套組,157,2022/05/04 18:17:02,巡迴醫療:每星期一、四下午及每月第一個有上班的星期三下午巡迴醫療
2342180010,高雄市永安區衛生所,高雄市永安區永安路２６號,120.2254,22.81879,(07)6912015,羅氏家用新冠病毒抗原自我檢測套組,6,2022/05/04 18:17:02,本所防疫快篩試劑販賣時間為週一到週五上班日 9:00-11:00 （或售罄為止），現場叫號不到，視同放棄
2342250017,高雄市茂林區衛生所,高雄市茂林區茂林里茂林巷８－４號,120.6641,22.88641,(07)6801046,羅氏家用新冠病毒抗原自我檢測套組,209,2022/05/04 18:17:02,夜間急診，請先撥電話07-6801046
2342260013,高雄市桃源區衛生所,高雄市桃源區桃源里南進巷１８８－１號,120.7642,23.15845,(07)6861126,羅氏家用新冠病毒抗原自我檢測套組,83,2022/05/04 18:17:02,IDS提供24小時服務
2342270019,高雄市那瑪夏區衛生所,高雄市那瑪夏區瑪雅里６鄰平和巷２５２號,120.7024,23.24708,(07)6701142,羅氏家用新冠病毒抗原自我檢測套組,592,2022/05/04 18:17:02,春節期間正常門診
2343270013,屏東縣霧台鄉衛生所,屏東縣霧台鄉霧台村神山巷６８號,120.7261,22.74989,(08)7902232,羅氏家用新冠病毒抗原自我檢測套組,100,2022/05/04 18:17:02,無
2344011036,澎湖縣馬公市第三衛生所,澎湖縣馬公市西文里１１８之２號,119.5836,23.56813,(06)9211723,羅氏家用新冠病毒抗原自我檢測套組,47,2022/05/04 18:17:02,本所快篩試劑只提供離島衛生室（虎井、桶盤）販售，時間週一至週五08:30-17:00售完為止，星期六、日國定假日09:00-12:00。
2344030013,澎湖縣白沙鄉衛生所,澎湖縣白沙鄉赤崁村３５９號,119.5982,23.66669,(06)9931044,羅氏家用新冠病毒抗原自我檢測套組,2,2022/05/04 18:17:02,星期日上午門診看診（每月最後一個星期日休診）； 星期五上午巡迴醫療（中屯村，講美村，通樑村）
2344030022,澎湖縣白沙鄉鳥嶼衛生所,澎湖縣白沙鄉鳥嶼村漁港新村３號,119.6599,23.66008,(06)9916092,羅氏家用新冠病毒抗原自我檢測套組,126,2022/05/04 18:17:02,非上班時間提供急診服務
2344030031,澎湖縣白沙鄉吉貝衛生所,澎湖縣白沙鄉吉貝村８－１３號,119.6138,23.74056,(06)9911430,羅氏家用新冠病毒抗原自我檢測套組,108,2022/05/04 18:17:02,無
2344050015,澎湖縣望安鄉衛生所,澎湖縣望安鄉西安村３６－７號,119.4972,23.36161,(06)9991036,羅氏家用新冠病毒抗原自我檢測套組,154,2022/05/04 18:17:02,夜間急診。口罩、快篩試劑販售時間為:每日08:00-12:00、13:30-17:30售完為止，如有餘數為離島未售出（東嶼坪、花嶼）。
2344050024,澎湖縣望安鄉將軍衛生所,澎湖縣望安鄉將軍村１２鄰將軍澳１之３號,119.5216,23.3615,(06)9902066,羅氏家用新冠病毒抗原自我檢測套組,216,2022/05/04 18:17:02,24小時急診
2344060011,澎湖縣七美鄉衛生所,澎湖縣七美鄉中和村埔內５４號,119.431,23.2041,(06)9971005,羅氏家用新冠病毒抗原自我檢測套組,42,2022/05/04 18:17:02,無
2391030016,連江縣莒光鄉西莒衛生所,連江縣莒光鄉青帆村１４－１號,119.9331,25.97157,(083)689122,羅氏家用新冠病毒抗原自我檢測套組,290,2022/05/04 18:17:02,防疫口罩星期一至五09:00-17:00、（六）09:00-12:00現場購買
2391030026,連江縣莒光鄉東莒衛生所,連江縣莒光鄉大坪村３０－１號,119.9731,25.96113,(083)689038,羅氏家用新冠病毒抗原自我檢測套組,311,2022/05/04 18:17:02,防疫口罩星期一至星期日上午10:00-12:00收取健保卡，下午3:30至本所領取口罩。
5901012409,家音藥局,臺北市松山區民生東路５段７３號,121.5585,25.05871,(02)37652080,羅氏家用新冠病毒抗原自我檢測套組,115,2022/05/04 18:17:02,無
5901013095,康采藥局,臺北市松山區南京東路５段２９１巷１７－２號,121.5663,25.05236,(02)27670271,羅氏家用新冠病毒抗原自我檢測套組,39,2022/05/04 18:17:02,（已完售，庫存不準）快篩試劑每日16點販售，週日沒有販售
5901013120,誠康中西藥局,臺北市松山區南京東路５段５９巷３１弄４３號,121.5607,25.05346,(02)27619679,羅氏家用新冠病毒抗原自我檢測套組,14,2022/05/04 18:17:02,禮拜一到六早上7點發號碼牌，到貨時會用社群通知大家來取貨
5901013693,民生盛康藥局,臺北市松山區民生東路５段２０４號１樓,121.5648,25.05826,(02)27460758,羅氏家用新冠病毒抗原自我檢測套組,94,2022/05/04 18:17:02,【今日量已發完】每日早上9:00發號碼牌，11:00~20:00拿號碼牌回來領取，每人限1張號碼牌，逾時不候
5901020616,龍護大藥局,臺北市大安區大安路１段２２４巷７號１Ｆ,121.5454,25.03401,(02)23250686,羅氏家用新冠病毒抗原自我檢測套組,78,2022/05/04 18:17:02,無
5901021408,生百藥局,臺北市大安區臨江街１２４號,121.5539,25.03024,(02)27371011,羅氏家用新冠病毒抗原自我檢測套組,156,2022/05/04 18:17:02,無
5901023386,弘昇藥局,臺北市大安區復興南路１段１０７巷３２號,121.5458,25.04349,(02)27110061,羅氏家用新冠病毒抗原自我檢測套組,16,2022/05/04 18:17:02,上午11點以後至晚上11點
5901024114,好安心藥局,臺北市大安區和平東路２段９８之２號,121.5415,25.02493,(02)23772166,羅氏家用新冠病毒抗原自我檢測套組,2,2022/05/04 18:17:02,快篩發放: 週一至週六 15:30現場開始販售，不發號碼牌。
5901024918,康祥藥局,臺北市大安區忠孝東路４段２１６巷２１號,121.5531,25.04025,(02)27817891,羅氏家用新冠病毒抗原自我檢測套組,78,2022/05/04 18:17:02,星期天11:00-19:00
5901025031,中力信義藥局,臺北市大安區信義路４段５１號（１樓）,121.545,25.03354,(02)23250266,羅氏家用新冠病毒抗原自我檢測套組,39,2022/05/04 18:17:02,下午一點到三點販售實名制快篩
5901102686,富宥康藥局,臺北市中山區北安路６０８巷５弄２２號,121.5496,25.08263,(02)25325277,羅氏家用新冠病毒抗原自我檢測套組,103,2022/05/04 18:17:02,無
5901103629,十二願藥局,臺北市中山區林森北路３０９號,121.5256,25.05588,(02)25311223,羅氏家用新冠病毒抗原自我檢測套組,78,2022/05/04 18:17:02,快篩晚上8點開始發放.營業時間下午1點至凌晨3點
5901113018,桔子藥局,臺北市內湖區內湖路２段３３３號,121.5917,25.08319,(02)27930052,羅氏家用新冠病毒抗原自我檢測套組,78,2022/05/04 18:17:02,早0900-1200，午1400-1700，晚1900-2100
5901121672,亞博藥師藥局,臺北市南港區興華路８１號,121.6061,25.05545,(02)27838090,羅氏家用新冠病毒抗原自我檢測套組,26,2022/05/04 18:17:02,無
5901122080,成福大藥局,臺北市南港區成福路８號,121.5859,25.04578,(02)27859221,羅氏家用新冠病毒抗原自我檢測套組,78,2022/05/04 18:17:02,無
5901150548,田倉藥局,臺北市士林區士東路１２４號,121.5302,25.11219,(02)88662188,羅氏家用新冠病毒抗原自我檢測套組,78,2022/05/04 18:17:02,每日19:00（傍晚7點）開始販售.
5901152079,資生堂藥局,臺北市士林區承德路４段４０巷１７號１Ｆ,121.522,25.08107,(02)28857588,羅氏家用新冠病毒抗原自我檢測套組,78,2022/05/04 18:17:02,無
5901152659,和樹藥局,臺北市士林區後港街４５巷１號１樓,121.5228,25.08444,(02)28821188,羅氏家用新冠病毒抗原自我檢測套組,78,2022/05/04 18:17:02,實名制快篩發放時間 依到貨時間發售
5901152686,三光藥局,臺北市士林區延平北路５段３２０號１樓,121.5096,25.08628,(02)28123786,羅氏家用新冠病毒抗原自我檢測套組,5,2022/05/04 18:17:02,無
5901153861,佩佩藥局,臺北市士林區中山北路６段１８２號,121.5252,25.10759,(02)28382662,羅氏家用新冠病毒抗原自我檢測套組,78,2022/05/04 18:17:02,5／4已售完。08:30開始販售快篩，售完為止。
5901154028,向宇藥局,臺北市士林區德行東路２１７號１樓,121.5328,25.10935,(02)88661101,羅氏家用新冠病毒抗原自我檢測套組,78,2022/05/04 18:17:02,無
5901154091,社正藥局,臺北市士林區社正路１２號１樓,121.5093,25.08854,(02)28118704,羅氏家用新冠病毒抗原自我檢測套組,141,2022/05/04 18:17:02,無
5901154135,誠泰中西藥局,臺北市士林區永平街１３號１樓,121.5051,25.08996,(02)88112352,羅氏家用新冠病毒抗原自我檢測套組,78,2022/05/04 18:17:02,晚上7:00開始販賣
5901160099,進春藥局,臺北市北投區明德路１５１號,121.5206,25.11086,(02)28216938,羅氏家用新冠病毒抗原自我檢測套組,140,2022/05/04 18:17:02,無休 上午九點開始販售，現場排隊。（依現場公告為主）
5901160802,美康藥局,臺北市北投區明德路９０號１樓,121.5196,25.1094,(02)28281176,羅氏家用新冠病毒抗原自我檢測套組,78,2022/05/04 18:17:02,營業時間:10:30~22:00；13:30開始販售快篩
5901161890,良興藥局,臺北市北投區中和街２８６號,121.5004,25.14047,(02)28933360,羅氏家用新冠病毒抗原自我檢測套組,55,2022/05/04 18:17:02,18點30分點開始營業
5901162173,小明藥局,臺北市北投區中央南路１段６９號２樓,121.5014,25.13145,(02)28928950,羅氏家用新冠病毒抗原自我檢測套組,78,2022/05/04 18:17:02,快篩實名制購買時間:週一至週六早上8:00-9:00，9點後系統顯示尚有庫存，為隔日販售的量，請勿再來電詢問，謝謝!
5901162306,上頤藥局,臺北市北投區中和街３２７號１樓,121.4997,25.14097,(02)28981230,羅氏家用新冠病毒抗原自我檢測套組,386,2022/05/04 18:17:02,無
5901163509,吉利春天生活藥局,臺北市北投區吉利街１２０號,121.5068,25.11851,(02)28253256,羅氏家用新冠病毒抗原自我檢測套組,1,2022/05/04 18:17:02,無
5901170139,福華藥局,臺北市信義區吳興街２８１巷３號１樓,121.5643,25.02656,(02)27208527,羅氏家用新冠病毒抗原自我檢測套組,78,2022/05/04 18:17:02,現階段下午1:30配合政府發售快篩試劑
5901170648,立信藥局,臺北市信義區松山路４０３號,121.578,25.04144,(02)27687754,羅氏家用新冠病毒抗原自我檢測套組,62,2022/05/04 18:17:02,快篩試劑販賣時間:晚上七點至九點 星期日三點半開賣
5901173818,博亞藥局,臺北市信義區莊敬路４６２號,121.5677,25.02672,(02)27580506,羅氏家用新冠病毒抗原自我檢測套組,117,2022/05/04 18:17:02,平日早上8:30、晚上8:00；假日早上8:30，發放號碼牌，持號碼牌購買!
5901174011,寶春藥局,臺北市信義區虎林街１１９之１９號１樓,121.5771,25.04112,(02)27566501,羅氏家用新冠病毒抗原自我檢測套組,78,2022/05/04 18:17:02,實名制快篩每日19:00現場排隊販售
5901180368,古亭藥局,臺北市中正區汀州路３段１１７號,121.5301,25.01667,(02)23683618,羅氏家用新冠病毒抗原自我檢測套組,156,2022/05/04 18:17:02,實名制  快篩  每晚7:30  開始賣  星期六早上休息 星期日休息
5901183387,丞良藥局,臺北市中正區南昌路１段７８號地下１樓,121.5173,25.03099,(02)33938868,羅氏家用新冠病毒抗原自我檢測套組,78,2022/05/04 18:17:02,週一~週五 晚上9:00~9:30現場領取，若排隊人潮過多會提早開賣
5901183510,怡誠藥局,臺北市中正區汀州路２段２１２號,121.5237,25.02236,(02)23626905,羅氏家用新冠病毒抗原自我檢測套組,78,2022/05/04 18:17:02,無
5901190515,日昇藥局,臺北市萬華區廣州街１２４號,121.5016,25.03654,(02)23062975,羅氏家用新冠病毒抗原自我檢測套組,78,2022/05/04 18:17:02,實名制快篩 05-03 到貨
5901190668,聯慶大藥局,臺北市萬華區萬大路３０６號１樓,121.5003,25.02495,(02)23039850,羅氏家用新冠病毒抗原自我檢測套組,59,2022/05/04 18:17:02,無
5901193070,榮勝藥局,臺北市萬華區萬大路２３３號,121.5006,25.02649,(02)23331121,羅氏家用新冠病毒抗原自我檢測套組,78,2022/05/04 18:17:02,每日快篩早上十一點開始販售 週日無提供販售
5901193221,正盛藥局,臺北市萬華區中華路２段４３４－１號,121.5064,25.02708,(02)23050386,羅氏家用新冠病毒抗原自我檢測套組,60,2022/05/04 18:17:02,1.快篩一~六20點，周日不賣 2.目前排隊人潮多，建議7點左右提前候位 3.詳情請看門口公告或板橋正康總店臉書
5901193338,艾米力藥師藥局,臺北市萬華區西藏路１０７－２號１樓,121.5035,25.02955,(02)23036583,羅氏家用新冠病毒抗原自我檢測套組,75,2022/05/04 18:17:02,5／4 晚上7:00販售
5901200123,瑞安藥局,臺北市文山區溪口街６９－１號１樓,121.5393,24.99512,(02)29312888,羅氏家用新冠病毒抗原自我檢測套組,80,2022/05/04 18:17:02,早上8:30開始營業.星期日休息.快篩劑晚上8:00販賣.
5902022794,定國藥局,高雄市鼓山區九如四路１１３５號,120.2791,22.65936,(07)5815858,羅氏家用新冠病毒抗原自我檢測套組,1,2022/05/04 18:17:02,無
5902022972,高雄藥局,高雄市鼓山區九如四路９２４號,120.2793,22.65466,(07)5214266,羅氏家用新冠病毒抗原自我檢測套組,2,2022/05/04 18:17:02,賣口罩時間為週一～週六晚上6點，售完為止
5902031999,平安藥局,高雄市左營區中華一路５之１號,120.287,22.66961,(07)5833688,羅氏家用新冠病毒抗原自我檢測套組,2,2022/05/04 18:17:02,週一~週六上午:8:00~12:00，下午:4:00~9:00， 週日例假日晚上6:00~9:00
5902032441,健怡藥局,高雄市左營區翠峰路４０號,120.2897,22.67229,(07)5821891,羅氏家用新冠病毒抗原自我檢測套組,14,2022/05/04 18:17:02,快篩星期一~星期六早上8:30開始販售
5902032530,杏光藥局,高雄市左營區果峰街４７巷１號１樓,120.2869,22.6703,(07)5837060,羅氏家用新冠病毒抗原自我檢測套組,45,2022/05/04 18:17:02,上午營業時間為9 :00~12:00；晚上營業至21:30
5902032674,辰暘藥局,高雄市左營區富民路１２０號１、２樓,120.3054,22.66066,(07)5588545,羅氏家用新冠病毒抗原自我檢測套組,1,2022/05/04 18:17:02,無
5902040014,成吉藥局,高雄市楠梓區楠梓東街７４號,120.3301,22.72966,(07)3513339,羅氏家用新冠病毒抗原自我檢測套組,26,2022/05/04 18:17:02,下午6點開始販賣實名制快篩，售完為止!!!星期日店休
5902040050,富翔藥局,高雄市楠梓區常德路３０７號,120.337,22.73691,(07)3516365,羅氏家用新冠病毒抗原自我檢測套組,32,2022/05/04 18:17:02,晚上18:00 販售快篩實名制，星期日早上8:00 販售快篩實名制，售完為止。
5902040069,新友藥局,高雄市楠梓區萬昌路１１１號,120.2895,22.71194,(07)3653534,羅氏家用新冠病毒抗原自我檢測套組,78,2022/05/04 18:17:02,藥局販售口罩時間，依藥局門口公告時間為主（售完為止）
5902050636,嘉益藥局,高雄市三民區重慶街３０號,120.302,22.64223,(07)3110157,羅氏家用新冠病毒抗原自我檢測套組,2,2022/05/04 18:17:02,快篩實名制早上11：00開始販售.
5902050770,仁生藥局,高雄市三民區民享里熱河二街７８號,120.3006,22.64431,(07)3118765,羅氏家用新冠病毒抗原自我檢測套組,1,2022/05/04 18:17:02,上午:8點開始販售
5902050798,友泰藥局,高雄市三民區中和街１６９號,120.2868,22.6388,(07)3125236,羅氏家用新冠病毒抗原自我檢測套組,71,2022/05/04 18:17:02,無
5902080474,弘宗藥局,高雄市苓雅區武智街２號,120.3356,22.62303,(07)7211088,羅氏家用新冠病毒抗原自我檢測套組,3,2022/05/04 18:17:02,8:00~22:00（營業時段）
5902080518,福海藥局,高雄市苓雅區武慶三路５８號,120.332,22.61958,(07)7618855,羅氏家用新冠病毒抗原自我檢測套組,1,2022/05/04 18:17:02,無
5902080803,功安中西大藥局,高雄市苓雅區三多二路２９１號,120.3195,22.61858,(07)7215949,羅氏家用新冠病毒抗原自我檢測套組,1,2022/05/04 18:17:02,營業日早上08:00開始為販賣口罩時間，售完為止
5902085184,惠春藥局,高雄市苓雅區武慶三路９６號,120.3319,22.62043,(07)7611358,羅氏家用新冠病毒抗原自我檢測套組,118,2022/05/04 18:17:02,「藥局販售口罩時間，依藥局門口公告時間為主（售完為止）」
5902085344,意祥藥局,高雄市苓雅區武廟路１４２之１號,120.3276,22.63125,(07)7224835,羅氏家用新冠病毒抗原自我檢測套組,5,2022/05/04 18:17:02,藥局販售口罩時間，依藥局門口公告時間為主（售完為止）
5903010556,升禾和大藥局,臺中市豐原區育英路２６號１樓,120.7163,24.24346,(04)25293099,羅氏家用新冠病毒抗原自我檢測套組,45,2022/05/04 18:17:02,快篩試劑1800領取.採現場排隊.售完為止
5903040036,得康藥局,臺中市清水區高美路１１７號,120.5753,24.27879,(04)26260622,羅氏家用新冠病毒抗原自我檢測套組,78,2022/05/04 18:17:02,5／4售完，5／5下午14:40開始販售
5903050194,樂齊藥局,臺中市沙鹿區北中路８６－１、８６－２號,120.5692,24.22827,(04)26338867,羅氏家用新冠病毒抗原自我檢測套組,78,2022/05/04 18:17:02,防疫家用快篩試劑每日19點開賣，售完為止，庫存請依現場為主。
5903080030,捷達藥局,臺中市神岡區大漢街２５號,120.6974,24.25352,(04)25225207,羅氏家用新冠病毒抗原自我檢測套組,1,2022/05/04 18:17:02,周一到周六上午8:00開始販售，售完為止。
5903150028,全成烏日藥局,臺中市烏日區溪南路１段７７６號,120.6427,24.07423,(04)23352656,羅氏家用新冠病毒抗原自我檢測套組,78,2022/05/04 18:17:02,實名制快篩晚上7:00發放，售完為止
5903160097,安昌藥局,臺中市大肚區遊園路二段１７６號１樓,120.5808,24.17289,(04)26913890,羅氏家用新冠病毒抗原自我檢測套組,78,2022/05/04 18:17:02,每天晚上19:00點開始現場排隊販賣快篩試劑.
5903170020,理想藥局,臺中市龍井區國際街１２１號,120.5953,24.18672,(04)26521597,羅氏家用新冠病毒抗原自我檢測套組,42,2022/05/04 18:17:02,無
5903190228,中山德侑藥局,臺中市太平區中山路３段２之２號１樓,120.7222,24.14942,(04)23920682,羅氏家用新冠病毒抗原自我檢測套組,1,2022/05/04 18:17:02,因政府配送時間不定故每日快篩販售時間視情況調整 可來電詢問
5903200096,仁化藥局,臺中市大里區仁化路５４０號,120.7012,24.09623,(04)24915902,羅氏家用新冠病毒抗原自我檢測套組,116,2022/05/04 18:17:02,W1-W5  下午1800發放.現場排隊    W6 休息  W日中午1200
5903200372,國光丁丁藥局,臺中市大里區國光路２段５５１－１號１樓,120.6788,24.11241,(04)24069711,羅氏家用新冠病毒抗原自我檢測套組,2,2022/05/04 18:17:02,星期一至星期日早上9點依排隊順序直接領取
5903230227,東區小林健保藥局,臺中市東區十甲路４８５號１樓,120.7104,24.14464,(04)22135148,羅氏家用新冠病毒抗原自我檢測套組,1,2022/05/04 18:17:02,無
5903250658,田園藥局,臺中市南區學府路１６０號１樓,120.6742,24.12909,(04)22220605,羅氏家用新冠病毒抗原自我檢測套組,157,2022/05/04 18:17:02,每週三公休。5／5（週四） 14:00開始販售，一人限一卡
5903260707,新藥林藥局,臺中市北區健行路４４５－５號１樓,120.6803,24.15896,(04)22053458,羅氏家用新冠病毒抗原自我檢測套組,157,2022/05/04 18:17:02,營業時間:11點~晚上7點.快篩:星期一~星期五 下午3點開始，星期六下午一點，星期三.日公休，現場排隊
5903270721,舒健藥局,臺中市西屯區西屯路二段２５５號２樓,120.6459,24.17179,(04)27077858,羅氏家用新冠病毒抗原自我檢測套組,70,2022/05/04 18:17:02,公費快篩試劑於周一至周六晚上7點現場排隊購買，週日公休。
5903270801,榮友藥局,臺中市西屯區臺灣大道四段１７４２號,120.6024,24.18286,(04)23508392,羅氏家用新冠病毒抗原自我檢測套組,78,2022/05/04 18:17:02,05／04  實名快篩已售完，網路顯示數量不正確，謝謝
5903270865,尚禾藥局,臺中市西屯區青海路一段６５號,120.6548,24.16438,(04)23147688,羅氏家用新冠病毒抗原自我檢測套組,118,2022/05/04 18:17:02,實名制快篩發放：時段一中午12:30~14:00。時段二20：30~22：30。時段一若未發完，餘量將遞延至時段二發放。周日停售。
5903270883,祥和大藥局,臺中市西屯區青海路二段２４０－９號,120.6418,24.17323,(04)27000122,羅氏家用新冠病毒抗原自我檢測套組,8,2022/05/04 18:17:02,快篩販售時間：每日下午5點至夜間10點。
5903271004,西屯青育藥師藥局,臺中市西屯區西屯路二段２９５－３號１樓,120.6425,24.17735,(04)27077898,羅氏家用新冠病毒抗原自我檢測套組,66,2022/05/04 18:17:02,無
5903271031,美十樂中科藥局,臺中市西屯區西屯路三段１６６－６５號１樓,120.6129,24.19035,(04)24610219,羅氏家用新冠病毒抗原自我檢測套組,468,2022/05/04 18:17:02,醫事人員卡片損壞，暫時無法販賣快篩
5903271102,杏東美藥局,臺中市西屯區智惠街１５６號１樓,120.6438,24.17032,(04)24523798,羅氏家用新冠病毒抗原自我檢測套組,78,2022/05/04 18:17:02,快篩實名制5／4  19:00發放
5903271246,柏醫藥局,臺中市西屯區上安路５６號１樓,120.6412,24.17052,(04)24526391,羅氏家用新冠病毒抗原自我檢測套組,78,2022/05/04 18:17:02,因應到貨時間不定，統一晚上7點開放78組（5／4已到貨、庫存顯示是星期日沒開但自動匯入庫存）
5903280165,南屯福倫藥局,臺中市南屯區南屯路２段３１７號,120.6456,24.13754,(04)24758018,羅氏家用新冠病毒抗原自我檢測套組,36,2022/05/04 18:17:02,實名制快篩: 晚上6:00開始販售.售完為止
5903280816,大育藥局,臺中市南屯區東興路二段７１號１樓,120.6528,24.13835,(04)24755656,羅氏家用新冠病毒抗原自我檢測套組,15,2022/05/04 18:17:02,每日固定晚上6點開賣 現場發放號碼牌
5903290385,元復藥局,臺中市北屯區東山路１段２２５－７號,120.7155,24.17475,(04)24362075,羅氏家用新冠病毒抗原自我檢測套組,2,2022/05/04 18:17:02,上午7:20-7:40及8:20起發號碼牌。
5903290625,又昌中西健保藥局,臺中市北屯區東山路１段２２３號,120.7152,24.17452,(04)24375716,羅氏家用新冠病毒抗原自我檢測套組,78,2022/05/04 18:17:02,快篩實名制 周一~周五晚上18:30開賣 現場排隊不發號碼牌
5903290661,康博中西健保藥局,臺中市北屯區后庄一街７號１樓,120.6644,24.1865,(04)24252468,羅氏家用新冠病毒抗原自我檢測套組,1,2022/05/04 18:17:02,快篩下午01:00發售53份；晚上06:00銷售25份.週六.日及假日下午06:30開始依配送滾動調整
5903290689,大德安藥局,臺中市北屯區景賢路２３６號,120.7241,24.16701,(04)24378351,羅氏家用新冠病毒抗原自我檢測套組,3,2022/05/04 18:17:02,口罩代售時間從週一到週六09:00~現場排隊售完為止星期日早上10:00起至售完為止
5903290876,北屯軍功藥局,臺中市北屯區軍功路一段７５２號,120.7193,24.17513,(04)24375111,羅氏家用新冠病毒抗原自我檢測套組,1,2022/05/04 18:17:02,快篩實名制，每天16:00開始販售，售完為止。
5903291131,兩隻老虎藥局,臺中市北屯區崇德路２段１２號１樓,120.6855,24.16869,(04)22364635,羅氏家用新冠病毒抗原自我檢測套組,1,2022/05/04 18:17:02,營業時間早上九點到晚上九點半（快篩下午兩點開賣）
5903291159,均福藥局,臺中市北屯區軍福十三路１００號１樓,120.7308,24.17096,(04)24391169,羅氏家用新冠病毒抗原自我檢測套組,78,2022/05/04 18:17:02,快篩實名制規則:晚上七點依現場排隊順序發號碼牌 （周日公休不販售）
5905070050,晶德昌藥局,臺南市善化區文光里中山路８５號,120.3034,23.13298,(06)5856141,羅氏家用新冠病毒抗原自我檢測套組,1,2022/05/04 18:17:02,14:30-16:00.依號碼牌售完為止
5905270041,仁德市安藥師藥局,臺南市仁德區中正西路２５號,120.2244,22.91814,(06)2661933,羅氏家用新冠病毒抗原自我檢測套組,1,2022/05/04 18:17:02,快篩販賣：5／2~以貨運配送抵達時間再決定販售時間 暫定14:00開始販售
5905320564,杏一台南崇德藥局,臺南市東區崇德路６７４號,120.2274,22.96762,(06)2671939,羅氏家用新冠病毒抗原自我檢測套組,4,2022/05/04 18:17:02,健保快篩發送時間:周一至周日:下午:15:00
5905320886,中華崇德藥局,臺南市東區中華東路三段１８１、１８３號１樓,120.2259,22.97667,(06)2880800,羅氏家用新冠病毒抗原自我檢測套組,1,2022/05/04 18:17:02,快篩實名制，每天16:00開始販售，售完為止。
5905320911,大樹崇道藥局,臺南市東區崇道路６３號１樓,120.2272,22.97227,(06)2680456,羅氏家用新冠病毒抗原自我檢測套組,1,2022/05/04 18:17:02,快篩實名制，每天16:00開始販售，售完為止。
5905380426,好朋友藥師藥局,臺南市安平區建平七街６８３號１樓,120.1692,22.98999,(06)2997907,羅氏家用新冠病毒抗原自我檢測套組,49,2022/05/04 18:17:02,快篩因到貨時間不確定，如當天到貨晚上7點販售，依現場排隊人數決定會提早販售
5907020030,鑫德昌藥局,高雄市岡山區溪東路３８號１樓,120.2915,22.79249,(07)6233338,羅氏家用新冠病毒抗原自我檢測套組,1,2022/05/04 18:17:02,實名制快篩 販售時間 14:30-16:00
5907030072,旗美藥局,高雄市旗山區東平里延平二路４１號,120.4933,22.882,(07)6629839,羅氏家用新冠病毒抗原自我檢測套組,41,2022/05/04 18:17:02,實名制快篩劑購買時間為下午14:00~20:00
5907030152,旗山藥局,高雄市旗山區中華路２３號,120.4841,22.88027,(07)6621158,羅氏家用新冠病毒抗原自我檢測套組,28,2022/05/04 18:17:02,快篩實名制，每天16:00開始販售，售完為止。
5907200047,永恒健康生活藥局,高雄市梓官區智蚵里通安路１７６號１樓,120.252,22.7307,(07)6102755,羅氏家用新冠病毒抗原自我檢測套組,1,2022/05/04 18:17:02,營業時間週一到週日早上8:30至晚上9:30  實名制快篩 每天下午3:00 開始
5907240014,博林健保藥局,高雄市內門區觀亭里中正路１６０巷５１號,120.4539,22.9232,(07)6671883,羅氏家用新冠病毒抗原自我檢測套組,130,2022/05/04 18:17:02,自2／11日~2／29日，營業日07:40~18:00為販賣口罩時間，售完為止
5907300515,詮裕藥局,高雄市左營區華夏路７０６號１樓,120.3022,22.6778,(07)3453942,羅氏家用新冠病毒抗原自我檢測套組,78,2022/05/04 18:17:02,星期一到星期六早上8點銷售到售完為止.星期日---無
5907300677,佳寧峰藥局,高雄市左營區部後街２號,120.2886,22.6834,(07)5886408,羅氏家用新冠病毒抗原自我檢測套組,26,2022/05/04 18:17:02,快篩試劑販賣時段:上午8:30起至售完為止
5907300882,得孚社區藥局,高雄市左營區重立路５３３號１樓,120.3098,22.67955,(07)3410121,羅氏家用新冠病毒抗原自我檢測套組,3,2022/05/04 18:17:02,營業日上午09:30-11:30為販賣口罩時間.三四下午200-400販售
5907310351,惠民楠梓藥局,高雄市楠梓區建楠路２１７號,120.3248,22.72689,(07)3521896,羅氏家用新冠病毒抗原自我檢測套組,78,2022/05/04 18:17:02,上面數量顯示78盒，是系統錯誤，快篩已經賣完了，麥擱卡啊!!平常二點開始發，發完為止；記得備防疫包，增強免疫力
5907320768,心樂保健藥局,高雄市三民區光裕路７８號１樓,120.3331,22.63789,(07)3855377,羅氏家用新冠病毒抗原自我檢測套組,35,2022/05/04 18:17:02,星期一到星期四上午8:30-12:00，下午15:00-18:00（口罩售完為止）. 星期五下午14:00-17:00，18:00-20:30（售完為止）
5907320919,心寬福藥局,高雄市三民區大順二路７１８號一樓,120.3193,22.65359,(07)3832366,羅氏家用新冠病毒抗原自我檢測套組,78,2022/05/04 18:17:02,本藥局實際庫存量是顯示的數量減78（5／1週日未收），政府滾動式配送實際發放時間依現場為主，週日公休。
5907320946,熊安心藥局,高雄市三民區陽明路４０８號,120.3429,22.64609,(07)3815212,羅氏家用新冠病毒抗原自我檢測套組,93,2022/05/04 18:17:02,週一 ~ 週六 AM8:00-PM10:00，快篩分兩梯次販售，14:00有63份，19:00有15份
5907350533,健群藥局,高雄市苓雅區安業路４０號,120.3231,22.62731,(07)7150097,羅氏家用新冠病毒抗原自我檢測套組,154,2022/05/04 18:17:02,無
5907350659,北京藥局林泉店,高雄市苓雅區林泉里３鄰林泉街３５號１樓,120.3192,22.62323,(07)7263030,羅氏家用新冠病毒抗原自我檢測套組,541,2022/05/04 18:17:02,無
5907360628,風鈴藥局,高雄市前鎮區管仲路３７號,120.3117,22.60649,(07)5367833,羅氏家用新冠病毒抗原自我檢測套組,156,2022/05/04 18:17:02,販售快篩：19:30-21:30 依照配送調整販售時間（周日公休）
5907380353,桂林活力藥師藥局漢民店,高雄市小港區漢民路６９１－１及６９１－２號１樓,120.3614,22.56762,(07)8010636,羅氏家用新冠病毒抗原自我檢測套組,1,2022/05/04 18:17:02,無
5911011469,維元社區藥局,基隆市中正區新豐街４４８號,121.7859,25.13568,(02)24601388,羅氏家用新冠病毒抗原自我檢測套組,98,2022/05/04 18:17:02,無
5911031238,碇內東亞藥師藥局,基隆市暖暖區源遠路３１９號１樓,121.7574,25.09941,(02)24590033,羅氏家用新冠病毒抗原自我檢測套組,1,2022/05/04 18:17:02,周一至周六下午三點發放快篩試劑
5911041332,光華藥局,基隆市仁愛區成功一路１２９號１樓,121.7364,25.12786,(02)24338703,羅氏家用新冠病毒抗原自我檢測套組,29,2022/05/04 18:17:02,快篩試劑販賣下午六點販售.星期日休息
5911041958,百福仁愛專業藥局,基隆市仁愛區仁四路５０號１樓,121.7413,25.12829,(02)24266699,羅氏家用新冠病毒抗原自我檢測套組,74,2022/05/04 18:17:02,4／30起，早上8:00販售快篩
5911050064,日星藥局,基隆市中山區安一路２５號,121.7369,25.13137,(02)24222090,羅氏家用新冠病毒抗原自我檢測套組,51,2022/05/04 18:17:02,十二點開始販賣
5911050162,錦泰藥局,基隆市中山區中山二路４３號,121.7405,25.13786,(02)24228523,羅氏家用新冠病毒抗原自我檢測套組,78,2022/05/04 18:17:02,快篩販賣時間星期一至五晚上7點，星期六，星期日下午5點
5911070011,信安藥局,基隆市信義區信二路９９號,121.7548,25.12912,(02)24238551,羅氏家用新冠病毒抗原自我檢測套組,6,2022/05/04 18:17:02,無
5911071607,家安藥師藥局,基隆市信義區信二路２５７、２５９號１樓,121.7478,25.1301,(02)24223917,羅氏家用新冠病毒抗原自我檢測套組,78,2022/05/04 18:17:02,星期一 ~ 星期六14:00開始銷售。
5912013529,新莊藥局,新竹市東區光復路１段４７３號１樓,121.015,24.78421,(03)5634775,羅氏家用新冠病毒抗原自我檢測套組,78,2022/05/04 18:17:02,平日晚上10點
5912013609,丁丁藥局,新竹市東區中華路二段９１號,120.9812,24.80794,(03)6117888,羅氏家用新冠病毒抗原自我檢測套組,1,2022/05/04 18:17:02,無
5917050719,百鴻藥局,臺中市北區金龍里北屯路１３－１號,120.6914,24.15981,(04)22336330,羅氏家用新冠病毒抗原自我檢測套組,78,2022/05/04 18:17:02,固定周一至周五10.00--16.00 17.00--21.00開始販售口罩售完為止
5917070355,承諭藥局,臺中市南屯區黎明路２段１９９號,120.636,24.14698,(04)23849128,羅氏家用新冠病毒抗原自我檢測套組,78,2022/05/04 18:17:02,快篩實名制周一、二、四、五下午1:30；周三、六晚上7:00 ； 週日下午4:00
5917070659,德安藥局,臺中市南屯區文山里忠勇路１１５－６號１樓,120.6157,24.15096,(04)23894920,羅氏家用新冠病毒抗原自我檢測套組,3,2022/05/04 18:17:02,快篩實名制：週一至週六，下午1點販賣 （限量78份）
5917072724,百芳大藥局,臺中市南屯區向上路二段４２１號,120.6377,24.1469,(04)23818307,羅氏家用新冠病毒抗原自我檢測套組,77,2022/05/04 18:17:02,周一到周六，晚上7:00開始販賣快篩，不發號碼牌。
5917080379,大元藥局,臺中市北屯區北屯里昌平路一段２３號,120.6937,24.16657,(04)22357722,羅氏家用新冠病毒抗原自我檢測套組,17,2022/05/04 18:17:02,週一至週六每天晚上18:00至20:00販售快篩劑，週日晚上快篩劑不確定時間販售
5917080762,順泰大藥局,臺中市北屯區北屯村北屯路１１５號,120.6939,24.165,(04)22341477,羅氏家用新冠病毒抗原自我檢測套組,156,2022/05/04 18:17:02,周三及周日公休，其餘時間每日上午9:00開賣，不需發號碼牌
5921010072,統一藥局,臺南市東區中西里東門路１段２９１號,120.2186,22.98683,(06)2376638,羅氏家用新冠病毒抗原自我檢測套組,1,2022/05/04 18:17:02,早上9點到晚間9點半  星期日休假
5921020194,鹽埕藥局,臺南市南區白雪里鹽埕路６８號,120.1869,22.96696,(06)2651961,羅氏家用新冠病毒抗原自我檢測套組,19,2022/05/04 18:17:02,快篩試劑下午6點販售
5921040749,玖大藥局,臺南市北區勝利路３８３號,120.2187,23.00397,(06)2752048,羅氏家用新冠病毒抗原自我檢測套組,156,2022/05/04 18:17:02,快篩販售時間:星期一~五早上10:00-12:00
5921051582,丞功藥局,臺南市中西區成功路３１號,120.2095,22.99747,(06)2287641,羅氏家用新冠病毒抗原自我檢測套組,78,2022/05/04 18:17:02,星期一-六08:00-售完
5922012972,百佑藥局,嘉義市東區公明路８２號１樓,120.4602,23.48088,(05)2757387,羅氏家用新冠病毒抗原自我檢測套組,78,2022/05/04 18:17:02,固定周一至周六08:30開始發放號碼牌並依序販售，售完為止
5922013193,民權藥局,嘉義市東區民權路１５５號１樓、１５７號１樓,120.4604,23.48374,(05)2775322,羅氏家用新冠病毒抗原自我檢測套組,1,2022/05/04 18:17:02,快篩實名制，每天16:00開始販售，售完為止。
5922020509,全德藥局,嘉義市西區福民里興業西路２８９號,120.4392,23.46776,(05)2854263,羅氏家用新冠病毒抗原自我檢測套組,54,2022/05/04 18:17:02,營業時間請電話洽詢  販售：19 :30~20:30
5922020858,大統藥局,嘉義市西區慶安里北興街１３６號,120.4421,23.48389,(05)2330230,羅氏家用新冠病毒抗原自我檢測套組,2,2022/05/04 18:17:02,5／4日預約已滿.有預約的民眾請於14:00點後領取
5931011447,日生大藥局,新北市板橋區中正路１巷１６弄１６號,121.4551,25.01209,(02)29675261,羅氏家用新冠病毒抗原自我檢測套組,78,2022/05/04 18:17:02,快篩試劑販售時間:週一至週六14:00-20:30  售完為止，周日休假
5931011947,長弘藥局,新北市板橋區龍泉街１１０號,121.4568,25.02454,(02)22558789,羅氏家用新冠病毒抗原自我檢測套組,78,2022/05/04 18:17:02,無
5931015187,皇慶藥局,新北市板橋區南門街８１、８３號１、２樓及館前西路１１２巷７號,121.4568,25.0077,(02)29655351,羅氏家用新冠病毒抗原自我檢測套組,2,2022/05/04 18:17:02,實名防疫快篩號碼牌發放時間自15:00
5931015687,正康健保藥局,新北市板橋區大觀路２段６５號１樓,121.4467,25.00246,(02)22756681,羅氏家用新冠病毒抗原自我檢測套組,78,2022/05/04 18:17:02,下午13:30依現場順序開始販售快篩，快篩配送絮亂庫存不準!!
5931016808,正安健保藥局,新北市板橋區民族路２２４號（１樓）,121.4687,25.00733,(02)29526813,羅氏家用新冠病毒抗原自我檢測套組,78,2022/05/04 18:17:02,17時依現場順序開始販售.週六12點.電腦配送庫存不準..以現場數量為準
5931017618,新埔健保藥局,新北市板橋區自由路２號１樓,121.4654,25.02222,(02)22558878,羅氏家用新冠病毒抗原自我檢測套組,39,2022/05/04 18:17:02,無
5931017832,躍獅莒光藥局,新北市板橋區莒光路５８號１樓,121.4709,25.02421,(02)22556743,羅氏家用新冠病毒抗原自我檢測套組,78,2022/05/04 18:17:02,實名制快篩5／4已售完，5／5下午2點50發號碼牌（78份為5／5庫存）
5931017869,躍獅國慶藥局,新北市板橋區國慶路１７９號（１樓）,121.4626,24.99636,(02)29641548,羅氏家用新冠病毒抗原自我檢測套組,78,2022/05/04 18:17:02,快篩實名制，每天14:00開始販售，售完為止
5931018099,廣品藥局,新北市板橋區漢生西路８２號（１樓）,121.4628,25.01934,(02)22576880,羅氏家用新冠病毒抗原自我檢測套組,4,2022/05/04 18:17:02,實名制快篩 周一~周五下午16；00發放 週六.日 早上09；30發放 請勿打電話詢問 感謝配合
5931021532,龍門藥局,新北市三重區龍門路１８９號,121.4996,25.07322,(02)29756141,羅氏家用新冠病毒抗原自我檢測套組,78,2022/05/04 18:17:02,實名制快篩販售時間~星期一至星期六下午3點
5931023447,安泰藥局,新北市三重區正義北路３００－３號２樓,121.4953,25.06978,(02)89815379,羅氏家用新冠病毒抗原自我檢測套組,147,2022/05/04 18:17:02,5／2只有早上8:30--12:00營業下午.及晚上休息
5931025647,幸康藥局,新北市三重區正義北路２０５號２樓,121.4962,25.0684,(02)29816105,羅氏家用新冠病毒抗原自我檢測套組,48,2022/05/04 18:17:02,國定假日，如元旦，端午，中秋不執行調劑業務。政府快篩實名制於週一~週六的14:30開始販售。
5931025987,忠孝德榮藥局,新北市三重區忠孝路２段９７號１樓,121.4842,25.07005,(02)29800297,羅氏家用新冠病毒抗原自我檢測套組,156,2022/05/04 18:17:02,庫存須扣除未到貨78盒*實名制快篩* 週一至週日晚間19:00開始代售. 週六&周日中午12:00開始營業
5931033032,弘光藥局,新北市永和區竹林路中興里６６巷１９號１樓,121.5201,25.01396,(02)29282000,羅氏家用新冠病毒抗原自我檢測套組,1,2022/05/04 18:17:02,早上9點至晚上10點 口罩代售號碼牌自1400開始發放
5931033578,悅美保健藥局,新北市永和區保生路２２巷２１號１樓,121.5073,25.00839,(02)22323515,羅氏家用新冠病毒抗原自我檢測套組,78,2022/05/04 18:17:02,周一至周六 上午11點到晚上10點（周六下午一點開始）（三）快篩完售（四）下午1:30售
5931033774,台化藥局,新北市永和區勵行街１１９號１樓,121.5175,25.01202,(02)22318585,羅氏家用新冠病毒抗原自我檢測套組,1,2022/05/04 18:17:02,無
5931040215,華新藥局,新北市中和區華新街７３號,121.5082,24.98392,(02)29448345,羅氏家用新冠病毒抗原自我檢測套組,78,2022/05/04 18:17:02,無
5931043770,宜安健康人生藥局,新北市中和區宜安路１６２號１樓,121.5091,24.99895,(02)29224648,羅氏家用新冠病毒抗原自我檢測套組,100,2022/05/04 18:17:02,下午六點起發實名制快篩
5931043921,良安藥局,新北市中和區連城路４７７巷１號１樓,121.4833,24.99555,(02)22225798,羅氏家用新冠病毒抗原自我檢測套組,305,2022/05/04 18:17:02,週六日不開店，實名制快篩，晚上9:00開始販售
5931044991,曜群藥局,新北市中和區景安路２５號１樓,121.5079,24.99893,(02)89432206,羅氏家用新冠病毒抗原自我檢測套組,156,2022/05/04 18:17:02,週一至周六早上8:30販售實名制快篩
5931045050,日發藥師藥局,新北市中和區華新街１９２巷４０號１樓,121.5062,24.98368,(02)89411088,羅氏家用新冠病毒抗原自我檢測套組,17,2022/05/04 18:17:02,每日下午6點開始販售快篩（不發放號碼牌）
5931052215,三民藥局,新北市新店區三民路７８號１樓－１,121.5348,24.97257,(02)89146301,羅氏家用新冠病毒抗原自我檢測套組,78,2022/05/04 18:17:02,實名制快篩試劑下午2點開始現場販售  周日休息APP上數字不正確
5931052724,合康大藥局,新北市新店區中正路２６３－２號１樓,121.5384,24.97367,(02)29109888,羅氏家用新冠病毒抗原自我檢測套組,2,2022/05/04 18:17:02,快篩下午2點開始（有事先發放號碼牌）
5931060342,十安藥局,新北市新莊區中港路３１６號,121.4524,25.04544,(02)29922859,羅氏家用新冠病毒抗原自我檢測套組,5,2022/05/04 18:17:02,自111／04／01起不再販賣實名制口罩
5931060557,一安藥局,新北市新莊區立德里新泰路２６８號,121.446,25.04029,(02)29941618,羅氏家用新冠病毒抗原自我檢測套組,78,2022/05/04 18:17:02,實名制快篩發放時間為15:00  其他詳情請上FB查詢
5931067403,建嘉藥局,新北市新莊區中誠街４２號１樓,121.4513,25.04812,(02)29925261,羅氏家用新冠病毒抗原自我檢測套組,78,2022/05/04 18:17:02,無
5931069603,中信藥師藥局,新北市新莊區中信街８０號１樓,121.448,25.05311,(02)29969811,羅氏家用新冠病毒抗原自我檢測套組,78,2022/05/04 18:17:02,AM 07:30 開始
593106A566,一心春天藥局,新北市新莊區中和街１３號１樓、地下室,121.4481,25.04342,(02)89929482,羅氏家用新冠病毒抗原自我檢測套組,1,2022/05/04 18:17:02,快篩代售時間:週一至週日15:00現場排隊購買，售完為止。（物流配送不及則例外，以門市公告為主）
593106A726,良和健保藥局,新北市新莊區龍安路４９號１樓,121.4158,25.02151,(02)29048157,羅氏家用新冠病毒抗原自我檢測套組,77,2022/05/04 18:17:02,快篩：晚上8點開始販售，星期六、日休息不代售
593106B036,家嘉藥局,新北市新莊區自立街１０３號（１樓）,121.4553,25.04549,(02)89926488,羅氏家用新冠病毒抗原自我檢測套組,7,2022/05/04 18:17:02,快篩已到貨  下午場次號碼牌發放時間1100 今天已全數發完
593106B081,平安藥局,新北市新莊區民安西路６０號２樓,121.4273,25.02037,(02)22082368,羅氏家用新冠病毒抗原自我檢測套組,147,2022/05/04 18:17:02,無
593106B107,大樹新莊藥局,新北市新莊區新泰路５９號１樓、２樓,121.4494,25.03405,(02)22010566,羅氏家用新冠病毒抗原自我檢測套組,1,2022/05/04 18:17:02,快篩實名制，每天16:00開始販售，售完為止。
593106B152,福原藥局,新北市新莊區中原東路７０號（１樓）,121.4632,25.05461,(02)85216190,羅氏家用新冠病毒抗原自我檢測套組,80,2022/05/04 18:17:02,無
5931072066,琉璃水藥師藥局,新北市樹林區龍興街２１號１樓,121.403,25.01614,(02)26764262,羅氏家用新冠病毒抗原自我檢測套組,78,2022/05/04 18:17:02,無
5931072422,三樹食在好健康藥局,新北市樹林區學成路６００號１樓,121.3818,24.94584,(02)26807101,羅氏家用新冠病毒抗原自我檢測套組,390,2022/05/04 18:17:02,實名制快篩販售時間周一～周四19-20點（請自備散鈔）
5931081494,康群藥局,新北市鶯歌區建國路２０２號１樓,121.3494,24.95357,(02)26796690,羅氏家用新冠病毒抗原自我檢測套組,78,2022/05/04 18:17:02,*星期五休診不發放口罩，其餘上班日上午九點開始發放*現場排隊
5931081547,信義健保藥局,新北市鶯歌區信義街６３號１樓,121.3534,24.95571,(02)86775563,羅氏家用新冠病毒抗原自我檢測套組,78,2022/05/04 18:17:02,實名制快篩晚間19:00開始發放
5931091696,祥祐藥局,新北市三峽區文化路１２５號１樓,121.3699,24.93598,(02)26738080,羅氏家用新冠病毒抗原自我檢測套組,2,2022/05/04 18:17:02,無
5931092200,金美藥局,新北市三峽區大同路２３８號１樓,121.3663,24.92573,(02)86715859,羅氏家用新冠病毒抗原自我檢測套組,468,2022/05/04 18:17:02,無
5931112083,裕和藥局,新北市汐止區宜興街４號１樓,121.6211,25.04126,(02)26609119,羅氏家用新冠病毒抗原自我檢測套組,78,2022/05/04 18:17:02,晚上9.00領實名制快篩時間
5931112136,汐芷藥局,新北市汐止區福德一路２５５號,121.6335,25.06447,(02)26924087,羅氏家用新冠病毒抗原自我檢測套組,7,2022/05/04 18:17:02,每日8:30現場發放號碼牌，12:00~20:00前憑牌領取.逾時不候
5931112645,健成藥局,新北市汐止區新興路２０號１樓,121.6564,25.06456,(02)26428989,羅氏家用新冠病毒抗原自我檢測套組,1,2022/05/04 18:17:02,無
5931113142,林美藥局,新北市汐止區康寧街４６５號１樓,121.6318,25.06839,(02)26935696,羅氏家用新冠病毒抗原自我檢測套組,78,2022/05/04 18:17:02,每日14:00開始販售實名制快篩 禮拜天公休
5931132165,佳佳藥局,新北市土城區中央路２段２２３－９號２樓,121.4407,24.97319,(02)82614558,羅氏家用新冠病毒抗原自我檢測套組,149,2022/05/04 18:17:02,5／3起實名制快篩販售時間為19:30，採現場排隊（特殊情形例外）
5931132343,誠安藥局,新北市土城區中央路４段３６號１樓,121.4207,24.96088,(02)22677737,羅氏家用新冠病毒抗原自我檢測套組,309,2022/05/04 18:17:02,快篩代售時段：平日晚上8點，售完為止
5931132807,健業藥局,新北市土城區中央路２段２２３－１０號,121.4407,24.97312,(02)22704798,羅氏家用新冠病毒抗原自我檢測套組,1,2022/05/04 18:17:02,無
5931133331,城安大藥局,新北市土城區金城路３段４０號,121.4656,24.98639,(02)22646561,羅氏家用新冠病毒抗原自我檢測套組,120,2022/05/04 18:17:02,快篩代售時間晚上8:30
5931150163,德泰藥局,新北市五股區成泰路１段９號,121.4336,25.06674,(02)29095927,羅氏家用新冠病毒抗原自我檢測套組,312,2022/05/04 18:17:02,無
5931151277,永任藥局,新北市五股區水碓路９號１樓,121.4336,25.07236,(02)22911093,羅氏家用新冠病毒抗原自我檢測套組,2,2022/05/04 18:17:02,實名制快篩販售時間下午3:00開賣
5931151660,祐康藥師藥局,新北市五股區五福路３６號１樓,121.4339,25.08922,(02)82921335,羅氏家用新冠病毒抗原自我檢測套組,80,2022/05/04 18:17:02,口罩代售時間:一至六早上8:30開始販售， 星期日早上9:00
5931161282,善耕藥局,新北市泰山區明志路２段３６２號１樓,121.4256,25.04516,(02)29086656,羅氏家用新冠病毒抗原自我檢測套組,78,2022/05/04 18:17:02,5／1-5／5-晚上8:00發號碼牌5／6後中午12:00 發號碼牌開始刷健保卡 販售實名制快篩
5931171340,家欣藥師藥局,新北市林口區文化二路１段５６７號１樓,121.3748,25.0777,(02)26025368,羅氏家用新冠病毒抗原自我檢測套組,78,2022/05/04 18:17:02,5／2（一）17:00開始販售實名制快篩，不發號碼牌，每日發放時間不同，請至粉專看
5931171582,綠園藥局,新北市林口區仁愛路２段１０５號１樓,121.3843,25.07507,(02)86012258,羅氏家用新冠病毒抗原自我檢測套組,4,2022/05/04 18:17:02,上午8:30-12:00、下午2:30-18:00、晚上18:00-21:30
5931171680,一家好藥局,新北市林口區中山路５００號,121.3794,25.08303,(02)26028270,羅氏家用新冠病毒抗原自我檢測套組,156,2022/05/04 18:17:02,無
5931171868,林口藥局,新北市林口區文化三路２段６９號１樓,121.374,25.08006,(02)26001899,羅氏家用新冠病毒抗原自我檢測套組,9,2022/05/04 18:17:02,快篩販售時間：下午02:40發號碼牌，03:00開始販售
5932011503,文安藥局,桃園市桃園區中正路６９９號,121.3032,25.00685,(03)3558999,羅氏家用新冠病毒抗原自我檢測套組,78,2022/05/04 18:17:02,實名制快篩領取時間每日早上07:00~080發放78份，另78份因當日配送時間無法確認為隔日早上7點的數量
5932011870,永祥大藥局,桃園市桃園區永安路５２８號,121.2986,25.00181,(03)3337161,羅氏家用新冠病毒抗原自我檢測套組,2,2022/05/04 18:17:02,口罩販賣時段：週一至週六早上9點
5932013409,欣立藥局,桃園市桃園區龍安街１８１－１號１樓,121.2782,24.99294,(03)3792001,羅氏家用新冠病毒抗原自我檢測套組,80,2022/05/04 18:17:02,快篩代售時間：晚上6點至銷售完畢。
5932014111,鴻發藥師藥局,桃園市桃園區大有路５４３號,121.3171,25.0149,(03)3582468,羅氏家用新冠病毒抗原自我檢測套組,78,2022/05/04 18:17:02,實聯快篩:早上09:30發放號碼牌，限當日下午2~4點憑牌購買，逾時不候請見諒
5932014399,澄心藥局,桃園市桃園區桃鶯路３０５號１樓,121.3193,24.98265,(03)3771468,羅氏家用新冠病毒抗原自我檢測套組,78,2022/05/04 18:17:02,營業時間:8:00-22:00
5932018593,品一藥局,桃園市桃園區建新街７６號,121.3118,24.98261,(03)3638510,羅氏家用新冠病毒抗原自我檢測套組,2,2022/05/04 18:17:02,快篩販賣時間：每天早上9：30販賣（星期天休息），會發號碼牌（今天已發完）
5932018940,均安藥局,桃園市桃園區寶山街６１號,121.3172,25.01231,(03)3581695,羅氏家用新冠病毒抗原自我檢測套組,156,2022/05/04 18:17:02,實名制快篩中午12:30至售完
5932019116,慈安藥局,桃園市桃園區永安路３８３號,121.299,25.00086,(03)3369599,羅氏家用新冠病毒抗原自我檢測套組,78,2022/05/04 18:17:02,快篩販賣時段：8:30~10:30，過時後，另78份係隔日販賣的量.
5932021269,優良藥局,桃園市中壢區長春路２０號,121.2499,24.97907,(03)4612336,羅氏家用新冠病毒抗原自我檢測套組,2,2022/05/04 18:17:02,5／4快篩販售時間 17:30
5932021812,慧中健保藥局,桃園市中壢區成章二街１４１號１樓,121.2568,24.98025,(03)4556129,羅氏家用新冠病毒抗原自我檢測套組,1,2022/05/04 18:17:02,每日4:30開始領號碼牌販售快篩試劑
593202A833,君安藥局,桃園市中壢區中北路二段３９０號,121.2318,24.95388,(03)4685484,羅氏家用新冠病毒抗原自我檢測套組,156,2022/05/04 18:17:02,快篩試劑販售時間，週一至週五晚上7點，週六週日早上9點，每日提供78份，前15分鐘至30分鐘發號碼牌，視現場狀況而定
5932030080,吉壽藥局,桃園市大溪區員林路三段４２號,121.2648,24.88175,(03)3802049,羅氏家用新冠病毒抗原自我檢測套組,156,2022/05/04 18:17:02,快篩試劑販賣時段：星期一~五晚上7:00起及星期六、日上午8:30起
5932031578,宜暉健保藥局,桃園市大溪區介壽路７１８號,121.2849,24.90544,(03)3806695,羅氏家用新冠病毒抗原自我檢測套組,78,2022/05/04 18:17:02,9:00-22:00／端午.中秋.除夕~初三休息／快篩販賣時間19:00發號碼牌，售完為止
5932031907,福澤大溪藥局,桃園市大溪區復興路１０５號１樓,121.2911,24.87917,(03)3884886,羅氏家用新冠病毒抗原自我檢測套組,1,2022/05/04 18:17:02,家用快篩販賣時段15:30至售完為止
5932040246,龍泰藥局,桃園市楊梅區民族路五段１４７巷２號,121.1736,24.9586,(03)4901525,羅氏家用新冠病毒抗原自我檢測套組,7,2022/05/04 18:17:02,口罩販售時間：08:00開賣至11:00
5932042679,得康美藥局,桃園市楊梅區環南路１２８號１樓,121.1466,24.90164,(03)4788128,羅氏家用新冠病毒抗原自我檢測套組,1,2022/05/04 18:17:02,快篩領取規則~早上:10:00-11:00發號碼牌 ／下午時段發快篩A:12:00-13:00 B:14:00-15:00 C:20:00-21:00
5932043130,宜康美藥局,桃園市楊梅區環東路４５２號,121.1571,24.91005,(03)4883805,羅氏家用新冠病毒抗原自我檢測套組,20,2022/05/04 18:17:02,快篩販賣時段：早上09:30~10:30（20份）下午15:30~16:30（38份）晚上19:30~20:30（20份）
5932043425,躍獅祥筠藥局,桃園市楊梅區萬大路１３５號,121.1786,24.90987,(03)4817458,羅氏家用新冠病毒抗原自我檢測套組,24,2022/05/04 18:17:02,5／4快篩試劑晚上6:00發放（我不知道幾點排隊喔）
5932051472,康而美聖安藥師藥局,桃園市蘆竹區南山路一段二之一號,121.2916,25.04879,(03)3228753,羅氏家用新冠病毒抗原自我檢測套組,78,2022/05/04 18:17:02,快篩套組販賣時段 早上7點至8點 售完為止
5932052808,柏霖藥局,桃園市蘆竹區中正路３５９號２樓,121.291,25.04902,(03)2120284,羅氏家用新冠病毒抗原自我檢測套組,47,2022/05/04 18:17:02,快篩試劑販賣時間:18:00開始.售完為止
5932052844,康維藥局,桃園市蘆竹區仁愛路一段２２號１樓,121.294,25.05063,(03)3125330,羅氏家用新冠病毒抗原自我檢測套組,173,2022/05/04 18:17:02,快篩 販賣時段:週一至週五18:00-20:00，週六09:00-11:00
5932052979,南崁藥局,桃園市蘆竹區中正路２５１、２５３、２５５號,121.2921,25.04695,(03)3522022,羅氏家用新冠病毒抗原自我檢測套組,79,2022/05/04 18:17:02,快篩實名制，每天16:00開始販售，售完為止。
5932062519,青埔辰安藥局,桃園市大園區致遠一路１號１樓,121.2111,25.00479,(03)2873274,羅氏家用新冠病毒抗原自我檢測套組,80,2022/05/04 18:17:02,無
5932076746,安欣藥局,桃園市龜山區文化二路３４巷１４弄８號,121.3648,25.05903,(03)3185689,羅氏家用新冠病毒抗原自我檢測套組,30,2022/05/04 18:17:02,實名制快篩:5／3起，若當日有配送，晚上18:00才開賣，週日公休
5932077270,明昌藥局,桃園市龜山區中興里萬壽路二段１１９１－６號,121.3318,24.99291,(03)3501205,羅氏家用新冠病毒抗原自我檢測套組,78,2022/05/04 18:17:02,無
5932077510,左外野藥局,桃園市龜山區文光街６號１樓,121.3802,25.05471,(03)3271503,羅氏家用新冠病毒抗原自我檢測套組,152,2022/05/04 18:17:02,快篩販售時間:19:30-20:30 （週五公休）*不發號碼牌 請直接排隊購買
5932077574,樂樂聯合藥局,桃園市龜山區萬壽路１段１０９號１、２樓,121.4091,25.01886,(02)82000560,羅氏家用新冠病毒抗原自我檢測套組,2,2022/05/04 18:17:02,實名制快篩於每日9點開始發放號碼牌，發完為止。 中午12點至14點半為藥局休息時間
5932077592,南崁南祥藥局,桃園市龜山區南祥路４６號,121.2975,25.04633,(03)2227733,羅氏家用新冠病毒抗原自我檢測套組,1,2022/05/04 18:17:02,快篩實名制，每天16:00開始販售，售完為止。
5932083974,晨鴻藥師藥局,桃園市八德區桃鶯路７號１樓,121.3265,24.97179,(03)3764299,羅氏家用新冠病毒抗原自我檢測套組,77,2022/05/04 18:17:02,快篩為早上8:30跟晚上6:00領取號碼牌，因有送貨時間及短少的因素，所以快篩地圖數量參考就好，請勿再打電話詢問 謝謝
5932084793,美康健保藥局,桃園市八德區桃鶯路９１號１、２樓,121.328,24.97036,(03)3613624,羅氏家用新冠病毒抗原自我檢測套組,78,2022/05/04 18:17:02,無
5932084828,阿爾富山藥局,桃園市八德區桃鶯路４號１樓,121.3261,24.97167,(03)3763350,羅氏家用新冠病毒抗原自我檢測套組,70,2022/05/04 18:17:02,營業時間:8:00-22:00  實名制快篩以每日實際到貨數量，並於晚間7點依現場排隊順序發放號牌並直接領取購買
5932084864,阿寶藥局,桃園市八德區東勇一路６號,121.3064,24.96452,(03)3750060,羅氏家用新冠病毒抗原自我檢測套組,44,2022/05/04 18:17:02,實名制快篩詳細公告請參閱阿寶藥局官方臉書
5932099383,龍星藥局,桃園市龍潭區中正路二八四號二樓,121.2175,24.86201,(03)4707390,羅氏家用新冠病毒抗原自我檢測套組,78,2022/05/04 18:17:02,上午8:30~12下午16~18晚上19~21，六.日9~12門診.口罩販賣
5932100354,世新藥局,桃園市平鎮區廣泰路７５之２號,121.2052,24.94629,(03)4941234,羅氏家用新冠病毒抗原自我檢測套組,1,2022/05/04 18:17:02,實名制快篩13:30販售
5932120105,新惠安藥局,桃園市觀音區崙坪里忠愛路一段３３號,121.1672,24.99356,(03)4981650,羅氏家用新冠病毒抗原自我檢測套組,1,2022/05/04 18:17:02,口罩販賣時段：07:30至售完為止）
5932124381,日昇藥局,桃園市觀音區成功路一段７８１號,121.119,25.05221,(03)4834212,羅氏家用新冠病毒抗原自我檢測套組,39,2022/05/04 18:17:02,下午4點及晚上9點各販售39份快篩試劑
5933010144,佳仁藥局,新竹縣關西鎮中興路１２號,121.1771,24.79227,(035)872298,羅氏家用新冠病毒抗原自我檢測套組,1,2022/05/04 18:17:02,全年無休（星期日不定期）
5933011258,安東藥師藥局,新竹縣關西鎮中山路６２號,121.1766,24.79147,(03)5872385,羅氏家用新冠病毒抗原自我檢測套組,78,2022/05/04 18:17:02,口罩販賣時段：星期一至六08:00-21:00、星期日08:00-17:00
5933031652,合康藥局,新竹縣竹東鎮興農街１１號,121.0861,24.73988,(03)5103818,羅氏家用新冠病毒抗原自我檢測套組,11,2022/05/04 18:17:02,實名制快篩時段：下午17:00~22:30
5933081536,昌昌藥局,新竹縣新豐鄉新市路１９３號,120.9846,24.90465,(03)5598077,羅氏家用新冠病毒抗原自我檢測套組,1,2022/05/04 18:17:02,上午8:00發放號碼牌。下午2:00開始領快篩.    昌昌藥局目前已銷售完.剩餘4份保留給已經領有號碼牌 預計5點多下班才領
5934012366,熊賀大藥局,宜蘭縣宜蘭市女中路３段２６號,121.7421,24.74576,(03)9352950,羅氏家用新冠病毒抗原自我檢測套組,78,2022/05/04 18:17:02,快篩時間 星期一至日 晚上19:00開賣 現場排隊
5934041170,永仁藥局,宜蘭縣頭城鎮吉祥路８８巷２５號１樓,121.8208,24.8571,(03)9789788,羅氏家用新冠病毒抗原自我檢測套組,78,2022/05/04 18:17:02,口罩發放 星期一至六早上07:30
5934051274,樂多藥局,宜蘭縣礁溪鄉中山路２段７２號１樓,121.7721,24.82459,(03)9368600,羅氏家用新冠病毒抗原自我檢測套組,1,2022/05/04 18:17:02,健保實名制快篩試紙-下午3點販售-售完為止
5935021261,永信藥師藥局,苗栗縣苑裡鎮和平路７２－１號,120.6549,24.44096,(037)857069,羅氏家用新冠病毒抗原自我檢測套組,78,2022/05/04 18:17:02,無
5935030108,吉泰藥局,苗栗縣通霄鎮通西里和平路２９號,120.6797,24.48905,(037)758595,羅氏家用新冠病毒抗原自我檢測套組,2,2022/05/04 18:17:02,口罩發放時間:早上10:30開始，下午:2:30開始
5935081169,景元藥局,苗栗縣大湖鄉中正路９７號,120.8664,24.42265,(037)996465,羅氏家用新冠病毒抗原自我檢測套組,16,2022/05/04 18:17:02,每天下午兩點開始販售快篩試劑
5936010486,輝生藥局,臺中市豐原區鐮村路４１１號,120.7223,24.22695,(04)25379563,羅氏家用新冠病毒抗原自我檢測套組,4,2022/05/04 18:17:02,防疫口罩販售時段早上07:00
5936021363,小太陽藥局,臺中市東勢區豐勢路４１２之１、４１６號１樓,120.8292,24.25525,(04)25773481,羅氏家用新冠病毒抗原自我檢測套組,78,2022/05/04 18:17:02,早上7:30開始發號碼牌（當日18:00前有效）及販售（目前的數量次日的78）
5936190676,中美藥師藥局,臺中市太平區中山路３段８５號,120.7173,24.14861,(04)22778238,羅氏家用新冠病毒抗原自我檢測套組,10,2022/05/04 18:17:02,無
5936192018,和康藥局,臺中市太平區樹孝路４６２號,120.7203,24.15716,(04)23917355,羅氏家用新冠病毒抗原自我檢測套組,78,2022/05/04 18:17:02,實名制快篩販售時間: 發號碼牌晚上七點立即開始銷售售完為止!
5936192134,樹德大藥局,臺中市太平區樹德路１０２號１樓,120.7115,24.15386,(04)23981782,羅氏家用新冠病毒抗原自我檢測套組,23,2022/05/04 18:17:02,下午3點開始領號碼牌，分流領取，請勿依賴網站庫存
593620B138,聯生中西健保藥局,臺中市大里區現岱路１５８巷１１號,120.6919,24.10295,(04)24834058,羅氏家用新冠病毒抗原自我檢測套組,76,2022/05/04 18:17:02,早上八點半領號碼牌下午四點到六點領口罩W6W日早七點
5937012582,正光藥局中正店,彰化縣彰化市中正路１段２５３號,120.5466,24.08348,(04)7235068,羅氏家用新冠病毒抗原自我檢測套組,78,2022/05/04 18:17:02,領藥來正光，快篩實名13:30開始販售。
5937012877,振安藥局,彰化縣彰化市民生里永安街７３號,120.5453,24.08422,(04)7261277,羅氏家用新冠病毒抗原自我檢測套組,8,2022/05/04 18:17:02,8:00開始賣快篩，如果當天下午才配送，改18:00才賣
5937013730,佳漾藥局,彰化縣彰化市延平路５８８號１樓,120.5374,24.06301,(04)7135518,羅氏家用新冠病毒抗原自我檢測套組,18,2022/05/04 18:17:02,5／4 目前剛到貨中，佳漾藥局免費領取，各大醫院連續處方箋，診所，衛生所處方箋，歡迎諮詢
5937031667,丁丁藥局和美店,彰化縣和美鎮道周路３１２號,120.4971,24.10759,(04)7576322,羅氏家用新冠病毒抗原自我檢測套組,4,2022/05/04 18:17:02,固定周一至周六上午9:00開始發放號碼牌，發完後即開始販賣口罩。
5937050313,東禾藥局,彰化縣員林市仁美里和平東街６２－１號,120.5754,23.9623,(04)8350030,羅氏家用新冠病毒抗原自我檢測套組,34,2022/05/04 18:17:02,每天早上八點半開始販售，售完為止
5937050322,必安藥局,彰化縣員林市仁美里育英路１７４號,120.5741,23.96417,(04)8324986,羅氏家用新冠病毒抗原自我檢測套組,1,2022/05/04 18:17:02,無
5937051703,員林健康藥局,彰化縣員林市中正路２２４號１樓,120.5747,23.95417,(04)8396798,羅氏家用新冠病毒抗原自我檢測套組,48,2022/05/04 18:17:02,10月11日雙十連假有營業
5937051712,員林福倫藥局,彰化縣員林市和平里中山路２段１４１號,120.5711,23.96391,(04)8371218,羅氏家用新冠病毒抗原自我檢測套組,25,2022/05/04 18:17:02,5／2後變當日配送 貨到才販售 FB公告販售時間
5937051730,青田藥局,彰化縣員林市林森路一二七號,120.5778,23.95633,(04)8347776,羅氏家用新冠病毒抗原自我檢測套組,4,2022/05/04 18:17:02,物流配送時間不確定～每日的販售時間將另行公布
5937051847,天一藥局,彰化縣員林市光明里中正路４４１號,120.5724,23.95817,(04)8384875,羅氏家用新冠病毒抗原自我檢測套組,3,2022/05/04 18:17:02,固定周一到周六，早上14:30開始販賣防疫口罩（現場排隊）。
5937051963,東山永安藥局,彰化縣員林市南東里山腳路４段３１號,120.5988,23.96424,(04)8311471,羅氏家用新冠病毒抗原自我檢測套組,9,2022/05/04 18:17:02,快篩試劑販賣，有貨時下午開賣.
5937052031,天天藥局,彰化縣員林市鎮興里員東路一段５５號,120.5991,23.96355,(04)8385573,羅氏家用新冠病毒抗原自我檢測套組,81,2022/05/04 18:17:02,固定周一到周六上午8:30發放號碼牌，8:30開始販售口罩。
5937052059,華衛藥局,彰化縣員林市惠來里南昌路９６號,120.5719,23.95464,(04)8397503,羅氏家用新冠病毒抗原自我檢測套組,41,2022/05/04 18:17:02,快篩販售時間8:20至09:50
5937052264,醫聯藥師藥局,彰化縣員林市三條里員東路二段４１０號１樓,120.5811,23.95898,(04)8360617,羅氏家用新冠病毒抗原自我檢測套組,25,2022/05/04 18:17:02,快篩實名制每天下午15:00開始販售，售完為止
5937052317,員郭藥局,彰化縣員林市三民街３８－１號,120.573,23.95862,(04)8356201,羅氏家用新冠病毒抗原自我檢測套組,49,2022/05/04 18:17:02,無
5937052451,統信藥局,彰化縣員林市正興街３７２號,120.5722,23.95997,(04)8367089,羅氏家用新冠病毒抗原自我檢測套組,20,2022/05/04 18:17:02,無
5937052479,莒光藥局,彰化縣員林市莒光路３１６號１樓,120.5669,23.95942,(04)8361388,羅氏家用新冠病毒抗原自我檢測套組,7,2022/05/04 18:17:02,快篩實名制，每天16:00開始販售，售完為止。
5937052504,佑全員林中正藥局,彰化縣員林市中正路１３５，１３７號１樓,120.5714,23.96324,(04)8368669,羅氏家用新冠病毒抗原自我檢測套組,2,2022/05/04 18:17:02,無
5937052540,莒光啄木鳥藥局,彰化縣員林市中山路一段４５４號１樓,120.5668,23.95171,(04)8399625,羅氏家用新冠病毒抗原自我檢測套組,1,2022/05/04 18:17:02,無
5937052559,知心健康藥局,彰化縣員林市三民東街１９６號１樓,120.5788,23.95965,(04)8396161,羅氏家用新冠病毒抗原自我檢測套組,24,2022/05/04 18:17:02,無
5937081596,二林藥局,彰化縣二林鎮斗苑路五段３９號,120.3709,23.89951,(04)8950010,羅氏家用新冠病毒抗原自我檢測套組,1,2022/05/04 18:17:02,快篩實名制，每天16:00開始販售，售完為止。
5937130049,明志藥局,彰化縣花壇鄉三春村彰員路１段５４２號,120.5679,24.01439,(04)7867702,羅氏家用新冠病毒抗原自我檢測套組,1,2022/05/04 18:17:02,周一至周日9:00開始販賣口罩
5937170034,淑惠藥局,彰化縣埔心鄉亙北村員鹿路一段２４４號,120.5574,23.95515,(04)8297798,羅氏家用新冠病毒抗原自我檢測套組,14,2022/05/04 18:17:02,星期一~星期六16:00-18:00（2小時販售快篩試劑），星期日：休
5937181279,佳恩藥局,彰化縣永靖鄉永西村瑚璉路３０２號,120.547,23.92421,(04)8235753,羅氏家用新冠病毒抗原自我檢測套組,15,2022/05/04 18:17:02,快篩實名制 :電話預約制，當日早上9點開始預約（5／3已額滿）
5937221198,祐幼藥局,彰化縣埤頭鄉合興村彰水路3段496號,120.4594,23.89158,(04)8911910,羅氏家用新冠病毒抗原自我檢測套組,1,2022/05/04 18:17:02,無
5938020079,仁和藥局,南投縣埔里鎮薰化里中山路三段９７號,120.9631,23.96619,(049)2985470,羅氏家用新冠病毒抗原自我檢測套組,2,2022/05/04 18:17:02,固定周一至周日上午10.00，下午20:00販售，售完為止
5938021521,大家好藥局,南投縣埔里鎮中山路２段２６２－１號,120.9686,23.96652,(049)2995876,羅氏家用新冠病毒抗原自我檢測套組,78,2022/05/04 18:17:02,3／26下午休息，4／3-4／5休息
5938021781,幸福藥局,南投縣埔里鎮中正路５４８號,120.9643,23.96946,(049)2999800,羅氏家用新冠病毒抗原自我檢測套組,1,2022/05/04 18:17:02,無
5938022171,博今藥局,南投縣埔里鎮東潤路２０號,120.9942,23.93519,(049)2926689,羅氏家用新冠病毒抗原自我檢測套組,1,2022/05/04 18:17:02,防疫口罩每日上午9時30分開始販售
5938032373,和平藥局,南投縣草屯鎮草溪路１０２６號１樓,120.6819,23.97706,(049)2310085,羅氏家用新冠病毒抗原自我檢測套組,170,2022/05/04 18:17:02,口罩發放時間週一至週五 晚上7點，週六下午3點。營業時間早上9-12點、下午2:30-5:30、晚上6-9點
5938032515,草屯丁丁藥局,南投縣草屯鎮太平路二段１７９號,120.6831,23.97335,(049)2330058,羅氏家用新冠病毒抗原自我檢測套組,5,2022/05/04 18:17:02,每日早上9點發號碼牌，05／04今日號碼牌已發放完畢
5938040151,快安藥局,南投縣竹山鎮延平里集山路三段１３號,120.7065,23.76677,(049)2643048,羅氏家用新冠病毒抗原自我檢測套組,9,2022/05/04 18:17:02,口罩代售時間週一~週六自08:00-21.00（週四.週六下午.週日公休但不定時營業
5938040295,氏林藥局,南投縣竹山鎮中山里雲林路７３號,120.6818,23.75463,(049)2645829,羅氏家用新冠病毒抗原自我檢測套組,8,2022/05/04 18:17:02,早上8:30開始營業，營業時間皆有販售.售完為止，周日公休
5938040437,宏明堂藥局,南投縣竹山鎮竹山里橫街８８號,120.6831,23.75616,(049)2642202,羅氏家用新冠病毒抗原自我檢測套組,1,2022/05/04 18:17:02,早上7:30開始營業至晚上9:00。（全年無休）
5938041729,早安藥局,南投縣竹山鎮雲林路４１號,120.6834,23.75608,(049)2651032,羅氏家用新冠病毒抗原自我檢測套組,79,2022/05/04 18:17:02,實名制快篩試劑早上10點開始販售
5938041809,維淇藥師藥局,南投縣竹山鎮集山路三段８１６－１號,120.6863,23.75949,(049)2653689,羅氏家用新冠病毒抗原自我檢測套組,14,2022/05/04 18:17:02,早上8：30~晚上21：00，星期六下午晚上及星期日休息
5938041845,博愛藥局,南投縣竹山鎮雲林路３５號,120.6836,23.75612,(049)2642748,羅氏家用新冠病毒抗原自我檢測套組,21,2022/05/04 18:17:02,0830AM開始販售，售完為止
5938041916,大明藥局,南投縣竹山鎮大明路４８２號,120.6798,23.759,(049)2652500,羅氏家用新冠病毒抗原自我檢測套組,26,2022/05/04 18:17:02,快篩實名制，每天16:00開始販售，售完為止。
5939012133,鎮東藥局,雲林縣斗六市中華路４６０號,120.5516,23.70846,(05)5332449,羅氏家用新冠病毒抗原自我檢測套組,20,2022/05/04 18:17:02,星期二. 五 下午及晚上休息  星期六全天休息 （國定假日 星期日 9:00開始 晚上7:30 休息 ）
5939031576,良方藥局,雲林縣虎尾鎮中山路５７號,120.4344,23.70764,(05)6312106,羅氏家用新冠病毒抗原自我檢測套組,156,2022/05/04 18:17:02,5／4快篩未配送
5939060120,民生藥局,雲林縣北港鎮民生路７０號,120.3027,23.56495,(05)7822476,羅氏家用新冠病毒抗原自我檢測套組,1,2022/05/04 18:17:02,上午8:30-晚上9:30，週末請先電話洽詢
5939071294,元林中西藥局,雲林縣古坑鄉西平村西平路９－２號１樓,120.5606,23.64679,(05)5828229,羅氏家用新冠病毒抗原自我檢測套組,79,2022/05/04 18:17:02,販賣口罩時間：08:00
5939090146,明泰藥局,雲林縣莿桐鄉莿桐村中山路１０６號,120.5002,23.75753,(05)5842824,羅氏家用新冠病毒抗原自我檢測套組,78,2022/05/04 18:17:02,販賣口罩時間08:30至完售
5939131482,麥津藥局,雲林縣麥寮鄉中山路３１３、３１５號,120.2527,23.74947,(05)6932258,羅氏家用新冠病毒抗原自我檢測套組,1,2022/05/04 18:17:02,快篩實名制，每天16:00開始販售，售完為止。
5939171093,和平藥局,雲林縣元長鄉下寮村東興路３３號,120.334,23.61849,(05)7862551,羅氏家用新冠病毒抗原自我檢測套組,4,2022/05/04 18:17:02,販賣口罩時間：0800開賣，賣完為止
5939200011,優生藥局,雲林縣水林鄉水林路９９巷２號,120.247,23.57205,(05)7856307,羅氏家用新冠病毒抗原自我檢測套組,7,2022/05/04 18:17:02,販賣快篩試劑時間:5月1日早上8點有販售
5940021157,康富藥師藥局,嘉義縣布袋鎮博愛二街２２號,120.1676,23.37901,(05)3470511,羅氏家用新冠病毒抗原自我檢測套組,1,2022/05/04 18:17:02,星期一至星期日早上8點售完為止中午12-14點休息
5940031402,信沅中西藥局,嘉義縣大林鎮西林里０１１鄰中正路４２０號,120.4528,23.60129,(05)2656377,羅氏家用新冠病毒抗原自我檢測套組,78,2022/05/04 18:17:02,每日販售時間：19:00~20:00。
5940041435,嘉方藥局,嘉義縣民雄鄉中樂村昇平路５８號,120.4303,23.55781,(05)2066747,羅氏家用新冠病毒抗原自我檢測套組,5,2022/05/04 18:17:02,早上08:00開始販賣，賣完為止
5940041622,大順藥局,嘉義縣民雄鄉福樂村埤角１３９號,120.44,23.52429,(05)2201138,羅氏家用新冠病毒抗原自我檢測套組,1,2022/05/04 18:17:02,快篩領取:星期一至日下午2點，售完為止
5940051119,宇安藥局,嘉義縣溪口鄉坪頂村溪民路３１號,120.4003,23.60387,(05)2697736,羅氏家用新冠病毒抗原自我檢測套組,13,2022/05/04 18:17:02,8:00-12:00，14:00-19:00，六日，8:00-12:00， 販售快篩
5940051164,濟安藥局,嘉義縣溪口鄉民生街５４號,120.3985,23.60407,(05)2696078,羅氏家用新冠病毒抗原自我檢測套組,8,2022/05/04 18:17:02,無
5940080058,長生健保藥局,嘉義縣東石鄉東石村東石村２６０號,120.1405,23.45356,(05)3732557,羅氏家用新冠病毒抗原自我檢測套組,2,2022/05/04 18:17:02,快篩每天上午8點發號碼牌，週1-5下午2-7點購買領取，週六日上午10-12點購買領取
5940090116,義竹全安藥局,嘉義縣義竹鄉六桂村４鄰２０９號,120.2448,23.33615,(05)3411611,羅氏家用新冠病毒抗原自我檢測套組,21,2022/05/04 18:17:02,無
5940131283,一心藥局,嘉義縣中埔鄉富收村頂中下街３１、３１－１號１樓,120.4885,23.45077,(05)2303553,羅氏家用新冠病毒抗原自我檢測套組,15,2022/05/04 18:17:02,無
5940151141,橙新藥局,嘉義縣梅山鄉中山路２８５號,120.5569,23.58416,(05)2622277,羅氏家用新冠病毒抗原自我檢測套組,39,2022/05/04 18:17:02,無
5941010309,鴻達藥局,臺南市新營區民生里復興路１２４號,120.3101,23.3035,(06)6358837,羅氏家用新冠病毒抗原自我檢測套組,12,2022/05/04 18:17:02,無
5941030114,協宏藥局,臺南市白河區竹門里９８之３號,120.4466,23.37697,(06)6852961,羅氏家用新冠病毒抗原自我檢測套組,37,2022/05/04 18:17:02,快篩  08 : 30-20:00
5941270163,太子藥局,臺南市仁德區太子里太子路３３８號,120.2577,22.99146,(06)2729906,羅氏家用新冠病毒抗原自我檢測套組,1,2022/05/04 18:17:02,5／4快篩賣完了
5942013699,新怡安藥局,高雄市鳳山區海洋里新富路５１２號,120.3474,22.61403,(07)7633565,羅氏家用新冠病毒抗原自我檢測套組,4,2022/05/04 18:17:02,快篩如果送貨正常一般都早上九點販售  如果供貨時間異常就下午兩點
5942020130,建成藥局,高雄市岡山區台上里大仁路９７號,120.3016,22.8053,(07)6210458,羅氏家用新冠病毒抗原自我檢測套組,116,2022/05/04 18:17:02,營業日.販賣快篩劑.時間15:00-18:00.或至售完為止
5942020265,建元藥局,高雄市岡山區大仁北路１０４號,120.3018,22.80071,(07)6216672,羅氏家用新冠病毒抗原自我檢測套組,78,2022/05/04 18:17:02,販售時間早上八點售完為止 （如餘78份，屬隔日早上的數量）
5942030092,天明藥局,高雄市旗山區大同路至誠巷１５號,120.4818,22.88361,(07)6621311,羅氏家用新冠病毒抗原自我檢測套組,2,2022/05/04 18:17:02,營業日8:00~發號碼牌 8:30領至下午9:00為販賣口罩時間，售完為止8:00
5942030225,吉本藥局,高雄市旗山區旗南里中洲路４７４－１號,120.465,22.83976,(07)6663226,羅氏家用新冠病毒抗原自我檢測套組,16,2022/05/04 18:17:02,營業日0800~2200，14:00開始發號碼牌14:30起為配售口罩時間.售完為止；周六公休無配售口罩；
5942100071,皇佳藥局,高雄市鳥松區仁美里高碼二路１２號,120.3893,22.65769,(07)7312918,羅氏家用新冠病毒抗原自我檢測套組,78,2022/05/04 18:17:02,實名制快篩，晚上八點開始販售，現場排隊購買，售完為止，週日無販售
5943011135,昱昇藥師藥局,屏東縣屏東市北勢里中正路３７３－１號,120.4944,22.68516,(08)7377471,羅氏家用新冠病毒抗原自我檢測套組,73,2022/05/04 18:17:02,營業時間早上7:30至晚上10:30，快篩試劑販售依配送時間調整
5943013853,復順藥局,屏東縣屏東市公園東路８４－２號,120.4986,22.67217,(08)7215662,羅氏家用新冠病毒抗原自我檢測套組,7,2022/05/04 18:17:02,自2／11日~12／31日，營業日0930~售完為止，為販賣快篩時間（13:00-15:00休息）
5943013880,一二藥局,屏東縣屏東市廣東路１０９４號,120.484,22.68769,(08)7324688,羅氏家用新冠病毒抗原自我檢測套組,78,2022/05/04 18:17:02,防疫快篩AM10:00開始
5943050169,新萬安藥局,屏東縣萬丹鄉萬安村萬丹路一段１１３號,120.4894,22.58628,(08)7772035,羅氏家用新冠病毒抗原自我檢測套組,1,2022/05/04 18:17:02,口罩販售時間早上8：30~22:00
5945021086,安康鳳林藥局,花蓮縣鳳林鎮仁愛街１０號１樓,121.4503,23.74937,(03)8762227,羅氏家用新冠病毒抗原自我檢測套組,3,2022/05/04 18:17:02,快篩發放時間，依現場公告為主，售完為止。
5945031297,莊藥局,花蓮縣玉里鎮中城里２７鄰成功街９５號,121.314,23.33083,(03)8882328,羅氏家用新冠病毒抗原自我檢測套組,73,2022/05/04 18:17:02,口罩販售時間8:00-9:00
5945051575,宜康藥局,花蓮縣吉安鄉中華路二段１３４號,121.585,23.97395,(03)8512980,羅氏家用新冠病毒抗原自我檢測套組,234,2022/05/04 18:17:02,5／2（一）全天休診
5945051735,杏一吉安建國藥局,花蓮縣吉安鄉建國路１段１４１、１４３號１樓,121.5911,23.98589,(03)8575611,羅氏家用新冠病毒抗原自我檢測套組,78,2022/05/04 18:17:02,今日快篩已售完  明5／5雙號 78份快篩中午12點開賣-領取號碼牌後請在現場排隊，拿完號碼牌自行離開者視同放棄
5946080552,伯安健康藥局,臺東縣長濱鄉長濱村１０鄰長濱路１０５號,121.4515,23.31496,(089)832519,羅氏家用新冠病毒抗原自我檢測套組,120,2022/05/04 18:17:02,無
5946101118,伯安藥局,臺東縣池上鄉新生路１１６號,121.2187,23.12315,(089)863585,羅氏家用新冠病毒抗原自我檢測套組,172,2022/05/04 18:17:02,早0800-1200，午1400-1800，晚1800-2000
