醫事機構代碼,醫事機構名稱,醫事機構地址,經度,緯度,醫事機構電話,廠牌項目,快篩試劑截至目前結餘存貨數量,來源資料時間,備註
2331260016,新北市貢寮區衛生所,新北市貢寮區朝陽街７０巷１０號、新北市貢寮區仁愛路１２８號,121.9095,25.02258,(02)24901431,羅氏家用新冠病毒抗原自我檢測套組,78,2022/05/08 07:25:02,快篩試劑販售時間為周一至周五早上9點開始販售，每日販售一箱，數量有限售完為止。
2333100013,新竹縣寶山鄉衛生所,新竹縣寶山鄉雙溪村７鄰雙園路二段２７３號,120.9949,24.76691,(03)5292106,羅氏家用新冠病毒抗原自我檢測套組,27,2022/05/08 07:25:02,快篩試劑於每日8:30-9:30販售
2333120015,新竹縣峨眉鄉衛生所,新竹縣峨眉鄉峨眉村峨眉街２鄰５號,121.0214,24.68842,(03)5800314,羅氏家用新冠病毒抗原自我檢測套組,78,2022/05/08 07:25:02,自5月6日起販賣快篩試劑12時至13時止，5月7日（六）8時30分至9時30分止，目前皆以現場排隊人員順序，每日最多78組
2333140017,新竹縣五峰鄉衛生所,新竹縣五峰鄉大隘村六鄰９９號,121.1194,24.63184,(03)5851005,羅氏家用新冠病毒抗原自我檢測套組,10,2022/05/08 07:25:02,無
2335110017,苗栗縣南庄鄉衛生所,苗栗縣南庄鄉東村大同路１７號,121,24.59733,(037)822024,羅氏家用新冠病毒抗原自我檢測套組,78,2022/05/08 07:25:02,口罩販賣時段:週一至週五上午8:00~下午5:00
2340170016,嘉義縣大埔鄉衛生所,嘉義縣大埔鄉大埔村５３－１號,120.5928,23.29397,(05)2521214,羅氏家用新冠病毒抗原自我檢測套組,78,2022/05/08 07:25:02,無
2340180012,嘉義縣阿里山鄉衛生所,嘉義縣阿里山鄉樂野村３鄰９７－２號,120.7019,23.4666,(05)2561573,羅氏家用新冠病毒抗原自我檢測套組,8,2022/05/08 07:25:02,無
2341250013,臺南市南化區衛生所,臺南市南化區南化里２２６－１號,120.4793,23.0444,(06)5771139,羅氏家用新冠病毒抗原自我檢測套組,156,2022/05/08 07:25:02,5／7-5／8假日無販售       5／9日起調整實名制快篩試劑販售時間:下午2點30分-4點整售完提早結束。
2341260019,臺南市左鎮區衛生所,臺南市左鎮區中正里１７２之１５號,120.4099,23.05631,(06)5731114,羅氏家用新冠病毒抗原自我檢測套組,18,2022/05/08 07:25:02,無
2341300018,臺南市龍崎區衛生所,臺南市龍崎區崎頂里新市子１５８號,120.3618,22.96521,(06)5941397,羅氏家用新冠病毒抗原自我檢測套組,78,2022/05/08 07:25:02,無
2342130010,高雄市田寮區衛生所,高雄市田寮區南安里崗北路３２號,120.3594,22.87301,(07)6361504,羅氏家用新冠病毒抗原自我檢測套組,77,2022/05/08 07:25:02,巡迴醫療:每星期一、四下午及每月第一個有上班的星期三下午巡迴醫療
2342180010,高雄市永安區衛生所,高雄市永安區永安路２６號,120.2254,22.81879,(07)6912015,羅氏家用新冠病毒抗原自我檢測套組,78,2022/05/08 07:25:02,本所防疫快篩試劑販賣時間為週一到週五上班日 9:00-11:00 （或售罄為止），現場叫號不到，視同放棄
2342250017,高雄市茂林區衛生所,高雄市茂林區茂林里茂林巷８－４號,120.6641,22.88641,(07)6801046,羅氏家用新冠病毒抗原自我檢測套組,60,2022/05/08 07:25:02,夜間急診，請先撥電話07-6801046
2342260013,高雄市桃源區衛生所,高雄市桃源區桃源里南進巷１８８－１號,120.7642,23.15845,(07)6861126,羅氏家用新冠病毒抗原自我檢測套組,152,2022/05/08 07:25:02,IDS提供24小時服務
2342270019,高雄市那瑪夏區衛生所,高雄市那瑪夏區瑪雅里６鄰平和巷２５２號,120.7024,23.24708,(07)6701142,羅氏家用新冠病毒抗原自我檢測套組,162,2022/05/08 07:25:02,春節期間正常門診
2343250011,屏東縣枋山鄉衛生所,屏東縣枋山鄉枋山村枋山路９８號,120.6527,22.26464,(08)8761150,羅氏家用新冠病毒抗原自我檢測套組,30,2022/05/08 07:25:02,快篩試劑販售時間8點至10點，售完為止
2344011036,澎湖縣馬公市第三衛生所,澎湖縣馬公市西文里１１８之２號,119.5836,23.56813,(06)9211723,羅氏家用新冠病毒抗原自我檢測套組,73,2022/05/08 07:25:02,本所快篩試劑只提供離島衛生室（虎井、桶盤）販售，時間週一至週五08:30-17:00售完為止，星期六、日國定假日09:00-12:00。
2344030022,澎湖縣白沙鄉鳥嶼衛生所,澎湖縣白沙鄉鳥嶼村漁港新村３號,119.6599,23.66008,(06)9916092,羅氏家用新冠病毒抗原自我檢測套組,62,2022/05/08 07:25:02,非上班時間提供急診服務
2344030031,澎湖縣白沙鄉吉貝衛生所,澎湖縣白沙鄉吉貝村８－１３號,119.6138,23.74056,(06)9911430,羅氏家用新冠病毒抗原自我檢測套組,141,2022/05/08 07:25:02,無
2344050015,澎湖縣望安鄉衛生所,澎湖縣望安鄉西安村３６－７號,119.4972,23.36161,(06)9991036,羅氏家用新冠病毒抗原自我檢測套組,111,2022/05/08 07:25:02,夜間急診。口罩、快篩試劑販售時間為:每日08:00-12:00、13:30-17:30售完為止，如有餘數為離島未售出（東嶼坪、花嶼）。
2344050024,澎湖縣望安鄉將軍衛生所,澎湖縣望安鄉將軍村１２鄰將軍澳１之３號,119.5216,23.3615,(06)9902066,羅氏家用新冠病毒抗原自我檢測套組,178,2022/05/08 07:25:02,24小時急診
2344060011,澎湖縣七美鄉衛生所,澎湖縣七美鄉中和村埔內５４號,119.431,23.2041,(06)9971005,羅氏家用新冠病毒抗原自我檢測套組,40,2022/05/08 07:25:02,無
2345080017,衛生福利部花蓮醫院豐濱原住民分院,花蓮縣豐濱鄉豐濱村光豐路４１號,121.5215,23.60195,(03)8358141,羅氏家用新冠病毒抗原自我檢測套組,78,2022/05/08 07:25:02,*本院口罩每天販售，時間自上午8點至晚上9點  *本院週一至週五上下午皆有門診，星期六隔週提供門診，及24小時急診。
2345100014,花蓮縣富里鄉衛生所,花蓮縣富里鄉富里村中山路２０３號,121.2491,23.17847,(03)8831029,羅氏家用新冠病毒抗原自我檢測套組,156,2022/05/08 07:25:02,*內科:每週二下午東里玉蓮寺巡診 **牙科:每週二至卓溪醫療站***口罩販賣時間8:30起至11:00止
2345110010,花蓮縣秀林鄉衛生所,花蓮縣秀林鄉秀林村１２鄰秀林路８８號,121.6334,24.1269,(03)8612122,羅氏家用新冠病毒抗原自我檢測套組,78,2022/05/08 07:25:02,口罩代售時間上班日上午8:10至12時止（口罩限量故售完為止）
2345120016,花蓮縣萬榮鄉衛生所,花蓮縣萬榮鄉萬榮村１鄰１６號,121.4092,23.71558,(03)8751651,羅氏家用新冠病毒抗原自我檢測套組,104,2022/05/08 07:25:02,快篩試劑代售時間：週一至週五下午2點至下午4點，販售為止。
2345130012,花蓮縣卓溪鄉衛生所,花蓮縣卓溪鄉卓溪村中正路６５號,121.3033,23.33294,(03)8882592,羅氏家用新冠病毒抗原自我檢測套組,156,2022/05/08 07:25:02,快篩試劑代售時間：週一至週五上午8：30-11：00（售完即結束）
2346110014,台東縣綠島鄉衛生所,臺東縣綠島鄉中寮村１－１號,121.4696,22.67319,(089)672511,羅氏家用新冠病毒抗原自我檢測套組,78,2022/05/08 07:25:02,家用快篩實名制，販售時段為上午08:30至12:00，下午13:30至16:30（周一至周五），售完為止。）
2346130016,台東縣海端鄉衛生所,臺東縣海端鄉海端村３鄰２９號,121.1767,23.10094,(089)931391,羅氏家用新冠病毒抗原自我檢測套組,156,2022/05/08 07:25:02,星期一至星期五家用快篩試劑販售時間上午10點~12點（售完為止）
2346150018,台東縣金峰鄉衛生所,臺東縣金峰鄉賓茂村１鄰１４號,120.9606,22.53248,(089)772201,羅氏家用新冠病毒抗原自我檢測套組,78,2022/05/08 07:25:02,快篩試劑販售時間為星期一至星期五，早上8:30~12:00；下午1:30~5:00
2346160014,台東縣蘭嶼鄉衛生所,臺東縣蘭嶼鄉紅頭村３６號,121.5546,22.02493,(089)732575,羅氏家用新冠病毒抗原自我檢測套組,78,2022/05/08 07:25:02,販售口罩時間 星期一至星期五 8:00~12:00 13:30~17:30
2390040518,金門縣金寧鄉衛生所,金門縣金寧鄉盤山村仁愛新屯２之１號,118.3374,24.44479,(082)325735,羅氏家用新冠病毒抗原自我檢測套組,78,2022/05/08 07:25:02,購買快篩實名制週一至週五上班日上午8:00開始依排隊發放號碼牌，每日78份，售完即止
2390050032,金門縣烈嶼鄉衛生所,金門縣烈嶼鄉西口村西方６－５號,118.2395,24.43519,(082)362078,羅氏家用新冠病毒抗原自我檢測套組,12,2022/05/08 07:25:02,快篩試劑販售時間:周一至周五下午1點至3點
2391020010,連江縣北竿鄉衛生所,連江縣北竿鄉塘岐村２８１－６號,119.9991,26.22617,(083)655592,羅氏家用新冠病毒抗原自我檢測套組,11,2022/05/08 07:25:02,新冠快篩試劑販售於週一至周六每日上午08:30-12:00開放購買。
2391030016,連江縣莒光鄉西莒衛生所,連江縣莒光鄉青帆村１４－１號,119.9331,25.97157,(083)689122,羅氏家用新冠病毒抗原自我檢測套組,306,2022/05/08 07:25:02,防疫口罩星期一至五09:00-17:00、（六）09:00-12:00現場購買
2391030026,連江縣莒光鄉東莒衛生所,連江縣莒光鄉大坪村３０－１號,119.9731,25.96113,(083)689038,羅氏家用新冠病毒抗原自我檢測套組,434,2022/05/08 07:25:02,防疫口罩星期一至星期日上午10:00-12:00收取健保卡，下午3:30至本所領取口罩。
5901010076,榮星藥局,臺北市松山區南京東路４段１３３巷５弄１號,121.5552,25.05214,(02)27124696,羅氏家用新冠病毒抗原自我檢測套組,78,2022/05/08 07:25:02,無
5901010165,傑安藥局,臺北市松山區八德路２段４３７巷７弄８號１樓,121.5473,25.04914,(02)27524155,羅氏家用新冠病毒抗原自我檢測套組,78,2022/05/08 07:25:02,9:30開始發號碼牌
5901010290,健全藥局,臺北市松山區民權東路３段１０３巷２０號,121.5449,25.06327,(02)27128293,羅氏家用新冠病毒抗原自我檢測套組,78,2022/05/08 07:25:02,無
5901010496,瑞昌大藥局,臺北市松山區民權東路３段１０３巷１０號,121.5449,25.06298,(02)27151881,羅氏家用新冠病毒抗原自我檢測套組,62,2022/05/08 07:25:02,無
5901011975,萬泰藥局,臺北市松山區敦化北路２２２巷３８號,121.5471,25.05994,(02)27135891,羅氏家用新冠病毒抗原自我檢測套組,15,2022/05/08 07:25:02,每日早上9.00販售快篩試劑
5901012409,家音藥局,臺北市松山區民生東路５段７３號,121.5585,25.05871,(02)37652080,羅氏家用新冠病毒抗原自我檢測套組,10,2022/05/08 07:25:02,實名制快篩販售時段公告，請追蹤美康健保藥局 家音店 FB粉絲頁，謝謝~
5901012516,惠登藥局,臺北市松山區民生東路３段１３０巷３４號,121.5461,25.0562,(02)25472432,羅氏家用新冠病毒抗原自我檢測套組,28,2022/05/08 07:25:02,實名制快篩週一到週五下午2點販售
5901012561,松田藥局,臺北市松山區延吉街９－６號,121.5536,25.04701,(02)25798005,羅氏家用新冠病毒抗原自我檢測套組,78,2022/05/08 07:25:02,每日上午9:30開始實名制快篩販售
5901012712,立康大藥局,臺北市松山區八德路四段２－１號,121.5581,25.04812,(02)27471749,羅氏家用新冠病毒抗原自我檢測套組,77,2022/05/08 07:25:02,快篩時間：周一～周五9:30-14:00，18:00-21:30。周六10:30-12:30，18:00-20:00。周日暫停販售。如有修正以店面公告為主
5901012749,躍獅松和藥局,臺北市松山區八德路四段６６６－１號,121.5761,25.04979,(02)27492569,羅氏家用新冠病毒抗原自我檢測套組,78,2022/05/08 07:25:02,實名制快篩販售時段，每日下午4點販售，售完為止
5901012767,晨新藥局,臺北市松山區八德路４段９１巷１－１號,121.5608,25.04894,(02)27422951,羅氏家用新冠病毒抗原自我檢測套組,66,2022/05/08 07:25:02,本店星期一不販售快篩，其餘時間為下午2點至5點。若有修正依店內公告為主。
5901012963,綠之家藥局,臺北市松山區延壽街４２８號,121.5562,25.0562,(02)25289595,羅氏家用新冠病毒抗原自我檢測套組,78,2022/05/08 07:25:02,禮拜日不販售快篩
5901013095,康采藥局,臺北市松山區南京東路５段２９１巷１７－２號,121.5663,25.05236,(02)27670271,羅氏家用新冠病毒抗原自我檢測套組,16,2022/05/08 07:25:02,（已完售，庫存不準）快篩試劑每日16點販售，週日沒有販售
5901013120,誠康中西藥局,臺北市松山區南京東路５段５９巷３１弄４３號,121.5607,25.05346,(02)27619679,羅氏家用新冠病毒抗原自我檢測套組,6,2022/05/08 07:25:02,禮拜一到六早上7點發號碼牌，到貨時會用社群通知大家來取貨
5901013362,啄木鳥藥局,臺北市松山區八德路４段２０９號、２１１號（１、２層）,121.564,25.04894,(02)27422413,羅氏家用新冠病毒抗原自我檢測套組,1,2022/05/08 07:25:02,每日早上10點開始販售實名制快篩
5901013451,新德大藥局,臺北市松山區饒河街２０４號,121.577,25.05074,(02)27673402,羅氏家用新冠病毒抗原自我檢測套組,51,2022/05/08 07:25:02,周一至周六上午九點開賣；快篩實名制（周日休息）
5901013595,巧心藥局,臺北市松山區八德路３段１２巷５７弄３９之３號１樓,121.5521,25.04567,(02)25703728,羅氏家用新冠病毒抗原自我檢測套組,49,2022/05/08 07:25:02,快篩試劑14:00販售，售完為止．
5901013620,躍獅敦北藥局,臺北市松山區民生東路４段８０巷５號１樓,121.5531,25.05713,(02)27155691,羅氏家用新冠病毒抗原自我檢測套組,109,2022/05/08 07:25:02,實名制快篩販售時間PM14:30 本店會預留28份供及人大廈住戶購買 剩餘數量供現場民眾排隊購買（14:30開始販購）
5901013693,民生盛康藥局,臺北市松山區民生東路５段２０４號１樓,121.5648,25.05826,(02)27460758,羅氏家用新冠病毒抗原自我檢測套組,90,2022/05/08 07:25:02,【5／8不發放】每日早上9:00發號碼牌，11:00~20:00拿號碼牌回來領取，每人限1張號碼牌，逾時不候
5901020563,施寶藥局,臺北市大安區安東街５０－５號１樓,121.5426,25.04277,(02)27114175,羅氏家用新冠病毒抗原自我檢測套組,78,2022/05/08 07:25:02,週一至週五早上11點到下午8點.周六周日及公訂例假日公休快篩早上11點開始銷售直到配額售完為止
5901020616,龍護大藥局,臺北市大安區大安路１段２２４巷７號１Ｆ,121.5454,25.03401,(02)23250686,羅氏家用新冠病毒抗原自我檢測套組,68,2022/05/08 07:25:02,無
5901020634,新廣生藥局,臺北市大安區仁愛路４段３４號,121.5467,25.03762,(02)27071221,羅氏家用新冠病毒抗原自我檢測套組,6,2022/05/08 07:25:02,固定周日公休，實名制快篩因應政府滾動式配送，實際發放時間以現場為主
5901020858,順天堂藥局,臺北市大安區龍泉街９６號,121.5292,25.02256,(02)23627149,羅氏家用新冠病毒抗原自我檢測套組,42,2022/05/08 07:25:02,實名制快篩早上9:30開始發放，每日78份，發完為止。禮拜日公休
5901020876,大興藥局,臺北市大安區通化街３９巷５０弄１５號１樓,121.5555,25.03056,(02)27053369,羅氏家用新冠病毒抗原自我檢測套組,14,2022/05/08 07:25:02,快篩試劑販售時間自08:30開始，現場排隊。（週日休息）
5901021248,永誠藥局,臺北市大安區忠孝東路４段２１６巷２５之１號,121.5531,25.03997,(02)27520273,羅氏家用新冠病毒抗原自我檢測套組,176,2022/05/08 07:25:02,上午9:30發放（不發號碼牌）
5901021382,建如藥局,臺北市大安區和平東路３段２２８巷１１號１Ｆ,121.5543,25.02174,(02)27331456,羅氏家用新冠病毒抗原自我檢測套組,78,2022/05/08 07:25:02,8:00先領取號碼牌並收取健保卡 .9:00後才領回健保卡及快篩 星期日休息
5901023073,世中欣藥局,臺北市大安區永康街２巷８號,121.5294,25.03315,(02)23938947,羅氏家用新冠病毒抗原自我檢測套組,12,2022/05/08 07:25:02,健保快篩：周一至周五， 早上10點開始販售。週六下午2點販售。週日停售.。
5901023313,安和藥局,臺北市大安區安和路１段１０２巷３號,121.5519,25.03433,(02)27092349,羅氏家用新冠病毒抗原自我檢測套組,2,2022/05/08 07:25:02,平日下午三點開始販賣賣完 78份結束
5901024310,躍獅新生藥局,臺北市大安區和平東路２段２０號,121.5362,25.02566,(02)23623367,羅氏家用新冠病毒抗原自我檢測套組,78,2022/05/08 07:25:02,快篩發放時間0900-1200。每日78份。星期日不販售
5901024427,博昱仁愛藥局,臺北市大安區仁愛路４段６５號,121.5469,25.03821,(02)87739258,羅氏家用新冠病毒抗原自我檢測套組,1,2022/05/08 07:25:02,實名制快篩每周一~五，9:00發放號碼牌收健保卡.下午2:00-4:00持號碼牌領取快篩.並收費和歸還健保
5901024490,明星大藥局,臺北市大安區光復南路４３０之１號,121.5574,25.03618,(02)27023747,羅氏家用新冠病毒抗原自我檢測套組,2,2022/05/08 07:25:02,無
5901024669,百岳藥局,臺北市大安區和平東路２段３１１巷１１號,121.5452,25.02514,(02)27551037,羅氏家用新冠病毒抗原自我檢測套組,78,2022/05/08 07:25:02,快篩試劑販售時間:周一至周五10:30~12:00止
5901024918,康祥藥局,臺北市大安區忠孝東路４段２１６巷２１號,121.5531,25.04025,(02)27817891,羅氏家用新冠病毒抗原自我檢測套組,79,2022/05/08 07:25:02,星期天11:00-19:00
5901024954,佑全大安敦南藥局,臺北市大安區敦化南路２段６３巷４６號,121.5512,25.03089,(02)23257579,羅氏家用新冠病毒抗原自我檢測套組,78,2022/05/08 07:25:02,早上10點發放號碼牌，同時開始販賣實名制快篩
5901025004,早安藥局,臺北市大安區建國南路２段１５１巷４２號１樓,121.5396,25.02865,(02)27002209,羅氏家用新冠病毒抗原自我檢測套組,50,2022/05/08 07:25:02,快篩早上9點發號碼牌留卡下午2點領取
5901090154,柯藥局,臺北市大同區重慶北路３段３３５巷６號,121.5144,25.07452,(02)25948515,羅氏家用新冠病毒抗原自我檢測套組,93,2022/05/08 07:25:02,库存已零如何歸零
5901090341,正中藥局,臺北市大同區民族西路２１３號,121.5142,25.06874,(02)25976937,羅氏家用新冠病毒抗原自我檢測套組,1,2022/05/08 07:25:02,無
5901091544,得意藥師藥局,臺北市大同區延平北路２段２２９號,121.5115,25.06029,(02)25534294,羅氏家用新冠病毒抗原自我檢測套組,7,2022/05/08 07:25:02,無
5901091884,躍獅雙蓮藥局,臺北市大同區涼州街４號,121.5147,25.06078,(02)25537551,羅氏家用新冠病毒抗原自我檢測套組,108,2022/05/08 07:25:02,實名制快篩：平日週一～五 下午３點開賣 （六、日停售）
5901092087,躍獅文昌藥局,臺北市大同區民生西路１０８號（實際營業：一層）,121.5197,25.0574,(02)25586189,羅氏家用新冠病毒抗原自我檢測套組,72,2022/05/08 07:25:02,無
5901100066,名祥藥局,臺北市中山區龍江路１６６號,121.5403,25.05505,(02)25036265,羅氏家用新冠病毒抗原自我檢測套組,78,2022/05/08 07:25:02,實名制快篩代售時間為早上08:00＜售完為止＞
5901100155,大信藥局,臺北市中山區林森北路１５９巷６號,121.5255,25.0517,(02)25719080,羅氏家用新冠病毒抗原自我檢測套組,1,2022/05/08 07:25:02,無
5901100628,貢玄藥局,臺北市中山區錦州街２０７號,121.532,25.06039,(02)25637847,羅氏家用新冠病毒抗原自我檢測套組,60,2022/05/08 07:25:02,早上10點~11點領口罩
5901101509,永直藥局,臺北市中山區北安路５９５巷２弄６號,121.5483,25.08192,(02)85098059,羅氏家用新冠病毒抗原自我檢測套組,78,2022/05/08 07:25:02,今日號碼牌（5／7）沒有了，周一至周六早上8點發號碼牌，下午2點到晚上8點販售（拿號碼牌來買）
5901101536,展佑藥局,臺北市中山區長春路１４６－１號,121.5317,25.05473,(02)25232803,羅氏家用新冠病毒抗原自我檢測套組,5,2022/05/08 07:25:02,快篩試劑上午11:30開賣，因郵差當日才配送，請勿事先排隊，週日休息!
5901101992,大愛藥師藥局,臺北市中山區吉林路２５５號１樓,121.5304,25.06165,(02)25424723,羅氏家用新冠病毒抗原自我檢測套組,42,2022/05/08 07:25:02,週一~週五13:55發放號碼牌14:00發放快篩，週六、週日休息
5901102060,專心藥局,臺北市中山區伊通街１１２－２號,121.5347,25.05426,(02)25155847,羅氏家用新冠病毒抗原自我檢測套組,64,2022/05/08 07:25:02,無
5901102444,啟美藥師藥局,臺北市中山區錦州街２８２號,121.5352,25.06024,(02)25178032,羅氏家用新冠病毒抗原自我檢測套組,78,2022/05/08 07:25:02,快篩 販售時間 20點開賣到21點，星期六日公休
5901102631,金生藥局,臺北市中山區長安東路２段１６７－１號,121.5407,25.04843,(02)87729808,羅氏家用新冠病毒抗原自我檢測套組,24,2022/05/08 07:25:02,販售實名制快篩時間為週一~週六早上09:00開始（售完為止）
5901103110,大直健康藥局,臺北市中山區北安路５９１號,121.5486,25.08194,(02)25323310,羅氏家用新冠病毒抗原自我檢測套組,111,2022/05/08 07:25:02,發號碼牌時間:09:00   販售時間:12:00-17:00
5901103227,建誠中西藥局,臺北市中山區龍江路３８５之１號,121.541,25.06511,(02)25158608,羅氏家用新冠病毒抗原自我檢測套組,22,2022/05/08 07:25:02,實名制快篩發放時間 週一至週六13:00-14:00
5901103334,大直小太陽藥局,臺北市中山區北安路６０７之１號,121.5488,25.08241,(02)85093208,羅氏家用新冠病毒抗原自我檢測套組,77,2022/05/08 07:25:02,無
5901103352,美康正康藥局,臺北市中山區北安路６１６之１號、６１８號２樓之１,121.549,25.08243,(02)25323077,羅氏家用新冠病毒抗原自我檢測套組,9,2022/05/08 07:25:02,5月實名制快篩:14:30~售完
5901103558,佳頤中西藥局,臺北市中山區長春路１４７之１號,121.5323,25.05495,(02)25641479,羅氏家用新冠病毒抗原自我檢測套組,87,2022/05/08 07:25:02,實名制快篩販售時間為下午1點起，售完為止，其他販售細節以店內公告為主
5901103576,康銓藥局,臺北市中山區農安街１７４號,121.5346,25.06457,(02)25039393,羅氏家用新冠病毒抗原自我檢測套組,78,2022/05/08 07:25:02,早上9點販售。
5901103727,盛康藥局,臺北市中山區吉林路３９９號１樓,121.5305,25.06587,(02)25969580,羅氏家用新冠病毒抗原自我檢測套組,3,2022/05/08 07:25:02,國定假日仍執行調劑業務
5901103754,永育康暉藥局,臺北市中山區樂群二路２１０之２號１樓,121.5593,25.07952,(02)85012227,羅氏家用新冠病毒抗原自我檢測套組,1,2022/05/08 07:25:02,快篩試劑8:30開始販售，賣完為止
5901103772,興耀生活藥局,臺北市中山區林森北路４０５號（１樓）,121.5257,25.05943,(02)25818210,羅氏家用新冠病毒抗原自我檢測套組,60,2022/05/08 07:25:02,國定假日仍執行調劑業務
5901110268,赫得藥局,臺北市內湖區康樂街７２巷１７弄４號１Ｆ,121.6178,25.06976,(02)26328642,羅氏家用新冠病毒抗原自我檢測套組,34,2022/05/08 07:25:02,每周日公休。快篩試劑於周一至周六，早上8:30開賣（賣完為止）。
5901112593,康健藥局,臺北市內湖區康樂街８０號,121.6189,25.07015,(02)26305825,羅氏家用新冠病毒抗原自我檢測套組,79,2022/05/08 07:25:02,無
5901112824,思恩藥局,臺北市內湖區成功路４段６１巷２６號,121.5932,25.08121,(02)27965808,羅氏家用新冠病毒抗原自我檢測套組,85,2022/05/08 07:25:02,快篩販售時間:禮拜一~五 14:00~17:00
5901112879,壹零捌藥局,臺北市內湖區成功路４段３４４號,121.5996,25.08488,(02)27910061,羅氏家用新冠病毒抗原自我檢測套組,1,2022/05/08 07:25:02,快篩晚上7:30開始販售（星期一至星期六）
5901113018,桔子藥局,臺北市內湖區內湖路２段３３３號,121.5917,25.08319,(02)27930052,羅氏家用新冠病毒抗原自我檢測套組,78,2022/05/08 07:25:02,早0900-1200，午1400-1700，晚1900-2100
5901113027,晟安藥局,臺北市內湖區金龍路１３５號,121.5902,25.08593,(02)87919320,羅氏家用新冠病毒抗原自我檢測套組,77,2022/05/08 07:25:02,快篩一~六早上10；00開始販售，星期日不營業
5901113367,瑞暉藥局,臺北市內湖區文德路１０５號,121.5837,25.0787,(02)26276828,羅氏家用新冠病毒抗原自我檢測套組,78,2022/05/08 07:25:02,營業時間: 09:00~22:00
5901113401,躍獅麗湖藥局,臺北市內湖區內湖路１段４０１之１號,121.5706,25.08188,(02)26276160,羅氏家用新冠病毒抗原自我檢測套組,77,2022/05/08 07:25:02,實名制快篩 9點發號碼牌 12點後憑號碼牌購買
5901113563,耀元藥局,臺北市內湖區康樂街１５０號,121.6192,25.07263,(02)26337369,羅氏家用新冠病毒抗原自我檢測套組,39,2022/05/08 07:25:02,週一至週六實名制快篩下午兩點販售，依現場排隊順序購買，沒有發放號碼牌。週日無販售。特殊情況依現場公告為主。
5901113590,維安藥局,臺北市內湖區成功路３段１７４巷２３號,121.5906,25.08143,(02)27944520,羅氏家用新冠病毒抗原自我檢測套組,2,2022/05/08 07:25:02,快篩每周一至六0930開賣，10點結束，視人數發號，每日固定78位，多的78為隔日庫存
5901113652,加一藥師藥局,臺北市內湖區星雲街２４號１樓,121.5908,25.07804,(02)87912653,羅氏家用新冠病毒抗原自我檢測套組,167,2022/05/08 07:25:02,無
5901113732,富康活力誠功藥局,臺北市內湖區成功路４段３０巷２０號１樓,121.5916,25.08235,(02)27960222,羅氏家用新冠病毒抗原自我檢測套組,1,2022/05/08 07:25:02,正常供應的話都是每日16:00開始販售快篩，建議來現場加入**LINE社群**，可以獲得最新第一手資訊
5901113741,原大藥局,臺北市內湖區內湖路１段７３７巷５０弄５號１樓,121.5788,25.08058,(02)26596358,羅氏家用新冠病毒抗原自我檢測套組,65,2022/05/08 07:25:02,9:00開賣快篩，不發號碼牌，現場售完為止。
5901121421,祥安藥局,臺北市南港區中坡南路２５號,121.5832,25.04329,(02)26547322,羅氏家用新冠病毒抗原自我檢測套組,15,2022/05/08 07:25:02,無
5901121583,健園藥局,臺北市南港區研究院路１段１９號１樓,121.6166,25.05401,(02)27851567,羅氏家用新冠病毒抗原自我檢測套組,78,2022/05/08 07:25:02,早上8點開賣 （政府有配送的狀況下） 沒發放號碼牌售完為止
5901121725,佳龍藥局,臺北市南港區研究院路２段８０號,121.6152,25.0454,(02)27885951,羅氏家用新冠病毒抗原自我檢測套組,5,2022/05/08 07:25:02,下午1點發號碼牌，下午1:30-2:30憑號碼牌、健保卡、現金領取快篩（逾時取消）禮拜六有販售
5901121841,泓安藥局,臺北市南港區興華路７５號,121.6061,25.05517,(02)27861083,羅氏家用新冠病毒抗原自我檢測套組,78,2022/05/08 07:25:02,星期一至星期日早上10:00開賣快篩試劑
5901121850,健涵藥局,臺北市南港區舊莊街１段１４７號,121.6205,25.03985,(02)27837285,羅氏家用新冠病毒抗原自我檢測套組,79,2022/05/08 07:25:02,發快篩時間：每日下午一點
5901121869,南港藥局,臺北市南港區南港路一段１６６號,121.6119,25.05536,(02)27829137,羅氏家用新冠病毒抗原自我檢測套組,78,2022/05/08 07:25:02,快篩販售時間晚上6:00~晚上8:00（每天78份，售完即止）（周日休息）
5901121912,成恩藥局,臺北市南港區成福路２３號,121.5867,25.04473,(02)27856602,羅氏家用新冠病毒抗原自我檢測套組,44,2022/05/08 07:25:02,快篩販賣時間：平日 週一到五 下午3:00~5:00
5901121985,勝安藥局,臺北市南港區舊莊街１段１６５號,121.6211,25.03949,(02)27828450,羅氏家用新冠病毒抗原自我檢測套組,36,2022/05/08 07:25:02,實名制快篩晚上21:00提供，倘提早額滿且經現場排隊者全體同意，則即時銷售 5／8正常
5901122062,躍獅忠孝藥局,臺北市南港區成福路１６號,121.586,25.04561,(02)27862829,羅氏家用新冠病毒抗原自我檢測套組,2,2022/05/08 07:25:02,無
5901122080,成福大藥局,臺北市南港區成福路８號,121.5859,25.04578,(02)27859221,羅氏家用新冠病毒抗原自我檢測套組,78,2022/05/08 07:25:02,無
5901150011,南風藥局,臺北市士林區美崙街１９號１樓,121.5233,25.09715,(02)28320375,羅氏家用新冠病毒抗原自我檢測套組,4,2022/05/08 07:25:02,快篩15:30現場排隊購買共七十份。每日保留8份，給華榮市場固定攤販（登記完為止）
5901150397,博惠藥局,臺北市士林區華榮街１６號,121.5236,25.09549,(02)28320379,羅氏家用新冠病毒抗原自我檢測套組,76,2022/05/08 07:25:02,（實名制快篩）週一至週六下午四點開始銷售，** 周日停售 **
5901150468,太安藥局,臺北市士林區延平北路５段１５７號,121.5101,25.08251,(02)28111468,羅氏家用新冠病毒抗原自我檢測套組,75,2022/05/08 07:25:02,實名制快篩恢復到早上7:30開始販售 現場排隊 無號碼牌
5901150593,安寧藥局,臺北市士林區劍潭路９１號,121.5199,25.08285,(02)28803319,羅氏家用新冠病毒抗原自我檢測套組,78,2022/05/08 07:25:02,領藥星期1.3.5為 9:00~12:00.及16:00~20:00*星期2.4.6.--上午
5901152079,資生堂藥局,臺北市士林區承德路４段４０巷１７號１Ｆ,121.522,25.08107,(02)28857588,羅氏家用新冠病毒抗原自我檢測套組,78,2022/05/08 07:25:02,今日快篩已售完
5901152471,得安藥局,臺北市士林區文林路１４０號,121.5267,25.08878,(02)28836336,羅氏家用新冠病毒抗原自我檢測套組,78,2022/05/08 07:25:02,星期三五六下午3:30---10:00   星期二 四日下午5:00--10:00
5901152659,和樹藥局,臺北市士林區後港街４５巷１號１樓,121.5228,25.08444,(02)28821188,羅氏家用新冠病毒抗原自我檢測套組,78,2022/05/08 07:25:02,實名制快篩發放時間早上 9點30
5901153245,大東健保藥局,臺北市士林區大東路８６－４號,121.5257,25.09131,(02)28834672,羅氏家用新冠病毒抗原自我檢測套組,61,2022/05/08 07:25:02,實名制快篩販售以現場門口公告為主
5901153674,愛佳藥局,臺北市士林區承德路４段２２２之１號,121.5215,25.0885,(02)28811199,羅氏家用新冠病毒抗原自我檢測套組,78,2022/05/08 07:25:02,實名制快篩平日一~五下午5:00販售，假日（六、日）不販售
5901153825,太和堂中西藥局,臺北市士林區大東路７４號（實際使用：１樓）,121.5257,25.09037,(02)28814122,羅氏家用新冠病毒抗原自我檢測套組,1,2022/05/08 07:25:02,上午8:30現場領號碼牌。週日公休
5901153905,躍獅芝山藥局,臺北市士林區福華路１５４號（實際使用：１樓）,121.5227,25.10357,(02)28365822,羅氏家用新冠病毒抗原自我檢測套組,12,2022/05/08 07:25:02,無
5901154028,向宇藥局,臺北市士林區德行東路２１７號１樓,121.5328,25.10935,(02)88661101,羅氏家用新冠病毒抗原自我檢測套組,71,2022/05/08 07:25:02,無
5901154055,天母盛康藥局,臺北市士林區天母東路８巷８４號１樓,121.5304,25.11483,(02)28720208,羅氏家用新冠病毒抗原自我檢測套組,67,2022/05/08 07:25:02,實名制快篩每日14:00開始，賣完為止。
5901154073,中山盛康藥局,臺北市士林區中山北路７段１６２號１樓,121.5327,25.12416,(02)28771887,羅氏家用新冠病毒抗原自我檢測套組,78,2022/05/08 07:25:02,實名制快篩早上9:00-12:00發放號碼牌
5901154108,藥本家藥局,臺北市士林區中山北路７段１４巷２６號１樓,121.5328,25.11884,(02)28766682,羅氏家用新冠病毒抗原自我檢測套組,12,2022/05/08 07:25:02,無
5901162306,上頤藥局,臺北市北投區中和街３２７號１樓,121.4997,25.14097,(02)28981230,羅氏家用新冠病毒抗原自我檢測套組,524,2022/05/08 07:25:02,無
5901162806,大家藥局,臺北市北投區光明路１８２號,121.5033,25.13566,(02)28959000,羅氏家用新冠病毒抗原自我檢測套組,55,2022/05/08 07:25:02,快篩早上9點開賣 售完為止 沒有號碼牌 現場排隊
5901162833,維康藥局,臺北市北投區石牌路２段１９１．１９３號,121.5184,25.11874,(02)28206343,羅氏家用新冠病毒抗原自我檢測套組,11,2022/05/08 07:25:02,快篩發放時間為每日下午3點排隊，現場購賣
5901163107,小豬藥局,臺北市北投區東陽街４０３號１樓,121.5176,25.11244,(02)28217099,羅氏家用新冠病毒抗原自我檢測套組,73,2022/05/08 07:25:02,星期六.星期日不販售
5901163330,萬信藥局,臺北市北投區知行路３０５號（實際使用１樓）,121.4672,25.12214,(02)28583083,羅氏家用新冠病毒抗原自我檢測套組,78,2022/05/08 07:25:02,視到貨時間開賣
5901163438,漢藥局,臺北市北投區吉利街１４６號,121.508,25.11854,(02)28236598,羅氏家用新冠病毒抗原自我檢測套組,27,2022/05/08 07:25:02,快篩實名制領取時間：周一至周六下午2點現場排隊
5901163536,天富大藥局,臺北市北投區石牌路２段１７１號（實際使用：１樓）,121.518,25.11848,(02)28225812,羅氏家用新冠病毒抗原自我檢測套組,41,2022/05/08 07:25:02,週一至週六下午2-3點直接販售；週日暫停販售
5901163554,良哲藥局,臺北市北投區明德路１５７－４號（實際使用：１樓）,121.5209,25.11129,(02)28285516,羅氏家用新冠病毒抗原自我檢測套組,2,2022/05/08 07:25:02,實名制快篩販售時間：早上 9:00~9:30／下午 2:30~3:00（週六人力不足不販售／週日休息）
5901163563,躍獅光明藥局,臺北市北投區光明路５１號、５３號（實際使用：１樓）,121.4998,25.13286,(02)28915993,羅氏家用新冠病毒抗原自我檢測套組,1,2022/05/08 07:25:02,今日快篩已全數販售完畢，請不要再打電話詢問，謝謝
5901163634,心樂藥局,臺北市北投區致遠一路２段１０５號１樓,121.5128,25.1131,(02)28210261,羅氏家用新冠病毒抗原自我檢測套組,35,2022/05/08 07:25:02,您好。發放快篩時間:周一二三五六早上8:30-09:00，週四加開早上10-11點，周一二三五 下午4:00-4:30，周日及國定假日休息
5901170184,臺陽藥局,臺北市信義區大道路６１號,121.5823,25.04136,(02)27283403,羅氏家用新冠病毒抗原自我檢測套組,78,2022/05/08 07:25:02,快篩試劑早上9:30現場販售，週日沒有販售
5901170406,鼎泰藥局,臺北市信義區基隆路１段１５５號１樓,121.5653,25.04222,(02)27620617,羅氏家用新冠病毒抗原自我檢測套組,78,2022/05/08 07:25:02,周一至周五 9：30-21：30 （9:30 開始發快篩） 5／1 有營業
5901170648,立信藥局,臺北市信義區松山路４０３號,121.578,25.04144,(02)27687754,羅氏家用新冠病毒抗原自我檢測套組,2,2022/05/08 07:25:02,快篩試劑販賣時間:晚上七點至九點
5901172508,好康藥局,臺北市信義區莊敬路４１４號,121.5662,25.02716,(02)27232979,羅氏家用新冠病毒抗原自我檢測套組,3,2022/05/08 07:25:02,無
5901172544,麗中藥局,臺北市信義區福德街２１７號,121.5847,25.03841,(02)27594416,羅氏家用新冠病毒抗原自我檢測套組,78,2022/05/08 07:25:02,無
5901172651,康杏藥局,臺北市信義區福德街３０６號１樓,121.5874,25.03931,(02)27591510,羅氏家用新冠病毒抗原自我檢測套組,5,2022/05/08 07:25:02,無
5901172697,綠杏大藥局,臺北市信義區吳興街２４１號,121.5635,25.02745,(02)27582378,羅氏家用新冠病毒抗原自我檢測套組,66,2022/05/08 07:25:02,快篩實名制，下午1300開始販售，如果人潮過多，將提早開賣，星期天沒有販售，星期天沒有販售，星期天沒有販售
5901172704,鴻濟藥局,臺北市信義區永吉路３２６巷２號１樓,121.5754,25.04507,(02)27645331,羅氏家用新冠病毒抗原自我檢測套組,5,2022/05/08 07:25:02,快篩販售時間:周一至周五: 15:00開始。週六.周日:視實際到貨情形請見門口公告
5901172740,信桉藥局,臺北市信義區莊敬路２３６號,121.5621,25.0296,(02)87860005,羅氏家用新冠病毒抗原自我檢測套組,234,2022/05/08 07:25:02,快篩販售 W1-5 11:00-20:00，W6 11:00-15:00
5901172964,榮泰藥局,臺北市信義區光復南路４１９巷１９號,121.5582,25.03659,(02)77296777,羅氏家用新冠病毒抗原自我檢測套組,7,2022/05/08 07:25:02,早上9:00開始發放實名制快篩號碼牌
5901173041,皇昇大藥局,臺北市信義區松山路２１０號１樓,121.5776,25.04509,(02)27663488,羅氏家用新冠病毒抗原自我檢測套組,67,2022/05/08 07:25:02,周一至週五下午3點開始販售實名制快篩
5901173372,新永春藥局,臺北市信義區忠孝東路５段４２３巷１號,121.5753,25.04126,(02)27667385,羅氏家用新冠病毒抗原自我檢測套組,63,2022/05/08 07:25:02,快篩販售時間:每日13:00開始，售完為止
5901173407,康怡健保藥局,臺北市信義區吳興街４６７巷２弄１２號,121.5695,25.02381,(02)27206193,羅氏家用新冠病毒抗原自我檢測套組,2,2022/05/08 07:25:02,快篩早上9點開賣，賣完為止
5901173738,尚頤中西藥局,臺北市信義區虎林街１４５號,121.5767,25.03959,(02)27253818,羅氏家用新冠病毒抗原自我檢測套組,57,2022/05/08 07:25:02,無
5901173845,躍獅永吉藥局,臺北市信義區永吉路５２０號,121.5804,25.04521,(02)27658924,羅氏家用新冠病毒抗原自我檢測套組,38,2022/05/08 07:25:02,發放快篩時間為 9:30-10:30 （39人次） 20:30-21:30 （39人次） 星期日停發
5901173872,柏愛藥局,臺北市信義區基隆路２段１３１之９號,121.5567,25.02788,(02)27325472,羅氏家用新冠病毒抗原自我檢測套組,1,2022/05/08 07:25:02,國定假日營業時間為09:30-17:30；實名制快篩09:30開賣
5901173934,躍獅光復藥局,臺北市信義區光復南路４１７之８號,121.5577,25.03682,(02)87862307,羅氏家用新冠病毒抗原自我檢測套組,46,2022/05/08 07:25:02,下午1點開始販售
5901173943,躍獅興雅藥局,臺北市信義區松德路１２８號,121.5745,25.03734,(02)87808429,羅氏家用新冠病毒抗原自我檢測套組,78,2022/05/08 07:25:02,14:00發號碼牌且同步開賣快篩，販賣至15:00或售完為止，週日無販售。
5901174057,詠晴中西藥局,臺北市信義區松山路４８４之４號（１樓含夾層）,121.5778,25.0389,(02)27266890,羅氏家用新冠病毒抗原自我檢測套組,78,2022/05/08 07:25:02,實名制快篩 - 16:30領號碼牌.當天取貨即可.避免群聚風險
5901180215,上海聯合藥局,臺北市中正區衡陽路３２號１樓,121.5126,25.04221,(02)23117744,羅氏家用新冠病毒抗原自我檢測套組,1,2022/05/08 07:25:02,無
5901180224,中心藥局,臺北市中正區汀州路３段１２１號,121.5303,25.01654,(02)23689889,羅氏家用新冠病毒抗原自我檢測套組,1,2022/05/08 07:25:02,實名制快篩因物流貨運配送調度，調整領取時間延後至下午3點
5901183510,怡誠藥局,臺北市中正區汀州路２段２１２號,121.5237,25.02236,(02)23626905,羅氏家用新冠病毒抗原自我檢測套組,78,2022/05/08 07:25:02,無
5901183645,大愛生活藥局,臺北市中正區汀州路２段２３２號,121.5243,25.02189,(02)23661155,羅氏家用新冠病毒抗原自我檢測套組,109,2022/05/08 07:25:02,下午14:30開始發放快篩（不發號碼牌直接買）~~不要太早開始排隊啊啊啊啊
5901184080,活力健康藥妝藥局,臺北市中正區中華路２段３１５巷１號,121.5062,25.02795,(02)23392625,羅氏家用新冠病毒抗原自我檢測套組,2,2022/05/08 07:25:02,快篩14:00-15:00， 建議提早排隊
5901184106,信康藥局,臺北市中正區南昌路１段１４３號,121.5186,25.02953,(02)23961979,羅氏家用新冠病毒抗原自我檢測套組,3,2022/05/08 07:25:02,14:00開始販售實名制快篩
5901184375,大盛藥局,臺北市中正區中華路１段２１巷１６號,121.5105,25.04645,(02)23713838,羅氏家用新冠病毒抗原自我檢測套組,47,2022/05/08 07:25:02,周日及國定假日公休
5901184535,桐心藥局,臺北市中正區金華街１８之６號１樓,121.5202,25.03175,(02)23581663,羅氏家用新冠病毒抗原自我檢測套組,4,2022/05/08 07:25:02,無
5901184562,博昱連雲藥局,臺北市中正區連雲街７２號、７２之１號,121.53,25.03455,(02)23581898,羅氏家用新冠病毒抗原自我檢測套組,78,2022/05/08 07:25:02,無
5901184606,躍獅南寧藥局,臺北市中正區南昌路１段８１號,121.5178,25.03057,(02)23967072,羅氏家用新冠病毒抗原自我檢測套組,78,2022/05/08 07:25:02,上午10點售實名制快篩
5901184633,躍獅東門藥局,臺北市中正區金山南路１段１０８之１號（１樓）,121.5273,25.03538,(02)23920339,羅氏家用新冠病毒抗原自我檢測套組,32,2022/05/08 07:25:02,5／8起早上9點開始販售，不提早發放號碼牌
5901184713,建祥武昌藥局,臺北市中正區武昌街１段２９號１樓,121.5121,25.04416,(02)23314038,羅氏家用新冠病毒抗原自我檢測套組,78,2022/05/08 07:25:02,無
5901192162,寶興大藥局,臺北市萬華區寶興街１１９號,121.4948,25.02529,(02)23013375,羅氏家用新冠病毒抗原自我檢測套組,62,2022/05/08 07:25:02,周一至周五12：00開始代售，現場排隊，不發號碼牌
5901193105,安誠貴陽藥局,臺北市萬華區貴陽街２段１４８號,121.5016,25.04017,(02)23812190,羅氏家用新冠病毒抗原自我檢測套組,156,2022/05/08 07:25:02,無
5901193169,柏祥藥局,臺北市萬華區西藏路１４１號,121.5017,25.02944,(02)23018272,羅氏家用新冠病毒抗原自我檢測套組,78,2022/05/08 07:25:02,1快篩服務時間晚上6:00起售完截止。2販售詳情請見門口公告。5／7 - 5／8公休不販售。
5901193196,青年宏越藥局,臺北市萬華區青年路４４號,121.5042,25.0255,(02)23011037,羅氏家用新冠病毒抗原自我檢測套組,96,2022/05/08 07:25:02,快篩六日不販售，禮拜一~五下午2:30-3:30，現場排隊
5901193301,富安藥局,臺北市萬華區萬大路４２６號,121.4981,25.02096,(02)23377878,羅氏家用新冠病毒抗原自我檢測套組,37,2022/05/08 07:25:02,快篩實名制：一人一卡，現場排隊，售完為止。【5／3早上暫停販售，販售時間待更新！】
5901200141,景美藥局,臺北市文山區景文街１２５號,121.5412,24.99033,(02)29335741,羅氏家用新冠病毒抗原自我檢測套組,78,2022/05/08 07:25:02,無
5901201568,康宜庭生活藥局,臺北市文山區興隆路４段６４號,121.5613,24.98514,(02)29385363,羅氏家用新冠病毒抗原自我檢測套組,6,2022/05/08 07:25:02,實名快篩14:00開賣 現場排隊
5901202627,杏隆藥局,臺北市文山區羅斯福路５段２６１號,121.5395,25.00115,(02)29313151,羅氏家用新冠病毒抗原自我檢測套組,156,2022/05/08 07:25:02,快篩實名制採預約登記，至5／14已登記額滿。
5901202752,躍獅奕新藥局,臺北市文山區木新路２段２７５號,121.566,24.98292,(02)22340378,羅氏家用新冠病毒抗原自我檢測套組,53,2022/05/08 07:25:02,週一至週六下午1:30售實名制快篩，週日停售
5901202789,宜康藥局,臺北市文山區保儀路７號,121.5686,24.98872,(02)86619862,羅氏家用新冠病毒抗原自我檢測套組,15,2022/05/08 07:25:02,快篩平日下午一點半開始販售，國定假日及週末沒有販售
5901202850,北一藥師藥局,臺北市文山區木新路３段４７號,121.5642,24.98236,(02)22348686,羅氏家用新冠病毒抗原自我檢測套組,74,2022/05/08 07:25:02,實名制快篩：週一至週五14:30開賣（直接排隊）、週六看狀況、週日停售
5901202949,萬隆大藥局,臺北市文山區羅斯福路５段２１８巷１５號,121.538,25.00203,(02)29334580,羅氏家用新冠病毒抗原自我檢測套組,80,2022/05/08 07:25:02,9：00~23：00
5901203179,健安藥局,臺北市文山區景興路１６５號,121.5447,24.99346,(02)29323757,羅氏家用新冠病毒抗原自我檢測套組,1,2022/05/08 07:25:02,周一到周六.下午三點開賣實名制快篩.現場排隊不發號碼牌
5901203204,躍獅新芳藥局,臺北市文山區興隆路３段１６號（實際營業地址：１樓）,121.5549,25.00062,(02)29308172,羅氏家用新冠病毒抗原自我檢測套組,78,2022/05/08 07:25:02,早上九點開始販售實名制快篩，售完為止
5901203268,躍獅木柵藥局,臺北市文山區指南路１段２８號,121.5695,24.98756,(02)86617752,羅氏家用新冠病毒抗原自我檢測套組,81,2022/05/08 07:25:02,政府快篩若有配貨每天早上9點開賣， 售完為止
5901203482,健康家藥局,臺北市文山區興隆路２段１３３號１樓,121.5481,25.00011,(02)29330858,羅氏家用新冠病毒抗原自我檢測套組,1,2022/05/08 07:25:02,實名制快篩下午一點開始販售，5／1店休
5902021153,世和藥局,高雄市鼓山區華豐里華夏路１９５號,120.2959,22.66936,(07)5522566,羅氏家用新冠病毒抗原自我檢測套組,36,2022/05/08 07:25:02,賣快篩時間：周一至週日每天早上7奌20分，售完為止。
5902022829,弘興藥局,高雄市鼓山區鼓山三路４８－１１號,120.2757,22.65468,(07)5612677,羅氏家用新冠病毒抗原自我檢測套組,1,2022/05/08 07:25:02,無
5902032450,可達藥局,高雄市左營區榮德街１７７號,120.3205,22.68359,(07)3420182,羅氏家用新冠病毒抗原自我檢測套組,3,2022/05/08 07:25:02,快篩販售時間週一～週六早上9點～11點。現場排隊，售完為止
5902040185,東初藥局,高雄市楠梓區楠梓路３２號,120.33,22.72873,(07)3511261,羅氏家用新冠病毒抗原自我檢測套組,44,2022/05/08 07:25:02,無
5902050350,日星藥局,高雄市三民區寶龍里惠德街３８號,120.3241,22.64741,(07)3845188,羅氏家用新冠病毒抗原自我檢測套組,78,2022/05/08 07:25:02,快篩口罩時間:星期一至五16:00-21:00；星期六09:00-11:30，售完為止
5902057902,利安藥局,高雄市三民區建工路５４５號,120.3213,22.64854,(07)3965550,羅氏家用新冠病毒抗原自我檢測套組,2,2022/05/08 07:25:02,營業日9:00AM起販賣口罩，售完為止
5902081328,東信藥局,高雄市苓雅區三多一路１８９號,120.3313,22.62258,(07)7613309,羅氏家用新冠病毒抗原自我檢測套組,70,2022/05/08 07:25:02,早上8:30開始發送號碼牌販售口罩，售完為止，假日正常販售
5902085344,意祥藥局,高雄市苓雅區武廟路１４２之１號,120.3276,22.63125,(07)7224835,羅氏家用新冠病毒抗原自我檢測套組,5,2022/05/08 07:25:02,藥局販售口罩時間，依藥局門口公告時間為主（售完為止）
5902085371,加和藥局,高雄市苓雅區和平一路１４３之７號,120.3205,22.62331,(07)7219332,羅氏家用新冠病毒抗原自我檢測套組,78,2022/05/08 07:25:02,快篩試劑每日下午2:30販售，務再來電詢問。星期天不販售快篩試劑
5902110066,文祺藥局,高雄市小港區正苓里平治街１１２號,120.3543,22.56743,(07)8014066,羅氏家用新冠病毒抗原自我檢測套組,78,2022/05/08 07:25:02,自2／11日~2／29日，6:00發號碼牌，14:00為販賣口罩時間.售完為止
5902110093,鳳明中西大藥局,高雄市小港區二苓路２４７號,120.3477,22.56534,(07)8011846,羅氏家用新冠病毒抗原自我檢測套組,1,2022/05/08 07:25:02,實名制快篩 :星期1 到 星期6 下午2點開賣
5902110600,高泰藥局,高雄市小港區桂陽路７號,120.3584,22.58144,(07)7930043,羅氏家用新冠病毒抗原自我檢測套組,78,2022/05/08 07:25:02,即日起，營業日早上7:30 為販賣快篩時間，售完為止
5903010449,豐原藥局,臺中市豐原區新生北路２０６號之１（１樓）,120.7219,24.2551,(04)25260119,羅氏家用新冠病毒抗原自我檢測套組,5,2022/05/08 07:25:02,周日休息，無提供販售實名制快篩服務
5903010510,安德豐原藥局,臺中市豐原區中正路２９５號１樓,120.7159,24.25142,(04)25200733,羅氏家用新冠病毒抗原自我檢測套組,2,2022/05/08 07:25:02,快篩0800發號碼牌，憑號碼牌領取時間1200-1900
5903030067,甲尚藥局,臺中市大甲區順天路１２９號１樓,120.622,24.3446,(04)26760885,羅氏家用新冠病毒抗原自我檢測套組,78,2022/05/08 07:25:02,實名制 快篩 早0800 開賣 （依經驗 約莫 0830 前完售）
5903030165,民和藥局,臺中市大甲區德興路６８號,120.6233,24.35089,(04)26871212,羅氏家用新冠病毒抗原自我檢測套組,13,2022/05/08 07:25:02,早上8點開始販售實名制快篩。（依經驗通常8:30以前就會售完，請省下電話費）。週日公休
5903040072,碧綠谷藥局,臺中市清水區中華路５２５號,120.5718,24.27605,(04)26281151,羅氏家用新冠病毒抗原自我檢測套組,4,2022/05/08 07:25:02,09:30發放快篩.星期日休息.癌症諮詢.慢箋領藥.長照特約.更年期.糖尿病.戒菸諮詢.孕期保健.小兒營養
5903050069,進騰藥局,臺中市沙鹿區鎮南路２段２３４號,120.5689,24.22394,(04)26314418,羅氏家用新冠病毒抗原自我檢測套組,39,2022/05/08 07:25:02,營業時間8:00-22:00，每日中午12點開始販售家用快篩
5903050103,北勢進騰藥局,臺中市沙鹿區北勢東路５０９之７號１樓,120.576,24.22526,(04)26330893,羅氏家用新冠病毒抗原自我檢測套組,78,2022/05/08 07:25:02,營業時間12:00-22:00，每日12:00販售實名制快篩
5903050256,大安心藥局,臺中市沙鹿區星河路１２－１號１樓,120.5679,24.25208,(04)26620082,羅氏家用新冠病毒抗原自我檢測套組,49,2022/05/08 07:25:02,快篩實名制每日上午9時開始販售，周日也有販售
5903070025,得安藥局,臺中市后里區四村路７８號,120.7129,24.30469,(04)25585333,羅氏家用新冠病毒抗原自我檢測套組,78,2022/05/08 07:25:02,快篩販賣時間 14:00~15:00（售完為止）
5903070061,豪銘藥局,臺中市后里區公安路６８號,120.7113,24.30469,(04)25562991,羅氏家用新冠病毒抗原自我檢測套組,73,2022/05/08 07:25:02,每天早上8:30點開始販售，售完為止。星期日早上8-10點
5903070105,后里藥局,臺中市后里區文明路１３３號１樓,120.7164,24.30682,(04)25590119,羅氏家用新冠病毒抗原自我檢測套組,48,2022/05/08 07:25:02,請勿排隊群聚 注意身體健康
5903070141,甲后藥局,臺中市后里區甲后路一段２５３號１樓,120.727,24.30906,(04)25585273,羅氏家用新冠病毒抗原自我檢測套組,164,2022/05/08 07:25:02,周一到周六，快篩發放時段：09:00，14:30，19:00，限額售完為止。
5903070169,佑全后里甲后藥局,臺中市后里區甲后路一段７２８號１、２樓,120.7193,24.30951,(04)25583116,羅氏家用新冠病毒抗原自我檢測套組,27,2022/05/08 07:25:02,實名制快篩每日14:00販售。13:50發放號碼牌。
5903080094,灃洲大藥局,臺中市神岡區豐洲路４６６－３號１樓,120.7045,24.26179,(04)25150169,羅氏家用新冠病毒抗原自我檢測套組,2,2022/05/08 07:25:02,星期日公休，實名制快篩販售時間為每日下午兩點
5903090125,愛生藥師藥局,臺中市潭子區中山路２段４９１號,120.7051,24.21594,(04)25321819,羅氏家用新冠病毒抗原自我檢測套組,61,2022/05/08 07:25:02,早上8:40開始發放實名制快篩
5903090143,佳福藥局,臺中市潭子區中山路１段４３－１號,120.7023,24.19138,(04)25332982,羅氏家用新冠病毒抗原自我檢測套組,78,2022/05/08 07:25:02,每日中午12:00至下午3:00休息，星期六公休，營業日上午8:00快篩試劑開賣
5903090394,全球健康藥局,臺中市潭子區南環路５號１樓,120.7045,24.21661,(04)25340212,羅氏家用新冠病毒抗原自我檢測套組,74,2022/05/08 07:25:02,無
5903100046,躍獅佑仁藥局,臺中市大雅區雅環路２段２８７號,120.6488,24.22919,(04)25608256,羅氏家用新冠病毒抗原自我檢測套組,78,2022/05/08 07:25:02,家用快篩販售-星期一~星期五 晚上7點（19:00）開始.時間更新異動請參閱粉專
5903100180,杏一大雅中清藥局,臺中市大雅區中清路四段３１、３３、３５號１樓,120.6448,24.22615,(04)25601791,羅氏家用新冠病毒抗原自我檢測套組,5,2022/05/08 07:25:02,週一~週六14:00販售（13:50發號碼牌）每人每卡限定1份500元!週日無販售!
5903150019,統元藥局,臺中市烏日區中華路５８３號,120.6342,24.10755,(04)23377588,羅氏家用新冠病毒抗原自我檢測套組,1,2022/05/08 07:25:02,快篩販售時間:早上9:00至12:00或（售完即止）.
5903150037,杏益藥局,臺中市烏日區信義街１７２號,120.6393,24.10502,(04)23364059,羅氏家用新冠病毒抗原自我檢測套組,23,2022/05/08 07:25:02,快篩販售時間W1-W6:08:30-12:00  週日:7:30-9:00 或售完即止（排隊約30分鐘賣完　不發號碼牌　賣購卡阿）
5903160088,必安藥局,臺中市大肚區沙田路二段６３４號,120.5455,24.15084,(04)26992116,羅氏家用新冠病毒抗原自我檢測套組,79,2022/05/08 07:25:02,**限購1份**早上8點販售**每天固定78份，非156**
5903180053,皇昇藥局,臺中市霧峰區四德路５５６號１樓,120.6648,24.06008,(04)23397749,羅氏家用新冠病毒抗原自我檢測套組,78,2022/05/08 07:25:02,早上7:30點開始販售，現場排隊
5903190335,育賢德侑藥局,臺中市太平區育賢路１０７號、１０９號,120.7219,24.15768,(04)23920696,羅氏家用新冠病毒抗原自我檢測套組,78,2022/05/08 07:25:02,實名制快篩販售時間：星期一~星期日 早上8:30點開賣（售完為止）
5903190675,德芳太平藥局,臺中市太平區中興路１３３巷１－１號１樓,120.7146,24.12617,(04)23511588,羅氏家用新冠病毒抗原自我檢測套組,3,2022/05/08 07:25:02,快篩販售時間:下午3點~6點
5903190728,太平瑞昌藥局,臺中市太平區新興路２８號１樓,120.7124,24.15916,(04)23956319,羅氏家用新冠病毒抗原自我檢測套組,1,2022/05/08 07:25:02,無
5903200096,仁化藥局,臺中市大里區仁化路５４０號,120.7012,24.09623,(04)24915902,羅氏家用新冠病毒抗原自我檢測套組,78,2022/05/08 07:25:02,W1-W5  下午1800發放.現場排隊    W6 休息  W日中午12:30
5903200121,弘佑藥局,臺中市大里區成功路５１５號１樓,120.7032,24.09071,(04)24911234,羅氏家用新冠病毒抗原自我檢測套組,19,2022/05/08 07:25:02,實名制快篩試劑早上九點開始販售，無號碼牌。星期天公休
5903200658,德芳成功藥局,臺中市大里區成功路５３５－３號１樓,120.7033,24.0913,(04)24920298,羅氏家用新冠病毒抗原自我檢測套組,9,2022/05/08 07:25:02,快篩販售時間:下午3點~6點
5903200738,杏一大里國光藥局,臺中市大里區國光路二段４１１號１樓,120.6796,24.10921,(04)24071492,羅氏家用新冠病毒抗原自我檢測套組,78,2022/05/08 07:25:02,周一至周六16:00~19:00，周日及補假日人力不足不販售
5903220114,鄧博士藥局,臺中市中區中山路３２５號１樓,120.6756,24.14434,(04)22256851,羅氏家用新冠病毒抗原自我檢測套組,4,2022/05/08 07:25:02,24小時營業。
5903220196,日安藥局,臺中市中區臺灣大道一段３３０號１樓,120.6801,24.1422,(04)22234246,羅氏家用新冠病毒抗原自我檢測套組,1,2022/05/08 07:25:02,週一至週六 下午2:30開始販售快篩   週日 早上9:30開始販售
5903230094,平祐健保藥局,臺中市東區旱溪東路１段２９７號１樓,120.7009,24.13481,(04)22113898,羅氏家用新冠病毒抗原自我檢測套組,57,2022/05/08 07:25:02,早上九點開始販售!週六公休，週日正常販售!
5903230183,恒生藥局,臺中市東區樂業路３９５號１樓,120.7051,24.138,(04)22135179,羅氏家用新冠病毒抗原自我檢測套組,68,2022/05/08 07:25:02,快篩11點開始過卡，中午1~3點為清消時間 暫停發放。周日公休。另有提供領慢箋服務及保健食品，任何疑問請洽藥師。
5903240410,德芳美村藥局,臺中市西區美村路一段６８１、６８３號１樓,120.6618,24.13545,(04)23782848,羅氏家用新冠病毒抗原自我檢測套組,77,2022/05/08 07:25:02,周一到周五下午3點~6點
5903250505,心安藥局,臺中市南區國光路２４１號１樓,120.6794,24.12676,(04)22858773,羅氏家用新冠病毒抗原自我檢測套組,3,2022/05/08 07:25:02,每天下午三點排隊開賣，一人一卡，週日公休下次是5／9號
5903260163,康甫藥師藥局,臺中市北區進化北路３６６號１樓,120.6806,24.16333,(04)22366682,羅氏家用新冠病毒抗原自我檢測套組,2,2022/05/08 07:25:02,有關口罩販售：周一至周六早上9:30發號碼牌，下午3:00過後發售口罩。周日休息。
5903260501,瑞鋒藥師藥局,臺中市北區育德路１６號,120.6795,24.15763,(04)22020786,羅氏家用新冠病毒抗原自我檢測套組,6,2022/05/08 07:25:02,快篩 14:30開始
5903260547,源順大藥局,臺中市北區健行路４８４號,120.6797,24.15931,(04)22072651,羅氏家用新冠病毒抗原自我檢測套組,1,2022/05/08 07:25:02,早上9:00~晚上10:00，固定周一至周六上午09:30開始販售口罩，售完為止.
5903260949,進化瑞昌藥局,臺中市北區進化路３３２號１樓,120.6946,24.15378,(04)23608199,羅氏家用新冠病毒抗原自我檢測套組,1,2022/05/08 07:25:02,上午10:00開賣，9:45發號碼牌，須在現場排隊過號即棄權，請依現場指示排隊謝謝
5903260976,躍獅達心藥局,臺中市北區雙十路二段１８７號１樓,120.6906,24.15779,(04)22344548,羅氏家用新冠病毒抗原自我檢測套組,4,2022/05/08 07:25:02,實名制快篩販售每日11點發放號碼牌到貨公告領取
5903270301,宥承藥局,臺中市西屯區西屯路３段１４８－１６號,120.6242,24.18563,(04)24626559,羅氏家用新冠病毒抗原自我檢測套組,8,2022/05/08 07:25:02,星期一到星期六， 開始快篩
5903270614,至善德侑藥局,臺中市西屯區至善路６０號,120.6395,24.17141,(04)24518729,羅氏家用新冠病毒抗原自我檢測套組,2,2022/05/08 07:25:02,實名制快篩下午14:00開始發號碼牌.14:15開始販售
5903270847,分子藥局,臺中市西屯區惠來路二段２３６－１號,120.6421,24.16318,(04)22513080,羅氏家用新冠病毒抗原自我檢測套組,42,2022/05/08 07:25:02,發放時間週一至週日早上10點起售完為止
5903270936,新元藥局,臺中市西屯區文心路三段５３２號１樓,120.6659,24.17267,(04)23121383,羅氏家用新冠病毒抗原自我檢測套組,1,2022/05/08 07:25:02,5／1-5／2公休，快篩為滾動式配送，請電洽04-23121383
5903270963,源興大藥局,臺中市西屯區西屯路二段１２號,120.6622,24.16387,(04)23143045,羅氏家用新冠病毒抗原自我檢測套組,1,2022/05/08 07:25:02,口罩販售時間：每日下午2點至售完為止。
5903271031,美十樂中科藥局,臺中市西屯區西屯路三段１６６－６５號１樓,120.6129,24.19035,(04)24610219,羅氏家用新冠病毒抗原自我檢測套組,468,2022/05/08 07:25:02,醫事人員卡片損壞，暫時無法販賣快篩
5903271086,常春藤藥局,臺中市西屯區福康路８０號１樓,120.618,24.18603,(04)24619296,羅氏家用新冠病毒抗原自我檢測套組,64,2022/05/08 07:25:02,每日下午兩點到四點、晚上七點到九點 販賣防疫家用快篩
5903271308,祐生藥局,臺中市西屯區文華路３之１號１樓,120.6447,24.17535,(04)24517169,羅氏家用新冠病毒抗原自我檢測套組,194,2022/05/08 07:25:02,快篩發放時間：第一批中午12:00，第二批傍晚18:00，售完為止
5903280334,長益藥局,臺中市南屯區忠勇路９９號,120.6155,24.14971,(04)23899383,羅氏家用新冠病毒抗原自我檢測套組,2,2022/05/08 07:25:02,週一至週六下午13點開始開始販售口罩（當場排隊，不發號碼牌售完為止）
5903280790,統一藥局,臺中市南屯區黎明路一段１１９號１樓,120.6261,24.11478,(04)24701966,羅氏家用新冠病毒抗原自我檢測套組,78,2022/05/08 07:25:02,實名制口罩販售時間為早上8:00~10:00售完為止! （週日售完關門休息。）
5903280914,豐樹藥局,臺中市南屯區黎明路一段６３號１樓,120.6258,24.11362,(04)24792098,羅氏家用新冠病毒抗原自我檢測套組,9,2022/05/08 07:25:02,5／4快篩己售完.5／5發放時間待收到快篩時公告
5903290607,敦化小林健保藥局,臺中市北屯區敦化路１段６６８號,120.6643,24.18593,(04)24261881,羅氏家用新冠病毒抗原自我檢測套組,78,2022/05/08 07:25:02,每日早上8:00領號碼牌，16:30再回藥局領口罩（全年無休）
5903290661,康博中西健保藥局,臺中市北屯區后庄一街７號１樓,120.6644,24.1865,(04)24252468,羅氏家用新冠病毒抗原自我檢測套組,1,2022/05/08 07:25:02,快篩下午01:00發售53份；晚上06:00銷售25份.週六.日及假日下午06:30開始依配送滾動調整
5903290778,博宇藥局,臺中市北屯區北屯路３８５之１號,120.6979,24.17193,(04)22341479,羅氏家用新冠病毒抗原自我檢測套組,78,2022/05/08 07:25:02,快篩試劑10:00現場販售、售完為止。
5903291159,均福藥局,臺中市北屯區軍福十三路１００號１樓,120.7308,24.17096,(04)24391169,羅氏家用新冠病毒抗原自我檢測套組,4,2022/05/08 07:25:02,快篩實名制規則:晚上七點依現場排隊順序發號碼牌 （周日公休不販售）
5903291202,好心情藥局,臺中市北屯區昌平路一段１７之３號,120.6941,24.16607,(04)22335663,羅氏家用新冠病毒抗原自我檢測套組,1,2022/05/08 07:25:02,快篩販售時間 14:30 ~售完為止 ， 12:30~13:30 請勿來電，謝謝配合
5905010296,躍獅新營藥局,臺南市新營區民生路１６８號１樓,120.3073,23.31112,(06)6564325,羅氏家用新冠病毒抗原自我檢測套組,3,2022/05/08 07:25:02,下午4點開始發放實名制快篩 （週日不發放）
5905100062,美尚藥局後壁店,臺南市後壁區後壁里１６８－８號,120.364,23.36509,(06)6871138,羅氏家用新冠病毒抗原自我檢測套組,31,2022/05/08 07:25:02,星期六.日早上視狀況營業（會提早公告）早上10:00開始販售
5905130024,人大藥局,臺南市六甲區中山路７號,120.3513,23.23059,(06)6988802,羅氏家用新冠病毒抗原自我檢測套組,14,2022/05/08 07:25:02,快篩販售時間：星期一-日07:30-售完
5905140039,安安藥局隆田店,臺南市官田區中山路一段１５號１樓,120.3186,23.1927,(06)5795705,羅氏家用新冠病毒抗原自我檢測套組,2,2022/05/08 07:25:02,全日口罩販賣
5905180051,晉昇藥師藥局,臺南市將軍區西甲里４鄰西華６７之２１號１樓,120.1563,23.19908,(06)7943667,羅氏家用新冠病毒抗原自我檢測套組,7,2022/05/08 07:25:02,無
5905210027,愛心藥師藥局,臺南市安定區港南里港口１４７號,120.233,23.09041,(06)5935104,羅氏家用新冠病毒抗原自我檢測套組,33,2022/05/08 07:25:02,春節營業時間請電洽或依現場公告
5905270041,仁德市安藥師藥局,臺南市仁德區中正西路２５號,120.2244,22.91814,(06)2661933,羅氏家用新冠病毒抗原自我檢測套組,1,2022/05/08 07:25:02,快篩販賣：5／7.5／8.星期六.日~早上9點開始販售
5905280047,獅甲藥局,臺南市歸仁區六甲里六甲路２０３號,120.2788,22.95239,(06)3388387,羅氏家用新冠病毒抗原自我檢測套組,76,2022/05/08 07:25:02,快篩實名制，早上7點45分，開始販售
5905280092,元康保健藥局,臺南市歸仁區中山路二段２２９號,120.2888,22.96721,(06)2309055,羅氏家用新冠病毒抗原自我檢測套組,51,2022/05/08 07:25:02,快篩販售時間星期一至五下午1點開始至售完.5／6（六）不販售.5／7（日）早上9點半販售（不分單雙）
5905280136,悅橙歸仁藥局,臺南市歸仁區大通路４３號１樓,120.296,22.9676,(06)2396660,羅氏家用新冠病毒抗原自我檢測套組,4,2022/05/08 07:25:02,實名制Covid-19快篩15:00開始現場販售至售完
5905310237,睿禾藥局,臺南市永康區東橋一路１３號,120.2356,23.01609,(06)3023868,羅氏家用新冠病毒抗原自我檢測套組,1,2022/05/08 07:25:02,快篩AM10點發號牌／11點領取到13點／周日休息
5905310291,俐欣藥局,臺南市永康區大仁街２０６號１樓,120.2582,23.00553,(06)2050777,羅氏家用新冠病毒抗原自我檢測套組,14,2022/05/08 07:25:02,無
5905320466,佑全中華藥局,臺南市東區中華東路三段２１５號,120.2253,22.97603,(06)2906386,羅氏家用新冠病毒抗原自我檢測套組,1,2022/05/08 07:25:02,星期一-六08:00-21:00
5905320644,崇善藥局,臺南市東區崇善路３９２號１樓,120.2288,22.97485,(06)2896619,羅氏家用新冠病毒抗原自我檢測套組,65,2022/05/08 07:25:02,星期一、三、五下午15:00~16:00；星期二、四下午15:00~18:00；請備妥剛好現金；星期六、日不販售
5905320662,台南鼎澄藥局,臺南市東區崇明路二十街１３號１樓,120.2261,22.96735,(06)2908855,羅氏家用新冠病毒抗原自我檢測套組,69,2022/05/08 07:25:02,實名制快篩販售時間：週一~週五下午2點到5點半，一人一卡，請自備500元。
5905320751,倍加藥局,臺南市東區東門路一段２５５號１樓,120.2179,22.9872,(06)2364173,羅氏家用新冠病毒抗原自我檢測套組,78,2022/05/08 07:25:02,快篩販售時段 週一~週六 8:00~12:00 ＆ 14:30~21:30， 週日休息
5905330159,勝一藥局,臺南市南區省躬里灣裡路９０號１樓,120.1807,22.93114,(06)2626168,羅氏家用新冠病毒抗原自我檢測套組,78,2022/05/08 07:25:02,快篩實名制時間:下午2點~售完
5905340164,田邊藥局,臺南市中西區中正路２３６號,120.1969,22.99326,(06)2200106,羅氏家用新冠病毒抗原自我檢測套組,78,2022/05/08 07:25:02,口罩下午1:00販售售完為止.請自備零錢，
5905340253,永華台安藥局,臺南市中西區永華路一段１８４、１８４－１號１、２、３樓,120.1919,22.98831,(06)2225531,羅氏家用新冠病毒抗原自我檢測套組,50,2022/05/08 07:25:02,10:00販售快篩試劑（若有收到配送）
5905340262,瑞城藥局,臺南市中西區赤嵌里忠義路二段１７６號１樓,120.2043,22.99649,(06)2215810,羅氏家用新冠病毒抗原自我檢測套組,2,2022/05/08 07:25:02,週四公休 週一二三五六日09:30販售快篩 FB公告最新販售訊息 歡迎追蹤 居隔常備藥販售中
5905350240,健康藥局,臺南市北區長榮路５段２１號,120.2206,23.00827,(06)2003078,羅氏家用新冠病毒抗原自我檢測套組,14,2022/05/08 07:25:02,9:00開始販售快篩，售完為止；六日停止販售快篩
5905350535,開元台安藥局,臺南市北區開元路２８８號１樓,120.2226,23.00852,(06)2083172,羅氏家用新冠病毒抗原自我檢測套組,6,2022/05/08 07:25:02,06-2083172限定下午3點到3點半賣快篩
5905370135,安南日日康藥局,臺南市安南區安和路五段３３號,120.2185,23.06398,(06)3550995,羅氏家用新冠病毒抗原自我檢測套組,20,2022/05/08 07:25:02,實名制快篩試劑周一至周六下午2點開始售完為止
5905370260,廣道藥局,臺南市安南區溪心里海佃路三段２１８號１樓,120.1806,23.05119,(06)2568383,羅氏家用新冠病毒抗原自我檢測套組,20,2022/05/08 07:25:02,早上7:10發號碼牌下午3-6點憑號碼牌領快篩；隨時可查『廣道藥局』臉書（FB）。
5905380239,怡家藥局,臺南市安平區國平里華平路１４６─５號１樓,120.174,22.98438,(06)2970519,羅氏家用新冠病毒抗原自我檢測套組,8,2022/05/08 07:25:02,5／8週日加開0800快篩發售週一及六早0900到1100，週二、四、五晚1800到2000售完為止
5907010187,人人好藥局,高雄市鳳山區五甲三路１０巷７號１樓,120.3278,22.59336,(07)8151566,羅氏家用新冠病毒抗原自我檢測套組,77,2022/05/08 07:25:02,上午0830-1330下午1530-2100， 自2／11-2／29口罩販售周一三四五日，時間:9:00-12:00售完為止
5907010409,好郝藥局,高雄市鳳山區武松里經武路１７８號１樓,120.3642,22.63619,(07)7468840,羅氏家用新冠病毒抗原自我檢測套組,78,2022/05/08 07:25:02,營業日15:00開始販售快篩，售完為止
5907010427,好郝藥局鳳林店,高雄市鳳山區誠智里鳳林路２９０號,120.3779,22.62216,(07)7869188,羅氏家用新冠病毒抗原自我檢測套組,78,2022/05/08 07:25:02,健保快篩周一到周六（周日不販售）下午三點開始現場販售，售完為止
5907010927,元元鳳山藥局,高雄市鳳山區一甲里五甲二路３４８之１號１樓,120.3377,22.59955,(07)7529595,羅氏家用新冠病毒抗原自我檢測套組,78,2022/05/08 07:25:02,現場排隊，自備500元不找零!一至五下午3-6點。星期六下午2-5點。星期日公休
5907011200,和成藥局,高雄市鳳山區南成里和成路６５號１樓,120.3379,22.58986,(07)7961566,羅氏家用新冠病毒抗原自我檢測套組,9,2022/05/08 07:25:02,自2／11日~2／29日，營業日08:00~10:00為販賣口罩時間
5907011371,大樹五甲藥局,高雄市鳳山區福祥里五甲三路２４號１－２樓．２６號１－２樓,120.3278,22.59317,(07)8224926,羅氏家用新冠病毒抗原自我檢測套組,1,2022/05/08 07:25:02,快篩實名制，每天16:00開始販售，售完為止。
5907020021,柏康藥局,高雄市岡山區壽天路２２號,120.2938,22.79663,(07)6241688,羅氏家用新冠病毒抗原自我檢測套組,68,2022/05/08 07:25:02,無
5907060258,杏合藥局,高雄市大寮區後庄里民族路２７０號１樓,120.3917,22.63746,(07)7023620,羅氏家用新冠病毒抗原自我檢測套組,78,2022/05/08 07:25:02,實名制快篩：週一~週五8:00，週六日9:00開始販售。5／8（日）提前於8:00開始
5907080081,英祥連鎖藥局仁雄店,高雄市仁武區仁雄路３６之２號,120.3512,22.68115,(07)3722509,羅氏家用新冠病毒抗原自我檢測套組,1,2022/05/08 07:25:02,快篩販售時間為星期一～六的14:30至17:00（若提前售完，則售完為止）（14:30開始發號碼牌）
5907080125,仁武丁丁藥局,高雄市仁武區仁和里鳳仁路２１之８號,120.3558,22.6802,(07)3721896,羅氏家用新冠病毒抗原自我檢測套組,78,2022/05/08 07:25:02,自5月1日~5月31日，營業日9:00起為販賣快篩時間，售完為止。
5907080250,仁同藥局,高雄市仁武區八卦里永仁街７０６號１樓,120.3313,22.69072,(07)3736142,羅氏家用新冠病毒抗原自我檢測套組,66,2022/05/08 07:25:02,自5月01日~5月31日，營業日8:00起開始販售，當場刷卡領口罩
5907110066,安麗兒藥局橋頭店,高雄市橋頭區隆豐路１４８號,120.3062,22.75491,(07)6111209,羅氏家用新冠病毒抗原自我檢測套組,4,2022/05/08 07:25:02,上午10點開始販售快篩~售完為止
5907150024,安麗兒藥局路竹店,高雄市路竹區大社路５１號１樓,120.262,22.8632,(07)6071699,羅氏家用新冠病毒抗原自我檢測套組,78,2022/05/08 07:25:02,快篩實名制，週一至週六，早上8：30 開始，售完為止（週日無販售）
5907160093,保生藥局,高雄市湖內區葉厝里保生路３４０．３４２號,120.2195,22.90733,(07)6990800,羅氏家用新冠病毒抗原自我檢測套組,1,2022/05/08 07:25:02,快篩實名制，每天16:00開始販售，售完為止。
5907200038,和德藥局梓官店,高雄市梓官區梓和里梓官路２３３號１樓,120.267,22.75975,(07)6191008,羅氏家用新冠病毒抗原自我檢測套組,1,2022/05/08 07:25:02,早上8點開始發號碼牌（1人限2張健保卡）.下午2點開始販售
5907290176,為安藥局,高雄市鼓山區九如四路９５９號,120.2788,22.65541,(07)5212912,羅氏家用新冠病毒抗原自我檢測套組,1,2022/05/08 07:25:02,快篩實名制販賣時間：星期一至星期六  10:00開始，賣完為止  星期日休息
5907300659,維康藥局高榮店,高雄市左營區榮總路１６３號、１６５號,120.3216,22.6809,(07)3494540,羅氏家用新冠病毒抗原自我檢測套組,78,2022/05/08 07:25:02,平常日0900-1700為快篩販賣時間賣完為止！假日1000-1800
5907310137,青田藥局,高雄市楠梓區監理南街６８號,120.3188,22.72897,(07)3648257,羅氏家用新冠病毒抗原自我檢測套組,23,2022/05/08 07:25:02,銷售時間才販賣，別在看庫存了 ／ 周一至周五上午10:30-11:00 下午14:30-15:00 晚上19:00-20:00
5907320651,未來照護藥局,高雄市三民區鼎瑞街１０８號１樓,120.3154,22.66606,(07)3105356,羅氏家用新冠病毒抗原自我檢測套組,5,2022/05/08 07:25:02,實名制快篩發放規則: 周一至周六AM10:00發號碼牌，下午14:00~21:30為領取快篩時間  每 周日為公休日
5907320740,忠仁藥局,高雄市三民區中都街３５號１樓,120.2867,22.63955,(07)3125305,羅氏家用新冠病毒抗原自我檢測套組,12,2022/05/08 07:25:02,無
5907320946,熊安心藥局,高雄市三民區陽明路４０８號,120.3429,22.64609,(07)3815212,羅氏家用新冠病毒抗原自我檢測套組,27,2022/05/08 07:25:02,週一 ~ 週六快篩 14:00 販售
5907320982,康圓藥局,高雄市三民區大豐二路３５９．３６１號１樓,120.3343,22.6468,(07)3909978,羅氏家用新冠病毒抗原自我檢測套組,11,2022/05/08 07:25:02,快篩試劑下午2點開賣
5907321005,諾亞藥局,高雄市三民區鼎華路１４號１樓,120.3164,22.65139,(07)3929966,羅氏家用新冠病毒抗原自我檢測套組,1,2022/05/08 07:25:02,快篩早上10:00開始，營業時間:（一-五）早上8:00-12:00，下午02:30-6:00（五-下午5:30休息，六-開上午半天，日-休息）
5907321078,振源藥局,高雄市三民區熱河一街３５５號１樓,120.3061,22.64365,(07)3112541,羅氏家用新冠病毒抗原自我檢測套組,11,2022/05/08 07:25:02,4／30起15:00開始販售快篩，六日皆有營業
5907330228,林森合豐藥局,高雄市新興區林森一路３７號１樓,120.305,22.62388,(07)2823313,羅氏家用新冠病毒抗原自我檢測套組,3,2022/05/08 07:25:02,無
5907350597,武廟台安藥局,高雄市苓雅區武廟路１３３－１號,120.3266,22.63106,(07)7228893,羅氏家用新冠病毒抗原自我檢測套組,1,2022/05/08 07:25:02,實名制快篩販售時間：（一）~（六） 9:00~17:00
5907360146,好芳鄰藥局,高雄市前鎮區光華二路２５７號,120.3179,22.61398,(07)3318657,羅氏家用新冠病毒抗原自我檢測套組,74,2022/05/08 07:25:02,4／28日起.上午08:20~11:00 為販賣快篩時間.售完為止（其餘時間不販賣）
5907360226,順康健保藥局,高雄市前鎮區一心二路６７號,120.3099,22.61142,(07)5364438,羅氏家用新冠病毒抗原自我檢測套組,8,2022/05/08 07:25:02,家用快篩販賣時間，每天早上9點開始，售完為止。
5907360459,聯合藥局,高雄市前鎮區一心一路２８１號１樓,120.3141,22.60955,(07)3391535,羅氏家用新冠病毒抗原自我檢測套組,1,2022/05/08 07:25:02,中午12:00開賣快篩
5907360520,大樹瑞福藥局,高雄市前鎮區瑞隆路１７０號１樓、２樓,120.3357,22.60598,(07)7271170,羅氏家用新冠病毒抗原自我檢測套組,78,2022/05/08 07:25:02,快篩實名制，每天16:00開始販售，售完為止。
5907360600,桂林活力藥師藥局草衙店,高雄市前鎮區草衙二路３６０號,120.323,22.57801,(07)8131819,羅氏家用新冠病毒抗原自我檢測套組,2,2022/05/08 07:25:02,9:00發放實名制快篩號碼牌.售完為止
5911011227,和平大藥局,基隆市中正區中正路７５０號,121.7696,25.1519,(02)24628151,羅氏家用新冠病毒抗原自我檢測套組,78,2022/05/08 07:25:02,無
5911011334,海大藥局,基隆市中正區新豐街２５５號１樓,121.7879,25.13621,(02)24699222,羅氏家用新冠病毒抗原自我檢測套組,78,2022/05/08 07:25:02,平日：8：30~12：00，15：00~21：30；星期日：~12：00
5911011469,維元社區藥局,基隆市中正區新豐街４４８號,121.7859,25.13568,(02)24601388,羅氏家用新冠病毒抗原自我檢測套組,24,2022/05/08 07:25:02,無
5911011496,源昌藥局,基隆市中正區北寧路384號1樓,121.7963,25.13946,(02)24691686,羅氏家用新冠病毒抗原自我檢測套組,28,2022/05/08 07:25:02,無
5911011521,禎宸藥局,基隆市中正區中正路１７５號１樓,121.7605,25.14233,(02)24620366,羅氏家用新冠病毒抗原自我檢測套組,79,2022/05/08 07:25:02,無
5911011585,雙鶴藥局,基隆市中正區義一路３５號１樓,121.7456,25.13309,(02)24263193,羅氏家用新冠病毒抗原自我檢測套組,5,2022/05/08 07:25:02,下午14:00開始販售
5911021170,康蘋藥局,基隆市七堵區開元路５９－２號２樓,121.7139,25.09623,(02)24558150,羅氏家用新冠病毒抗原自我檢測套組,47,2022/05/08 07:25:02,10／108:00~12:00
5911021429,雅登藥局,基隆市七堵區福二街２００號１樓,121.6963,25.08355,(02)24513213,羅氏家用新冠病毒抗原自我檢測套組,78,2022/05/08 07:25:02,平日上午9:00發號碼牌，現場售完為止.每星期六.日 無販售實名制快篩
5911021438,正心藥局,基隆市七堵區南興路１０號１樓,121.7149,25.09755,(02)24563378,羅氏家用新冠病毒抗原自我檢測套組,78,2022/05/08 07:25:02,每日限量78盒， 星期一~六下午13:30發號碼牌，14:00開始販賣，星期日上午9:00發號碼牌，9:30開始販賣，12:00停止領取
5911031158,柏林藥局,基隆市暖暖區暖暖街２４６巷１６７號１樓,121.7357,25.10036,(02)24592277,羅氏家用新冠病毒抗原自我檢測套組,43,2022/05/08 07:25:02,早上8.40銷售快篩實名制
5911031283,福安藥局,基隆市暖暖區暖暖街５５２號,121.7365,25.09258,(02)24588550,羅氏家用新冠病毒抗原自我檢測套組,27,2022/05/08 07:25:02,5／2~5／6 晚上20:00販售  實名制家用快篩試劑  本日為[羅氏家用快篩試劑五入組]
5911031318,安安藥局,基隆市暖暖區源遠路１６８號,121.7492,25.09815,(02)24585577,羅氏家用新冠病毒抗原自我檢測套組,78,2022/05/08 07:25:02,每週六公休，星期日~星期五早上8:30販售實名制快篩
5911040273,第一藥局,基隆市仁愛區愛三路１２０號３樓,121.7436,25.12963,(02)24292288,羅氏家用新冠病毒抗原自我檢測套組,1,2022/05/08 07:25:02,快篩試劑每天下午12點發號碼牌，12點20分到14點販售
5911041958,百福仁愛專業藥局,基隆市仁愛區仁四路５０號１樓,121.7413,25.12829,(02)24266699,羅氏家用新冠病毒抗原自我檢測套組,1,2022/05/08 07:25:02,4／30起，早上8:00販售快篩
5912011865,長青藥師藥局,新竹市東區民生路１４５號,120.9765,24.81063,(03)5439673,羅氏家用新冠病毒抗原自我檢測套組,71,2022/05/08 07:25:02,快篩實名制上午9；00 開始發放 ，週日不發放
5912012059,幼安藥局,新竹市東區三民里民族路１２８號,120.9775,24.80799,(03)5316337,羅氏家用新冠病毒抗原自我檢測套組,68,2022/05/08 07:25:02,快篩販賣時間 : 早上 點開始至晚上點售完為止
5912012773,博弘藥局,新竹市東區南大路３８７號,120.9684,24.79662,(03)5619470,羅氏家用新冠病毒抗原自我檢測套組,2,2022/05/08 07:25:02,快篩試劑販賣時間；上午8:00起至售完為止
5912012988,杏康健保特約藥局,新竹市東區光復路一段５２５巷２３號１樓,121.0135,24.78384,(03)5772966,羅氏家用新冠病毒抗原自我檢測套組,93,2022/05/08 07:25:02,週一至五09:00-21:00 （週六公休） 週日09:00-18:00
5912013341,康健藥局,新竹市東區中央路１２８－１號,120.9711,24.80687,(03)5359789,羅氏家用新冠病毒抗原自我檢測套組,78,2022/05/08 07:25:02,快篩販售時段: 早8:00-9:00 售完為止
5912013529,新莊藥局,新竹市東區光復路１段４７３號１樓,121.015,24.78421,(03)5634775,羅氏家用新冠病毒抗原自我檢測套組,77,2022/05/08 07:25:02,週日早上7點
5912013654,七二八藥局,新竹市東區明湖路１２４５號１樓,120.979,24.76774,(03)5200530,羅氏家用新冠病毒抗原自我檢測套組,1,2022/05/08 07:25:02,5／8政府快篩，12:30開始販售。
5912013690,佑全新竹食品藥局,新竹市東區食品路１７０號,120.9764,24.79735,(03)5627307,羅氏家用新冠病毒抗原自我檢測套組,17,2022/05/08 07:25:02,實名制快篩下午2點開賣1點40分發號碼牌實際庫存依物流到貨時間滾動式調整
5912040188,健和藥局,新竹市北區大同里大同路１７８號,120.9668,24.80731,(03)5231734,羅氏家用新冠病毒抗原自我檢測套組,2,2022/05/08 07:25:02,快篩周一至周五 12點整開始 售完為止
5912042173,保安藥局,新竹市北區西大路617號,120.9588,24.80991,(03)5258636,羅氏家用新冠病毒抗原自我檢測套組,23,2022/05/08 07:25:02,快篩星期五到星期一早上7:30開始販售
5912042404,豐盛藥局,新竹市北區光華二街３５號,120.9747,24.81816,(03)5335651,羅氏家用新冠病毒抗原自我檢測套組,14,2022/05/08 07:25:02,實名制快篩:早上9點開始發號碼牌，13-22點領取快篩
5912042459,閎安專業藥局,新竹市北區延平路三段６８７號１樓,120.9367,24.8407,(03)5368675,羅氏家用新冠病毒抗原自我檢測套組,8,2022/05/08 07:25:02,快篩販售時間:中午12:00，週日公休
5912042637,中福藥局,新竹市北區中福路８３號,120.9327,24.8408,(03)5366996,羅氏家用新冠病毒抗原自我檢測套組,78,2022/05/08 07:25:02,快篩販售時間：上午09:00
5912042959,躍獅光華藥局,新竹市北區光華東街３６－１號１樓,120.9743,24.81586,(03)5331281,羅氏家用新冠病毒抗原自我檢測套組,78,2022/05/08 07:25:02,實際販售時間:AM08:30
5912050040,速安藥局,新竹市香山區中華路６段６７６號,120.9161,24.73088,(035)371557,羅氏家用新冠病毒抗原自我檢測套組,26,2022/05/08 07:25:02,口罩販售時間
5917010126,永大藥局,臺中市中區錦上里民族路１２２號,120.6786,24.14054,(04)22210180,羅氏家用新冠病毒抗原自我檢測套組,77,2022/05/08 07:25:02,09:00開始代售快篩，人多會發號碼牌。5／8上午8點開始販售
5917011847,郭藥局,臺中市中區平等街一二四號,120.682,24.1426,(04)22200005,羅氏家用新冠病毒抗原自我檢測套組,35,2022/05/08 07:25:02,周一至周六每日上午11點至12點販賣快篩
5917011945,正三吉藥局,臺中市中區臺灣大道一段９５號,120.6831,24.13911,(04)22207700,羅氏家用新冠病毒抗原自我檢測套組,78,2022/05/08 07:25:02,快篩販售時間 14:00~17:00
5917020060,來安藥局,臺中市東區十甲東路４８８號１樓,120.7073,24.13824,(04)22116977,羅氏家用新冠病毒抗原自我檢測套組,55,2022/05/08 07:25:02,發快篩時間早上8點
5917020104,七星中西藥局,臺中市東區東信里十甲東路４０６巷１號１樓,120.7061,24.13603,(04)22123014,羅氏家用新冠病毒抗原自我檢測套組,56,2022/05/08 07:25:02,無
5917021718,中大藥局,臺中市東區十甲路５０５號,120.7109,24.14466,(04)22131348,羅氏家用新冠病毒抗原自我檢測套組,5,2022/05/08 07:25:02,無
5917030128,太信藥局,臺中市西區三民路一段９５－１號１樓,120.6698,24.13322,(04)23718318,羅氏家用新冠病毒抗原自我檢測套組,58,2022/05/08 07:25:02,健保卡快篩請0900自備500元／份
5917030600,永昇藥局,臺中市西區東昇里朝陽街４５號,120.6701,24.13522,(04)23717280,羅氏家用新冠病毒抗原自我檢測套組,1,2022/05/08 07:25:02,九時開賣快篩   周日休息
5917032908,佑恩藥師藥局,臺中市西區精誠路６７號１樓,120.6553,24.15224,(04)23100058,羅氏家用新冠病毒抗原自我檢測套組,39,2022/05/08 07:25:02,實名制快篩周一到周六，早上9:00，周日下午2:10開始販賣
5917040302,元聖藥局,臺中市南區積善里五權南路６５０號１樓,120.6702,24.11416,(04)22627468,羅氏家用新冠病毒抗原自我檢測套組,59,2022/05/08 07:25:02,週一至週日上午9點販賣防疫口罩
5917053514,學士藥局,臺中市北區學士路１３號之１樓,120.6823,24.15372,(04)22015008,羅氏家用新冠病毒抗原自我檢測套組,78,2022/05/08 07:25:02,固定周一到周日，早上09:50開始發放號碼牌及販賣快篩
5917062353,典安大藥局,臺中市西屯區西屯路３段１５９－６０號,120.6177,24.18807,(04)24616571,羅氏家用新冠病毒抗原自我檢測套組,54,2022/05/08 07:25:02,每天10:00發放快篩
5917062559,德康藥局,臺中市西屯區福和里中工三路１５６號,120.6181,24.17737,(04)23583373,羅氏家用新冠病毒抗原自我檢測套組,2,2022/05/08 07:25:02,每天早上9:00開始，不發號碼牌，現場排隊領口罩
5917063725,永旭大藥局,臺中市西屯區逢甲路９２號１樓,120.6439,24.17883,(04)27087952,羅氏家用新冠病毒抗原自我檢測套組,1,2022/05/08 07:25:02,5／6起實名快篩，星期一到五早上10點開始，星期六日中午12點開始排隊販售。
5917070186,濟安堂藥局,臺中市南屯區南屯路二段７８８號,120.6378,24.14028,(04)23899603,羅氏家用新冠病毒抗原自我檢測套組,111,2022/05/08 07:25:02,快篩販售時間都固定每天早上7點40分開始（現場排隊.）
5917070417,康元藥局,臺中市南屯區黎明路２段２８１號１樓,120.6355,24.14863,(04)22548622,羅氏家用新冠病毒抗原自我檢測套組,8,2022/05/08 07:25:02,星期一~星期六早上九點發放號碼牌  星期日早上9:50現場排隊不發號碼牌
5917070677,康得美專業藥局,臺中市南屯區忠勇路１２之２６號,120.6119,24.13555,(04)23801185,羅氏家用新冠病毒抗原自我檢測套組,3,2022/05/08 07:25:02,實名制快篩周一至周六 晚上8點開始販售
5917072564,恒安藥局,臺中市南屯區南屯路２段１１９號,120.652,24.13585,(04)24722887,羅氏家用新冠病毒抗原自我檢測套組,5,2022/05/08 07:25:02,5／7快篩試劑下午3:00開始販售，5／9（一）起快篩試劑早上8:30開始販售
5917072724,百芳大藥局,臺中市南屯區向上路二段４２１號,120.6377,24.1469,(04)23818307,羅氏家用新冠病毒抗原自我檢測套組,1,2022/05/08 07:25:02,晚上7:00開始販賣快篩，不發號碼牌。
5917080342,弘光藥局,臺中市北屯區太原路三段４５８號１樓,120.6951,24.16476,(04)22342999,羅氏家用新冠病毒抗原自我檢測套組,29,2022/05/08 07:25:02,早上7:30開始販賣防疫口罩（全年無休）
5917080888,大華藥局,臺中市北屯區熱河路２段１０９號１樓,120.6873,24.17054,(04)22331721,羅氏家用新冠病毒抗原自我檢測套組,44,2022/05/08 07:25:02,週一至週五1830-2030販售快篩，週六1430-1600販售快篩。週六晚上及週日全天休診。
5917082882,世富藥局,臺中市北屯區北屯路２９９－３號１樓,120.6961,24.16825,(04)22317085,羅氏家用新冠病毒抗原自我檢測套組,29,2022/05/08 07:25:02,營業早上08:00-12:00，下午15:00-21:00.星期六晚上休息.星期日休息
5917083334,瑞東大藥局,臺中市北屯區東山路一段２４６之３號,120.7179,24.17542,(04)24373799,羅氏家用新冠病毒抗原自我檢測套組,78,2022/05/08 07:25:02,5／6 快篩 已售完
5921012870,麗生藥師藥局,臺南市東區崇德路５６５號,120.2276,22.97294,(06)3356868,羅氏家用新冠病毒抗原自我檢測套組,1,2022/05/08 07:25:02,快篩實名制販售時間14:30-16:00
5921040221,好鄰居藥局,臺南市北區西華里公園路１２８號２樓７室,120.2076,22.99889,(06)2219015,羅氏家用新冠病毒抗原自我檢測套組,80,2022/05/08 07:25:02,固定星期一至星期六8:30開始販賣快篩，星期天早上9:00開始販賣快篩
5921050076,千代藥局,臺南市中西區民生路一段６０號１樓,120.2034,22.99337,(06)2256895,羅氏家用新冠病毒抗原自我檢測套組,66,2022/05/08 07:25:02,快篩試劑實名制:星期1~6下午一點至三點販售（星期日當日貨到開始販售）
5921060385,樂成藥局,臺南市安南區安和路一段１５９巷８３號,120.2115,23.03032,(06)2568576,羅氏家用新冠病毒抗原自我檢測套組,5,2022/05/08 07:25:02,無
5921061668,新資生藥師藥局,臺南市安南區城北路５２號１樓,120.1309,23.06296,(06)2571153,羅氏家用新冠病毒抗原自我檢測套組,78,2022/05/08 07:25:02,星期一~星期六早上.快篩販售8點到10點止
5921071226,康活藥局,臺南市安平區健康三街１８６號,120.1686,22.98883,(06)2936483,羅氏家用新冠病毒抗原自我檢測套組,4,2022/05/08 07:25:02,快篩晚上18:00開賣.
5921080010,羽田藥局,臺南市中西區府前路一段２１４號,120.205,22.98913,(06)2214066,羅氏家用新冠病毒抗原自我檢測套組,6,2022/05/08 07:25:02,週一至週六09:00起依序販售實名制快篩，售完為止。周日停止販售。
5922010441,穎川保健藥局,嘉義市東區仁武里中山路２０４號,120.4517,23.48096,(05)2223609,羅氏家用新冠病毒抗原自我檢測套組,47,2022/05/08 07:25:02,固定周一到周日07:00開始快篩賣
5922010496,乙展藥局,嘉義市東區蘭井里蘭井街７０號,120.4551,23.47807,(05)2279556,羅氏家用新冠病毒抗原自我檢測套組,37,2022/05/08 07:25:02,快篩07:10開始至售完（星期日不定期休息）
5922012285,聖安藥局,嘉義市東區仁武里民權路３６５號１樓,120.4506,23.48235,(05)2222941,羅氏家用新冠病毒抗原自我檢測套組,78,2022/05/08 07:25:02,每日8:30開始發放，每週四休息.
5922012392,維康藥局,嘉義市東區短竹里大雅路二段５６７號１樓,120.4663,23.47685,(05)2757663,羅氏家用新冠病毒抗原自我檢測套組,78,2022/05/08 07:25:02,＜領購快篩＞ 星期一  ~ 星期五 下午 2:00~5:00 。假日國定假日停售。
5922012721,仁藥集藥局,嘉義市東區太平里新生路５３９號,120.4582,23.49167,(05)2755533,羅氏家用新冠病毒抗原自我檢測套組,1,2022/05/08 07:25:02,8:30-11:00收健保卡，14:00發快篩
5922012909,昱安藥局,嘉義市東區成仁街１８０號,120.4521,23.48057,(05)2252395,羅氏家用新冠病毒抗原自我檢測套組,8,2022/05/08 07:25:02,購買時段星期（一）至（六）下午4:00-5:00
5922013059,杏光藥局,嘉義市東區保健街１４７號附４,120.4492,23.50036,(05)2745642,羅氏家用新冠病毒抗原自我檢測套組,43,2022/05/08 07:25:02,週一至週五 下午1:00~5:00 現場排隊，無號碼牌（ （六日及國定假日停售）
5922013175,森活中西藥局,嘉義市東區吳鳳北路２０８號一樓,120.4533,23.47931,(05)2288518,羅氏家用新冠病毒抗原自我檢測套組,1,2022/05/08 07:25:02,8:30開始發放號碼牌，12:00~14:00領取快篩
5922020303,新宏祥藥局,嘉義市西區湖內里民生南路５７４號,120.4427,23.45504,(05)2355588,羅氏家用新冠病毒抗原自我檢測套組,78,2022/05/08 07:25:02,羅氏家用快篩:每日早上8點開始販售.售完為止
5922020358,泰春藥局,嘉義市西區學圃里民生北路６６號,120.4468,23.47543,(05)2224118,羅氏家用新冠病毒抗原自我檢測套組,65,2022/05/08 07:25:02,快篩試劑販售時間：早上9點至晚上9點
5922020661,大正藥局,嘉義市西區書院里民族路７０２號,120.4435,23.47554,(05)2285812,羅氏家用新冠病毒抗原自我檢測套組,52,2022/05/08 07:25:02,早上8:00開始販售~售完為止 !
5922020769,安麗藥師藥局,嘉義市西區車店里廣州街２０６號,120.4302,23.46519,(05)2352395,羅氏家用新冠病毒抗原自我檢測套組,58,2022/05/08 07:25:02,快篩販售時間上午9點開始，現場排隊，售完為止。六、日休息。
5922020894,平良藥局,嘉義市西區致遠里興業西路８４號１樓,120.4443,23.46856,(05)2235220,羅氏家用新冠病毒抗原自我檢測套組,1,2022/05/08 07:25:02,下午3點開賣快篩
592202A296,秉原藥局,嘉義市西區書院里民族路７００號,120.4435,23.47554,(05)2285811,羅氏家用新冠病毒抗原自我檢測套組,78,2022/05/08 07:25:02,早上8:00開始販售~售完為止!
5931010217,皇安藥局,新北市板橋區中山路２段２４１號,121.4772,25.01757,(02)29524089,羅氏家用新冠病毒抗原自我檢測套組,78,2022/05/08 07:25:02,快篩星期一三五單號，星期二四號雙號
5931010342,宏達大藥局,新北市板橋區莒光路１７號,121.47,25.02478,(02)22572345,羅氏家用新冠病毒抗原自我檢測套組,156,2022/05/08 07:25:02,快篩 晚上20:00開始販售! 不要打電話來 問題這麼多就到現場 也不給你問
5931010477,華傳綜合大藥局,新北市板橋區大智街４０號,121.455,25.01515,(02)29670029,羅氏家用新冠病毒抗原自我檢測套組,39,2022/05/08 07:25:02,週一至週六早上8:30開始發售實名制快篩，週日停售。
5931011054,國光藥師藥局,新北市板橋區國光路１７２號,121.4605,25.01825,(02)29698181,羅氏家用新冠病毒抗原自我檢測套組,92,2022/05/08 07:25:02,無
5931011152,福勝堂藥局,新北市板橋區三民路２段１５３巷２弄２號,121.4795,25.01488,(02)89647157,羅氏家用新冠病毒抗原自我檢測套組,14,2022/05/08 07:25:02,無
5931011250,錦龍藥局,新北市板橋區長安街１３８巷１弄１１４號,121.4743,25.0103,(02)29522290,羅氏家用新冠病毒抗原自我檢測套組,77,2022/05/08 07:25:02,週一至周日早上8:30~開始發售， 售完為止。
5931013361,長欣藥師藥局,新北市板橋區中山路２段５０５巷３６號,121.4821,25.02246,(02)29585308,羅氏家用新冠病毒抗原自我檢測套組,1,2022/05/08 07:25:02,無
5931014537,友虹藥師藥局,新北市板橋區國光路１６號,121.457,25.01739,(02)29691181,羅氏家用新冠病毒抗原自我檢測套組,9,2022/05/08 07:25:02,早上十點開始販賣到十一點
5931015687,正康健保藥局,新北市板橋區大觀路２段６５號１樓,121.4467,25.00246,(02)22756681,羅氏家用新冠病毒抗原自我檢測套組,78,2022/05/08 07:25:02,下午13:30依現場順序開始販售快篩，快篩配送絮亂庫存不準!!
5931015721,新進發大藥局,新北市板橋區大同街２４號１樓,121.4787,25.0275,(02)22593926,羅氏家用新冠病毒抗原自我檢測套組,44,2022/05/08 07:25:02,快篩上午10點開門即賣，排隊不發號碼
5931016808,正安健保藥局,新北市板橋區民族路２２４號（１樓）,121.4687,25.00733,(02)29526813,羅氏家用新冠病毒抗原自我檢測套組,78,2022/05/08 07:25:02,17時依現場順序開始販售.週六12點.電腦配送庫存不準..以現場數量為準
5931017001,聯康藥局,新北市板橋區南雅南路２段１３６號（１樓）,121.4518,24.99656,(02)89674888,羅氏家用新冠病毒抗原自我檢測套組,78,2022/05/08 07:25:02,快篩上午9:30開始發放
5931017216,康鑫藥局,新北市板橋區文化路１段２０６號１樓,121.4664,25.02012,(02)82585135,羅氏家用新冠病毒抗原自我檢測套組,42,2022/05/08 07:25:02,無
5931017574,福安藥局,新北市板橋區國泰街７６巷２４、２６號１樓,121.4672,25.00702,(02)29540875,羅氏家用新冠病毒抗原自我檢測套組,78,2022/05/08 07:25:02,【週日快篩照常販售。】
5931017636,福澤藥局,新北市板橋區南雅南路１段８５號（１樓）,121.4556,25.00543,(02)29690013,羅氏家用新冠病毒抗原自我檢測套組,30,2022/05/08 07:25:02,口罩代售9:00-23:00
5931017869,躍獅國慶藥局,新北市板橋區國慶路１７９號（１樓）,121.4626,24.99636,(02)29641548,羅氏家用新冠病毒抗原自我檢測套組,156,2022/05/08 07:25:02,快篩實名制，每天14:00開始販售，售完為止
5931017903,吉發藥局,新北市板橋區文化路１段１８８巷５弄１５號（１樓）,121.4674,25.01986,(02)22577381,羅氏家用新冠病毒抗原自我檢測套組,78,2022/05/08 07:25:02,無
5931017994,後埔藥局,新北市板橋區華興街９號（１樓）,121.459,25.00457,(02)89510306,羅氏家用新冠病毒抗原自我檢測套組,1,2022/05/08 07:25:02,5／7 下午2點發放號碼牌*確保作業流暢請自備500元*每天 78 份晚上10 點以前領取完畢（過卡時間差異剩餘數量僅供參考）
5931018017,有田藥局,新北市板橋區忠孝路１８１號（１樓）,121.4642,25.00262,(02)29598095,羅氏家用新冠病毒抗原自我檢測套組,152,2022/05/08 07:25:02,早上十點開始販售，售完為止
5931018106,力安藥局,新北市板橋區莒光路１９６巷８號（１樓）,121.4738,25.02255,(02)22503349,羅氏家用新冠病毒抗原自我檢測套組,28,2022/05/08 07:25:02,快篩實名制，早上9點依現場順序開始販售快篩，售完為止。
5931020400,新迪化中西藥局,新北市三重區三陽路２７號１樓,121.4855,25.05893,(02)29884755,羅氏家用新冠病毒抗原自我檢測套組,78,2022/05/08 07:25:02,快篩實名制中午12點開始販售，發號碼牌
5931020464,合眾藥局,新北市三重區文化北路１０２巷３９號,121.4972,25.06597,(02)29897379,羅氏家用新冠病毒抗原自我檢測套組,19,2022/05/08 07:25:02,實名制快篩，販售時間：星期一~星期六 早上9點開始販售
5931021416,國星藥局,新北市三重區溪尾街１０９號,121.4898,25.07867,(02)29859203,羅氏家用新冠病毒抗原自我檢測套組,52,2022/05/08 07:25:02,無
5931021532,龍門藥局,新北市三重區龍門路１８９號,121.4996,25.07322,(02)29756141,羅氏家用新冠病毒抗原自我檢測套組,78,2022/05/08 07:25:02,實名制快篩販售時間~星期一至星期六下午3點
5931023447,安泰藥局,新北市三重區正義北路３００－３號２樓,121.4953,25.06978,(02)89815379,羅氏家用新冠病毒抗原自我檢測套組,78,2022/05/08 07:25:02,5／2只有早上8:30--12:00營業下午.及晚上休息
5931024168,合康健保藥局,新北市三重區三和路４段３８４號１樓,121.4824,25.0789,(02)22869999,羅氏家用新冠病毒抗原自我檢測套組,78,2022/05/08 07:25:02,快篩試劑販售時間每日早上0845
5931024426,甜心健康生活藥局,新北市三重區福祉里集美街４５號１樓,121.488,25.05542,(02)29762223,羅氏家用新冠病毒抗原自我檢測套組,49,2022/05/08 07:25:02,無
5931024588,陽光藥師藥局,新北市三重區三和路２段１８２號１樓,121.4987,25.06886,(02)29788120,羅氏家用新冠病毒抗原自我檢測套組,71,2022/05/08 07:25:02,無
5931024873,捷元健保藥局,新北市三重區三賢街１８５號１樓,121.4863,25.08731,(02)82877107,羅氏家用新冠病毒抗原自我檢測套組,78,2022/05/08 07:25:02,快篩9:00開賣 每周日公休不販售
5931024962,建祥三和藥局,新北市三重區三和路２段１６０號１樓,121.4992,25.06853,(02)29703379,羅氏家用新冠病毒抗原自我檢測套組,78,2022/05/08 07:25:02,實名制快篩10:00發放號碼牌
5931025174,小林健保藥局,新北市三重區文化北路６１－１號１樓,121.4987,25.0663,(02)29763895,羅氏家用新冠病毒抗原自我檢測套組,3,2022/05/08 07:25:02,快篩販售時間公告於「小林健保藥局」粉絲專頁
5931025398,昌誠藥局,新北市三重區三和路４段１６１號１樓,121.4835,25.0785,(02)22876338,羅氏家用新冠病毒抗原自我檢測套組,5,2022/05/08 07:25:02,5／2 （休診）
5931025521,徐匯藥局,新北市三重區仁愛街７５５號１樓,121.4809,25.07996,(02)28572234,羅氏家用新冠病毒抗原自我檢測套組,1,2022/05/08 07:25:02,實名快篩星期一~六，下午2:30開賣，1人限1卡
5931025567,閎安藥局,新北市三重區重新路２段８５號１樓、２樓,121.4962,25.06181,(02)29881968,羅氏家用新冠病毒抗原自我檢測套組,4,2022/05/08 07:25:02,每日皆執行調劑業務，快篩代售時間每日下午三點發號碼牌並領取
5931025638,華安生活藥局,新北市三重區重新路２段１２６號１樓,121.4963,25.0616,(02)29756534,羅氏家用新冠病毒抗原自我檢測套組,21,2022/05/08 07:25:02,國定例假日執行調劑業務
5931025647,幸康藥局,新北市三重區正義北路２０５號２樓,121.4962,25.0684,(02)29816105,羅氏家用新冠病毒抗原自我檢測套組,17,2022/05/08 07:25:02,國定假日，如元旦，端午，中秋不執行調劑業務。政府快篩實名制於週一~週六的14:30開始販售。
5931025692,杏一三重集成藥局,新北市三重區集成路４３號１樓,121.4893,25.05271,(02)29743410,羅氏家用新冠病毒抗原自我檢測套組,38,2022/05/08 07:25:02,5／5 暫停販售  5／6下午三點開始發放號碼牌
5931025745,恆源藥局,新北市三重區仁興街２８巷４１號１樓,121.4982,25.07515,(02)29765002,羅氏家用新冠病毒抗原自我檢測套組,78,2022/05/08 07:25:02,國定假日有提供調劑業務
5931025781,芯慈藥局,新北市三重區永安北路２段１０５號１樓,121.4831,25.08392,(02)28570670,羅氏家用新冠病毒抗原自我檢測套組,1,2022/05/08 07:25:02,國定假日有提供藥劑服務
5931025790,銀河藥局,新北市三重區五華街２４７號１樓,121.4892,25.08623,(02)28578688,羅氏家用新冠病毒抗原自我檢測套組,5,2022/05/08 07:25:02,實名制快篩販售時間：周一至週五下午三點，周六上午十點，星期日不販售
5931025807,永福藥局,新北市三重區永福街３號１樓,121.4827,25.07837,(02)22861161,羅氏家用新冠病毒抗原自我檢測套組,76,2022/05/08 07:25:02,15:00排隊拿號碼牌買快篩
5931026028,宏欣藥局,新北市三重區仁愛街５１７號２樓,121.4878,25.08227,(02)29811234,羅氏家用新冠病毒抗原自我檢測套組,78,2022/05/08 07:25:02,一~五16:00，日09:30，六不發
5931030013,皇誼藥局,新北市永和區文化路３３號,121.5147,25.01499,(02)29278732,羅氏家用新冠病毒抗原自我檢測套組,36,2022/05/08 07:25:02,無
5931030531,成功藥局,新北市永和區成功路１段１３３號,121.5269,25.00171,(02)29293622,羅氏家用新冠病毒抗原自我檢測套組,1,2022/05/08 07:25:02,無
5931032133,宸安藥局,新北市永和區得和路３８５號１樓,121.5251,24.99943,(02)22328274,羅氏家用新冠病毒抗原自我檢測套組,2,2022/05/08 07:25:02,星期一至六 實名制快篩  PM2:00-3；00； 星期日公休
5931032302,威康藥局,新北市永和區中正路１５３號,121.5163,24.9984,(02)29461128,羅氏家用新冠病毒抗原自我檢測套組,7,2022/05/08 07:25:02,無
5931033078,博昇藥局,新北市永和區仁愛路２２號１樓,121.5148,25.01361,(02)29267273,羅氏家用新冠病毒抗原自我檢測套組,4,2022/05/08 07:25:02,8：20開始發號碼牌、收健保卡、500元，下午3：00至6：00領取實名制快篩。星期日8：30至9：30現場販售實名制快篩。
5931033103,皇家藥師藥局,新北市永和區中正路７２０號１樓,121.5158,25.01017,(02)89216867,羅氏家用新冠病毒抗原自我檢測套組,78,2022/05/08 07:25:02,無
5931033176,緣來藥師藥局,新北市永和區福和路２５０、２５２號１樓,121.5143,25.00787,(02)29211798,羅氏家用新冠病毒抗原自我檢測套組,3,2022/05/08 07:25:02,無
5931033461,常安中西藥局,新北市永和區保平路２６號１樓,121.5122,25.00749,(02)29283530,羅氏家用新冠病毒抗原自我檢測套組,2,2022/05/08 07:25:02,每日下午三點開始實名制快篩
5931033621,永正健康人生藥局,新北市永和區中正路１９１、１９３號１樓、１９７號２樓,121.5171,24.99931,(02)29467351,羅氏家用新冠病毒抗原自我檢測套組,78,2022/05/08 07:25:02,實名制快篩9點開賣
5931033774,台化藥局,新北市永和區勵行街１１９號１樓,121.5175,25.01202,(02)22318585,羅氏家用新冠病毒抗原自我檢測套組,1,2022/05/08 07:25:02,無
5931034039,叁品藥局,新北市永和區秀朗路２段１１８號１樓,121.5244,25.00152,(02)29208800,羅氏家用新冠病毒抗原自我檢測套組,77,2022/05/08 07:25:02,實名制快篩 下午一點發放號碼牌
5931034084,柏愛藥局,新北市永和區竹林路５７號１樓,121.5183,25.01386,(02)89285609,羅氏家用新冠病毒抗原自我檢測套組,77,2022/05/08 07:25:02,實名制快篩每日0930開賣.國定假日營業時間0900-1700
5931034119,仁愛陽光藥局,新北市永和區仁愛路１４３號１樓,121.5114,25.01293,(02)89213691,羅氏家用新冠病毒抗原自我檢測套組,6,2022/05/08 07:25:02,快篩代售時段14:00，售完為止...
5931034128,富康活力永和藥局,新北市永和區中和路４２９號１樓,121.5094,25.00093,(02)29263191,羅氏家用新冠病毒抗原自我檢測套組,78,2022/05/08 07:25:02,無
5931034137,永杏中西藥局,新北市永和區竹林路１１８號１樓,121.5198,25.01141,(02)89210338,羅氏家用新冠病毒抗原自我檢測套組,1,2022/05/08 07:25:02,實名制快篩下午一點開賣，請留意FB官方訊息
5931034146,亮點藥局,新北市永和區竹林路７１號１樓,121.5186,25.01355,(02)89253895,羅氏家用新冠病毒抗原自我檢測套組,66,2022/05/08 07:25:02,快篩發放時段 下午16:30-18:00
5931040055,瑞發藥局,新北市中和區民享街５６－１號,121.474,25.00236,(02)22235319,羅氏家用新冠病毒抗原自我檢測套組,1,2022/05/08 07:25:02,口罩代售時間自08:00；號碼牌發放時間自08:00
5931040322,宏信藥局,新北市中和區永貞路２６２巷４號,121.5139,25.0039,(02)29294976,羅氏家用新冠病毒抗原自我檢測套組,156,2022/05/08 07:25:02,如有到貨每日早上7點30分準時開賣快篩試劑
5931040475,顧藥局,新北市中和區圓通路１４０號,121.4983,24.99583,(02)22470133,羅氏家用新冠病毒抗原自我檢測套組,3,2022/05/08 07:25:02,快篩周一到周六營業*.早上點開賣.售完為止
5931040671,吉立藥局,新北市中和區自立路１８３號１樓,121.5236,24.99187,(02)29450561,羅氏家用新冠病毒抗原自我檢測套組,78,2022/05/08 07:25:02,實名制口罩販售時間，星期一~星期六，早上0900-1200
5931042326,璟福藥局,新北市中和區安平路７６號１樓,121.511,24.99652,(02)29408669,羅氏家用新冠病毒抗原自我檢測套組,74,2022/05/08 07:25:02,無
5931042648,恩溢藥局,新北市中和區復興路７９號１樓.２樓,121.5035,24.9902,(02)22452450,羅氏家用新冠病毒抗原自我檢測套組,2,2022/05/08 07:25:02,無
5931042899,家家藥局,新北市中和區民德路４３號,121.469,25.00219,(02)29587512,羅氏家用新冠病毒抗原自我檢測套組,78,2022/05/08 07:25:02,實名制快篩早上09:00販售，若人數眾多會發號碼牌，有拿到者可現場領取。
5931043109,育新藥局,新北市中和區中安街４０巷６號,121.5127,25.00305,(02)29283479,羅氏家用新冠病毒抗原自我檢測套組,3,2022/05/08 07:25:02,週一、二、三、五、六早上八點開始販售，售完為止（四、日無販賣）
5931043234,康荃優生保健藥局,新北市中和區福祥路６６號１樓,121.4994,25.00494,(02)22486532,羅氏家用新冠病毒抗原自我檢測套組,5,2022/05/08 07:25:02,無
5931043565,一安藥妝藥局,新北市中和區中和路９號１.２樓,121.4998,25.00221,(02)22483778,羅氏家用新冠病毒抗原自我檢測套組,1,2022/05/08 07:25:02,下午3點開始發號碼牌販售快篩
5931043627,銓家藥局,新北市中和區員山路３１９號１-２樓,121.4812,25.0006,(02)22257728,羅氏家用新冠病毒抗原自我檢測套組,55,2022/05/08 07:25:02,實名制快篩 下午3點販售 前15分鐘發號碼牌
5931043636,雙合藥局,新北市中和區中正路２９１號１樓,121.4941,24.99375,(02)22476607,羅氏家用新冠病毒抗原自我檢測套組,2,2022/05/08 07:25:02,無
5931043761,杏元藥局,新北市中和區員山路１７２號１樓,121.4814,24.99994,(02)22236868,羅氏家用新冠病毒抗原自我檢測套組,2,2022/05/08 07:25:02,快篩1400 發放，現場排隊。
5931043798,永成藥局,新北市中和區景平路１５６號１樓,121.5176,24.99222,(02)29407619,羅氏家用新冠病毒抗原自我檢測套組,78,2022/05/08 07:25:02,實名制快篩，下午三點領取號碼並開始販售（每日78份）
5931043921,良安藥局,新北市中和區連城路４７７巷１號１樓,121.4833,24.99555,(02)22225798,羅氏家用新冠病毒抗原自我檢測套組,8,2022/05/08 07:25:02,週六日不開店，實名制快篩，晚上9:00開始販售
5931044044,宥元藥局,新北市中和區德光路６２號１樓,121.4696,25.00398,(02)89535473,羅氏家用新冠病毒抗原自我檢測套組,7,2022/05/08 07:25:02,週一至周六10:30-22:00發放口罩
5931044133,康富力藥局,新北市中和區仁愛街３２號１樓,121.5109,24.98843,(02)29429896,羅氏家用新冠病毒抗原自我檢測套組,78,2022/05/08 07:25:02,快篩代售時間：周一至周五9:30、週六14:00
5931044393,躍獅康銓藥局,新北市中和區莒光路１４６號１樓,121.4725,25.00088,(02)29646452,羅氏家用新冠病毒抗原自我檢測套組,25,2022/05/08 07:25:02,實名制快篩 每日上午09:10開始販售，週日店休
5931044464,健暉藥局,新北市中和區連城路４８７號１樓,121.4829,24.99552,(02)22231437,羅氏家用新冠病毒抗原自我檢測套組,80,2022/05/08 07:25:02,實名快篩 早上10點 39份 ／ 晚上7點 39份 賣完為止
5931044580,躍獅天晴藥局,新北市中和區和平街９號１樓,121.5095,24.99025,(02)29491931,羅氏家用新冠病毒抗原自我檢測套組,78,2022/05/08 07:25:02,無
5931044624,奕采藥局,新北市中和區宜安路７７號１樓,121.5109,24.99733,(02)29429770,羅氏家用新冠病毒抗原自我檢測套組,30,2022/05/08 07:25:02,週一至週六10:00~12:00販售實名制快篩9:00發號碼牌（週日停售）
5931044660,吉佑藥局,新北市中和區大勇街３４號１樓,121.5174,24.99345,(02)89416539,羅氏家用新冠病毒抗原自我檢測套組,57,2022/05/08 07:25:02,無
5931044884,壹品藥局,新北市中和區福祥路５５號１樓,121.4992,25.00474,(02)22481818,羅氏家用新冠病毒抗原自我檢測套組,74,2022/05/08 07:25:02,實名制快篩下午1點發放號碼牌
5931044973,佳禾藥局,新北市中和區自立路３２號１樓,121.5226,24.9928,(02)29428989,羅氏家用新冠病毒抗原自我檢測套組,61,2022/05/08 07:25:02,快篩資訊 每天早上9點發號碼牌同時開始販售
5931044982,萊恩藥局,新北市中和區景安路２０９號１樓,121.5046,24.99192,(02)29468395,羅氏家用新冠病毒抗原自我檢測套組,83,2022/05/08 07:25:02,每週星期一到星期六（星期天依店內公告），早上9點發號碼牌押健保卡，12點後領取快篩
5931045112,景安藥局,新北市中和區景德街１４１號１樓及景平路１１１巷６０弄５６號,121.5175,24.99156,(02)86688215,羅氏家用新冠病毒抗原自我檢測套組,56,2022/05/08 07:25:02,實名制快篩每日販售時段08:10~21:00，請持健保卡現場排隊依序購買，售完為止。
5931045292,福欣藥局,新北市中和區中和路１４８號１樓,121.504,24.99961,(02)22485500,羅氏家用新冠病毒抗原自我檢測套組,79,2022/05/08 07:25:02,無
5931045372,伍品藥局,新北市中和區莊敬路３５號１樓,121.5007,25.00503,(02)82456789,羅氏家用新冠病毒抗原自我檢測套組,67,2022/05/08 07:25:02,實名制快篩下午14:00點發號碼牌，請自備500元紙鈔　－　15:00後取回健保卡 感謝！（週日）停止販售快篩！
5931045461,富康活力遠東藥局,新北市中和區建八路１０之１號１樓,121.4865,24.99805,(02)82262299,羅氏家用新冠病毒抗原自我檢測套組,156,2022/05/08 07:25:02,因屬園區大樓，販售時間請依LINE社群公告
5931045498,好意藥局,新北市中和區景新街４６７巷３號１樓,121.5136,24.98825,(02)89416598,羅氏家用新冠病毒抗原自我檢測套組,78,2022/05/08 07:25:02,週日無販售快篩試劑
5931050417,世明藥局,新北市新店區北新路３段１２０號１樓,121.5417,24.98174,(02)29122139,羅氏家用新冠病毒抗原自我檢測套組,1,2022/05/08 07:25:02,快篩實名制販售時間：下午13:00~14:00
5931052288,躍獅正新藥局,新北市新店區中正路５７之１號１樓,121.5443,24.96989,(02)89145930,羅氏家用新冠病毒抗原自我檢測套組,83,2022/05/08 07:25:02,星期一至六9:00為領取快篩號碼牌，20:00以前帶號碼牌來取快篩
5931052653,正升藥局,新北市新店區順安街６１號１樓,121.5407,24.98637,(02)29139493,羅氏家用新冠病毒抗原自我檢測套組,55,2022/05/08 07:25:02,無
5931052715,陽光健康藥局,新北市新店區安民街２１４號,121.5174,24.9722,(02)22123919,羅氏家用新冠病毒抗原自我檢測套組,78,2022/05/08 07:25:02,實名制快篩於早上9點開始販售  以現場排隊為主
5931052984,北一藥師藥局,新北市新店區北新路２段１６０號１樓、２樓,121.5431,24.97563,(02)89115686,羅氏家用新冠病毒抗原自我檢測套組,77,2022/05/08 07:25:02,14:30發完號碼牌即發口罩，勿持號碼牌離開，叫號未到視同放棄
5931053007,康曜藥師藥局,新北市新店區安康路２段２０４號１樓,121.5103,24.95964,(02)86669660,羅氏家用新冠病毒抗原自我檢測套組,70,2022/05/08 07:25:02,[週一至週五]13:20發號碼牌／13:30開始販售  [例假日無販售]
5931053070,美康中正藥局,新北市新店區中正路２１５號１、２樓,121.5397,24.97284,(02)29112669,羅氏家用新冠病毒抗原自我檢測套組,78,2022/05/08 07:25:02,無號牌.自主排隊.自主管理.快篩 1430-2200 唷~
5931053123,大吉藥局,新北市新店區中正路３０號１樓,121.5452,24.96977,(02)29110151,羅氏家用新冠病毒抗原自我檢測套組,103,2022/05/08 07:25:02,實名制快篩，早上0905開賣，現場排隊販售，賣完為止。六日【無】販售
5931053141,禾康藥局,新北市新店區德正街４４號１樓,121.5443,24.97143,(02)29160596,羅氏家用新冠病毒抗原自我檢測套組,7,2022/05/08 07:25:02,無
5931053169,貳品藥局,新北市新店區新和街７５號１樓,121.5205,24.98612,(02)89418890,羅氏家用新冠病毒抗原自我檢測套組,78,2022/05/08 07:25:02,實名制快篩下午一點半依排隊順序發售
5931053178,長照藥局,新北市新店區如意街１６號１樓,121.4944,24.94838,(02)22153325,羅氏家用新冠病毒抗原自我檢測套組,78,2022/05/08 07:25:02,請注意5／8快篩上午10:00開賣 現場自主排隊不發號碼牌（請勿再來電詢問了）
5931053347,健詮藥局,新北市新店區建國路１１９號１樓,121.5398,24.97777,(02)29116312,羅氏家用新冠病毒抗原自我檢測套組,2,2022/05/08 07:25:02,11點發號碼牌，12點半-3點過卡買快篩。最新消息會公佈在臉書「健詮藥局」
5931053383,大豐藥局,新北市新店區北新路３段５３號之１（１樓）,121.5417,24.9807,(02)89113196,羅氏家用新冠病毒抗原自我檢測套組,1,2022/05/08 07:25:02,每日下午2點發號碼牌同步販售實名制快篩試劑 請自備500元
5931060146,海山藥局,新北市新莊區景德路４２５號,121.4447,25.03331,(02)22019804,羅氏家用新冠病毒抗原自我檢測套組,77,2022/05/08 07:25:02,無
5931060342,十安藥局,新北市新莊區中港路３１６號,121.4524,25.04544,(02)29922859,羅氏家用新冠病毒抗原自我檢測套組,2,2022/05/08 07:25:02,自111／04／01起不再販賣實名制口罩
5931060628,錄新藥局,新北市新莊區後港一路７６巷１０弄１號,121.427,25.02604,(02)22051849,羅氏家用新冠病毒抗原自我檢測套組,156,2022/05/08 07:25:02,無
5931060815,祐全大藥局,新北市新莊區建安街８８號,121.4262,25.02423,(02)22026008,羅氏家用新冠病毒抗原自我檢測套組,1,2022/05/08 07:25:02,快篩代售時間:10:00；現場排隊售完為止.週日不營業
5931060824,禮安藥師藥局,新北市新莊區自立街１０９號１樓,121.4555,25.0455,(02)29942891,羅氏家用新冠病毒抗原自我檢測套組,1,2022/05/08 07:25:02,無
5931067403,建嘉藥局,新北市新莊區中誠街４２號１樓,121.4513,25.04812,(02)29925261,羅氏家用新冠病毒抗原自我檢測套組,78,2022/05/08 07:25:02,無
5931067985,蘋果藥局,新北市新莊區八德街１０５號,121.4242,25.02112,(02)22053933,羅氏家用新冠病毒抗原自我檢測套組,4,2022/05/08 07:25:02,快篩試劑代售時間自14:00開始過卡販售.若排隊人數提前到達.則提前1小時開賣
5931068464,健安藥局,新北市新莊區光和里民安西路２０９號１樓,121.4261,25.0147,(02)22043765,羅氏家用新冠病毒抗原自我檢測套組,78,2022/05/08 07:25:02,無
5931068508,凱盛藥局,新北市新莊區光榮里西盛街１９９號,121.4282,25.01706,(02)22024914,羅氏家用新冠病毒抗原自我檢測套組,77,2022/05/08 07:25:02,無
5931068722,庭安藥局,新北市新莊區民有里西盛街１７２號１樓,121.4281,25.01901,(02)22080528,羅氏家用新冠病毒抗原自我檢測套組,78,2022/05/08 07:25:02,早上9:30開始販售實名制快篩.賣完為止週日公休
5931069201,招安藥師藥局,新北市新莊區西盛街３３８號１樓,121.428,25.01436,(02)22085138,羅氏家用新冠病毒抗原自我檢測套組,16,2022/05/08 07:25:02,5／1 5／2 並無快篩試劑到貨 請勿來電或來店購買
5931069603,中信藥師藥局,新北市新莊區中信街８０號１樓,121.448,25.05311,(02)29969811,羅氏家用新冠病毒抗原自我檢測套組,133,2022/05/08 07:25:02,AM 07:30 開始
593106A093,環球藥局,新北市新莊區中港路４３６號１、２樓,121.452,25.05105,(02)29901934,羅氏家用新冠病毒抗原自我檢測套組,15,2022/05/08 07:25:02,營業時間8-23，全年無休  **實名制快篩，每日下午3點發放號碼牌**
593106A584,記安大藥局,新北市新莊區天祥街４６號１樓,121.4169,25.02893,(02)22095331,羅氏家用新冠病毒抗原自我檢測套組,2,2022/05/08 07:25:02,無
593106A637,薇妮藥妝藥局,新北市新莊區民安路９９號１樓,121.4245,25.02524,(02)82010817,羅氏家用新冠病毒抗原自我檢測套組,4,2022/05/08 07:25:02,無
593106A646,薇妮雙鳳藥局,新北市新莊區雙鳳路２１號１樓,121.4167,25.02677,(02)29076993,羅氏家用新冠病毒抗原自我檢測套組,78,2022/05/08 07:25:02,實名制快篩每日早上9:00現場排隊購買，無發號碼牌
593106A708,宏福藥局,新北市新莊區自信街５５號１樓,121.455,25.04836,(02)29985225,羅氏家用新冠病毒抗原自我檢測套組,14,2022/05/08 07:25:02,快篩販賣時段:上午7:00起至售完為止
593106A735,樂家藥局,新北市新莊區中平路２７３號１樓,121.4447,25.04995,(02)29960723,羅氏家用新冠病毒抗原自我檢測套組,1,2022/05/08 07:25:02,無
593106A744,永明藥局,新北市新莊區幸福路５９８號１樓,121.4533,25.04943,(02)89920019,羅氏家用新冠病毒抗原自我檢測套組,1,2022/05/08 07:25:02,週日公休， 實名制快篩早上9點發放號碼牌， 早上10點~晚上8點販售
593106A824,家禾藥局,新北市新莊區立信五街６號１樓,121.4445,25.05148,(02)29972121,羅氏家用新冠病毒抗原自我檢測套組,78,2022/05/08 07:25:02,若有配送會在12:00及18:00固定販售各39份，不提前販售，沒有發放號碼牌，請耐心等待。人手不足若無法接電話請見諒。
593106A897,陽光豐年藥局,新北市新莊區豐年街１４號１樓,121.4463,25.03287,(02)22060665,羅氏家用新冠病毒抗原自我檢測套組,81,2022/05/08 07:25:02,無
593106A995,美德心藥局,新北市新莊區中平路３６７號１樓,121.4446,25.05226,(02)29989025,羅氏家用新冠病毒抗原自我檢測套組,67,2022/05/08 07:25:02,快篩實名制，每天14:30發號碼牌，持號碼牌依現場順序排隊購買，售完為止。（如物流配送不及，則另行公告）
593106B036,家嘉藥局,新北市新莊區自立街１０３號（１樓）,121.4553,25.04549,(02)89926488,羅氏家用新冠病毒抗原自我檢測套組,1,2022/05/08 07:25:02,今天號碼牌都已發放完畢
593106B072,小林健保藥局,新北市新莊區昌明街３８之１號１樓,121.4565,25.05237,(02)29911764,羅氏家用新冠病毒抗原自我檢測套組,62,2022/05/08 07:25:02,無
593106B125,樂安生活藥局,新北市新莊區雙鳳路２７號１、２樓,121.4165,25.02702,(02)29069899,羅氏家用新冠病毒抗原自我檢測套組,64,2022/05/08 07:25:02,上午九點發放政府快篩，現場排隊。
593106B296,廣元藥局,新北市新莊區雙鳳路２號（１樓）,121.4175,25.02688,(02)29044988,羅氏家用新冠病毒抗原自我檢測套組,109,2022/05/08 07:25:02,快篩實名制5／8開始每日17:00販售
5931070053,仁一藥局,新北市樹林區中正路６２２號,121.4102,25.016,(02)26893915,羅氏家用新冠病毒抗原自我檢測套組,78,2022/05/08 07:25:02,快篩代售時間自08:30；現場排隊
5931070080,耀鴻藥局,新北市樹林區中山路３段７６號,121.3936,24.97239,(02)26808989,羅氏家用新冠病毒抗原自我檢測套組,78,2022/05/08 07:25:02,每天都有發放口罩
5931070213,明川藥師藥局,新北市樹林區三福街１號,121.4093,25.0169,(02)26894728,羅氏家用新冠病毒抗原自我檢測套組,78,2022/05/08 07:25:02,實名制快篩:早上11:00販售
5931071523,蔚海藥局,新北市樹林區鎮前街１７號１樓,121.4259,24.99263,(02)86754203,羅氏家用新冠病毒抗原自我檢測套組,78,2022/05/08 07:25:02,固定每日早上8點45分發放快篩， 發完為止
5931071916,立欣藥局,新北市樹林區三福街１６６號,121.4047,25.01619,(02)26764728,羅氏家用新冠病毒抗原自我檢測套組,77,2022/05/08 07:25:02,口罩代售時間 每日下午14:30 號碼牌發放時間14:20 現場排隊
5931072066,琉璃水藥師藥局,新北市樹林區龍興街２１號１樓,121.403,25.01614,(02)26764262,羅氏家用新冠病毒抗原自我檢測套組,78,2022/05/08 07:25:02,無
5931072299,小蜜蜂中西健保藥局,新北市樹林區東榮街１１８號１樓,121.4154,24.9823,(02)86853677,羅氏家用新冠病毒抗原自我檢測套組,80,2022/05/08 07:25:02,快篩試劑發售時間：基本為早上八點   PS：如政府配送不及，發售時間會現場另行公告。
5931072404,伯安綜合藥局,新北市樹林區中華路１０８號１樓,121.4183,24.98074,(02)86856551,羅氏家用新冠病毒抗原自我檢測套組,37,2022/05/08 07:25:02,初一至初五春節休息
5931072422,三樹食在好健康藥局,新北市樹林區學成路６００號１樓,121.3818,24.94584,(02)26807101,羅氏家用新冠病毒抗原自我檢測套組,351,2022/05/08 07:25:02,實名制快篩販售時間周一～周四19-20點
5931081216,嘉泰藥師藥局,新北市鶯歌區鶯桃路２段３１號１樓,121.3254,24.97248,(02)26709668,羅氏家用新冠病毒抗原自我檢測套組,5,2022/05/08 07:25:02,快篩發放時間晚上8點【星期日公休】
5931081305,佑家藥局,新北市鶯歌區中正三路１５１號１樓,121.3367,24.94007,(02)26798282,羅氏家用新冠病毒抗原自我檢測套組,5,2022/05/08 07:25:02,星期一至六，下午1:30發號碼牌   每日提供8份給醫護警消等緊急使用
5931081396,祐康藥局,新北市鶯歌區建國路３６號,121.356,24.95596,(02)26771223,羅氏家用新冠病毒抗原自我檢測套組,55,2022/05/08 07:25:02,快篩代售時段:星期一&四 上午8:30~9:30；星期二三五六 下午3:00~4:00；星期日公休。
5931081458,食在好健康藥局,新北市鶯歌區國慶街１６５號１樓,121.3512,24.95312,(02)26702559,羅氏家用新冠病毒抗原自我檢測套組,98,2022/05/08 07:25:02,實名制快篩販賣時間週一到週四19:00~20:00 （請自備散鈔）
5931081547,信義健保藥局,新北市鶯歌區信義街６３號１樓,121.3534,24.95571,(02)86775563,羅氏家用新冠病毒抗原自我檢測套組,39,2022/05/08 07:25:02,發放時間以現場公告為主
5931081556,易加藥局,新北市鶯歌區尖山路１３７巷４號,121.3469,24.94851,(02)26705686,羅氏家用新冠病毒抗原自我檢測套組,78,2022/05/08 07:25:02,快篩週一至週六早上8:55發號碼牌，9:00開始販售，週日早上9:00-10:00販售
5931090117,大和藥局,新北市三峽區民生街１５０號,121.3722,24.93491,(02)26711010,羅氏家用新冠病毒抗原自我檢測套組,78,2022/05/08 07:25:02,無
5931091865,大新藥局,新北市三峽區大義路２５９號１樓,121.3774,24.94638,(02)86713204,羅氏家用新冠病毒抗原自我檢測套組,3,2022/05/08 07:25:02,實名制快篩下午2:50開始發號碼牌 3:00販售
5931091892,三峽藥局,新北市三峽區介壽路１段２７號１樓,121.3757,24.93321,(02)26738868,羅氏家用新冠病毒抗原自我檢測套組,1,2022/05/08 07:25:02,快篩實名制，每天16:00開始販售，售完為止。
5931092068,益銘藥師藥局,新北市三峽區大德路１８１號１樓,121.3753,24.94573,(02)26723662,羅氏家用新冠病毒抗原自我檢測套組,1,2022/05/08 07:25:02,無
5931092200,金美藥局,新北市三峽區大同路２３８號１樓,121.3663,24.92573,(02)86715859,羅氏家用新冠病毒抗原自我檢測套組,22,2022/05/08 07:25:02,無
5931092219,北大藥局,新北市三峽區大義路９號１樓,121.3788,24.94372,(02)26738535,羅氏家用新冠病毒抗原自我檢測套組,48,2022/05/08 07:25:02,快篩發放依政府實際到貨時間為主會公告在臉書粉專
5931100047,松和大藥局,新北市淡水區英專路９２號,121.4459,25.17167,(02)26203698,羅氏家用新冠病毒抗原自我檢測套組,3,2022/05/08 07:25:02,口罩代售:每週一~每週五10:30發放號碼牌
5931100154,尚運藥局,新北市淡水區學府路５１巷１弄２０號,121.4473,25.16892,(02)26225149,羅氏家用新冠病毒抗原自我檢測套組,183,2022/05/08 07:25:02,無
5931100163,昇運藥局,新北市淡水區中山路１５７－１號,121.4405,25.17287,(02)26222083,羅氏家用新冠病毒抗原自我檢測套組,51,2022/05/08 07:25:02,無
5931101704,聖天藥局,新北市淡水區重建街２１８號,121.4413,25.1748,(02)26215677,羅氏家用新冠病毒抗原自我檢測套組,1,2022/05/08 07:25:02,實名制快篩試劑正常到貨早上9:00販售 星期日休息
5931101973,良順藥局,新北市淡水區中山北路１段２４號１樓,121.4417,25.1751,(02)26218111,羅氏家用新冠病毒抗原自我檢測套組,31,2022/05/08 07:25:02,快篩販售時間為週一至週六每日上午10:00. 週日不販售
5931102078,躍獅竹圍藥局,新北市淡水區民生路４６號,121.4617,25.13781,(02)28090565,羅氏家用新冠病毒抗原自我檢測套組,15,2022/05/08 07:25:02,晚上7點販售快篩
5931102103,四季寶健保藥局,新北市淡水區新市一路３段１１７－１號（含夾層）,121.4468,25.18314,(02)26283199,羅氏家用新冠病毒抗原自我檢測套組,1,2022/05/08 07:25:02,無
5931102372,日揚藥局,新北市淡水區民族路３０巷５號,121.4612,25.13623,(02)26242059,羅氏家用新冠病毒抗原自我檢測套組,52,2022/05/08 07:25:02,5／7（六）下午1:00快篩實名制。5／8（日）公休無代售快篩實名制。
5931112270,汐心藥局,新北市汐止區福德一路１５０號,121.6366,25.06687,(02)86932859,羅氏家用新冠病毒抗原自我檢測套組,66,2022/05/08 07:25:02,無
5931112314,杏光藥局,新北市汐止區建成路５９巷１９號１樓,121.6617,25.07287,(02)26411340,羅氏家用新冠病毒抗原自我檢測套組,78,2022/05/08 07:25:02,快篩每日早上十點販售  不發號碼牌
5931112789,富康東科藥局,新北市汐止區新台五路１段９６號Ｃ棟１樓Ｃ１５號,121.6483,25.06047,(02)26969222,羅氏家用新冠病毒抗原自我檢測套組,79,2022/05/08 07:25:02,每日九點至下午六點開放購買口罩，周六周日公休
5931113080,宗齡藥局,新北市汐止區康寧街４５９巷２２號１樓,121.6313,25.06974,(02)26952788,羅氏家用新冠病毒抗原自我檢測套組,60,2022/05/08 07:25:02,週日公休，週一上午9點30分開始販售實名制快篩，現場排隊無號碼牌，庫存不準勿參考。
5931113106,穎又安中西藥局,新北市汐止區樟樹一路１３５巷１３號１樓,121.6416,25.06546,(02)26412348,羅氏家用新冠病毒抗原自我檢測套組,62,2022/05/08 07:25:02,實名制快篩如有配送，早上九點開始賣，現場排隊，不發號碼牌
5931113115,躍獅大同藥局,新北市汐止區新興路７號１樓,121.6565,25.06493,(02)26418399,羅氏家用新冠病毒抗原自我檢測套組,49,2022/05/08 07:25:02,每日15:30販售實名制快篩
5931113133,祐欣藥局,新北市汐止區中興路２４０號１樓,121.6296,25.06805,(02)26950778,羅氏家用新冠病毒抗原自我檢測套組,78,2022/05/08 07:25:02,實名制快篩-每日早上9點開始發放號碼牌，發完78張號碼即=售完!! 請不要看帳面庫存!!
5931120049,本平藥局,新北市瑞芳區瑞芳街４５號,121.8076,25.10913,(02)24972167,羅氏家用新冠病毒抗原自我檢測套組,2,2022/05/08 07:25:02,無
5931130358,盛安大藥局,新北市土城區中央路１段２５８號,121.4442,24.98436,(02)22668525,羅氏家用新冠病毒抗原自我檢測套組,38,2022/05/08 07:25:02,無
5931131579,祥安大藥局,新北市土城區立德路４２－１號,121.4636,24.98727,(02)22629707,羅氏家用新冠病毒抗原自我檢測套組,78,2022/05/08 07:25:02,無
5931131864,學府實和藥局,新北市土城區學府路１段１２１號,121.4553,24.98727,(02)22612111,羅氏家用新冠病毒抗原自我檢測套組,75,2022/05/08 07:25:02,無
5931131882,裕達藥局,新北市土城區延吉街１７１號,121.4697,24.98577,(02)22739328,羅氏家用新冠病毒抗原自我檢測套組,5,2022/05/08 07:25:02,下午2點開賣快篩，星期日休息
5931131908,璨鴻藥局,新北市土城區延和路１９１號,121.4692,24.99035,(02)82622588,羅氏家用新冠病毒抗原自我檢測套組,66,2022/05/08 07:25:02,快篩發放時間星期一至五
5931132263,立新藥局,新北市土城區光明街５號１樓,121.4421,24.97475,(02)82626111,羅氏家用新冠病毒抗原自我檢測套組,4,2022/05/08 07:25:02,快篩試劑下午3點開始銷售
5931132307,廣昇健保藥師藥局,新北市土城區明德路１段５３號,121.4653,24.98476,(02)22638300,羅氏家用新冠病毒抗原自我檢測套組,1,2022/05/08 07:25:02,無
5931132343,誠安藥局,新北市土城區中央路４段３６號１樓,121.4207,24.96088,(02)22677737,羅氏家用新冠病毒抗原自我檢測套組,156,2022/05/08 07:25:02,快篩代售時段：平日晚上8點，售完為止
5931132389,凱一藥局,新北市土城區裕民路９２巷２１弄８號１樓,121.4501,24.98629,(02)22707679,羅氏家用新冠病毒抗原自我檢測套組,78,2022/05/08 07:25:02,服務時間10:00~21:00，每週二休息。實名制快篩皆於營業日的10:00開賣。
5931132405,小倉藥局,新北市土城區青雲路１９０號１樓,121.4591,24.98221,(02)22744257,羅氏家用新冠病毒抗原自我檢測套組,36,2022/05/08 07:25:02,快篩發放早上八點領號碼牌，一人卡限一張號碼牌，隨即憑號碼牌購買快篩，賣完為止。
5931132594,元蒼藥局,新北市土城區學府路１段６９號１樓,121.4571,24.98825,(02)22733868,羅氏家用新冠病毒抗原自我檢測套組,53,2022/05/08 07:25:02,無
5931132610,久安藥局,新北市土城區廣明街７０號１樓,121.455,24.9938,(02)89671097,羅氏家用新冠病毒抗原自我檢測套組,85,2022/05/08 07:25:02,每日依現場排隊於9:30開始販售，售完為止。5／1號勞動節 無販售
5931132807,健業藥局,新北市土城區中央路２段２２３－１０號,121.4407,24.97312,(02)22704798,羅氏家用新冠病毒抗原自我檢測套組,78,2022/05/08 07:25:02,無
5931132950,美康藥妝藥局,新北市土城區延吉街２５４號１樓,121.4664,24.98465,(02)22616868,羅氏家用新冠病毒抗原自我檢測套組,44,2022/05/08 07:25:02,實名制快篩前一天若有到貨，則隔日三點販售
5931133037,國安健保藥局,新北市土城區延和路１０９號１樓,121.4678,24.99033,(02)22614933,羅氏家用新冠病毒抗原自我檢測套組,23,2022/05/08 07:25:02,無
5931133331,城安大藥局,新北市土城區金城路３段４０號,121.4656,24.98639,(02)22646561,羅氏家用新冠病毒抗原自我檢測套組,16,2022/05/08 07:25:02,快篩代售時間晚上8:30
5931133439,志仁藥局,新北市土城區學府路１段１０２號１樓,121.4559,24.98791,(02)22737222,羅氏家用新冠病毒抗原自我檢測套組,3,2022/05/08 07:25:02,因快篩時間不一，為到貨後開始販售，請自備零錢，謝謝
5931133564,城恩藥局,新北市土城區學成路３４號１樓,121.4527,24.9873,(02)22735808,羅氏家用新冠病毒抗原自我檢測套組,1,2022/05/08 07:25:02,無
5931133591,土城人藥局,新北市土城區中央路２段２１３巷２號１樓,121.4413,24.97392,(02)22705068,羅氏家用新冠病毒抗原自我檢測套組,29,2022/05/08 07:25:02,無
5931140229,天士藥局,新北市蘆洲區中正路３６號,121.4713,25.08237,(02)22818227,羅氏家用新冠病毒抗原自我檢測套組,1,2022/05/08 07:25:02,目前快篩政府配送不穩定  收到貨後將會盡快開賣
5931140238,謚安中西藥局,新北市蘆洲區永平街６號,121.4596,25.09055,(02)22836375,羅氏家用新冠病毒抗原自我檢測套組,78,2022/05/08 07:25:02,無
5931142018,福您安中西藥局,新北市蘆洲區長安街２４６巷６號１樓,121.458,25.08615,(02)82858322,羅氏家用新冠病毒抗原自我檢測套組,78,2022/05/08 07:25:02,無
5931142296,蓁美健康藥局,新北市蘆洲區九芎街９０巷２１號,121.4647,25.08116,(02)22827527,羅氏家用新冠病毒抗原自我檢測套組,77,2022/05/08 07:25:02,上午10點販售實名制快篩 庫存以實際到貨量為主
5931142509,萊康連鎖藥局,新北市蘆洲區中正路１２６號１樓,121.4694,25.08493,(02)82867383,羅氏家用新冠病毒抗原自我檢測套組,78,2022/05/08 07:25:02,下午三點開賣!!如有異動!!以現場公告為主!!
5931142572,幸安藥局,新北市蘆洲區中山二路５３號１樓,121.4739,25.08204,(02)82835389,羅氏家用新冠病毒抗原自我檢測套組,74,2022/05/08 07:25:02,507（六）508（ 日）無販售 勿排隊   509（一）早上九點販售（本月507 508 515 522 528 529無販售）
5931142858,愛佳健保藥局,新北市蘆洲區長榮路７５號１樓,121.462,25.08364,(02)22825835,羅氏家用新冠病毒抗原自我檢測套組,76,2022/05/08 07:25:02,週一~週五晚上18:00開始販售實名制快篩，售完為止。週六週日不販售。
5931143104,新信義藥局,新北市蘆洲區信義路２６０號１樓,121.4783,25.08678,(02)22885256,羅氏家用新冠病毒抗原自我檢測套組,78,2022/05/08 07:25:02,週日開門換兌換卡，下午2點領回健保卡
5931143266,中美永結藥局,新北市蘆洲區長安街１８５號１樓,121.4605,25.08169,(02)22887676,羅氏家用新冠病毒抗原自我檢測套組,40,2022/05/08 07:25:02,無
5931143355,昭陽藥局,新北市蘆洲區復興路２３０號１樓,121.4793,25.08936,(02)82867077,羅氏家用新冠病毒抗原自我檢測套組,27,2022/05/08 07:25:02,無
5931151302,宏安藥局,新北市五股區成泰路２段１３６號,121.4382,25.08369,(02)22915932,羅氏家用新冠病毒抗原自我檢測套組,79,2022/05/08 07:25:02,口罩販售時間:每日08:15~23:00售完為止 星期日如果前一日還有庫存，當日照常販售
5931151437,虹元藥局,新北市五股區自強路５６號,121.4331,25.07364,(02)22925067,羅氏家用新冠病毒抗原自我檢測套組,39,2022/05/08 07:25:02,無
5931160132,健康藥師藥局,新北市泰山區明志路２段３２３號,121.4264,25.046,(02)22972121,羅氏家用新冠病毒抗原自我檢測套組,28,2022/05/08 07:25:02,周日公休
5931161433,仁安藥局,新北市泰山區明志路３段１７４號１樓,121.4242,25.03906,(02)29015586,羅氏家用新冠病毒抗原自我檢測套組,3,2022/05/08 07:25:02,無
5931161460,紅葉藥局,新北市泰山區楓江路８號２樓,121.4335,25.06244,(02)22960328,羅氏家用新冠病毒抗原自我檢測套組,1,2022/05/08 07:25:02,無
5931161513,苗園健保特約藥局,新北市泰山區仁愛路９２號１樓,121.4331,25.05534,(02)22970736,羅氏家用新冠病毒抗原自我檢測套組,149,2022/05/08 07:25:02,每日下午兩點販售，每日限量70組，另8組供醫護警消第一線人員及緊急狀況使用。居隔／確診者洽區公所
5931161577,立赫輔大藥局,新北市泰山區貴子路６５號１樓,121.4304,25.03971,(02)29060306,羅氏家用新冠病毒抗原自我檢測套組,42,2022/05/08 07:25:02,營業時間：週一~週五，9:30-19:30，5／9 （一）9:30開始發號碼牌
5931161620,華特藥局,新北市泰山區明志路１段２６０號１樓,121.4321,25.06052,(02)29095662,羅氏家用新冠病毒抗原自我檢測套組,108,2022/05/08 07:25:02,5／7（六）-5／8（日）人力調度停止販售快篩 大家辛苦了 多多關心身邊的家人 加油 我們星期一再繼續奮鬥!!
5931170012,存明藥局,新北市林口區中山路９１號,121.3898,25.07869,(02)26011618,羅氏家用新冠病毒抗原自我檢測套組,69,2022/05/08 07:25:02,實名制快篩試劑08:00發號碼牌. 星期日休息
5931170067,宏宇藥局,新北市林口區中正路２８８號１樓,121.3887,25.07776,(02)26031948,羅氏家用新冠病毒抗原自我檢測套組,156,2022/05/08 07:25:02,實名制快篩販售時間:周一至周六 下午兩點，售完為止
5931171644,蛋寶寶藥局,新北市林口區民有街１５８號１樓,121.3725,25.07595,(02)26097371,羅氏家用新冠病毒抗原自我檢測套組,78,2022/05/08 07:25:02,5／21起 周六不販售快篩
5931171671,欣穎藥局,新北市林口區文化二路１段５３５號１樓,121.3843,25.0829,(02)26069786,羅氏家用新冠病毒抗原自我檢測套組,6,2022/05/08 07:25:02,實名制快篩:下午3點-5點。只收紙鈔。周日公休
5931171680,一家好藥局,新北市林口區中山路５００號,121.3794,25.08303,(02)26028270,羅氏家用新冠病毒抗原自我檢測套組,26,2022/05/08 07:25:02,無
5931171733,長欣藥局,新北市林口區中山路１８８號１樓之３,121.3894,25.07908,(02)26013171,羅氏家用新冠病毒抗原自我檢測套組,43,2022/05/08 07:25:02,快篩開賣時間早上9點10分 周日公休  身障.警消醫護可優先購買
5931171742,唯恩藥局,新北市林口區麗園一街９巷１號１樓之２,121.3768,25.07139,(02)26005805,羅氏家用新冠病毒抗原自我檢測套組,78,2022/05/08 07:25:02,快篩發放固定13點，領取號碼牌
5931171895,奇異果三井藥局,新北市林口區文化三路１段２４１號１樓,121.3632,25.07147,(02)26068650,羅氏家用新冠病毒抗原自我檢測套組,78,2022/05/08 07:25:02,實名制快篩每日13:00開賣喔
5931181195,健康小站藥局,新北市深坑區埔新里北深路２段７５號,121.6184,25.00373,(02)26629568,羅氏家用新冠病毒抗原自我檢測套組,78,2022/05/08 07:25:02,販售時間
5931181239,怡恩藥局,新北市深坑區埔新街４１號,121.6209,25.00282,(02)26620285,羅氏家用新冠病毒抗原自我檢測套組,77,2022/05/08 07:25:02,5／6（五） 18:30領戳章 20:00憑戳章購買；週六不販售
5931231225,小蘋果藥局,新北市八里區中山路１段２２９號,121.411,25.1576,(02)26108206,羅氏家用新冠病毒抗原自我檢測套組,74,2022/05/08 07:25:02,無
5931270026,仁又堂藥局,新北市金山區信義路１７號,121.6373,25.22091,(02)24982468,羅氏家用新冠病毒抗原自我檢測套組,1,2022/05/08 07:25:02,無
5931271103,躍獅五福藥局,新北市金山區中山路９９號１樓,121.6399,25.21925,(02)24081608,羅氏家用新冠病毒抗原自我檢測套組,1,2022/05/08 07:25:02,口罩販售時段:早上八點至售完為止
5931281083,焦藥局,新北市萬里區港東新邨６號１樓,121.6569,25.20989,(02)24923188,羅氏家用新冠病毒抗原自我檢測套組,156,2022/05/08 07:25:02,5／9 7:00發號碼牌， 9:00-12:00販售.
5932010019,家佳藥局,桃園市桃園區瑞慶里莊一街８０號,121.2937,25.02199,(03)3175618,羅氏家用新冠病毒抗原自我檢測套組,74,2022/05/08 07:25:02,藥局不看診，周休二日
5932010202,安琪兒藥局,桃園市桃園區莊敬路二段７６號１樓,121.2934,25.02282,(03)3016965,羅氏家用新冠病毒抗原自我檢測套組,78,2022/05/08 07:25:02,無
5932010328,七加恩聯合藥局,桃園市桃園區中埔二街１２３號１樓,121.2959,25.01191,(03)3029302,羅氏家用新冠病毒抗原自我檢測套組,78,2022/05/08 07:25:02,1-5，8:15 發號碼牌  W6 8:45  庫存量不等於實際量
5932011147,維格藥局,桃園市桃園區大興西路二段１２９號,121.2974,25.01048,(03)3016639,羅氏家用新冠病毒抗原自我檢測套組,78,2022/05/08 07:25:02,營業時間:8:30-12:00、14:00-22:00，快篩9:00販售
5932011503,文安藥局,桃園市桃園區中正路６９９號,121.3032,25.00685,(03)3558999,羅氏家用新冠病毒抗原自我檢測套組,7,2022/05/08 07:25:02,實名制快篩領取時間每日早上07:00~080發放78份，請各位不要，不要，不要再打電話來問了，謝謝
5932011585,北醫藥局,桃園市桃園區中正路８５４號,121.3011,25.01082,(03)3575806,羅氏家用新冠病毒抗原自我檢測套組,24,2022/05/08 07:25:02,快篩販賣時段：配送後販賣
5932011870,永祥大藥局,桃園市桃園區永安路５２８號,121.2986,25.00181,(03)3337161,羅氏家用新冠病毒抗原自我檢測套組,3,2022/05/08 07:25:02,口罩販賣時段：週一至週六早上9點
5932012573,悅藥坊人文藥局,桃園市桃園區桃智路６號,121.2948,24.96505,(03)3761688,羅氏家用新冠病毒抗原自我檢測套組,1,2022/05/08 07:25:02,快篩若有到貨，販售時段為：（一）~（六）17:00-19:00；（日）中午12:30
5932012591,迦南藥局,桃園市桃園區國聖一街６１號１樓之１,121.2885,24.98721,(03)3609938,羅氏家用新冠病毒抗原自我檢測套組,65,2022/05/08 07:25:02,快篩販售時間:週一至週五晚上7點半，六日不販售。
5932012813,桃園大興藥局,桃園市桃園區大興西路二段７６巷３號,121.2984,25.01183,(03)3013222,羅氏家用新冠病毒抗原自我檢測套組,18,2022/05/08 07:25:02,快篩實名制，每天16:00開始販售，售完為止。
5932013034,永明藥師藥局,桃園市桃園區永安路２６４號,121.304,24.99839,(03)3343606,羅氏家用新冠病毒抗原自我檢測套組,78,2022/05/08 07:25:02,實名制快篩試劑，早上8點多開始依衛福部規範憑健保卡，一人一卡一份（5劑入），每份500元。售出後不退換。
5932013392,桃園中正藥局,桃園市桃園區中正路３７３號,121.3079,24.99955,(03)3381600,羅氏家用新冠病毒抗原自我檢測套組,13,2022/05/08 07:25:02,快篩實名制，每天16:00開始販售，售完為止。
5932013409,欣立藥局,桃園市桃園區龍安街１８１－１號１樓,121.2782,24.99294,(03)3792001,羅氏家用新冠病毒抗原自我檢測套組,59,2022/05/08 07:25:02,快篩代售時間：晚上6點至銷售完畢。
5932013614,桃元松藥局,桃園市桃園區建華三街４２號,121.3118,24.98294,(03)3611066,羅氏家用新冠病毒抗原自我檢測套組,78,2022/05/08 07:25:02,13:00 開始販售實名制快篩
5932013650,金安藥局,桃園市桃園區南華街１４８號,121.3077,24.99269,(03)3398088,羅氏家用新冠病毒抗原自我檢測套組,43,2022/05/08 07:25:02,無
5932013687,桃園春日藥局,桃園市桃園區春日路８７８號,121.3096,25.01561,(03)3580101,羅氏家用新冠病毒抗原自我檢測套組,2,2022/05/08 07:25:02,快篩實名制，每天16:00開始販售，售完為止。
5932014013,力行藥局,桃園市桃園區力行路９８號,121.3027,25.00206,(03)3391368,羅氏家用新冠病毒抗原自我檢測套組,78,2022/05/08 07:25:02,每日14點開賣售78份為止不發號碼牌，若14點前沒來排隊，肯定買不到請別問了現場爆忙，若15點後還有庫存78以上是隔天賣
5932014077,新資生民安大藥局,桃園市桃園區民安路９８號１樓,121.2997,24.99691,(03)3310098,羅氏家用新冠病毒抗原自我檢測套組,29,2022/05/08 07:25:02,每日14:00開賣.售完為止.臉書粉專會公告最新訊息.可關注
5932014102,小飛象藥局,桃園市桃園區慈文路１９２號,121.3041,25.00907,(03)3552771,羅氏家用新冠病毒抗原自我檢測套組,78,2022/05/08 07:25:02,5／8[ 09:30 ]開賣78份，再打來問一律掛電話。不發放號碼牌，請自行計算人數。即起調劑確診者之視訊處方，請自保。
5932014111,鴻發藥師藥局,桃園市桃園區大有路５４３號,121.3171,25.0149,(03)3582468,羅氏家用新冠病毒抗原自我檢測套組,78,2022/05/08 07:25:02,實聯快篩:早上09:30發放號碼牌，限當日下午2~4點憑牌購買，逾時不候請見諒
5932014166,華康中西藥局,桃園市桃園區中埔六街３號１號,121.2964,25.01549,(03)3166920,羅氏家用新冠病毒抗原自我檢測套組,78,2022/05/08 07:25:02,營業時間:週一~周六:9:00-21:30。週日10:00-18:30 （5／7快篩已售完）（5／8實名快篩早上10:20領號碼牌）
5932014184,浤安藥局,桃園市桃園區慈德街１號１樓,121.3019,25.00685,(03)3577665,羅氏家用新冠病毒抗原自我檢測套組,78,2022/05/08 07:25:02,14:00開始發放實名制快篩
5932014371,杏一桃園敏盛藥局,桃園市桃園區經國路１１８號,121.3065,25.01545,(03)3254973,羅氏家用新冠病毒抗原自我檢測套組,61,2022/05/08 07:25:02,快篩實名制販售時間請依門市公告。  藥師諮詢服務時間平日10:00-19:00。
5932014406,悅藥坊敦陽藥局,桃園市桃園區力行路３８５巷１７號,121.2976,24.99813,(03)3367068,羅氏家用新冠病毒抗原自我檢測套組,27,2022/05/08 07:25:02,實名制快篩:若有到貨 周一~周六:17:00 週日:上午7:10
5932014433,樺品藥局,桃園市桃園區中華路４８號１樓,121.3104,24.99093,(03)3476667,羅氏家用新冠病毒抗原自我檢測套組,74,2022/05/08 07:25:02,營業時間:9:30-21:30，11:00取號碼牌購買快篩
5932014442,新光藥局,桃園市桃園區大有路１７２號,121.3209,25.00752,(03)3310133,羅氏家用新冠病毒抗原自我檢測套組,116,2022/05/08 07:25:02,營業時間:週一至週五10:00-22:00；快篩下午2:00開始，賣完為止，不發號碼牌
5932018539,新永安藥師藥局,桃園市桃園區永安路４６６號,121.2994,25.00081,(03)3471180,羅氏家用新冠病毒抗原自我檢測套組,78,2022/05/08 07:25:02,快篩實名制星期一~星期日早上8:30開賣，賣完為止，謝謝!
5932018628,民富大藥局,桃園市桃園區大有路４８８號,121.3186,25.01277,(03)3469976,羅氏家用新冠病毒抗原自我檢測套組,84,2022/05/08 07:25:02,快篩販賣時段：暫定週一至週五14:00-15:00， 週六.日不發放以現場公告時間為主
593201A640,大心藥局,桃園市桃園區中平路１４１號,121.2934,24.98627,(03)2209842,羅氏家用新冠病毒抗原自我檢測套組,78,2022/05/08 07:25:02,9:00發號碼牌，號碼牌當天有效，9:30開始販售，11:00前結束販售，以號碼牌為準請勿遺失
5932020502,禾安藥局,桃園市中壢區福德路５２號１F,121.2587,24.97445,(03)4627066,羅氏家用新冠病毒抗原自我檢測套組,77,2022/05/08 07:25:02,快篩實名制:早上八點營業（售完為止）週日公休
5932021090,新生藥師藥局,桃園市中壢區民權路５２號,121.2172,24.95608,(03)4919796,羅氏家用新冠病毒抗原自我檢測套組,5,2022/05/08 07:25:02,販賣時段：0840
5932021269,優良藥局,桃園市中壢區長春路２０號,121.2499,24.97907,(03)4612336,羅氏家用新冠病毒抗原自我檢測套組,1,2022/05/08 07:25:02,快篩販售時間10:00
5932021689,立康專業藥局,桃園市中壢區莊敬路８６５號,121.2543,24.96376,(03)4553121,羅氏家用新冠病毒抗原自我檢測套組,78,2022/05/08 07:25:02,快篩實名制販售時間週一到週五下午14:00販售 週六週日早上10:00販售 現場排隊
5932021885,誠新藥局,桃園市中壢區新中北路二段４８７號１樓,121.2643,24.95584,(03)4517296,羅氏家用新冠病毒抗原自我檢測套組,3,2022/05/08 07:25:02,實名制快篩販售時間依到貨時間做滾動式修正
5932022159,躍獅新明藥局,桃園市中壢區新明路６６號１樓,121.215,24.95868,(03)2813361,羅氏家用新冠病毒抗原自我檢測套組,10,2022/05/08 07:25:02,快篩販賣時段：14:00~售完為止，現場排隊 ， 星期天沒有販售快篩
5932022257,星康生活藥局,桃園市中壢區中美路二段94號,121.2218,24.96005,(03)4252869,羅氏家用新冠病毒抗原自我檢測套組,2,2022/05/08 07:25:02,5／7-5／9 實名制快篩14:00販售  5／10之後另行公佈販賣時間
5932022524,家佳聯合藥局,桃園市中壢區中光路１４號,121.2256,24.95717,(03)4273960,羅氏家用新冠病毒抗原自我檢測套組,78,2022/05/08 07:25:02,實名制快篩:12：00販賣，售完為止
5932023012,鴻安中西藥局,桃園市中壢區新中北路二段１９１號１樓,121.2625,24.95597,(03)4520615,羅氏家用新冠病毒抗原自我檢測套組,71,2022/05/08 07:25:02,快篩1030-1130。週一到周日都有。
5932023021,辰鴻藥局,桃園市中壢區環中東路１１０號,121.2585,24.96527,(03)4638639,羅氏家用新冠病毒抗原自我檢測套組,156,2022/05/08 07:25:02,周一至週六 9:00開始，政府滾動式調整配貨
5932023558,德春藥局,桃園市中壢區中山路４４５號,121.2165,24.95668,(03)4933495,羅氏家用新冠病毒抗原自我檢測套組,24,2022/05/08 07:25:02,快篩試劑6AM發號碼牌，8AM領試劑
5932023647,樂謙藥師藥局,桃園市中壢區龍東路１３４號,121.2522,24.92929,(03)4662775,羅氏家用新冠病毒抗原自我檢測套組,66,2022/05/08 07:25:02,實名快篩每日下午2點、晚上6點 各發39份
5932023656,思琁藥師藥局,桃園市中壢區中北路二段４３０號,121.2331,24.95448,(03)4162189,羅氏家用新冠病毒抗原自我檢測套組,1,2022/05/08 07:25:02,週一~週五早上10:30發快篩..週六公休..週日看到貨狀況再另行公告
5932023718,鈞育藥局,桃園市中壢區吉林路１２７號,121.2504,24.98381,(03)4622031,羅氏家用新冠病毒抗原自我檢測套組,110,2022/05/08 07:25:02,販賣時段：W1至W5：13:00至售完，W六日不販售
5932023889,華勛藥局,桃園市中壢區華勛街１１２、１１４號,121.2597,24.95065,(03)4161881,羅氏家用新冠病毒抗原自我檢測套組,1,2022/05/08 07:25:02,快篩實名制，每天16:00開始販售，售完為止。
5932023987,薰衣草藥局,桃園市中壢區新生路３３５號１樓,121.2231,24.96495,(03)4253330,羅氏家用新冠病毒抗原自我檢測套組,2,2022/05/08 07:25:02,週日無販售，其餘販售時間依粉絲團公告
5932023996,青瑭藥局,桃園市中壢區民權路４段２７７號１樓,121.2022,25.00625,(03)2875901,羅氏家用新冠病毒抗原自我檢測套組,1,2022/05/08 07:25:02,無
5932024028,天晟社區藥局,桃園市中壢區延平路１５３號１樓,121.2292,24.9627,(03)4629292,羅氏家用新冠病毒抗原自我檢測套組,47,2022/05/08 07:25:02,無
5932024199,千和藥局,桃園市中壢區中美路１段４９號,121.2233,24.95944,(03)4518884,羅氏家用新冠病毒抗原自我檢測套組,4,2022/05/08 07:25:02,無
5932024242,樂心藥局,桃園市中壢區中山東路２段５３６號１樓,121.2455,24.94672,(03)4655667,羅氏家用新冠病毒抗原自我檢測套組,3,2022/05/08 07:25:02,若有庫存，則於每日早上8:00販售
5932024260,新資生福州大藥局,桃園市中壢區福州二街４０９號,121.232,24.96789,(03)3606180,羅氏家用新冠病毒抗原自我檢測套組,21,2022/05/08 07:25:02,營業時間：星期六 日 上午0900至下午1000
5932024304,鈞康藥局,桃園市中壢區興仁路２段９１號１樓,121.263,24.96665,(03)2850505,羅氏家用新冠病毒抗原自我檢測套組,55,2022/05/08 07:25:02,營業時間：上午11點-售完。星期六日不販售
5932029676,中日大藥局,桃園市中壢區中北路二段７８號,121.225,24.95063,(03)4285068,羅氏家用新冠病毒抗原自我檢測套組,78,2022/05/08 07:25:02,快篩11點前到貨，11點開始販售；11點後到貨，到貨開始販售
593202B483,千葉大藥局,桃園市中壢區新生路三Ｏ七號,121.223,24.96434,(03)4251886,羅氏家用新冠病毒抗原自我檢測套組,78,2022/05/08 07:25:02,快篩販賣時段：滾動式配送.滾動式販售.（正常時間配送 於早上8點販售）
5932030080,吉壽藥局,桃園市大溪區員林路三段４２號,121.2648,24.88175,(03)3802049,羅氏家用新冠病毒抗原自我檢測套組,78,2022/05/08 07:25:02,快篩試劑販賣時段：星期一~五晚上7:00起及星期六、日上午8:30起。由於近日進貨庫存異常，另78份為隔日販售！請諒解。
5932030160,永耘藥局,桃園市大溪區介壽路６４號,121.2946,24.92239,(03)3804770,羅氏家用新冠病毒抗原自我檢測套組,78,2022/05/08 07:25:02,快篩試劑販賣時段: 週一至週日早上8:00
5932031710,甯慶藥局,桃園市大溪區介壽路１１７９號,121.2841,24.90002,(03)3801199,羅氏家用新冠病毒抗原自我檢測套組,1,2022/05/08 07:25:02,快篩販賣時段：13:00-15:00 自備零錢
5932040246,龍泰藥局,桃園市楊梅區民族路五段１４７巷２號,121.1736,24.9586,(03)4901525,羅氏家用新冠病毒抗原自我檢測套組,78,2022/05/08 07:25:02,快篩販售時間:早上7:30領號碼牌下午2點至4點領快篩（當日有效） 六日中午10點至12點領快篩
5932042124,佑健藥師藥局,桃園市楊梅區中山北路二段一Ｏ八號一樓,121.1699,24.90855,(03)4315478,羅氏家用新冠病毒抗原自我檢測套組,29,2022/05/08 07:25:02,快篩販賣時段上午9點開始現場排隊， 售完為止
5932042339,德美藥局,桃園市楊梅區中正路８號,121.0829,24.93497,(03)2821668,羅氏家用新冠病毒抗原自我檢測套組,7,2022/05/08 07:25:02,口罩販售時間：售完為止
5932043274,躍獅天明藥局,桃園市楊梅區大成路１７７號,121.1457,24.91247,(03)2888295,羅氏家用新冠病毒抗原自我檢測套組,312,2022/05/08 07:25:02,快篩販售時間：週一至週五上午8：00售完為止，週六日不販售
5932043309,資生楊梅大藥局,桃園市楊梅區楊新路１００號,121.1449,24.91341,(03)2889590,羅氏家用新冠病毒抗原自我檢測套組,6,2022/05/08 07:25:02,每日快篩代售時間14:00-21:00
5932043345,家安藥局,桃園市楊梅區中興路１３２號,121.1851,24.91655,(03)4811626,羅氏家用新冠病毒抗原自我檢測套組,111,2022/05/08 07:25:02,六日不販售，下次為5／9實名制快篩試劑，下午2點販售
5932043390,元森藥局,桃園市楊梅區瑞溪路２段１２５號１樓,121.1806,24.90875,(03)4311058,羅氏家用新冠病毒抗原自我檢測套組,1,2022/05/08 07:25:02,無
5932043425,躍獅祥筠藥局,桃園市楊梅區萬大路１３５號,121.1786,24.90987,(03)4817458,羅氏家用新冠病毒抗原自我檢測套組,1,2022/05/08 07:25:02,5／6快篩試劑18:00發放（我不知道幾點排隊喔）
5932050215,九德藥局,桃園市蘆竹區中山路６９號,121.3003,25.05242,(03)3116868,羅氏家用新冠病毒抗原自我檢測套組,47,2022/05/08 07:25:02,口罩販賣時段：中午12點
5932052531,竹康藥師藥局,桃園市蘆竹區大竹路５２５號,121.2594,25.02374,(03)3139657,羅氏家用新冠病毒抗原自我檢測套組,70,2022/05/08 07:25:02,實名制快篩販賣時段：週一至週日14:30
5932052559,大新長青藥師藥局,桃園市蘆竹區大新路４６７號,121.2483,25.02408,(03)3131413,羅氏家用新冠病毒抗原自我檢測套組,49,2022/05/08 07:25:02,快篩14:00開始販售
5932052979,南崁藥局,桃園市蘆竹區中正路２５１、２５３、２５５號,121.2921,25.04695,(03)3522022,羅氏家用新冠病毒抗原自我檢測套組,157,2022/05/08 07:25:02,快篩實名制，每天16:00開始販售，售完為止。
5932053010,辰安藥局,桃園市蘆竹區上興路２１６號１樓,121.2601,25.01896,(03)3136631,羅氏家用新冠病毒抗原自我檢測套組,78,2022/05/08 07:25:02,5／7號碼牌已發完；08:00AM 發號碼牌；系統進貨已含隔日庫存*本藥局實名制快篩規則統一公告臉書
5932053092,敏新藥局,桃園市蘆竹區海山路１４號,121.2862,25.08615,(03)3248202,羅氏家用新冠病毒抗原自我檢測套組,78,2022/05/08 07:25:02,快篩現場排隊購買，早上8:00開始販售，售完為止。星期天無販售
5932060140,大園藥局,桃園市大園區中華路４９號,121.1982,25.0667,(03)3865034,羅氏家用新冠病毒抗原自我檢測套組,44,2022/05/08 07:25:02,快篩販賣時段：上午7:00 開始售完為止 若遇無收到配送 另行公告
5932060168,永固安藥局,桃園市大園區中山南路五六號,121.1974,25.06282,(03)3867233,羅氏家用新冠病毒抗原自我檢測套組,19,2022/05/08 07:25:02,快篩販賣時段:依據永固安藥局粉絲專頁公告
5932061003,保和大藥局,桃園市大園區大園里中山北路３６號,121.1972,25.06478,(03)3867448,羅氏家用新冠病毒抗原自我檢測套組,15,2022/05/08 07:25:02,無
5932070164,輝安大藥局,桃園市龜山區中原街３號,121.3363,24.99315,(03)3290636,羅氏家用新冠病毒抗原自我檢測套組,78,2022/05/08 07:25:02,星期一至五中午12點，星期六日早上10點，開賣.
5932070253,高田藥師藥局,桃園市龜山區山鶯路７６號,121.3237,24.99004,(03)3336363,羅氏家用新冠病毒抗原自我檢測套組,4,2022/05/08 07:25:02,口罩販賣時段：早上11:00-早上11:30
5932071009,德佑藥局,桃園市龜山區大崗里新興街２９３號,121.3558,25.04531,(03)3283556,羅氏家用新冠病毒抗原自我檢測套組,70,2022/05/08 07:25:02,快篩試劑販賣時段為每日晚上07:30開始（星期日暫停販售）
5932076791,誠安生活藥局,桃園市龜山區文化七路７９之２號,121.3635,25.05166,(03)3271997,羅氏家用新冠病毒抗原自我檢測套組,79,2022/05/08 07:25:02,實名制快篩試劑每日下午三點啟售。5／7.8週六週日不販售
5932076862,和信藥局,桃園市龜山區南祥路５８號１樓,121.2979,25.04629,(03)2124028,羅氏家用新冠病毒抗原自我檢測套組,2,2022/05/08 07:25:02,快篩販賣時段：每日中午12點，5／8（日）母親節公休一日。
5932077172,佑全藥局,桃園市龜山區幸福三街３１號,121.3347,24.98763,(03)3193036,羅氏家用新冠病毒抗原自我檢測套組,3,2022/05/08 07:25:02,政府快篩試劑販賣時段：14:00-14:30
5932077270,明昌藥局,桃園市龜山區中興里萬壽路二段１１９１－６號,121.3318,24.99291,(03)3501205,羅氏家用新冠病毒抗原自我檢測套組,1,2022/05/08 07:25:02,無
5932077298,家和藥局,桃園市龜山區建國東路９７號,121.3252,24.98754,(03)3196416,羅氏家用新冠病毒抗原自我檢測套組,3,2022/05/08 07:25:02,快篩販賣時段：週一至週日15:00-17:00
5932077305,全興藥局,桃園市龜山區光峰路１５３號１樓,121.3427,25.0026,(03)3597901,羅氏家用新冠病毒抗原自我檢測套組,2,2022/05/08 07:25:02,上午8:30開始販售實名制快篩試劑，禮拜日公休。
5932077378,佑昌藥局,桃園市龜山區民生北路一段５３４號,121.298,25.044,(03)3120760,羅氏家用新冠病毒抗原自我檢測套組,1,2022/05/08 07:25:02,實名制快篩發放時間 14:00
5932077510,左外野藥局,桃園市龜山區文光街６號１樓,121.3802,25.05471,(03)3271503,羅氏家用新冠病毒抗原自我檢測套組,75,2022/05/08 07:25:02,快篩販售:晚上19:30至20:30（週五公休）*不發號碼牌 請直接排隊購買
5932077618,大山藥局,桃園市龜山區中興路１段１８、２２、２４號１樓,121.3379,24.99376,(03)3191057,羅氏家用新冠病毒抗原自我檢測套組,62,2022/05/08 07:25:02,無
5932077645,美康萬壽藥局,桃園市龜山區萬壽路１段３２５號１、２樓,121.4024,25.0169,(02)82000001,羅氏家用新冠病毒抗原自我檢測套組,156,2022/05/08 07:25:02,下午兩點開始發號碼牌販售公費快篩
5932083303,吉康生活藥局,桃園市八德區義勇街１２０號,121.3045,24.96354,(03)3768577,羅氏家用新冠病毒抗原自我檢測套組,78,2022/05/08 07:25:02,周休二日，周一到周五09.:30發放快篩號碼牌 銷售時間 09:30-11:30
5932083330,健康中西藥師藥局,桃園市八德區興豐路326號２樓,121.287,24.92923,(03)3650198,羅氏家用新冠病毒抗原自我檢測套組,23,2022/05/08 07:25:02,無
5932083527,新大明藥局,桃園市八德區大明街二一號一樓,121.2958,24.96902,(03)3618284,羅氏家用新冠病毒抗原自我檢測套組,38,2022/05/08 07:25:02,快篩上午6.10開始領號碼牌領完為止假ㄖ無休
5932083545,興豐藥局,桃園市八德區介壽路二段一一七五號,121.2975,24.93165,(03)3654229,羅氏家用新冠病毒抗原自我檢測套組,78,2022/05/08 07:25:02,實名制快篩 早上07:30開始販售（售完為止）
5932083670,保健藥局,桃園市八德區介壽路一段８３３號２樓,121.3,24.96168,(03)3669486,羅氏家用新冠病毒抗原自我檢測套組,200,2022/05/08 07:25:02,無
5932083974,晨鴻藥師藥局,桃園市八德區桃鶯路７號１樓,121.3265,24.97179,(03)3764299,羅氏家用新冠病毒抗原自我檢測套組,14,2022/05/08 07:25:02,快篩為早上8:30跟晚上6:00領取號碼牌，星期六早上一次發78份，快篩地圖數量參考就好，請勿再打電話詢問 謝謝
5932084248,佑兒康藥局,桃園市八德區永豐路５７０號,121.2718,24.97541,(03)3709680,羅氏家用新冠病毒抗原自我檢測套組,2,2022/05/08 07:25:02,快篩販售時間:  每週一.二.四.五.六 下午2:30 開始 ； 每週三.日 晚上8:50開始
5932084480,大躍藥局,桃園市八德區高城里高城路４８號１樓,121.276,24.97932,(03)3786958,羅氏家用新冠病毒抗原自我檢測套組,78,2022/05/08 07:25:02,快篩領取時間以當天到貨狀況為主，現場排隊無發放號碼牌
5932084533,柚兒藥局,桃園市八德區興仁里豐田三路７９號,121.2875,24.9285,(03)3652002,羅氏家用新冠病毒抗原自我檢測套組,78,2022/05/08 07:25:02,快篩販賣時間：08:40  周一至周六 （ 周日休息 ）
5932084668,奕成健保大藥局,桃園市八德區興豐路６７３號１樓,121.2958,24.93121,(03)3732113,羅氏家用新冠病毒抗原自我檢測套組,3,2022/05/08 07:25:02,早上10:30發放39份、晚上9:30發放39份  （六、日無放快篩）
5932084677,杏一八德介壽藥局,桃園市八德區介壽路一段７７１號１樓,121.3003,24.96305,(03)3665542,羅氏家用新冠病毒抗原自我檢測套組,156,2022/05/08 07:25:02,假日及國定假日不賣快篩.平日早上10點 開始賣
5932084695,康馥藥局,桃園市八德區金和路５３號１樓,121.2971,24.95494,(03)3749620,羅氏家用新冠病毒抗原自我檢測套組,78,2022/05/08 07:25:02,口罩販賣時段：15:00 ， 週日14:30開始營業；星期六公休。
5932084739,元冠大藥局,桃園市八德區豐德路１７號,121.295,24.92466,(03)3657868,羅氏家用新冠病毒抗原自我檢測套組,78,2022/05/08 07:25:02,無
5932084775,安平藥局,桃園市八德區興豐路６５２號１樓,121.2954,24.93085,(03)3732071,羅氏家用新冠病毒抗原自我檢測套組,67,2022/05/08 07:25:02,快篩販售時間平日7:40＜假日8:40＞如遇多人則提早販售避免群聚
5932084800,瑞豐藥局,桃園市八德區興豐路５７７號１樓,121.2935,24.93075,(03)3681456,羅氏家用新冠病毒抗原自我檢測套組,1,2022/05/08 07:25:02,快篩實名制，每天16:00開始販售，售完為止。
5932084873,宏昌藥局,桃園市八德區介壽路１段８９０號,121.2994,24.95998,(03)3639797,羅氏家用新冠病毒抗原自我檢測套組,1,2022/05/08 07:25:02,每日13:30開賣 星期日休息
5932099623,中興藥師藥局,桃園市龍潭區中興路３９９號,121.2308,24.87293,(03)4091005,羅氏家用新冠病毒抗原自我檢測套組,93,2022/05/08 07:25:02,快篩販賣時間-早上9:15發號碼牌、9:30開始販售‧‧‧週六、日停售
5932099696,大立健保藥局,桃園市龍潭區民族路 １９２號１樓,121.2354,24.84074,(03)4093487,羅氏家用新冠病毒抗原自我檢測套組,10,2022/05/08 07:25:02,實名制快篩早上7:00領取
5932099776,愛心藥局,桃園市龍潭區五福街１５巷３號,121.2177,24.86528,(03)4706717,羅氏家用新冠病毒抗原自我檢測套組,78,2022/05/08 07:25:02,口罩販賣時段：0800～售完
5932099856,佳欣社區藥局,桃園市龍潭區中正路２６２號１樓,121.2173,24.86254,(03)4808717,羅氏家用新冠病毒抗原自我檢測套組,41,2022/05/08 07:25:02,無
5932100354,世新藥局,桃園市平鎮區廣泰路７５之２號,121.2052,24.94629,(03)4941234,羅氏家用新冠病毒抗原自我檢測套組,1,2022/05/08 07:25:02,實名制快篩13:30販售
5932100603,安心藥局,桃園市平鎮區上海路１８８號,121.2065,24.91457,(03)4398799,羅氏家用新冠病毒抗原自我檢測套組,78,2022/05/08 07:25:02,無
5932100925,譽達藥局,桃園市平鎮區育達路２４０號１樓,121.2072,24.95155,(03)4922990,羅氏家用新冠病毒抗原自我檢測套組,42,2022/05/08 07:25:02,快篩星期一到六下午三點開始，現場領取，口罩地圖不準，以現場門口公告為主（星期日無販售）
5932100989,南勢長青藥師藥局,桃園市平鎮區中豐路南勢二段５３１號,121.2116,24.90828,(03)4030060,羅氏家用新冠病毒抗原自我檢測套組,79,2022/05/08 07:25:02,實名制快篩試劑，平日下午2:30過卡販售!
5932101137,平鎮延平藥局,桃園市平鎮區延平路二段４３０巷７９—１６號,121.206,24.94458,(03)4918187,羅氏家用新冠病毒抗原自我檢測套組,166,2022/05/08 07:25:02,周一~周六，下午1點~3點販售公費快篩，12:58發放號碼牌，每日30份，請自備500元，不找零
5932101164,南勢藥局,桃園市平鎮區中豐路南勢二段１０８號,121.2106,24.91665,(03)4395663,羅氏家用新冠病毒抗原自我檢測套組,55,2022/05/08 07:25:02,無
5932101191,譽達文化藥局,桃園市平鎮區文化街８巷２號１樓,121.2027,24.95667,(03)4919660,羅氏家用新冠病毒抗原自我檢測套組,1,2022/05/08 07:25:02,星期一至星期六.早上10點發放（無預先發放號碼牌）-現場排隊購買.需自備零錢不找零
5932108529,大益藥局,桃園市平鎮區金陵路２２４號,121.2218,24.9452,(03)4578962,羅氏家用新冠病毒抗原自我檢測套組,58,2022/05/08 07:25:02,口罩販賣時段:早上8:30起至售完為止.
593210A078,康健複合式連鎖藥局,桃園市平鎮區金陵路三段９１號,121.2276,24.92882,(03)4684601,羅氏家用新冠病毒抗原自我檢測套組,1,2022/05/08 07:25:02,實名制快篩試劑13:00開始，不發號碼牌，現場排隊售完為止，一人一卡，自備500元，恕不找零，不收銅板，謝謝配合
593210A103,瑞瑄社區大藥局,桃園市平鎮區中豐路南勢二段１６２號,121.2104,24.91523,(03)4396205,羅氏家用新冠病毒抗原自我檢測套組,3,2022/05/08 07:25:02,無
5932120016,吉利藥師藥局,桃園市觀音區富源里新富路１７０５號,121.1326,24.99095,(03)4901701,羅氏家用新冠病毒抗原自我檢測套組,15,2022/05/08 07:25:02,口罩販賣時段：週一至週六早上7:30起，售完為止
5932120141,東尼藥局,桃園市觀音區觀音里中正路２２０號,121.0812,25.03472,(03)4734567,羅氏家用新冠病毒抗原自我檢測套組,78,2022/05/08 07:25:02,週一至週日早上7點開始發號碼牌，早上8點鐘至晚上8點鐘可以領取快篩
5932124390,合春藥局,桃園市觀音區新生路４６號,121.1359,25.01399,(03)4982300,羅氏家用新冠病毒抗原自我檢測套組,78,2022/05/08 07:25:02,每日早上8點開始販售
5933010064,明德藥局,新竹縣關西鎮中山路１８號,121.1778,24.79152,(03)5874335,羅氏家用新冠病毒抗原自我檢測套組,39,2022/05/08 07:25:02,無
5933010082,仁泰藥局,新竹縣關西鎮石光里６鄰２６８號,121.1307,24.81263,(03)5868391,羅氏家用新冠病毒抗原自我檢測套組,73,2022/05/08 07:25:02,無
5933010091,進安藥局,新竹縣關西鎮正義路１５號,121.1761,24.79111,(03)5872153,羅氏家用新冠病毒抗原自我檢測套組,78,2022/05/08 07:25:02,12:00-14:00休息（配合醫療院所）。
5933011178,康和藥局,新竹縣關西鎮正義路７９號,121.1759,24.79386,(03)5870068,羅氏家用新冠病毒抗原自我檢測套組,34,2022/05/08 07:25:02,依看診時間供民眾取藥
5933011196,高平堂藥局,新竹縣關西鎮正義路66號,121.1762,24.79269,(03)5872263,羅氏家用新冠病毒抗原自我檢測套組,1,2022/05/08 07:25:02,相關公告 請搜尋FB【高平堂藥局】
5933011258,安東藥師藥局,新竹縣關西鎮中山路６２號,121.1766,24.79147,(03)5872385,羅氏家用新冠病毒抗原自我檢測套組,128,2022/05/08 07:25:02,口罩販賣時段：星期一至六08:00-21:00、星期日08:00-17:00
5933031652,合康藥局,新竹縣竹東鎮興農街１１號,121.0861,24.73988,(03)5103818,羅氏家用新冠病毒抗原自我檢測套組,13,2022/05/08 07:25:02,實名制快篩時段：下午17:00~22:30
5933050102,健新藥局,新竹縣竹北市中正西路２７１號,120.9968,24.84255,(03)5527300,羅氏家用新冠病毒抗原自我檢測套組,34,2022/05/08 07:25:02,每日早上7-8販售快篩.星期四早上9點（有正常到貨時）
5933050424,健安藥局,新竹縣竹北市中山路４５８號,121.0113,24.83861,(03)5536591,羅氏家用新冠病毒抗原自我檢測套組,41,2022/05/08 07:25:02,上午 08:30~12:00 下午15:00:18:00 晚上 19:00~21:00（另外星期五下午看診時間17:00~18:00， 國定假日上午門診。）
5933052384,長康藥師藥局,新竹縣竹北市光明一路212號,121.0156,24.83066,(03)6572696,羅氏家用新冠病毒抗原自我檢測套組,51,2022/05/08 07:25:02,自5月6日起固定周一至周日早上7點30分開始販售快篩試劑，售完為止
5933053023,禾坊藥局,新竹縣竹北市科大一路８５號,121.0095,24.82142,(03)5588797,羅氏家用新冠病毒抗原自我檢測套組,1,2022/05/08 07:25:02,快篩販賣時段：每日09:00，營業時間9:00~22:00，除週六9:00~18:00
5933053167,育禾藥局,新竹縣竹北市莊敬南路１８６號,121.0195,24.8157,(03)6683255,羅氏家用新冠病毒抗原自我檢測套組,16,2022/05/08 07:25:02,因人力不足，快篩發放時間為14:00至14:30，逾時不候，敬請見諒！
5933053283,艾美藥局,新竹縣竹北市中正西路８２號１樓,121.0026,24.84005,(03)5557760,羅氏家用新冠病毒抗原自我檢測套組,78,2022/05/08 07:25:02,快篩試劑／口罩代售時段：星期一至星期日07:45-售完為止（12-15時休息）若排隊人數過多將提早開賣
5933053345,仁品藥局,新竹縣竹北市福興東路二段１２６號,121.0281,24.81475,(03)6579718,羅氏家用新冠病毒抗原自我檢測套組,78,2022/05/08 07:25:02,8:00-22:00
5933061758,宏安藥局,新竹縣湖口鄉中山路二段１１０號一樓,121.0436,24.90155,(03)5996335,羅氏家用新冠病毒抗原自我檢測套組,39,2022/05/08 07:25:02,快篩試劑代售時段: 周一至周五 9-11AM. 週六3-5PM. 周日不販售. 採現場排隊 售完為止.
5933080119,建仁藥局,新竹縣新豐鄉建興路一段１２２號,120.9951,24.87287,(03)5595850,羅氏家用新冠病毒抗原自我檢測套組,12,2022/05/08 07:25:02,快篩試劑AM7:00開始過卡.賣完為止（發售時間請勿打電話）
5933080137,春安藥局,新竹縣新豐鄉重興村新庄路２５８號,120.9856,24.90331,(03)5591875,羅氏家用新冠病毒抗原自我檢測套組,45,2022/05/08 07:25:02,快篩試劑販賣時段：星期一~六19:30-21:00 星期日07:10-9:00
5933081447,彰懷藥局,新竹縣新豐鄉新興路75號1樓,120.9926,24.86639,(03)5572995,羅氏家用新冠病毒抗原自我檢測套組,78,2022/05/08 07:25:02,周一至星期日，每日早上八點開始販售，售完為止
5933081483,第一調劑藥局,新竹縣新豐鄉建興路一段１５４號,120.9947,24.87441,(03)5575001,羅氏家用新冠病毒抗原自我檢測套組,90,2022/05/08 07:25:02,無
5933090071,新華方西藥局,新竹縣芎林鄉文山路515號,121.0779,24.77693,(03)5926352,羅氏家用新冠病毒抗原自我檢測套組,1,2022/05/08 07:25:02,販售時間:07:00-21:00售完為止.
5933091112,暘光藥局,新竹縣芎林鄉文山路385號,121.0803,24.77533,(03)5121001,羅氏家用新冠病毒抗原自我檢測套組,78,2022/05/08 07:25:02,快篩相關訊息請搜尋臉書FB【暘光藥局】
5933091121,大銨藥局,新竹縣芎林鄉石潭村竹林路７２之１號,121.0981,24.75059,(03)5928018,羅氏家用新冠病毒抗原自我檢測套組,48,2022/05/08 07:25:02,無
5934010086,圓滿堂藥局,宜蘭縣宜蘭市中山路３段４８號,121.7524,24.75614,(03)9323413,羅氏家用新冠病毒抗原自我檢測套組,47,2022/05/08 07:25:02,快篩代售時間自上午開始至售完止
5934010228,中一藥局,宜蘭縣宜蘭市慈安路４１－３號,121.7623,24.75944,(03)9385962,羅氏家用新冠病毒抗原自我檢測套組,78,2022/05/08 07:25:02,星期一至星期六上午9:00開始販售快篩.售完為止
5934011529,宜生藥局,宜蘭縣宜蘭市新民路１１１號,121.7551,24.75716,(03)9327893,羅氏家用新冠病毒抗原自我檢測套組,22,2022/05/08 07:25:02,周一至周六 上午8點至上午 9點 （或售完為止）5月7日台電停電 休息一日
5934011565,微風藥師藥局,宜蘭縣宜蘭市神農路２段４６號,121.7509,24.75084,(03)9362880,羅氏家用新冠病毒抗原自我檢測套組,27,2022/05/08 07:25:02,星期一至星期六7:30開始發放號碼牌至售完為止
5934011636,興南藥局,宜蘭縣宜蘭市中山路３段１７８號,121.7532,24.75975,(03)9310984,羅氏家用新冠病毒抗原自我檢測套組,78,2022/05/08 07:25:02,上午7:30開賣，賣完為止
5934011850,健康家藥局,宜蘭縣宜蘭市東港路２段４２８號,121.7624,24.75525,(03)9371516,羅氏家用新冠病毒抗原自我檢測套組,70,2022/05/08 07:25:02,星期六，日休息，平日09:00開始營業，有快篩試劑就販售!!
5934011958,栢心藥局,宜蘭縣宜蘭市宜興路１段１１１號,121.7561,24.7514,(03)9357277,羅氏家用新冠病毒抗原自我檢測套組,78,2022/05/08 07:25:02,週一~週六14:00發號碼牌，下午14:30開始販售.（週四下午17:30發號碼牌，18:00開賣）
5934012044,富康新民藥局,宜蘭縣宜蘭市新民路１１３號,121.7551,24.75717,(03)9366060,羅氏家用新冠病毒抗原自我檢測套組,68,2022/05/08 07:25:02,下午兩點開賣現場排隊不發號碼牌（星期天休息）*5／7停電-停售一次*
5934012419,熊貓健保藥局,宜蘭縣宜蘭市中山路３段１６９號１樓,121.753,24.75984,(03)9331335,羅氏家用新冠病毒抗原自我檢測套組,1,2022/05/08 07:25:02,5／7 快篩已售完。  星期一、五：下午14:30販賣；星期二三四六：上午10:00販賣。
5934031165,宏一藥局,宜蘭縣蘇澳鎮中山路１段２９號,121.8524,24.59604,(03)9962125,羅氏家用新冠病毒抗原自我檢測套組,36,2022/05/08 07:25:02,快篩販售時間 ~ 5／8（日）07:00 ，祝 所有媽咪 ~ 母親節快樂!
5934041161,頭城藥局,宜蘭縣頭城鎮開蘭路１３４號,121.8237,24.85796,(03)9770618,羅氏家用新冠病毒抗原自我檢測套組,40,2022/05/08 07:25:02,快篩試劑星期一至星期日早上8:00-12:00銷售  售完為止
5934061065,心星藥局,宜蘭縣壯圍鄉吉祥村壯五路３１５號１樓,121.7846,24.74675,(03)9382258,羅氏家用新冠病毒抗原自我檢測套組,150,2022/05/08 07:25:02,物流運送快篩機制為高機動屬性，藥局營業時間為週一至週日 08:00~21:00，歡迎您來電洽詢，心星藥局關心您的健康.
5934081174,和康藥局,宜蘭縣冬山鄉義成路３段３５１號１樓,121.7676,24.66619,(03)9680650,羅氏家用新冠病毒抗原自我檢測套組,1,2022/05/08 07:25:02,實名制快篩販售：週一至週六下午1點，售完為止。
5935010222,正欣藥局,苗栗縣苗栗市清華里褔星街６０號,120.8273,24.57283,(037)264502,羅氏家用新冠病毒抗原自我檢測套組,19,2022/05/08 07:25:02,早上7點開始販賣快篩試劑
5935010259,德鑫藥局,苗栗縣苗栗市清華里為公路３４８號,120.8309,24.57167,(037)261698,羅氏家用新冠病毒抗原自我檢測套組,45,2022/05/08 07:25:02,無
5935011738,佳禾藥局,苗栗縣苗栗市青苗里建台街7號,120.821,24.55742,(037)373041,羅氏家用新冠病毒抗原自我檢測套組,1,2022/05/08 07:25:02,快篩試劑7：30發號碼牌8：00開始販賣，販賣時段：營業時間至售完為止
5935012146,聯合藥師藥局,苗栗縣苗栗市社寮街１４５號,120.8248,24.56724,(037)264425,羅氏家用新冠病毒抗原自我檢測套組,15,2022/05/08 07:25:02,無
5935030153,維康藥局,苗栗縣通霄鎮信義路１０４號,120.6803,24.48809,(037)750000,羅氏家用新冠病毒抗原自我檢測套組,1,2022/05/08 07:25:02,早上8:30開始販售，售完為止，臉書也會更新最新資訊
5935030171,立安藥局,苗栗縣通霄鎮信義路１０７號,120.6804,24.48877,(037)760100,羅氏家用新冠病毒抗原自我檢測套組,1,2022/05/08 07:25:02,快篩實名制 週一到週六下午15:00開始販售  售完為止
5935030180,通霄藥局,苗栗縣通霄鎮中山路１３１號,120.678,24.48903,(037)755155,羅氏家用新冠病毒抗原自我檢測套組,2,2022/05/08 07:25:02,快篩實名制，每天16:00開始販售，售完為止。
5935040266,鴻仁大藥局,苗栗縣竹南鎮竹南里博愛街１８１號,120.8741,24.68686,(037)462396,羅氏家用新冠病毒抗原自我檢測套組,2,2022/05/08 07:25:02,無
5935040328,明志藥局,苗栗縣竹南鎮照南里博愛街４號,120.8797,24.68677,(037)472341,羅氏家用新冠病毒抗原自我檢測套組,51,2022/05/08 07:25:02,快篩賣時間:早上6:30~22:00。週六，周日照常。
5935041450,昇暉藥局,苗栗縣竹南鎮民治街１８號,120.8793,24.68492,(037)464347,羅氏家用新冠病毒抗原自我檢測套組,78,2022/05/08 07:25:02,快篩周一到周五中午12點販售
5935042055,崧博藥師藥局,苗栗縣竹南鎮龍山路３段３７號,120.8775,24.70162,(037)639822,羅氏家用新冠病毒抗原自我檢測套組,79,2022/05/08 07:25:02,無
5935050066,義春藥局,苗栗縣頭份市珊湖里中正三路７２號,120.9557,24.68088,(037)601433,羅氏家用新冠病毒抗原自我檢測套組,57,2022/05/08 07:25:02,口罩販賣時段：營業時間-售完
5935050208,三峰藥局,苗栗縣頭份市新華里中正一路７８號,120.9259,24.68655,(037)668239,羅氏家用新冠病毒抗原自我檢測套組,1,2022/05/08 07:25:02,實名制快篩：週一至週六下午1點排隊直接購買；週日休息。
5935050253,泉興藥局,苗栗縣頭份市仁愛里民族路２８號,120.9073,24.68299,(037)664367,羅氏家用新冠病毒抗原自我檢測套組,31,2022/05/08 07:25:02,快篩試劑販賣時段：07:00-23:00
5935051867,惠祐藥局,苗栗縣頭份市中正路１６５號,120.9103,24.68682,(037)668933,羅氏家用新冠病毒抗原自我檢測套組,4,2022/05/08 07:25:02,防疫快篩販賣時段：9:00起（周日中午起休息）
5935051947,森品藥局,苗栗縣頭份市建國路２段１５０、１５２、１５６號,120.9032,24.69653,(037)672378,羅氏家用新冠病毒抗原自我檢測套組,3,2022/05/08 07:25:02,營業時間：9:00-22:30
5935071172,健安藥局,苗栗縣卓蘭鎮上新里上新七之１１號,120.8297,24.30834,(04)25899617,羅氏家用新冠病毒抗原自我檢測套組,72,2022/05/08 07:25:02,每日 15:00開賣快篩試劑
5935071216,萊恩藥局,苗栗縣卓蘭鎮上新里上新7之1號,120.83,24.30719,(04)25899369,羅氏家用新冠病毒抗原自我檢測套組,31,2022/05/08 07:25:02,快篩販賣時段：開門就賣-售完
5935100025,仁興藥局,苗栗縣銅鑼鄉銅鑼村中正路９７號,120.7868,24.48602,(037)983792,羅氏家用新冠病毒抗原自我檢測套組,31,2022/05/08 07:25:02,快篩販賣時段：09:00-售完
5935130023,民享藥局,苗栗縣三義鄉廣盛村中正路１４７之３號,120.772,24.41316,(037)871498,羅氏家用新冠病毒抗原自我檢測套組,44,2022/05/08 07:25:02,口罩販賣時段：早上7點開始到售完
5936010155,春輝堂藥局,臺中市豐原區北陽里豐東路２２０巷１７號,120.732,24.24929,(04)25280086,羅氏家用新冠病毒抗原自我檢測套組,67,2022/05/08 07:25:02,無
5936010486,輝生藥局,臺中市豐原區鐮村路４１１號,120.7223,24.22695,(04)25379563,羅氏家用新冠病毒抗原自我檢測套組,57,2022/05/08 07:25:02,防疫口罩販售時段早上07:00
