醫事機構代碼,醫事機構名稱,醫事機構地址,經度,緯度,醫事機構電話,廠牌項目,快篩試劑截至目前結餘存貨數量,來源資料時間,備註
2333070010,新竹縣橫山鄉衛生所,新竹縣橫山鄉大肚村３鄰新興街１４１巷１０號,121.1393,24.71756,(03)5932004,羅氏家用新冠病毒抗原自我檢測套組,78,2022/05/06 10:27:02,實名制快篩試劑販賣：週一至週五12：30~13：30
2333120015,新竹縣峨眉鄉衛生所,新竹縣峨眉鄉峨眉村峨眉街２鄰５號,121.0214,24.68842,(03)5800314,羅氏家用新冠病毒抗原自我檢測套組,78,2022/05/06 10:27:02,本所5月13日（五）下午眼科，自5月6日起販賣快篩試劑現場排隊12時至13時止，國定及例假日不賣
2335110017,苗栗縣南庄鄉衛生所,苗栗縣南庄鄉東村大同路１７號,121,24.59733,(037)822024,羅氏家用新冠病毒抗原自我檢測套組,78,2022/05/06 10:27:02,口罩販賣時段:週一至週五上午8:00~下午5:00
2335180019,苗栗縣泰安鄉衛生所,苗栗縣泰安鄉清安村２鄰７２號,120.9083,24.44722,(037)941054,羅氏家用新冠病毒抗原自我檢測套組,12,2022/05/06 10:27:02,口罩販賣時段：星期一~五：8:30~15：00。
2336210034,臺中市和平區梨山衛生所,臺中市和平區中正路１２號１樓、６８號１樓,121.2592,24.25678,(04)25989540,羅氏家用新冠病毒抗原自我檢測套組,21,2022/05/06 10:27:02,提供24小時急診待診服務，111年4月28日起，快篩試劑販售時段為周一至周五0900-12:00，六日及國定假日為0900-1100
2338070010,南投縣鹿谷鄉衛生所,南投縣鹿谷鄉中正路二段２０號,120.7542,23.74488,(049)2752002,羅氏家用新冠病毒抗原自我檢測套組,55,2022/05/06 10:27:02,快篩試劑販售時間 上班日（星期一至星期五）14:00~16:00
2340170016,嘉義縣大埔鄉衛生所,嘉義縣大埔鄉大埔村５３－１號,120.5928,23.29397,(05)2521214,羅氏家用新冠病毒抗原自我檢測套組,78,2022/05/06 10:27:02,無
2341250013,臺南市南化區衛生所,臺南市南化區南化里２２６－１號,120.4793,23.0444,(06)5771139,羅氏家用新冠病毒抗原自我檢測套組,79,2022/05/06 10:27:02,5／6 實名制快篩試劑販售時間早上9:30-11:30售完提早結束。
2342130010,高雄市田寮區衛生所,高雄市田寮區南安里崗北路３２號,120.3594,22.87301,(07)6361504,羅氏家用新冠病毒抗原自我檢測套組,77,2022/05/06 10:27:02,巡迴醫療:每星期一、四下午及每月第一個有上班的星期三下午巡迴醫療
2342250017,高雄市茂林區衛生所,高雄市茂林區茂林里茂林巷８－４號,120.6641,22.88641,(07)6801046,羅氏家用新冠病毒抗原自我檢測套組,88,2022/05/06 10:27:02,夜間急診，請先撥電話07-6801046
2342260013,高雄市桃源區衛生所,高雄市桃源區桃源里南進巷１８８－１號,120.7642,23.15845,(07)6861126,羅氏家用新冠病毒抗原自我檢測套組,133,2022/05/06 10:27:02,IDS提供24小時服務
2342270019,高雄市那瑪夏區衛生所,高雄市那瑪夏區瑪雅里６鄰平和巷２５２號,120.7024,23.24708,(07)6701142,羅氏家用新冠病毒抗原自我檢測套組,299,2022/05/06 10:27:02,春節期間正常門診
2343240015,屏東縣滿州鄉衛生所,屏東縣滿州鄉滿州村中山路３１號,120.8381,22.01898,(08)8801279,羅氏家用新冠病毒抗原自我檢測套組,42,2022/05/06 10:27:02,無
2343270013,屏東縣霧台鄉衛生所,屏東縣霧台鄉霧台村神山巷６８號,120.7261,22.74989,(08)7902232,羅氏家用新冠病毒抗原自我檢測套組,94,2022/05/06 10:27:02,無
2343300016,屏東縣來義鄉衛生所,屏東縣來義鄉古樓村中正路９０號,120.632,22.52584,(08)7850103,羅氏家用新冠病毒抗原自我檢測套組,20,2022/05/06 10:27:02,無
2343330014,屏東縣牡丹鄉衛生所,屏東縣牡丹鄉石門村１９號,120.7469,22.10105,(08)8831013,羅氏家用新冠病毒抗原自我檢測套組,5,2022/05/06 10:27:02,無
2344011036,澎湖縣馬公市第三衛生所,澎湖縣馬公市西文里１１８之２號,119.5836,23.56813,(06)9211723,羅氏家用新冠病毒抗原自我檢測套組,49,2022/05/06 10:27:02,本所快篩試劑只提供離島衛生室（虎井、桶盤）販售，時間週一至週五08:30-17:00售完為止，星期六、日國定假日09:00-12:00。
2344030022,澎湖縣白沙鄉鳥嶼衛生所,澎湖縣白沙鄉鳥嶼村漁港新村３號,119.6599,23.66008,(06)9916092,羅氏家用新冠病毒抗原自我檢測套組,129,2022/05/06 10:27:02,非上班時間提供急診服務
2344030031,澎湖縣白沙鄉吉貝衛生所,澎湖縣白沙鄉吉貝村８－１３號,119.6138,23.74056,(06)9911430,羅氏家用新冠病毒抗原自我檢測套組,71,2022/05/06 10:27:02,無
2344050015,澎湖縣望安鄉衛生所,澎湖縣望安鄉西安村３６－７號,119.4972,23.36161,(06)9991036,羅氏家用新冠病毒抗原自我檢測套組,177,2022/05/06 10:27:02,夜間急診。口罩、快篩試劑販售時間為:每日08:00-12:00、13:30-17:30售完為止，如有餘數為離島未售出（東嶼坪、花嶼）。
2344050024,澎湖縣望安鄉將軍衛生所,澎湖縣望安鄉將軍村１２鄰將軍澳１之３號,119.5216,23.3615,(06)9902066,羅氏家用新冠病毒抗原自我檢測套組,177,2022/05/06 10:27:02,24小時急診
2344060011,澎湖縣七美鄉衛生所,澎湖縣七美鄉中和村埔內５４號,119.431,23.2041,(06)9971005,羅氏家用新冠病毒抗原自我檢測套組,28,2022/05/06 10:27:02,無
2345120016,花蓮縣萬榮鄉衛生所,花蓮縣萬榮鄉萬榮村１鄰１６號,121.4092,23.71558,(03)8751651,羅氏家用新冠病毒抗原自我檢測套組,156,2022/05/06 10:27:02,快篩試劑代售時間：週一至週五下午2點至下午4點，販售為止。
2345130012,花蓮縣卓溪鄉衛生所,花蓮縣卓溪鄉卓溪村中正路６５號,121.3033,23.33294,(03)8882592,羅氏家用新冠病毒抗原自我檢測套組,156,2022/05/06 10:27:02,快篩試劑代售時間：週一至週五上午8：30-11：00（售完即結束）
2346050013,台東縣大武鄉衛生所,臺東縣大武鄉大武村復興路２－２號,120.9078,22.36414,(089)791143,羅氏家用新冠病毒抗原自我檢測套組,1,2022/05/06 10:27:02,24小時急診服務（急診無販售快篩試劑）
2346140012,台東縣達仁鄉衛生所,臺東縣達仁鄉安朔村復興路１２２號,120.8836,22.29488,(089)702209,羅氏家用新冠病毒抗原自我檢測套組,1,2022/05/06 10:27:02,12／31 元旦連假
2391020010,連江縣北竿鄉衛生所,連江縣北竿鄉塘岐村２８１－６號,119.9991,26.22617,(083)655592,羅氏家用新冠病毒抗原自我檢測套組,4,2022/05/06 10:27:02,新冠快篩試劑販售於週一至周六每日上午08:30-12:00開放購買。
2391030016,連江縣莒光鄉西莒衛生所,連江縣莒光鄉青帆村１４－１號,119.9331,25.97157,(083)689122,羅氏家用新冠病毒抗原自我檢測套組,333,2022/05/06 10:27:02,防疫口罩星期一至五09:00-17:00、（六）09:00-12:00現場購買
2391030026,連江縣莒光鄉東莒衛生所,連江縣莒光鄉大坪村３０－１號,119.9731,25.96113,(083)689038,羅氏家用新冠病毒抗原自我檢測套組,482,2022/05/06 10:27:02,防疫口罩星期一至星期日上午10:00-12:00收取健保卡，下午3:30至本所領取口罩。
2391040012,連江縣東引鄉衛生所,連江縣東引鄉中柳村１２３號,120.4904,26.36701,(083)677206,羅氏家用新冠病毒抗原自我檢測套組,7,2022/05/06 10:27:02,防疫口罩每日10:00-12:00現場購買
5901010094,明一藥局,臺北市松山區南京東路５段５９巷２８弄２５號１樓,121.5582,25.0527,(02)27691654,羅氏家用新冠病毒抗原自我檢測套組,19,2022/05/06 10:27:02,AM10: ~~PM9:00
5901010165,傑安藥局,臺北市松山區八德路２段４３７巷７弄８號１樓,121.5473,25.04914,(02)27524155,羅氏家用新冠病毒抗原自我檢測套組,116,2022/05/06 10:27:02,9:30開始發號碼牌
5901010272,德靈藥局,臺北市松山區富錦街５４８號,121.5667,25.06178,(02)27646998,羅氏家用新冠病毒抗原自我檢測套組,42,2022/05/06 10:27:02,週日休 .
5901011699,建東大藥局,臺北市松山區三民路９７號１樓,121.5634,25.05723,(02)27676237,羅氏家用新冠病毒抗原自我檢測套組,1,2022/05/06 10:27:02,早上9點發號碼牌.留健保卡.12點前回來買快篩.一人一卡.周日公修（沒快篩）
5901012516,惠登藥局,臺北市松山區民生東路３段１３０巷３４號,121.5461,25.0562,(02)25472432,羅氏家用新冠病毒抗原自我檢測套組,60,2022/05/06 10:27:02,無
5901012570,予志藥局,臺北市松山區富錦街５２１號,121.5649,25.06119,(02)27623522,羅氏家用新冠病毒抗原自我檢測套組,78,2022/05/06 10:27:02,實名制快篩星期一到三下午2點、星期四到六晚上8點、星期日停售
5901012598,婕登藥局,臺北市松山區八德路４段６９９號,121.5766,25.05021,(02)27482893,羅氏家用新冠病毒抗原自我檢測套組,78,2022/05/06 10:27:02,今天快篩已經發送完畢（電腦庫存不準）
5901012749,躍獅松和藥局,臺北市松山區八德路四段６６６－１號,121.5761,25.04979,(02)27492569,羅氏家用新冠病毒抗原自我檢測套組,78,2022/05/06 10:27:02,實名制快篩販售時段，每日下午4點販售，售完為止
5901012767,晨新藥局,臺北市松山區八德路４段９１巷１－１號,121.5608,25.04894,(02)27422951,羅氏家用新冠病毒抗原自我檢測套組,78,2022/05/06 10:27:02,本店星期一不販售快篩，其餘時間為下午2點至5點。若有修正依店內公告為主。
5901013095,康采藥局,臺北市松山區南京東路５段２９１巷１７－２號,121.5663,25.05236,(02)27670271,羅氏家用新冠病毒抗原自我檢測套組,28,2022/05/06 10:27:02,（已完售，庫存不準）快篩試劑每日16點販售，週日沒有販售
5901013308,立赫敦北藥局,臺北市松山區敦化北路２２２巷２０號,121.5477,25.05945,(02)27199277,羅氏家用新冠病毒抗原自我檢測套組,31,2022/05/06 10:27:02,5／6 （五）9:30發放號碼牌販售
5901013362,啄木鳥藥局,臺北市松山區八德路４段２０９號、２１１號（１、２層）,121.564,25.04894,(02)27422413,羅氏家用新冠病毒抗原自我檢測套組,72,2022/05/06 10:27:02,無
5901013399,一安正昇藥局,臺北市松山區南京東路５段３０９號,121.5667,25.05155,(02)27680993,羅氏家用新冠病毒抗原自我檢測套組,1,2022/05/06 10:27:02,快篩發放時間  下午14:30
5901013693,民生盛康藥局,臺北市松山區民生東路５段２０４號１樓,121.5648,25.05826,(02)27460758,羅氏家用新冠病毒抗原自我檢測套組,90,2022/05/06 10:27:02,【每日70分】每日早上9:00發號碼牌，14:00~20:00拿號碼牌回來領取，每人限1張號碼牌，逾時不候
5901013737,全欣藥局,臺北市松山區復興北路７３號２樓,121.5442,25.05104,(02)87729066,羅氏家用新冠病毒抗原自我檢測套組,44,2022/05/06 10:27:02,9:00am開始販售30人份15:00販售30人份:18:00販售17人份；週六:9:00販售39人份；週日:15:00販售39人份....排隊人數滿會先發號碼
5901020303,宏恩藥局,臺北市大安區大安路１段１８１號,121.5461,25.03619,(02)27000956,羅氏家用新冠病毒抗原自我檢測套組,1,2022/05/06 10:27:02,實名制快篩每周一~六，10:00發放號碼牌， 後於12:00~21:00自由擇時，持號碼牌領取快篩並收費
5901023304,麗樺藥師藥局,臺北市大安區麗水街３號,121.529,25.03225,(02)23952628,羅氏家用新冠病毒抗原自我檢測套組,38,2022/05/06 10:27:02,無
5901023519,惠盈藥局,臺北市大安區辛亥路２段１７１巷３１號,121.5412,25.02297,(02)87321366,羅氏家用新冠病毒抗原自我檢測套組,78,2022/05/06 10:27:02,快篩上午11:00開始，週日沒賣
5901024114,好安心藥局,臺北市大安區和平東路２段９８之２號,121.5415,25.02493,(02)23772166,羅氏家用新冠病毒抗原自我檢測套組,75,2022/05/06 10:27:02,快篩發放: 週一至週六 15:30現場開始販售，不發號碼牌。
5901024543,奇威藥局,臺北市大安區雲和街９３號,121.5312,25.02338,(02)23651110,羅氏家用新冠病毒抗原自我檢測套組,1,2022/05/06 10:27:02,無
5901024669,百岳藥局,臺北市大安區和平東路２段３１１巷１１號,121.5452,25.02514,(02)27551037,羅氏家用新冠病毒抗原自我檢測套組,156,2022/05/06 10:27:02,快篩試劑販售時間:周一至周五10:30~12:00止
5901024721,麗泰藥局,臺北市大安區復興南路２段１５１巷４號,121.544,25.02832,(02)27079595,羅氏家用新冠病毒抗原自我檢測套組,39,2022/05/06 10:27:02,每天到貨時間不定，到貨後即公告開賣
5901024767,杏一樂業藥局,臺北市大安區樂業街１６２號,121.5535,25.01958,(02)27383194,羅氏家用新冠病毒抗原自我檢測套組,79,2022/05/06 10:27:02,快篩下午三點現場直接販售（不發號碼牌）
5901024838,昶青藥局,臺北市大安區濟南路３段２２之１號,121.5346,25.04008,(02)27515678,羅氏家用新冠病毒抗原自我檢測套組,24,2022/05/06 10:27:02,每天下午13:00販售快篩實名制
5901024865,沛林東區生活藥粧藥局,臺北市大安區忠孝東路４段１８１巷７弄５號,121.551,25.04219,(02)27763759,羅氏家用新冠病毒抗原自我檢測套組,74,2022/05/06 10:27:02,每日早上11:00營業，若快篩有到貨，每日發放時間為下午2:00開始
5901024918,康祥藥局,臺北市大安區忠孝東路４段２１６巷２１號,121.5531,25.04025,(02)27817891,羅氏家用新冠病毒抗原自我檢測套組,78,2022/05/06 10:27:02,星期天11:00-19:00
5901024954,佑全大安敦南藥局,臺北市大安區敦化南路２段６３巷４６號,121.5512,25.03089,(02)23257579,羅氏家用新冠病毒抗原自我檢測套組,78,2022/05/06 10:27:02,早上10點發放號碼牌，同時開始販賣實名制快篩
5901025040,弘昌藥局,臺北市大安區通化街１３９號１樓,121.554,25.02901,(02)27321616,羅氏家用新冠病毒抗原自我檢測套組,27,2022/05/06 10:27:02,無
5901025059,博醫仁愛藥局,臺北市大安區仁愛路４段８巷２號１樓,121.5443,25.0375,(02)27019107,羅氏家用新冠病毒抗原自我檢測套組,78,2022/05/06 10:27:02,每天11:30發號碼牌，12:00~15:00憑號碼牌與健保卡購買實名制快篩
5901090127,三銘大藥局,臺北市大同區迪化街１段８０號,121.5099,25.05581,(02)25583392,羅氏家用新冠病毒抗原自我檢測套組,30,2022/05/06 10:27:02,無
5901090369,保慶藥局,臺北市大同區保安街２１號,121.5129,25.05926,(02)25538988,羅氏家用新冠病毒抗原自我檢測套組,66,2022/05/06 10:27:02,因到貨時間不定，視到貨時間販售
5901091544,得意藥師藥局,臺北市大同區延平北路２段２２９號,121.5115,25.06029,(02)25534294,羅氏家用新冠病毒抗原自我檢測套組,7,2022/05/06 10:27:02,無
5901091820,富康藥局,臺北市大同區延平北路２段１２６號,121.5115,25.05733,(02)25537782,羅氏家用新冠病毒抗原自我檢測套組,8,2022/05/06 10:27:02,代售快篩早上9:00開始售完為止
5901091884,躍獅雙蓮藥局,臺北市大同區涼州街４號,121.5147,25.06078,(02)25537551,羅氏家用新冠病毒抗原自我檢測套組,76,2022/05/06 10:27:02,實名制快篩：平日週一～五 下午３點開賣 （六、日停售）
5901092103,新聖安藥局,臺北市大同區昌吉街１３０號,121.5143,25.06584,(02)25977877,羅氏家用新冠病毒抗原自我檢測套組,78,2022/05/06 10:27:02,每日下午2點開賣 （前10分鐘發號碼牌）
5901092130,大同民生藥局,臺北市大同區民生西路１２８號１樓、２樓及１３０號１樓、２樓,121.5191,25.05734,(02)25558886,羅氏家用新冠病毒抗原自我檢測套組,78,2022/05/06 10:27:02,快篩實名制，每天16:00開始販售，售完為止。
5901100155,大信藥局,臺北市中山區林森北路１５９巷６號,121.5255,25.0517,(02)25719080,羅氏家用新冠病毒抗原自我檢測套組,1,2022/05/06 10:27:02,無
5901100664,阿里藥局,臺北市中山區錦州街２５１號,121.5342,25.06039,(02)25020638,羅氏家用新冠病毒抗原自我檢測套組,20,2022/05/06 10:27:02,無
5901101072,長青藥局,臺北市中山區興安街５５號１樓,121.5419,25.05621,(02)25053160,羅氏家用新冠病毒抗原自我檢測套組,26,2022/05/06 10:27:02,無
5901101992,大愛藥師藥局,臺北市中山區吉林路２５５號１樓,121.5304,25.06165,(02)25424723,羅氏家用新冠病毒抗原自我檢測套組,78,2022/05/06 10:27:02,週一~週五13:55發放號碼牌14:00發放快篩，週六、週日休息
5901102444,啟美藥師藥局,臺北市中山區錦州街２８２號,121.5352,25.06024,(02)25178032,羅氏家用新冠病毒抗原自我檢測套組,78,2022/05/06 10:27:02,快篩 販售時間 20點開賣到21點，星期六日公休
5901102579,躍獅晴光藥局,臺北市中山區農安街２３之２號,121.5245,25.06501,(02)25951393,羅氏家用新冠病毒抗原自我檢測套組,78,2022/05/06 10:27:02,實名制快篩販售時間17:00，售完會提前結束
5901102686,富宥康藥局,臺北市中山區北安路６０８巷５弄２２號,121.5496,25.08263,(02)25325277,羅氏家用新冠病毒抗原自我檢測套組,6,2022/05/06 10:27:02,無
5901103423,農安藥局,臺北市中山區農安街１８之１號,121.5248,25.06483,(02)25959293,羅氏家用新冠病毒抗原自我檢測套組,2,2022/05/06 10:27:02,快篩2點發號碼牌 3點後來拿
5901112682,富康東湖藥局,臺北市內湖區東湖路１１９巷４９弄１６號,121.617,25.06988,(02)26323222,羅氏家用新冠病毒抗原自我檢測套組,74,2022/05/06 10:27:02,視快篩實際到貨時間販售；LINE社群搜尋「富康藥局東湖店」會有第一線消息
5901112780,樂康藥妝藥局,臺北市內湖區文德路１１７號,121.5841,25.0787,(02)26562110,羅氏家用新冠病毒抗原自我檢測套組,81,2022/05/06 10:27:02,無
5901112977,瑞光藥局,臺北市內湖區瑞光路２１２號,121.5763,25.07525,(02)87513365,羅氏家用新冠病毒抗原自我檢測套組,78,2022/05/06 10:27:02,實名制快篩每日PM14:00開賣
5901113018,桔子藥局,臺北市內湖區內湖路２段３３３號,121.5917,25.08319,(02)27930052,羅氏家用新冠病毒抗原自我檢測套組,78,2022/05/06 10:27:02,早0900-1200，午1400-1700，晚1900-2100
5901113385,躍獅康成藥局,臺北市內湖區成功路４段６１巷１１號,121.5928,25.0814,(02)87922031,羅氏家用新冠病毒抗原自我檢測套組,78,2022/05/06 10:27:02,如有收到政府配送，實名制快篩13:40發號碼牌，14:00開賣。實名制口罩已無販售。
5901121618,新東發藥局,臺北市南港區成福路１９８號,121.5883,25.04092,(02)27855190,羅氏家用新冠病毒抗原自我檢測套組,18,2022/05/06 10:27:02,營業時間 早上10:00 因政府配送不穩 快篩銷售時間 藥局現場公告為主
5901121823,儀安健保藥局,臺北市南港區同德路７４號,121.5853,25.0457,(02)27859893,羅氏家用新冠病毒抗原自我檢測套組,77,2022/05/06 10:27:02,實名制快篩下午三點開賣，無發放號碼牌（只有週日為晚上六點）
5901121841,泓安藥局,臺北市南港區興華路７５號,121.6061,25.05517,(02)27861083,羅氏家用新冠病毒抗原自我檢測套組,98,2022/05/06 10:27:02,星期一至星期日早上10:00開賣快篩試劑
5901121869,南港藥局,臺北市南港區南港路一段１６６號,121.6119,25.05536,(02)27829137,羅氏家用新冠病毒抗原自我檢測套組,78,2022/05/06 10:27:02,快篩販售時間晚上6:00~晚上8:00（每天78份，售完即止）（周日休息）
5901121896,順翔藥局,臺北市南港區研究院路２段１７０號,121.6169,25.03785,(02)27824332,羅氏家用新冠病毒抗原自我檢測套組,41,2022/05/06 10:27:02,代售政府實名制快篩 依到貨時間而定  沒有固定時間  到貨清點完數量即刻開賣 感恩
5901121930,小藥師健保藥局,臺北市南港區福德街３２０之１號,121.588,25.03948,(02)27867002,羅氏家用新冠病毒抗原自我檢測套組,17,2022/05/06 10:27:02,快篩販售時間，每天早上10點開始販售，售完為止
5901122080,成福大藥局,臺北市南港區成福路８號,121.5859,25.04578,(02)27859221,羅氏家用新冠病毒抗原自我檢測套組,78,2022/05/06 10:27:02,無
5901150146,坤成泰藥局,臺北市士林區大南路４１２號,121.5162,25.08996,(02)28813903,羅氏家用新冠病毒抗原自我檢測套組,30,2022/05/06 10:27:02,實名制快篩販賣時間 早上9.30~12.00   下午2.00~6.00  賣完為止
5901150271,建芳藥局,臺北市士林區德行東路１４８號,121.5296,25.10804,(02)28357172,羅氏家用新冠病毒抗原自我檢測套組,32,2022/05/06 10:27:02,無
5901150548,田倉藥局,臺北市士林區士東路１２４號,121.5302,25.11219,(02)88662188,羅氏家用新冠病毒抗原自我檢測套組,78,2022/05/06 10:27:02,每日19:00（傍晚7點）開始販售.
5901150771,天母大和藥師藥局,臺北市士林區德行東路１８９－１號１樓,121.5317,25.10897,(02)28310142,羅氏家用新冠病毒抗原自我檢測套組,8,2022/05/06 10:27:02,快篩實名制 配合營業時間  賣完為止
5901150815,陽明藥局,臺北市士林區菁山路１０號１樓,121.5469,25.13797,(02)28612863,羅氏家用新冠病毒抗原自我檢測套組,77,2022/05/06 10:27:02,早上9點30到12點健保卡排隊.（作業時間2小時）下午1點到晚上6點領回口罩及健保卡
5901152079,資生堂藥局,臺北市士林區承德路４段４０巷１７號１Ｆ,121.522,25.08107,(02)28857588,羅氏家用新冠病毒抗原自我檢測套組,78,2022/05/06 10:27:02,今日快篩已售完
5901152471,得安藥局,臺北市士林區文林路１４０號,121.5267,25.08878,(02)28836336,羅氏家用新冠病毒抗原自我檢測套組,78,2022/05/06 10:27:02,星期三五六下午3:30---10:00   星期二 四日下午5:00--10:00
5901152640,仁大藥局,臺北市士林區社子街１３號１樓,121.5083,25.08769,(02)88113793,羅氏家用新冠病毒抗原自我檢測套組,97,2022/05/06 10:27:02,111.5.6.今日已開賣。販售時間:週一至週六上午配送到貨後開賣。
5901152659,和樹藥局,臺北市士林區後港街４５巷１號１樓,121.5228,25.08444,(02)28821188,羅氏家用新冠病毒抗原自我檢測套組,78,2022/05/06 10:27:02,實名制快篩發放時間 依到貨時間發售
5901152748,柏雅大藥局,臺北市士林區德行西路６４號,121.5227,25.10506,(02)88664398,羅氏家用新冠病毒抗原自我檢測套組,64,2022/05/06 10:27:02,每天早上10:30開始販售快篩試劑，星期日公休不販售。
5901152793,信光藥局,臺北市士林區文昌路６８號,121.5214,25.09619,(02)28366277,羅氏家用新冠病毒抗原自我檢測套組,60,2022/05/06 10:27:02,下午三點發放快篩
5901153263,健揚藥局,臺北市士林區延平北路５段２５１號,121.5097,25.08483,(02)28163698,羅氏家用新冠病毒抗原自我檢測套組,1,2022/05/06 10:27:02,每日下午13:30開始販售
5901153674,愛佳藥局,臺北市士林區承德路４段２２２之１號,121.5215,25.0885,(02)28811199,羅氏家用新冠病毒抗原自我檢測套組,156,2022/05/06 10:27:02,實名制快篩平日一~五下午5:00販售，假日（六、日）不販售
5901153709,全予藥局,臺北市士林區德行東路２２１號,121.5329,25.10938,(02)28386955,羅氏家用新冠病毒抗原自我檢測套組,78,2022/05/06 10:27:02,實名制快篩販售時間為周一至周六上午11點， 周日公休
5901154000,文昌大藥局,臺北市士林區文昌路７２號１樓,121.5213,25.09634,(02)28376196,羅氏家用新冠病毒抗原自我檢測套組,60,2022/05/06 10:27:02,1.周一至周日下午15:00販售實名制快篩，請自備零錢 2.每日提供18份，讓醫護警消憑證購買，請pm14:30前來
5901154028,向宇藥局,臺北市士林區德行東路２１７號１樓,121.5328,25.10935,(02)88661101,羅氏家用新冠病毒抗原自我檢測套組,156,2022/05/06 10:27:02,無
5901154108,藥本家藥局,臺北市士林區中山北路７段１４巷２６號１樓,121.5328,25.11884,(02)28766682,羅氏家用新冠病毒抗原自我檢測套組,21,2022/05/06 10:27:02,無
5901160099,進春藥局,臺北市北投區明德路１５１號,121.5206,25.11086,(02)28216938,羅氏家用新冠病毒抗原自我檢測套組,63,2022/05/06 10:27:02,無休 上午九點開始販售，現場排隊。（依現場公告為主）
5901160277,建民藥局,臺北市北投區光明路１６１號,121.5027,25.13538,(02)28912339,羅氏家用新冠病毒抗原自我檢測套組,35,2022/05/06 10:27:02,快篩實名制星期一至星期六早上十點開始 （依現場公告為主）
5901160428,九福藥局,臺北市北投區公館路２３６號,121.5081,25.12612,(02)28953009,羅氏家用新冠病毒抗原自我檢測套組,78,2022/05/06 10:27:02,★週日店休未營業. 快篩下午1點發號碼牌
5901162182,祐民藥局,臺北市北投區中央南路１段２０９號１樓,121.5011,25.12837,(02)28975339,羅氏家用新冠病毒抗原自我檢測套組,70,2022/05/06 10:27:02,無
5901162477,長宜藥局,臺北市北投區自強街１１２號,121.5155,25.11074,(02)28216605,羅氏家用新冠病毒抗原自我檢測套組,78,2022/05/06 10:27:02,實名制快篩試劑發放時間:14:00~售完為止，會依政府配送狀況調整
5901162833,維康藥局,臺北市北投區石牌路２段１９１．１９３號,121.5184,25.11874,(02)28206343,羅氏家用新冠病毒抗原自我檢測套組,5,2022/05/06 10:27:02,快篩發放時間為每日下午3點排隊，現場購賣
5901163269,佳祈健保藥局,臺北市北投區明德路１４４號,121.5208,25.11047,(02)28232535,羅氏家用新冠病毒抗原自我檢測套組,77,2022/05/06 10:27:02,無
5901163563,躍獅光明藥局,臺北市北投區光明路５１號、５３號（實際使用：１樓）,121.4998,25.13286,(02)28915993,羅氏家用新冠病毒抗原自我檢測套組,52,2022/05/06 10:27:02,1.早上9:30發號碼牌.核對健保卡 2.等快篩到貨才開始賣，到貨時間不確定3.有號碼牌者請在晚上8點前領取，逾期作廢
5901163572,永欣中西藥局,臺北市北投區中和街５０１號,121.4947,25.1452,(02)28910307,羅氏家用新冠病毒抗原自我檢測套組,46,2022/05/06 10:27:02,週一至週六 早上9:30發號碼牌 10點販售 周日公休（庫存不準 不要問） 謝謝
5901163643,致遠盛康藥局,臺北市北投區致遠二路１４１號１樓,121.5128,25.1173,(02)28263580,羅氏家用新冠病毒抗原自我檢測套組,78,2022/05/06 10:27:02,無
5901170139,福華藥局,臺北市信義區吳興街２８１巷３號１樓,121.5643,25.02656,(02)27208527,羅氏家用新冠病毒抗原自我檢測套組,78,2022/05/06 10:27:02,現階段下午1:30配合政府發售快篩試劑
5901170433,松山大藥局,臺北市信義區永吉路４３６號,121.5781,25.04526,(02)27620624,羅氏家用新冠病毒抗原自我檢測套組,18,2022/05/06 10:27:02,購防疫快篩早上10:00_發售.週日下午1點起.售完即止
5901170915,杏仁藥局,臺北市信義區大道路１３５號,121.5834,25.03901,(02)27262541,羅氏家用新冠病毒抗原自我檢測套組,57,2022/05/06 10:27:02,實名制快篩:週一至週五下午3點販售，週六週日無販售
5901172179,新和平藥局,臺北市信義區虎林街１９８號１樓,121.5769,25.03844,(02)23460951,羅氏家用新冠病毒抗原自我檢測套組,41,2022/05/06 10:27:02,每星期一至星期六早上10點起   發放實名制快篩試劑 .星期日休息
5901172651,康杏藥局,臺北市信義區福德街３０６號１樓,121.5874,25.03931,(02)27591510,羅氏家用新冠病毒抗原自我檢測套組,16,2022/05/06 10:27:02,無
5901172820,安心藥局,臺北市信義區永吉路３０巷１４８弄４之１號,121.5685,25.04266,(02)27474992,羅氏家用新冠病毒抗原自我檢測套組,1,2022/05/06 10:27:02,快篩代售時間14:00起現場排隊
5901172839,九州藥局,臺北市信義區和平東路３段２３９號,121.5543,25.02294,(02)87323331,羅氏家用新冠病毒抗原自我檢測套組,26,2022/05/06 10:27:02,實名制快篩5月6日10:00開賣
5901173283,上禾藥師藥局,臺北市信義區林口街２７號,121.5792,25.03741,(02)27592686,羅氏家用新冠病毒抗原自我檢測套組,33,2022/05/06 10:27:02,無
5901173372,新永春藥局,臺北市信義區忠孝東路５段４２３巷１號,121.5753,25.04126,(02)27667385,羅氏家用新冠病毒抗原自我檢測套組,74,2022/05/06 10:27:02,快篩販售時間:每日13:00開始，售完為止
5901173390,馨馨藥局,臺北市信義區虎林街８２巷１９號,121.5764,25.04336,(02)27491208,羅氏家用新冠病毒抗原自我檢測套組,72,2022/05/06 10:27:02,無
5901173587,新興健保藥局,臺北市信義區永吉路３０巷１１３號,121.5689,25.04324,(02)27494892,羅氏家用新冠病毒抗原自我檢測套組,7,2022/05/06 10:27:02,快篩試劑下午二點開始販售
5901173738,尚頤中西藥局,臺北市信義區虎林街１４５號,121.5767,25.03959,(02)27253818,羅氏家用新冠病毒抗原自我檢測套組,79,2022/05/06 10:27:02,無
5901173818,博亞藥局,臺北市信義區莊敬路４６２號,121.5677,25.02672,(02)27580506,羅氏家用新冠病毒抗原自我檢測套組,40,2022/05/06 10:27:02,平日早上8:30、晚上8:00；假日早上8:30，發放號碼牌，持號碼牌購買!
5901173863,立赫北醫藥局,臺北市信義區吳興街１１８巷２６弄１７號,121.5599,25.03007,(02)27320100,羅氏家用新冠病毒抗原自我檢測套組,15,2022/05/06 10:27:02,5／6 （五）10:00發放號碼牌販售
5901173881,壹間藥師藥局,臺北市信義區虎林街１２０巷１４８號,121.5742,25.04213,(02)27672833,羅氏家用新冠病毒抗原自我檢測套組,78,2022/05/06 10:27:02,5／6 （五）早上10:30開始販售
5901173943,躍獅興雅藥局,臺北市信義區松德路１２８號,121.5745,25.03734,(02)87808429,羅氏家用新冠病毒抗原自我檢測套組,78,2022/05/06 10:27:02,14:00發號碼牌且同步開賣快篩，販賣至15:00或售完為止，週日無販售。
5901174057,詠晴中西藥局,臺北市信義區松山路４８４之４號（１樓含夾層）,121.5778,25.0389,(02)27266890,羅氏家用新冠病毒抗原自我檢測套組,5,2022/05/06 10:27:02,實名制快篩 - 16:30領號碼牌.當天取貨即可.避免群聚風險
5901174066,愛維喜藥局,臺北市信義區莊敬路２７８號１樓,121.5627,25.02882,(02)27586989,羅氏家用新冠病毒抗原自我檢測套組,73,2022/05/06 10:27:02,快篩周一至周五下午3:30開賣.約3:00收健保卡現金500元1張.發號碼牌
5901180055,日生大藥局,臺北市中正區汀州路１段５３號１樓,121.5076,25.03026,(02)23031393,羅氏家用新冠病毒抗原自我檢測套組,11,2022/05/06 10:27:02,快篩代售服務時間:（1）5月6日周五 早上10點起開賣 售完為止
5901180322,南昌大藥局,臺北市中正區南昌路１段８６號１樓,121.5174,25.03086,(02)23510322,羅氏家用新冠病毒抗原自我檢測套組,49,2022/05/06 10:27:02,早上10點發號碼牌，下午2點前來購買，逾期作廢。
5901183510,怡誠藥局,臺北市中正區汀州路２段２１２號,121.5237,25.02236,(02)23626905,羅氏家用新冠病毒抗原自我檢測套組,79,2022/05/06 10:27:02,無
5901183645,大愛生活藥局,臺北市中正區汀州路２段２３２號,121.5243,25.02189,(02)23661155,羅氏家用新冠病毒抗原自我檢測套組,56,2022/05/06 10:27:02,下午14:30開始發放快篩（不發號碼牌直接買）~~不要太早開始排隊啊啊啊啊
5901184080,活力健康藥妝藥局,臺北市中正區中華路２段３１５巷１號,121.5062,25.02795,(02)23392625,羅氏家用新冠病毒抗原自我檢測套組,80,2022/05/06 10:27:02,無
5901184213,71恩典藥局,臺北市中正區信義路２段７１號,121.5264,25.03466,(02)23223371,羅氏家用新冠病毒抗原自我檢測套組,82,2022/05/06 10:27:02,快篩販售時間：◆週一到週五19:00 ◆週六17:00，十分鐘前發號碼牌
5901184366,宏越藥局,臺北市中正區中華路２段３１３巷４號,121.5061,25.02813,(02)23050880,羅氏家用新冠病毒抗原自我檢測套組,76,2022/05/06 10:27:02,代售實名制快篩時間 每日下午14:30開始  售完即停止  可關注FB公告當日是否代售
5901184473,中力藥局,臺北市中正區襄陽路１３之５號、１５號,121.5155,25.04349,(02)23313768,羅氏家用新冠病毒抗原自我檢測套組,79,2022/05/06 10:27:02,實名制快篩 販售時間：09:30~售完為止
5901184633,躍獅東門藥局,臺北市中正區金山南路１段１０８之１號（１樓）,121.5273,25.03538,(02)23920339,羅氏家用新冠病毒抗原自我檢測套組,33,2022/05/06 10:27:02,5／5銷售時間已結束。5／6下午兩點開始販售，不提早發放號碼牌
5901184642,康呈安藥局,臺北市中正區汀州路２段１８７號１樓,121.522,25.02403,(02)23672215,羅氏家用新冠病毒抗原自我檢測套組,2,2022/05/06 10:27:02,每天下午3點才發放快篩
5901184697,中英大藥局,臺北市中正區永綏街６號１樓,121.5112,25.043,(02)23617551,羅氏家用新冠病毒抗原自我檢測套組,1,2022/05/06 10:27:02,無
5901190079,建和藥局,臺北市萬華區青年路１６８巷４４號,121.5016,25.01987,(02)23010838,羅氏家用新冠病毒抗原自我檢測套組,2,2022/05/06 10:27:02,春節期間看診時段請電洽
5901190668,聯慶大藥局,臺北市萬華區萬大路３０６號１樓,121.5003,25.02495,(02)23039850,羅氏家用新冠病毒抗原自我檢測套組,1,2022/05/06 10:27:02,無
5901192546,躍獅西園藥局,臺北市萬華區西園路２段２６０號,121.4946,25.02784,(02)23094063,羅氏家用新冠病毒抗原自我檢測套組,78,2022/05/06 10:27:02,快篩販售時段：下午2點至售完為止（政府正常配貨的情況下，現場排隊）
5901193070,榮勝藥局,臺北市萬華區萬大路２３３號,121.5006,25.02649,(02)23331121,羅氏家用新冠病毒抗原自我檢測套組,78,2022/05/06 10:27:02,每日快篩早上十一點開始販售
5901193150,日森人文藥局,臺北市萬華區和平西路３段１４９號,121.4988,25.03543,(02)23082100,羅氏家用新冠病毒抗原自我檢測套組,78,2022/05/06 10:27:02,快篩依政府每日到貨時間， 會立即公告粉絲頁販售時間規則
5901193221,正盛藥局,臺北市萬華區中華路２段４３４－１號,121.5064,25.02708,(02)23050386,羅氏家用新冠病毒抗原自我檢測套組,60,2022/05/06 10:27:02,1.快篩一~六20點，周日不賣 2.目前排隊人潮多，建議7點左右提前候位 3.詳情請看門口公告或板橋正康總店臉書
5901193301,富安藥局,臺北市萬華區萬大路４２６號,121.4981,25.02096,(02)23377878,羅氏家用新冠病毒抗原自我檢測套組,78,2022/05/06 10:27:02,快篩實名制：一人一卡，現場排隊，售完為止。【5／3早上暫停販售，販售時間待更新！】
5901193338,艾米力藥師藥局,臺北市萬華區西藏路１０７－２號１樓,121.5035,25.02955,(02)23036583,羅氏家用新冠病毒抗原自我檢測套組,74,2022/05/06 10:27:02,實名制快篩：周一~周五 晚上7:00販售；周末（六日）早上9:00販售
5901200141,景美藥局,臺北市文山區景文街１２５號,121.5412,24.99033,(02)29335741,羅氏家用新冠病毒抗原自我檢測套組,156,2022/05/06 10:27:02,無
5901200490,永明大藥局,臺北市文山區興隆路１段２９７號１樓,121.5449,24.99875,(02)29314428,羅氏家用新冠病毒抗原自我檢測套組,78,2022/05/06 10:27:02,每日下午2點50發放號碼牌，3點進行快篩販售，6點前未領取視同放棄，限一人一卡一份。
5901201568,康宜庭生活藥局,臺北市文山區興隆路４段６４號,121.5613,24.98514,(02)29385363,羅氏家用新冠病毒抗原自我檢測套組,8,2022/05/06 10:27:02,實名快篩14:00開賣 現場排隊
5901202627,杏隆藥局,臺北市文山區羅斯福路５段２６１號,121.5395,25.00115,(02)29313151,羅氏家用新冠病毒抗原自我檢測套組,78,2022/05/06 10:27:02,快篩實名制採預約登記，至5／14已登記額滿。
5901202949,萬隆大藥局,臺北市文山區羅斯福路５段２１８巷１５號,121.538,25.00203,(02)29334580,羅氏家用新冠病毒抗原自我檢測套組,79,2022/05/06 10:27:02,9：00~23：00
5902022972,高雄藥局,高雄市鼓山區九如四路９２４號,120.2793,22.65466,(07)5214266,羅氏家用新冠病毒抗原自我檢測套組,78,2022/05/06 10:27:02,無
5902030643,新高橋藥局,高雄市左營區民族一路１０２８號,120.3201,22.68255,(07)3100696,羅氏家用新冠病毒抗原自我檢測套組,44,2022/05/06 10:27:02,依快篩配送時間滾動式調整（5／6早10:00），請備妥當日可領買之健保卡與現金500元購買，不找零，0號是雙號，謝謝配合
5902031999,平安藥局,高雄市左營區中華一路５之１號,120.287,22.66961,(07)5833688,羅氏家用新冠病毒抗原自我檢測套組,4,2022/05/06 10:27:02,週一~週六上午:8:00~12:00，下午:4:00~9:00， 週日例假日晚上6:00~9:00
5902032432,威林藥局,高雄市左營區華夏路７２１號,120.3023,22.67845,(07)3414243,羅氏家用新冠病毒抗原自我檢測套組,70,2022/05/06 10:27:02,營業時間販售快篩（售完為止），星期一~五早上12:00~晚上9:00，星期六日早上09:00~下午5:00執業
5902032530,杏光藥局,高雄市左營區果峰街４７巷１號１樓,120.2869,22.6703,(07)5837060,羅氏家用新冠病毒抗原自我檢測套組,22,2022/05/06 10:27:02,上午營業時間為9 :00~12:00；晚上營業至21:30
5902032674,辰暘藥局,高雄市左營區富民路１２０號１、２樓,120.3054,22.66066,(07)5588545,羅氏家用新冠病毒抗原自我檢測套組,28,2022/05/06 10:27:02,無
5902040210,益民藥局,高雄市楠梓區建楠路４７號,120.3287,22.72659,(07)3522161,羅氏家用新冠病毒抗原自我檢測套組,39,2022/05/06 10:27:02,開門時間10:00
5902040498,順明藥局,高雄市楠梓區和光街６５號,120.2939,22.70717,(07)3615574,羅氏家用新冠病毒抗原自我檢測套組,1,2022/05/06 10:27:02,快篩劑販售時間早上 8:30～晚上9:30
5902050798,友泰藥局,高雄市三民區中和街１６９號,120.2868,22.6388,(07)3125236,羅氏家用新冠病毒抗原自我檢測套組,66,2022/05/06 10:27:02,無
5902050903,皇安藥局,高雄市三民區九如一路４６１號,120.3296,22.63865,(07)3866779,羅氏家用新冠病毒抗原自我檢測套組,9,2022/05/06 10:27:02,營業日0900可先領取號碼牌，上午9:00-12:00及下午3:00~10:.00為販賣快篩時間，售完為止
5902051786,億生藥局,高雄市三民區南台路２００號,120.2982,22.63706,(07)2873436,羅氏家用新冠病毒抗原自我檢測套組,61,2022/05/06 10:27:02,「藥局販售口罩時間，依藥局門口公告時間為主（售完為止）」
5902051866,久大藥局,高雄市三民區本文里立忠路３２號１Ｆ,120.3253,22.65318,(07)3858116,羅氏家用新冠病毒抗原自我檢測套組,3,2022/05/06 10:27:02,無
5902056638,柏仁藥局,高雄市三民區覺民路５０４號,120.3317,22.64092,(07)3976016,羅氏家用新冠病毒抗原自我檢測套組,54,2022/05/06 10:27:02,實名制快篩下午3點開賣，現場排隊，售完為止
5902056807,長慶藥局,高雄市三民區金鼎路３１０號,120.3207,22.66513,(07)3105835,羅氏家用新冠病毒抗原自我檢測套組,3,2022/05/06 10:27:02,無
5902057288,育英藥局,高雄市三民區灣子里和順街３９號,120.3159,22.65336,(07)3824467,羅氏家用新冠病毒抗原自我檢測套組,48,2022/05/06 10:27:02,營業時間:8:30-21:00， 週日休息
5902057680,健爾康藥局,高雄市三民區正興路２３號,120.3226,22.6456,(07)3965658,羅氏家用新冠病毒抗原自我檢測套組,78,2022/05/06 10:27:02,自2／11日~2／29日，營業日08:30~2100為販賣口罩時間，售完為止。
5902060025,連作藥局,高雄市新興區大同一路２０３－１號,120.3003,22.62856,(07)2154716,羅氏家用新冠病毒抗原自我檢測套組,76,2022/05/06 10:27:02,快篩試紙領用時間為每日下午2點
5902080474,弘宗藥局,高雄市苓雅區武智街２號,120.3356,22.62303,(07)7211088,羅氏家用新冠病毒抗原自我檢測套組,4,2022/05/06 10:27:02,13:00後販售 ，販售扔以現場為主。請勿來電詢問餘量
5902081328,東信藥局,高雄市苓雅區三多一路１８９號,120.3313,22.62258,(07)7613309,羅氏家用新冠病毒抗原自我檢測套組,5,2022/05/06 10:27:02,早上8:30開始發送號碼牌販售口罩，售完為止，假日正常販售
5902085031,上好藥局,高雄市苓雅區四維一路六三號一樓,120.3294,22.6257,(07)7266863,羅氏家用新冠病毒抗原自我檢測套組,19,2022/05/06 10:27:02,快篩販售時間＞＞上午10:30~下午13:00
5902085148,召祐健保藥局,高雄市苓雅區正義路９３號,120.3385,22.63037,(07)7493719,羅氏家用新冠病毒抗原自我檢測套組,77,2022/05/06 10:27:02,無
5902085166,景福藥局,高雄市苓雅區和平一路１４７之５號,120.3204,22.62364,(07)7719152,羅氏家用新冠病毒抗原自我檢測套組,16,2022/05/06 10:27:02,2／11早上9:00至下午15:00，2／12至16日休
5902085344,意祥藥局,高雄市苓雅區武廟路１４２之１號,120.3276,22.63125,(07)7224835,羅氏家用新冠病毒抗原自我檢測套組,45,2022/05/06 10:27:02,藥局販售口罩時間，依藥局門口公告時間為主（售完為止）
5902090765,家安大藥局,高雄市前鎮區崗山南街３４２巷２１號,120.3323,22.6021,(07)7137711,羅氏家用新冠病毒抗原自我檢測套組,20,2022/05/06 10:27:02,販售快篩實名制時間:週一.二.三.五.六.日（上午9點）、週四（晚上7點），依藥局門口公告時間為主（售完為止）
5902090827,博平藥局,高雄市前鎮區草衙二路３７７號,120.3224,22.57808,(07)8311814,羅氏家用新冠病毒抗原自我檢測套組,71,2022/05/06 10:27:02,下午2點開始販售快篩.售完為止
5902110628,悅是康藥局,高雄市小港區漢民路２７６號,120.3536,22.56665,(07)8010012,羅氏家用新冠病毒抗原自我檢測套組,51,2022/05/06 10:27:02,每日早上10:00開賣、不須拿號碼牌、領完為止。
5903010270,福心藥局,臺中市豐原區中正路７１５號１樓,120.7014,24.2491,(04)25229292,羅氏家用新冠病毒抗原自我檢測套組,6,2022/05/06 10:27:02,快篩販賣時間5／4-5／5下午4點.5／6-5／9改早上10點.週日休
5903010556,升禾和大藥局,臺中市豐原區育英路２６號１樓,120.7163,24.24346,(04)25293099,羅氏家用新冠病毒抗原自我檢測套組,78,2022/05/06 10:27:02,快篩試劑1800領取.採現場排隊.售完為止
5903040107,佑全清水中山三藥局,臺中市清水區中山路２４、２６、２８號１樓,120.572,24.26043,(04)26224469,羅氏家用新冠病毒抗原自我檢測套組,78,2022/05/06 10:27:02,5／6實名制快篩發放時間下午2:00開始，1:50發放號碼牌，請關注本藥局臉書隨時公告最新訊息。慢箋牙科箋領藥全年無休。
5903050103,北勢進騰藥局,臺中市沙鹿區北勢東路５０９之７號１樓,120.576,24.22526,(04)26330893,羅氏家用新冠病毒抗原自我檢測套組,78,2022/05/06 10:27:02,營業時間12:00-22:00，每日12:00販售實名制快篩
5903050176,全國藥局,臺中市沙鹿區臺灣大道７段９９２號,120.5622,24.24074,(04)26627097,羅氏家用新冠病毒抗原自我檢測套組,65,2022/05/06 10:27:02,快篩劑每日配送時間不同，依現場到貨為主，現場排隊購買
5903060038,梧棲玖裕藥局,臺中市梧棲區中和街８５號,120.5316,24.25545,(04)26583909,羅氏家用新冠病毒抗原自我檢測套組,78,2022/05/06 10:27:02,快篩代售星期一~五 下午2點.星期六早上10:30點 星期休假
5903070016,泉興中西大藥局,臺中市后里區甲后路一段５９８號,120.7171,24.30986,(04)25583883,羅氏家用新冠病毒抗原自我檢測套組,78,2022/05/06 10:27:02,無
5903090116,上宇藥局,臺中市潭子區中山路２段３８１號１樓,120.7051,24.21301,(04)25321258,羅氏家用新冠病毒抗原自我檢測套組,12,2022/05/06 10:27:02,週一至週五上午9點至12點，下午三點至九點，週六，日，早上9點至12點，依序發售快篩。
5903100091,樂心藥局,臺中市大雅區建興路１４３號,120.6659,24.21654,(04)25682568,羅氏家用新冠病毒抗原自我檢測套組,6,2022/05/06 10:27:02,每日上午10:00發放號碼牌且開始販售。星期日公休
5903100135,大雅安德藥局,臺中市大雅區中清東路２２９號１樓,120.6469,24.22459,(04)25604133,羅氏家用新冠病毒抗原自我檢測套組,74,2022/05/06 10:27:02,5／5（四）。實名制快篩13:30領取號碼牌，14:00販賣，不找零，每張卡隔一個月買一次，限每人一卡一份
5903100206,民生藥局,臺中市大雅區民生路一段２２１號１樓,120.6512,24.22789,(04)25662229,羅氏家用新冠病毒抗原自我檢測套組,78,2022/05/06 10:27:02,快篩實名制，每天16:00開始販售，售完為止。
5903130026,博翔欣大藥局,臺中市外埔區重光路３３－１９號,120.6521,24.33128,(04)26833312,羅氏家用新冠病毒抗原自我檢測套組,23,2022/05/06 10:27:02,無
5903150135,全品藥局,臺中市烏日區公園路２４０之１號１樓,120.6254,24.10234,(04)23362690,羅氏家用新冠病毒抗原自我檢測套組,78,2022/05/06 10:27:02,因近期快篩配貨時間不定，早上如有配送 下午2:00販售，售完為止
5903160097,安昌藥局,臺中市大肚區遊園路二段１７６號１樓,120.5808,24.17289,(04)26913890,羅氏家用新冠病毒抗原自我檢測套組,78,2022/05/06 10:27:02,每天晚上19:00點開始現場排隊販賣快篩試劑.
5903170146,向陽藥師連鎖藥局,臺中市龍井區中央路三段３７號１樓,120.5248,24.21176,(04)26390500,羅氏家用新冠病毒抗原自我檢測套組,4,2022/05/06 10:27:02,實名制快篩當天物流配送到就開賣，營業時間:0930~2130慢箋領藥.長照特約.更年期.糖尿病.孕期保健.小兒營養
5903190228,中山德侑藥局,臺中市太平區中山路３段２之２號１樓,120.7222,24.14942,(04)23920682,羅氏家用新冠病毒抗原自我檢測套組,78,2022/05/06 10:27:02,因政府配送時間不定故每日快篩販售時間視情況調整 可來電詢問
5903190362,太平中山藥局,臺中市太平區中山路４段１１號,120.7139,24.14931,(04)23959200,羅氏家用新冠病毒抗原自我檢測套組,78,2022/05/06 10:27:02,快篩實名制，每天16:00開始販售，售完為止。
5903190693,維肯藥局,臺中市太平區中興路７８－１號１樓,120.7163,24.12783,(04)23512198,羅氏家用新冠病毒抗原自我檢測套組,32,2022/05/06 10:27:02,實名制快篩 星期一~六早上九點開始發放
5903200149,祥佑健保特約藥局,臺中市大里區中興路２段４０６號,120.6901,24.10769,(04)24866398,羅氏家用新冠病毒抗原自我檢測套組,66,2022/05/06 10:27:02,政府快篩代售時間:周一~周六早上10:30開始販售.現場排隊.售完為止（週日店休）
5903200229,信元藥局,臺中市大里區益民路２段３７２號１樓,120.684,24.11545,(04)24876051,羅氏家用新冠病毒抗原自我檢測套組,56,2022/05/06 10:27:02,下午5點發號碼牌並依序販賣
5903200372,國光丁丁藥局,臺中市大里區國光路２段５５１－１號１樓,120.6788,24.11241,(04)24069711,羅氏家用新冠病毒抗原自我檢測套組,2,2022/05/06 10:27:02,星期一至星期日早上9點依排隊順序直接領取
5903200621,德芳東榮藥局,臺中市大里區東榮路８號,120.6893,24.1102,(04)24863898,羅氏家用新冠病毒抗原自我檢測套組,39,2022/05/06 10:27:02,快篩販售時間：下午3點~6點，現場排隊，完售即停
5903200658,德芳成功藥局,臺中市大里區成功路５３５－３號１樓,120.7033,24.0913,(04)24920298,羅氏家用新冠病毒抗原自我檢測套組,37,2022/05/06 10:27:02,快篩販售時間:下午3點~6點
5903200667,永欣東榮藥局,臺中市大里區東榮路３７０號１樓,120.6836,24.11032,(04)24810599,羅氏家用新冠病毒抗原自我檢測套組,1,2022/05/06 10:27:02,快篩發放無特定時間.收到貨即發放.營業時間早上08:30至晚上10:00
5903200756,佑全大里大明藥局,臺中市大里區大明路３６０、３６２號,120.6787,24.11511,(04)24818633,羅氏家用新冠病毒抗原自我檢測套組,78,2022/05/06 10:27:02,實名制快篩，開賣時間:下午14:00，售完為止
5903230183,恒生藥局,臺中市東區樂業路３９５號１樓,120.7051,24.138,(04)22135179,羅氏家用新冠病毒抗原自我檢測套組,78,2022/05/06 10:27:02,快篩11點開始過卡，中午1~3點為清消時間 暫停發放。周日公休。另有提供領慢箋服務及保健食品，任何疑問請洽藥師。
5903240170,美村全成藥局,臺中市西區美村路１段２２２號１樓,120.6615,24.14875,(04)23014006,羅氏家用新冠病毒抗原自我檢測套組,12,2022/05/06 10:27:02,5／6 快篩10點開始販售，售完為止
5903240410,德芳美村藥局,臺中市西區美村路一段６８１、６８３號１樓,120.6618,24.13545,(04)23782848,羅氏家用新冠病毒抗原自我檢測套組,78,2022/05/06 10:27:02,快篩販售時間:周一到周五下午3點~6點 每日配發78份
5903240474,佑全台中向上藥局,臺中市西區向上路一段３８６、３８８號１樓,120.6559,24.14688,(04)23204732,羅氏家用新冠病毒抗原自我檢測套組,78,2022/05/06 10:27:02,因政府配貨時間不一，依照門市現場公告時間為主
5903250505,心安藥局,臺中市南區國光路２４１號１樓,120.6794,24.12676,(04)22858773,羅氏家用新冠病毒抗原自我檢測套組,77,2022/05/06 10:27:02,每天下午三點排隊開賣，一人一卡，週日公休下次是5／6號.5／5已售完.
5903250658,田園藥局,臺中市南區學府路１６０號１樓,120.6742,24.12909,(04)22220605,羅氏家用新冠病毒抗原自我檢測套組,78,2022/05/06 10:27:02,每週三公休。每天13:30 開始販售，一人限一卡，依到貨數量販售
5903260341,台中漢口藥局,臺中市北區漢口路３段１８３號,120.6711,24.16703,(04)22936166,羅氏家用新冠病毒抗原自我檢測套組,78,2022/05/06 10:27:02,實名制快篩販售時間：下午2點
5903260449,喜樂藥局,臺中市北區中清路１段３１號,120.677,24.1529,(04)22060423,羅氏家用新冠病毒抗原自我檢測套組,21,2022/05/06 10:27:02,無
5903260547,源順大藥局,臺中市北區健行路４８４號,120.6797,24.15931,(04)22072651,羅氏家用新冠病毒抗原自我檢測套組,2,2022/05/06 10:27:02,早上9:00~晚上10:00，固定周一至周六上午09:30開始販售口罩，售完為止.
5903260654,康新藥局,臺中市北區五權路２３２號,120.677,24.15078,(04)22020008,羅氏家用新冠病毒抗原自我檢測套組,4,2022/05/06 10:27:02,無
5903260949,進化瑞昌藥局,臺中市北區進化路３３２號１樓,120.6946,24.15378,(04)23608199,羅氏家用新冠病毒抗原自我檢測套組,24,2022/05/06 10:27:02,上午10:00開賣，9:45發號碼牌，須在現場排隊過號即棄權，請依現場指示排隊謝謝
5903261008,台中大樹藥局,臺中市北區漢口路三段２６１號,120.6726,24.16703,(04)22981113,羅氏家用新冠病毒抗原自我檢測套組,78,2022/05/06 10:27:02,快篩實名制，每天16:00開始販售，售完為止。
5903270347,甘肅安德藥局,臺中市西屯區甘肅路２０２－３號,120.6573,24.16838,(04)23165935,羅氏家用新冠病毒抗原自我檢測套組,4,2022/05/06 10:27:02,周一至五早上8:00，週六至周日早上9:00開始依序販快篩，售完為止
5903270365,麒霖藥局,臺中市西屯區福順路３０７號１樓,120.6185,24.1832,(04)24638978,羅氏家用新冠病毒抗原自我檢測套組,34,2022/05/06 10:27:02,販售健保快篩時間：週一至週六10:00開始至售完、週日公休。
5903270392,瑞德大藥局,臺中市西屯區中清西二街８４號,120.6671,24.17511,(04)22939820,羅氏家用新冠病毒抗原自我檢測套組,36,2022/05/06 10:27:02,固定周一至周日早上9:00開始販售口罩.售完為止
5903270614,至善德侑藥局,臺中市西屯區至善路６０號,120.6395,24.17141,(04)24518729,羅氏家用新冠病毒抗原自我檢測套組,79,2022/05/06 10:27:02,實名制快篩下午14:00開始發號碼牌.14:15開始販售
5903270847,分子藥局,臺中市西屯區惠來路二段２３６－１號,120.6421,24.16318,(04)22513080,羅氏家用新冠病毒抗原自我檢測套組,81,2022/05/06 10:27:02,發放時間週一至週日早上10點起售完為止
5903270892,杏林堂藥局,臺中市西屯區黎明路三段１４８號１樓,120.6376,24.17729,(04)24528967,羅氏家用新冠病毒抗原自我檢測套組,78,2022/05/06 10:27:02,週一至週六11:00販售 週日08:30販售
5903270936,新元藥局,臺中市西屯區文心路三段５３２號１樓,120.6659,24.17267,(04)23121383,羅氏家用新冠病毒抗原自我檢測套組,81,2022/05/06 10:27:02,5／1-5／2公休，快篩為滾動式配送，請電洽04-23121383
5903271022,西屯藥局,臺中市西屯區西屯路三段１５０－４５號１樓,120.621,24.18716,(04)24621822,羅氏家用新冠病毒抗原自我檢測套組,78,2022/05/06 10:27:02,快篩實名制，每天16:00開始販售，售完為止。
5903271031,美十樂中科藥局,臺中市西屯區西屯路三段１６６－６５號１樓,120.6129,24.19035,(04)24610219,羅氏家用新冠病毒抗原自我檢測套組,468,2022/05/06 10:27:02,醫事人員卡片損壞，暫時無法販賣快篩
5903271291,西屯長安藥局,臺中市西屯區成都路３６８號１樓,120.6641,24.17322,(04)22981221,羅氏家用新冠病毒抗原自我檢測套組,78,2022/05/06 10:27:02,快篩實名制，每天16:00開始販售，售完為止。
5903271308,祐生藥局,臺中市西屯區文華路３之１號１樓,120.6447,24.17535,(04)24517169,羅氏家用新冠病毒抗原自我檢測套組,188,2022/05/06 10:27:02,快篩發放時間：第一批中午12:00，第二批傍晚18:00，售完為止
5903280656,熊大心藥局,臺中市南屯區河南路四段３７６號,120.6369,24.15208,(04)22516252,羅氏家用新冠病毒抗原自我檢測套組,50,2022/05/06 10:27:02,app庫存錯誤。周一至周六，15:00-16:00售實名制快篩
5903290385,元復藥局,臺中市北屯區東山路１段２２５－７號,120.7155,24.17475,(04)24362075,羅氏家用新冠病毒抗原自我檢測套組,25,2022/05/06 10:27:02,上午7:20-7:40及8:20起發號碼牌。
5903290607,敦化小林健保藥局,臺中市北屯區敦化路１段６６８號,120.6643,24.18593,(04)24261881,羅氏家用新冠病毒抗原自我檢測套組,7,2022/05/06 10:27:02,每日早上8:00領號碼牌，16:30再回藥局領口罩（全年無休）
5903290689,大德安藥局,臺中市北屯區景賢路２３６號,120.7241,24.16701,(04)24378351,羅氏家用新冠病毒抗原自我檢測套組,78,2022/05/06 10:27:02,口罩代售時間從週一到週六09:00~現場排隊售完為止星期日早上10:00起至售完為止
5903290778,博宇藥局,臺中市北屯區北屯路３８５之１號,120.6979,24.17193,(04)22341479,羅氏家用新冠病毒抗原自我檢測套組,5,2022/05/06 10:27:02,快篩試劑10:00現場販售、售完為止。
5903290830,齊方藥局,臺中市北屯區四平路３９號,120.6708,24.17885,(04)22912192,羅氏家用新冠病毒抗原自我檢測套組,1,2022/05/06 10:27:02,5／6早上9:00開賣
5903290849,新盛藥局,臺中市北屯區松竹路二段１５７號１樓,120.6959,24.18312,(04)22467779,羅氏家用新冠病毒抗原自我檢測套組,74,2022/05/06 10:27:02,下午2:30至8:30賣快篩試劑週一至週六
5903290947,德寶健保藥局,臺中市北屯區熱河路一段７０號１樓,120.687,24.1674,(04)22325511,羅氏家用新冠病毒抗原自我檢測套組,78,2022/05/06 10:27:02,下午二點開始販賣快篩試劑
5903291042,全成北屯藥局,臺中市北屯區北屯路４３９－１１號１樓,120.7004,24.17913,(04)22463518,羅氏家用新冠病毒抗原自我檢測套組,78,2022/05/06 10:27:02,快篩每日下午3:00開始販售
5903291060,大樹北屯藥局,臺中市北屯區松竹路二段４１１號１樓,120.6895,24.18192,(04)22422262,羅氏家用新冠病毒抗原自我檢測套組,78,2022/05/06 10:27:02,快篩實名制，每天16:00開始販售，售完為止。
5903291140,興安藥局,臺中市北屯區興安路二段５２號１、２樓,120.6949,24.1762,(04)22460369,羅氏家用新冠病毒抗原自我檢測套組,78,2022/05/06 10:27:02,快篩實名制，每天16:00開始販售，售完為止。
5903291248,潔西卡大藥局,臺中市北屯區崇德路二段３１４號１樓,120.686,24.1765,(04)22416879,羅氏家用新冠病毒抗原自我檢測套組,16,2022/05/06 10:27:02,無
5905010036,橘子藥局,臺南市新營區民權路１１８之２號,120.312,23.30989,(06)6351881,羅氏家用新冠病毒抗原自我檢測套組,23,2022/05/06 10:27:02,10:00-19:00（目前六.日有配合實名制快篩販售）；近期物流配送時間不定，請看FB（臉書）橘子藥局.粉絲專頁
5905010125,宏泰大藥局,臺南市新營區新東里東興８街２７號,120.3273,23.3189,(06)6327801,羅氏家用新冠病毒抗原自我檢測套組,32,2022/05/06 10:27:02,營業時間至21:00
5905040123,麻豆啄木鳥藥局,臺南市麻豆區興國路５６－２２號１樓,120.2471,23.17712,(06)5714786,羅氏家用新冠病毒抗原自我檢測套組,78,2022/05/06 10:27:02,每日下午兩點-售完
5905060054,全家康藥師藥局,臺南市新化區北勢里中正路１２０７號,120.2968,23.05935,(06)5980866,羅氏家用新冠病毒抗原自我檢測套組,34,2022/05/06 10:27:02,週一~週日早上10:00開始賣實名制快篩，售完為止
5905060081,新化景惠藥局,臺南市新化區護國里中山路１８５號,120.3103,23.03705,(06)5909659,羅氏家用新冠病毒抗原自我檢測套組,25,2022/05/06 10:27:02,週一到週六早上十點開始販售，顯示無庫存代表已售完。
5905070112,健登藥局,臺南市善化區大成路２１２號１樓,120.3004,23.13021,(06)5831133,羅氏家用新冠病毒抗原自我檢測套組,78,2022/05/06 10:27:02,快篩實名制販售 : 週一~六 下午兩點開始 週日不販售
5905070158,南科健登藥局,臺南市善化區龍目井路４１３號１樓,120.3058,23.10922,(06)5836266,羅氏家用新冠病毒抗原自我檢測套組,78,2022/05/06 10:27:02,快篩實名制販售 : 週一~六 下午兩點開始 週日不販售
5905070201,善化啄木鳥藥局,臺南市善化區中山路１８１號１、２樓,120.3006,23.13256,(06)5853585,羅氏家用新冠病毒抗原自我檢測套組,78,2022/05/06 10:27:02,快篩實名制，15:30-售完
5905130051,唯安健保藥局,臺南市六甲區中正路４７７號１樓,120.3511,23.22957,(06)6980550,羅氏家用新冠病毒抗原自我檢測套組,60,2022/05/06 10:27:02,實名制快篩販賣時間每日早上10:30
5905140039,安安藥局隆田店,臺南市官田區中山路一段１５號１樓,120.3186,23.1927,(06)5795705,羅氏家用新冠病毒抗原自我檢測套組,1,2022/05/06 10:27:02,全日口罩販賣
5905210027,愛心藥師藥局,臺南市安定區港南里港口１４７號,120.233,23.09041,(06)5935104,羅氏家用新冠病毒抗原自我檢測套組,27,2022/05/06 10:27:02,春節營業時間請電洽或依現場公告
5905270041,仁德市安藥師藥局,臺南市仁德區中正西路２５號,120.2244,22.91814,(06)2661933,羅氏家用新冠病毒抗原自我檢測套組,1,2022/05/06 10:27:02,快篩販賣：5／6星期五~以貨運配送抵達時間再決定販售時間 暫定14:00開始販售
5905320135,安麗兒藥局裕農店,臺南市東區裕農路１００號１樓,120.2268,22.9857,(06)2377378,羅氏家用新冠病毒抗原自我檢測套組,63,2022/05/06 10:27:02,實名制快篩販售時間:星期一到星期日下午三點~售完
5905320331,高福藥局,臺南市東區大智里德東街１６８號,120.2322,22.96171,(06)2904668,羅氏家用新冠病毒抗原自我檢測套組,26,2022/05/06 10:27:02,禮拜一至六**早上10點**開始販售實名制快篩試劑==5／7（六）停售一天==
5905320653,東門台安藥局,臺南市東區中華東路三段２號１樓,120.2291,22.98105,(06)2904377,羅氏家用新冠病毒抗原自我檢測套組,62,2022/05/06 10:27:02,國定假日不開放領口罩
5905320859,裕農藥局,臺南市東區裕農路３０２號１樓,120.2287,22.98652,(06)2092286,羅氏家用新冠病毒抗原自我檢測套組,80,2022/05/06 10:27:02,無
5905330284,大樹佳華藥局,臺南市南區金華路二段１２９號１樓,120.1911,22.98035,(06)2641238,羅氏家用新冠病毒抗原自我檢測套組,78,2022/05/06 10:27:02,快篩實名制，每天16:00開始販售，售完為止。
5905330417,明興啄木鳥藥局,臺南市南區明興路５１號１樓,120.1883,22.95974,(06)2620793,羅氏家用新冠病毒抗原自我檢測套組,26,2022/05/06 10:27:02,每日10:00開始賣實名制快篩，若配送延遲則14:30開始。
5905340075,麗欣健保藥局,臺南市中西區永華路一段１９４號１樓,120.1917,22.98835,(06)2209393,羅氏家用新冠病毒抗原自我檢測套組,76,2022/05/06 10:27:02,w1~w6早上11:00開始發放快篩
5905340271,南光藥局,臺南市中西區永福路２段７３號１、２樓,120.2007,22.99207,(06)2226539,羅氏家用新冠病毒抗原自我檢測套組,76,2022/05/06 10:27:02,快篩販賣：星期一至星期六每日早上10點半開賣，星期日店休
5905350026,良佑堂藥局,臺南市北區文賢路２９９號,120.1935,23.00631,(06)2586223,羅氏家用新冠病毒抗原自我檢測套組,5,2022/05/06 10:27:02,快篩試劑早上9:00開始販售
5905350151,公園台安藥局,臺南市北區公園路８４０號,120.2121,23.01331,(06)2518402,羅氏家用新冠病毒抗原自我檢測套組,66,2022/05/06 10:27:02,實名制快篩每日上午10:30販售（依快篩配送時間可能延後）。
5905350384,北安台安藥局,臺南市北區北安路一段１６３號,120.2087,23.01755,(06)2518166,羅氏家用新冠病毒抗原自我檢測套組,67,2022/05/06 10:27:02,家用快篩試劑 1100開始販售
5905350428,大正藥局,臺南市北區公園南路３２４號１樓,120.2033,23.00268,(06)2226899,羅氏家用新冠病毒抗原自我檢測套組,72,2022/05/06 10:27:02,快篩試劑下午13:30發放~售完
5905370206,美家藥局,臺南市安南區安和路一段３５２號１樓,120.2125,23.03322,(06)2566006,羅氏家用新冠病毒抗原自我檢測套組,38,2022/05/06 10:27:02,無
5905380300,新高橋藥局台南永華店,臺南市安平區華平路２７９號１樓,120.1748,22.99031,(06)2992362,羅氏家用新冠病毒抗原自我檢測套組,35,2022/05/06 10:27:02,無
5907010043,北京藥局文山店,高雄市鳳山區青年路二段３６７號１．２樓,120.3511,22.64152,(07)7676766,羅氏家用新冠病毒抗原自我檢測套組,1,2022/05/06 10:27:02,無
5907010098,建明藥局,高雄市鳳山區海洋一路１２２號,120.3449,22.60985,(07)7668550,羅氏家用新冠病毒抗原自我檢測套組,8,2022/05/06 10:27:02,實名制快篩試劑9:30開始販售，售完為止
5907010187,人人好藥局,高雄市鳳山區五甲三路１０巷７號１樓,120.3278,22.59336,(07)8151566,羅氏家用新冠病毒抗原自我檢測套組,213,2022/05/06 10:27:02,上午0830-1330下午1530-2100， 自2／11-2／29口罩販售周一三四五日，時間:9:00-12:00售完為止
5907010276,愛家社區藥局,高雄市鳳山區福德街１４１號,120.3267,22.59042,(07)8123698,羅氏家用新冠病毒抗原自我檢測套組,2,2022/05/06 10:27:02,星期一~星期日早上9:30開始販售快篩，現場發號碼牌，售完為止
5907010427,好郝藥局鳳林店,高雄市鳳山區誠智里鳳林路２９０號,120.3779,22.62216,(07)7869188,羅氏家用新冠病毒抗原自我檢測套組,78,2022/05/06 10:27:02,健保快篩周一到周日下午三點開始現場販售，售完為止
5907010454,上泰健保藥局,高雄市鳳山區鎮西里中華街２７號１樓,120.3559,22.62698,(07)7455127,羅氏家用新冠病毒抗原自我檢測套組,33,2022/05/06 10:27:02,5／5 配售之快篩目前開始販售，售完為止。1300~~1600店休
5907010927,元元鳳山藥局,高雄市鳳山區一甲里五甲二路３４８之１號１樓,120.3377,22.59955,(07)7529595,羅氏家用新冠病毒抗原自我檢測套組,78,2022/05/06 10:27:02,現場排隊，自備500元不找零!一至五下午3-6點。星期六下午2-5點。星期日公休
5907011040,伊甸藥師藥局文化店,高雄市鳳山區文福里文化西路１１號１樓,120.3494,22.63475,(07)7776002,羅氏家用新冠病毒抗原自我檢測套組,70,2022/05/06 10:27:02,實名制快篩販售時間早上10:30起售完為止。請現場排隊。
5907011068,新高橋藥局文龍東店,高雄市鳳山區鎮北里文龍東路３１０號,120.3666,22.64074,(07)7353946,羅氏家用新冠病毒抗原自我檢測套組,29,2022/05/06 10:27:02,快篩星期一~六 早上9:50發號碼牌 10:00準時販售快篩
5907011095,鳳山五甲藥局,高雄市鳳山區正義里五甲二路１３９號１樓,120.3409,22.6014,(07)7269899,羅氏家用新冠病毒抗原自我檢測套組,78,2022/05/06 10:27:02,快篩實名制，每天16:00開始販售，售完為止。
5907011148,大樹國泰藥局,高雄市鳳山區興仁里五甲一路２９２號,120.3539,22.61698,(07)7407234,羅氏家用新冠病毒抗原自我檢測套組,78,2022/05/06 10:27:02,快篩實名制，每天16:00開始販售，售完為止。
5907011184,肉豆公藥局南榮店,高雄市鳳山區善美里南榮路１６９號１樓,120.3366,22.60186,(07)7278385,羅氏家用新冠病毒抗原自我檢測套組,17,2022/05/06 10:27:02,現場領藥優先處理，快篩販售時間以到貨起
5907011193,新高橋藥局新富店,高雄市鳳山區新泰里新富路４２８號１樓,120.3451,22.61288,(07)9630233,羅氏家用新冠病毒抗原自我檢測套組,18,2022/05/06 10:27:02,早上10:00開始販售口罩
5907011264,新高橋藥局青年店,高雄市鳳山區文衡里青年路二段２８９號１樓,120.3508,22.63964,(07)7676179,羅氏家用新冠病毒抗原自我檢測套組,25,2022/05/06 10:27:02,上午10:00開始販售快篩
5907011371,大樹五甲藥局,高雄市鳳山區福祥里五甲三路２４號１－２樓．２６號１－２樓,120.3278,22.59317,(07)8224926,羅氏家用新冠病毒抗原自我檢測套組,78,2022/05/06 10:27:02,快篩實名制，每天16:00開始販售，售完為止。
5907020085,大德藥局,高雄市岡山區大德一路９８號,120.3025,22.79689,(07)6221456,羅氏家用新冠病毒抗原自我檢測套組,78,2022/05/06 10:27:02,快篩實名制，每天16:00開始販售，售完為止。
5907030090,睛好活力藥局,高雄市旗山區湄洲里中山路１２７號,120.482,22.88873,(07)6625119,羅氏家用新冠病毒抗原自我檢測套組,40,2022/05/06 10:27:02,無
5907050109,林園藥局,高雄市林園區仁愛路１３號１樓,120.3928,22.50418,(07)6425855,羅氏家用新冠病毒抗原自我檢測套組,78,2022/05/06 10:27:02,快篩實名制，每天16:00開始販售，售完為止。
5907060034,化春藥師藥局,高雄市大寮區中庄里中庄路３７號,120.3964,22.63453,(07)7037275,羅氏家用新冠病毒抗原自我檢測套組,73,2022/05/06 10:27:02,快篩實名制星期一至星期五早上8:00開始，六.日9:00開始
5907060221,淑德健保藥局,高雄市大寮區內坑里淑德新村１號３樓,120.3707,22.58833,(07)7923556,羅氏家用新冠病毒抗原自我檢測套組,1,2022/05/06 10:27:02,無
5907080214,新高橋藥局八德中店,高雄市仁武區八卦里八德中路８６、８８、９０號,120.3393,22.68489,(07)3485857,羅氏家用新冠病毒抗原自我檢測套組,17,2022/05/06 10:27:02,藥局電話 07-3736437
5907080223,新高橋藥局仁雄店,高雄市仁武區赤山里仁雄路８９－３號,120.3457,22.67722,(07)3485857,羅氏家用新冠病毒抗原自我檢測套組,29,2022/05/06 10:27:02,藥局電話07-3743243
5907110066,安麗兒藥局橋頭店,高雄市橋頭區隆豐路１４８號,120.3062,22.75491,(07)6111209,羅氏家用新冠病毒抗原自我檢測套組,121,2022/05/06 10:27:02,上午10點開始販售快篩~售完為止
5907150024,安麗兒藥局路竹店,高雄市路竹區大社路５１號１樓,120.262,22.8632,(07)6071699,羅氏家用新冠病毒抗原自我檢測套組,80,2022/05/06 10:27:02,快篩實名制，週一至週六，早上8：30 開始，售完為止（週日無販售）
5907160093,保生藥局,高雄市湖內區葉厝里保生路３４０．３４２號,120.2195,22.90733,(07)6990800,羅氏家用新冠病毒抗原自我檢測套組,1,2022/05/06 10:27:02,快篩實名制，每天16:00開始販售，售完為止。
5907290023,明倫藥局,高雄市鼓山區明倫路１５０號１樓,120.2979,22.66507,(07)5520736,羅氏家用新冠病毒抗原自我檢測套組,38,2022/05/06 10:27:02,無
5907290327,金好藥局,高雄市鼓山區青海路４１８號１樓,120.2845,22.65177,(07)5869556,羅氏家用新冠病毒抗原自我檢測套組,33,2022/05/06 10:27:02,無
5907300024,重愛藥局,高雄市左營區文自路９３０號１樓,120.3161,22.68547,(07)3501870,羅氏家用新冠病毒抗原自我檢測套組,23,2022/05/06 10:27:02,下午2:30開始販售口罩
5907300168,金元藥局,高雄市左營區重愛路２２０號,120.3156,22.68562,(07)3458378,羅氏家用新冠病毒抗原自我檢測套組,1,2022/05/06 10:27:02,快篩試劑郵差配送，約10點至11點左右會送到藥局，即開始販售，星期四，六營業時間至中午12點
5907300239,左野藥局,高雄市左營區崇德路２２２號,120.3052,22.675,(07)3486883,羅氏家用新冠病毒抗原自我檢測套組,71,2022/05/06 10:27:02,每日9時開始營業．實名制快篩販售時間15:00-20:00售完為止! 14:50發號碼牌
5907300319,士凱藥局,高雄市左營區孟子路１７８號,120.3126,22.67387,(07)3430257,羅氏家用新冠病毒抗原自我檢測套組,78,2022/05/06 10:27:02,快篩實名制，每天14:30開始販售，售完為止。
5907300346,正心藥師藥局,高雄市左營區左營大路４７３之２號,120.295,22.68946,(07)5880386,羅氏家用新冠病毒抗原自我檢測套組,4,2022/05/06 10:27:02,快篩試劑 9:00開賣，售完為止! 12:00-14:00 休息! W6 和 W7 不販售快篩!
5907300588,明禾藥局,高雄市左營區華夏路１７３２號１樓,120.3204,22.68777,(07)3493734,羅氏家用新冠病毒抗原自我檢測套組,7,2022/05/06 10:27:02,快篩販賣時間早上10點開始
5907300613,新高橋藥局河堤店,高雄市左營區裕誠路１４４號１樓及地下１樓,120.3095,22.66423,(07)5582806,羅氏家用新冠病毒抗原自我檢測套組,12,2022/05/06 10:27:02,下午1:30開始販售口罩至下午5:30
5907300631,大樹孟子藥局,高雄市左營區孟子路２２６、２２８號,120.3112,22.67415,(07)3461772,羅氏家用新冠病毒抗原自我檢測套組,78,2022/05/06 10:27:02,快篩實名制，每天16:00開始販售，售完為止。
5907300659,維康藥局高榮店,高雄市左營區榮總路１６３號、１６５號,120.3216,22.6809,(07)3494540,羅氏家用新冠病毒抗原自我檢測套組,7,2022/05/06 10:27:02,平常日0900-1700為快篩販賣時間賣完為止！假日1000-1800
5907300677,佳寧峰藥局,高雄市左營區部後街２號,120.2886,22.6834,(07)5886408,羅氏家用新冠病毒抗原自我檢測套組,20,2022/05/06 10:27:02,快篩試劑販賣時段:上午8:30起至售完為止
5907300748,翔生藥局合群店,高雄市左營區緯六路２５６號,120.2871,22.6976,(07)5880055,羅氏家用新冠病毒抗原自我檢測套組,10,2022/05/06 10:27:02,實名制快篩販售時間：星期一至星期五，售完為止
5907300800,元大藥師健保藥局,高雄市左營區榮德街３２７號,120.3211,22.68636,(07)3507531,羅氏家用新冠病毒抗原自我檢測套組,34,2022/05/06 10:27:02,無
5907300819,志全藥局,高雄市左營區富國路１６８號１樓,120.3068,22.66075,(07)5568217,羅氏家用新冠病毒抗原自我檢測套組,40,2022/05/06 10:27:02,藥局販售口罩時間，依藥局門口公告時間為主（售完為止）
5907300882,得孚社區藥局,高雄市左營區重立路５３３號１樓,120.3098,22.67955,(07)3410121,羅氏家用新冠病毒抗原自我檢測套組,2,2022/05/06 10:27:02,營業日上午09:30-11:30為販賣快篩時間.三四下午200-400販售
5907301021,杏一左營自由藥局,高雄市左營區自由二路３９７號,120.3084,22.66541,(07)5509511,羅氏家用新冠病毒抗原自我檢測套組,78,2022/05/06 10:27:02,周一-周六販賣時間:15點；週日無提供快篩實聯制服務
5907301094,杏一高榮二店藥局,高雄市左營區榮總路１７７號１樓,120.3213,22.6811,(07)3463348,羅氏家用新冠病毒抗原自我檢測套組,20,2022/05/06 10:27:02,一~五09:25開始發號碼牌／週六14:25開始發號碼牌
5907310128,新高橋藥局土庫店,高雄市楠梓區土庫路１８８號１樓,120.3309,22.73885,(07)3535458,羅氏家用新冠病毒抗原自我檢測套組,33,2022/05/06 10:27:02,5／5已售完   5／6早上9:50發號碼牌 10:00開始販售
5907310137,青田藥局,高雄市楠梓區監理南街６８號,120.3188,22.72897,(07)3648257,羅氏家用新冠病毒抗原自我檢測套組,11,2022/05/06 10:27:02,銷售時間才販賣，別在看庫存了 ／ 周一至周五上午10:30-11:00 下午14:30-15:00 晚上19:00-20:00
5907310262,大樹楠梓藥局,高雄市楠梓區軍校路９０８號,120.2919,22.71246,(07)3632322,羅氏家用新冠病毒抗原自我檢測套組,78,2022/05/06 10:27:02,快篩實名制，每天16:00開始販售，售完為止。
5907310379,德昌藥局,高雄市楠梓區德賢路２１５號,120.3053,22.72632,(07)3619998,羅氏家用新冠病毒抗原自我檢測套組,71,2022/05/06 10:27:02,實名制快篩販售時間：周一至週日，14:30至16:00，售完為止。
5907320179,新高橋藥局天祥店,高雄市三民區天祥一路１１７號,120.3205,22.66711,(07)3102683,羅氏家用新冠病毒抗原自我檢測套組,28,2022/05/06 10:27:02,上午10:00開始販售快篩，9:50發號碼牌
5907320302,新高橋藥局明誠店,高雄市三民區明誠一路４９２號,120.3226,22.66046,(07)3107072,羅氏家用新冠病毒抗原自我檢測套組,54,2022/05/06 10:27:02,早上10:00開始販售口罩
5907320375,聖一健保藥局,高雄市三民區鼎山街３６３號,120.322,22.65771,(07)3959300,羅氏家用新冠病毒抗原自我檢測套組,67,2022/05/06 10:27:02,無
5907320428,東京藥局,高雄市三民區建工路６８５號,120.3173,22.6478,(07)3874567,羅氏家用新冠病毒抗原自我檢測套組,76,2022/05/06 10:27:02,實名制快篩販售時間: 每日15:00-晚上20:00
5907320633,勁康健保藥局,高雄市三民區義華路４０２號１樓,120.3331,22.64371,(07)3966716,羅氏家用新冠病毒抗原自我檢測套組,43,2022/05/06 10:27:02,如為當日配量快篩實名制配貨到即可販售，若前一日就到貨，則早上10點開始
5907320651,未來照護藥局,高雄市三民區鼎瑞街１０８號１樓,120.3154,22.66606,(07)3105356,羅氏家用新冠病毒抗原自我檢測套組,64,2022/05/06 10:27:02,實名制快篩發放規則: 周一至周六AM10:00發號碼牌，下午14:00~21:30為領取快篩時間  每 周日為公休日
5907320919,心寬福藥局,高雄市三民區大順二路７１８號一樓,120.3193,22.65359,(07)3832366,羅氏家用新冠病毒抗原自我檢測套組,77,2022/05/06 10:27:02,快篩試劑依政府滾動式配送實際發放時間依現場為主，週日公休。
5907320946,熊安心藥局,高雄市三民區陽明路４０８號,120.3429,22.64609,(07)3815212,羅氏家用新冠病毒抗原自我檢測套組,125,2022/05/06 10:27:02,週一 ~ 週六快篩分兩梯次販售，14:00有63份，19:00有15份
5907320982,康圓藥局,高雄市三民區大豐二路３５９．３６１號１樓,120.3343,22.6468,(07)3909978,羅氏家用新冠病毒抗原自我檢測套組,78,2022/05/06 10:27:02,快篩試劑下午2點開賣
5907321005,諾亞藥局,高雄市三民區鼎華路１４號１樓,120.3164,22.65139,(07)3929966,羅氏家用新冠病毒抗原自我檢測套組,32,2022/05/06 10:27:02,快篩早上10:00開始，營業時間:（一-五）早上8:00-12:00，下午02:30-6:00（五-下午5:30休息，六-開上午半天，日-休息）
5907321069,桂林活力藥局九如店,高雄市三民區懷安街１１２號１樓,120.3176,22.64095,(07)3981009,羅氏家用新冠病毒抗原自我檢測套組,78,2022/05/06 10:27:02,每天15:30發號碼牌，於18:00前兌換完畢，逾期棄權，剩餘則繼續發放
5907321103,自由藥局,高雄市三民區自由一路７８號,120.3089,22.64422,(07)3223113,羅氏家用新冠病毒抗原自我檢測套組,78,2022/05/06 10:27:02,快篩實名制，每天16:00開始販售，售完為止。
5907330219,美麗島台安藥局,高雄市新興區中山一路１１５號地下２樓（轉換層）,120.3015,22.63155,(07)2365490,羅氏家用新冠病毒抗原自我檢測套組,46,2022/05/06 10:27:02,位於美麗島捷運站內，往西子灣方向地下二樓。販賣時間依現場公告為主，可來電詢問。
5907330228,林森合豐藥局,高雄市新興區林森一路３７號１樓,120.305,22.62388,(07)2823313,羅氏家用新冠病毒抗原自我檢測套組,60,2022/05/06 10:27:02,無
5907340046,銘益藥局,高雄市前金區七賢二路２０８、２１０號１樓,120.2951,22.63314,(07)2853107,羅氏家用新冠病毒抗原自我檢測套組,11,2022/05/06 10:27:02,無
5907350177,佳康藥局,高雄市苓雅區建國一路３３４號,120.3247,22.63293,(07)2266685,羅氏家用新冠病毒抗原自我檢測套組,135,2022/05/06 10:27:02,快篩代售時間:一至四8:30-21:00、五六8:30-16:30
5907350220,仁愛藥師藥局,高雄市苓雅區中正一路２３０號,120.3296,22.62921,(07)7222300,羅氏家用新冠病毒抗原自我檢測套組,56,2022/05/06 10:27:02,快篩販售一到五10:30開始，紅字假日12:30開始
5907350480,健森藥局,高雄市苓雅區林森二路１３８號１、２樓,120.3066,22.62054,(07)3365169,羅氏家用新冠病毒抗原自我檢測套組,10,2022/05/06 10:27:02,早上9點領牌 下午3~5點領口罩
5907350499,鑫美健保特約藥局,高雄市苓雅區光華一路１４８－５８號１樓,120.3158,22.62389,(07)7715088,羅氏家用新冠病毒抗原自我檢測套組,77,2022/05/06 10:27:02,14:00開賣實名制快篩，馨田診所配合公費快篩，慢箋免費領藥，防疫物資特賣
5907350533,健群藥局,高雄市苓雅區安業路４０號,120.3231,22.62731,(07)7150097,羅氏家用新冠病毒抗原自我檢測套組,60,2022/05/06 10:27:02,無
5907350560,成功合豐藥局,高雄市苓雅區成功一路１７０號１樓,120.2972,22.61595,(07)2695657,羅氏家用新冠病毒抗原自我檢測套組,1,2022/05/06 10:27:02,早上9點開始賣口罩~晚上9點   售完為止
5907360584,聖名健保藥局,高雄市前鎮區復興三路２４６號１樓,120.312,22.61558,(07)3319431,羅氏家用新冠病毒抗原自我檢測套組,1,2022/05/06 10:27:02,無
5907360600,桂林活力藥師藥局草衙店,高雄市前鎮區草衙二路３６０號,120.323,22.57801,(07)8131819,羅氏家用新冠病毒抗原自我檢測套組,16,2022/05/06 10:27:02,9:00發放實名制快篩號碼牌.售完為止
5911011325,永好藥局,基隆市中正區北寧路３１５號１樓,121.7951,25.13981,(02)24697639,羅氏家用新冠病毒抗原自我檢測套組,78,2022/05/06 10:27:02,快篩星期一*三*五是單號 二*四雙號 下午14:30販售 星期六星期日休息
5911011601,義一啄木鳥藥局,基隆市中正區義一路１１１號１、２樓,121.7471,25.13536,(02)24271456,羅氏家用新冠病毒抗原自我檢測套組,39,2022/05/06 10:27:02,國定假日無提供調劑業務，早上10:00到晚上09:50，每天10:30開始發快篩
5911021438,正心藥局,基隆市七堵區南興路１０號１樓,121.7149,25.09755,(02)24563378,羅氏家用新冠病毒抗原自我檢測套組,78,2022/05/06 10:27:02,星期一~六下午13:30發號碼牌，14:00開始販賣，星期日上午9:00發號碼牌，9:30開始販賣，12:00停止領取
5911031238,碇內東亞藥師藥局,基隆市暖暖區源遠路３１９號１樓,121.7574,25.09941,(02)24590033,羅氏家用新冠病毒抗原自我檢測套組,78,2022/05/06 10:27:02,周一至周六下午三點發放快篩試劑
5911041350,何房藥局,基隆市仁愛區忠三路８１號,121.7389,25.12931,(02)24222978,羅氏家用新冠病毒抗原自我檢測套組,28,2022/05/06 10:27:02,無
5911041958,百福仁愛專業藥局,基隆市仁愛區仁四路５０號１樓,121.7413,25.12829,(02)24266699,羅氏家用新冠病毒抗原自我檢測套組,40,2022/05/06 10:27:02,4／30起，早上8:00販售快篩
5911041967,東隆藥局,基隆市仁愛區仁二路１０５號２樓,121.7482,25.12742,(02)24260727,羅氏家用新冠病毒抗原自我檢測套組,1,2022/05/06 10:27:02,無
5911060015,福泰藥局,基隆市安樂區麥金路４３３號,121.7194,25.12511,(02)24311631,羅氏家用新冠病毒抗原自我檢測套組,78,2022/05/06 10:27:02,下午2點發號碼牌  3點領快篩試劑
5912012120,仁美藥局,新竹市東區振興里振興路５２號,120.9625,24.79493,(03)5625398,羅氏家用新冠病毒抗原自我檢測套組,78,2022/05/06 10:27:02,快篩試劑，晚上六點、晚上六點開始飯售（周日店休）  請勿問我們幾點排隊，我們不是台灣神童!
5912012157,東海藥局,新竹市東區光復路一段２１３號１樓,121.0214,24.78169,(03)5772831,羅氏家用新冠病毒抗原自我檢測套組,1,2022/05/06 10:27:02,口罩販售時段：上午9:00開始至售完
5912012353,康田大藥局,新竹市東區金山街１０２號１樓,121.0238,24.77687,(03)5638217,羅氏家用新冠病毒抗原自我檢測套組,40,2022/05/06 10:27:02,週一-六 AM10點販售快篩 週日休息沒賣
5912013609,丁丁藥局,新竹市東區中華路二段９１號,120.9812,24.80794,(03)6117888,羅氏家用新冠病毒抗原自我檢測套組,1,2022/05/06 10:27:02,無
5912013690,佑全新竹食品藥局,新竹市東區食品路１７０號,120.9764,24.79735,(03)5627307,羅氏家用新冠病毒抗原自我檢測套組,48,2022/05/06 10:27:02,實名制快篩下午2點開賣1點40分發號碼牌實際庫存依物流到貨時間滾動式調整
5912040491,全禾藥局,新竹市北區潛園里集和街２５號,120.9616,24.80483,(03)5249173,羅氏家用新冠病毒抗原自我檢測套組,9,2022/05/06 10:27:02,早上9點半至12點，下午3點至9點
5912042235,均祐健康藥局,新竹市北區境福里１５鄰中正路３８９號１樓,120.961,24.81546,(03)5325369,羅氏家用新冠病毒抗原自我檢測套組,3,2022/05/06 10:27:02,口罩販售時間：09:00
5912042637,中福藥局,新竹市北區中福路８３號,120.9327,24.8408,(03)5366996,羅氏家用新冠病毒抗原自我檢測套組,78,2022/05/06 10:27:02,快篩販售時間：上午09:00
5917010082,仁壽藥局,臺中市中區東墩里三民路三段１號,120.6817,24.14482,(04)22228058,羅氏家用新冠病毒抗原自我檢測套組,1,2022/05/06 10:27:02,週一至週日上午9時30分起販售快篩劑
5917010126,永大藥局,臺中市中區錦上里民族路１２２號,120.6786,24.14054,(04)22210180,羅氏家用新冠病毒抗原自我檢測套組,12,2022/05/06 10:27:02,09:00開始代售快篩，人多會發號碼牌
5917011945,正三吉藥局,臺中市中區臺灣大道一段９５號,120.6831,24.13911,(04)22207700,羅氏家用新冠病毒抗原自我檢測套組,144,2022/05/06 10:27:02,快篩販售時間 14:00~17:00
5917030128,太信藥局,臺中市西區三民路一段９５－１號１樓,120.6698,24.13322,(04)23718318,羅氏家用新冠病毒抗原自我檢測套組,12,2022/05/06 10:27:02,健保卡快篩請0900自備500元／份
5917030520,林西藥局,臺中市西區向上路一段４６－１號,120.6661,24.14688,(04)23014023,羅氏家用新冠病毒抗原自我檢測套組,6,2022/05/06 10:27:02,每日早上9點開始依序當場領口罩，售完為止。
5917030646,華隆藥局,臺中市西區樂群街６之２號,120.6735,24.14025,(04)22243785,羅氏家用新冠病毒抗原自我檢測套組,26,2022/05/06 10:27:02,上午10:00開始販售快篩試劑，售完為止
5917030995,麗新健保大藥局,臺中市西區向上路一段１６２號,120.6612,24.1469,(04)23017100,羅氏家用新冠病毒抗原自我檢測套組,77,2022/05/06 10:27:02,週一至週日下午15:00至售完為止
5917032382,中港大藥局,臺中市西區臺灣大道２段１３２號,120.6714,24.14995,(04)22080708,羅氏家用新冠病毒抗原自我檢測套組,73,2022/05/06 10:27:02,無
5917032471,銘津藥局,臺中市西區民生路３９０號１樓,120.6611,24.14444,(04)23021314,羅氏家用新冠病毒抗原自我檢測套組,25,2022/05/06 10:27:02,每日上午10:00至13:00，下午3:00至21:00 現場排隊，星期日下午休息
5917032739,婕康藥妝藥局,臺中市西區民生路１５９號１樓,120.671,24.14272,(04)22298777,羅氏家用新冠病毒抗原自我檢測套組,36,2022/05/06 10:27:02,每日下午3-5點 當場販售口罩
5917050433,松鶴藥局,臺中市北區文莊里篤行路２２４號,120.6738,24.15187,(04)22028790,羅氏家用新冠病毒抗原自我檢測套組,2,2022/05/06 10:27:02,口罩每日上午8:30開始販售，現場排隊售完為止。（全年無休）
5917050577,東生藥局,臺中市北區永興街１１２－１號１樓,120.6825,24.16152,(04)22358880,羅氏家用新冠病毒抗原自我檢測套組,27,2022/05/06 10:27:02,周一到周六上午8:30到晚上10:00開始販售口罩，周日公休
5917050719,百鴻藥局,臺中市北區金龍里北屯路１３－１號,120.6914,24.15981,(04)22336330,羅氏家用新冠病毒抗原自我檢測套組,12,2022/05/06 10:27:02,固定周一至周五10.00--16.00 17.00--21.00開始販售口罩售完為止
5917051449,格霖大藥局,臺中市北區山西路二段７０號１樓,120.6758,24.1689,(04)22925076,羅氏家用新冠病毒抗原自我檢測套組,50,2022/05/06 10:27:02,早上10點-晚上9點
5917053514,學士藥局,臺中市北區學士路１３號之１樓,120.6823,24.15372,(04)22015008,羅氏家用新冠病毒抗原自我檢測套組,8,2022/05/06 10:27:02,固定周一到周日，早上09:50開始發放號碼牌及販賣快篩
5917063350,天立專業藥師藥局,臺中市西屯區太原路１段２０７號１樓,120.6617,24.16318,(04)23160455,羅氏家用新冠病毒抗原自我檢測套組,35,2022/05/06 10:27:02,週一~週六快篩9:00售完為止，週日中午12：00售完為止
5917063403,逢甲藥局,臺中市西屯區逢甲路１６２－１號１樓,120.6425,24.17809,(04)27085922,羅氏家用新冠病毒抗原自我檢測套組,2,2022/05/06 10:27:02,實名制快篩販售時間:每日早上9:30~12:00
5917063725,永旭大藥局,臺中市西屯區逢甲路９２號１樓,120.6439,24.17883,(04)27087952,羅氏家用新冠病毒抗原自我檢測套組,36,2022/05/06 10:27:02,5／6起實名快篩，星期一到五早上10點開始，星期六日中午12點開始排隊販售。
5917070248,聯發藥局,臺中市南屯區溝墘里大墩路８５０號,120.6496,24.15551,(04)23262738,羅氏家用新冠病毒抗原自我檢測套組,31,2022/05/06 10:27:02,週一至周六早上十點開賣，以現場數量為主，售完為止。販售時間忙碌，恕無法接聽電話，請見諒。
5917072313,大業藥局,臺中市南屯區大業路５７１號１樓,120.6361,24.15347,(04)22516715,羅氏家用新冠病毒抗原自我檢測套組,39,2022/05/06 10:27:02,週一至週六早上10點  快篩試劑開賣
5917080262,寶麒藥局,臺中市北屯區旅順路２段１５０號,120.6895,24.174,(04)22433918,羅氏家用新冠病毒抗原自我檢測套組,78,2022/05/06 10:27:02,周一~周日每天下午1:00開始販售實名制快篩試劑，售完為止。
5917082300,蔡宗耀中西藥局,臺中市北屯區平德里河北路２段６１號,120.6831,24.16994,(04)22341880,羅氏家用新冠病毒抗原自我檢測套組,1,2022/05/06 10:27:02,早上9點30分至下午12點30分，下午3點至8點發口罩，有發號碼牌。
5917083101,北屯德康藥局,臺中市北屯區四平路４６９號１樓,120.681,24.19161,(04)24223378,羅氏家用新冠病毒抗原自我檢測套組,29,2022/05/06 10:27:02,每天早上9點30分發售口罩；前往領藥前先電話洽詢
5917083209,崇德啄木鳥藥局,臺中市北屯區崇德路二段２１７號,120.6852,24.17423,(04)22410441,羅氏家用新冠病毒抗原自我檢測套組,1,2022/05/06 10:27:02,每天早上8點40分發放號碼牌發售口罩，當天領取。
5917083343,豋盛藥局,臺中市北屯區北平路三段１０７號,120.6827,24.17117,(04)22373863,羅氏家用新冠病毒抗原自我檢測套組,27,2022/05/06 10:27:02,實名制快篩販賣時間:5／6日上午10點開賣
5921010072,統一藥局,臺南市東區中西里東門路１段２９１號,120.2186,22.98683,(06)2376638,羅氏家用新冠病毒抗原自我檢測套組,61,2022/05/06 10:27:02,早上9點到晚間9點半  星期日休假
5921010205,文成藥局,臺南市東區大學里東寧路４３號之１,120.2212,22.99217,(06)2340860,羅氏家用新冠病毒抗原自我檢測套組,76,2022/05/06 10:27:02,早上10:30至晚上10點     中午2點至3點休息
5921010223,王藥局,臺南市東區小東里小東路１９０－１號,120.2276,22.99976,(06)2378697,羅氏家用新冠病毒抗原自我檢測套組,78,2022/05/06 10:27:02,週一 至 週日，下午 2:00 ~ 晚上9:00 （ 需健保卡 ）
5921010705,華興藥局,臺南市東區崇善路５６２號,120.2302,22.97076,(06)2683757,羅氏家用新冠病毒抗原自我檢測套組,3,2022/05/06 10:27:02,星期日 休假  111／5／2 上午10點開始
5921012049,小太陽藥局,臺南市東區東光里東平路１３號,120.2336,22.9947,(06)2099858,羅氏家用新冠病毒抗原自我檢測套組,95,2022/05/06 10:27:02,藥局營業時間為星期一至星期六10:00~21:30，星期天休息  實名制快篩試劑10:00開始販售，售完為止
5921030092,三芳藥局,臺南市中西區元安里大勇街５號,120.1954,22.98933,(06)2203084,羅氏家用新冠病毒抗原自我檢測套組,3,2022/05/06 10:27:02,週一至週五09:00~12:00  14:30~17:00執業
5921040221,好鄰居藥局,臺南市北區西華里公園路１２８號２樓７室,120.2076,22.99889,(06)2219015,羅氏家用新冠病毒抗原自我檢測套組,86,2022/05/06 10:27:02,固定星期一至星期六8:30-21:15販賣口罩，星期天休息
5921040294,澄清堂藥局,臺南市北區勝利路４９５號,120.2185,23.00648,(06)2377224,羅氏家用新冠病毒抗原自我檢測套組,3,2022/05/06 10:27:02,星期一至星期六早上09:00開始賣~賣完
5921040301,永生藥局,臺南市北區六甲里公園路４８１號,120.2079,23.00898,(06)2813681,羅氏家用新冠病毒抗原自我檢測套組,78,2022/05/06 10:27:02,每日販賣快篩劑下午2時起至售完為止／星期日休息
5921040481,眾安藥局,臺南市北區文元里文賢路１０３４號,120.1938,23.0153,(06)2588339,羅氏家用新冠病毒抗原自我檢測套組,76,2022/05/06 10:27:02,星期一~六，上午10點下午9點.（星期日休假）快篩劑販售上午10點起
5921040623,惠光藥局,臺南市北區文亢里文賢路２３６號,120.1938,23.0042,(06)2586316,羅氏家用新冠病毒抗原自我檢測套組,78,2022/05/06 10:27:02,快篩代售:5／6，下午4:00販售，星期日公休
5921040749,玖大藥局,臺南市北區勝利路３８３號,120.2187,23.00397,(06)2752048,羅氏家用新冠病毒抗原自我檢測套組,23,2022/05/06 10:27:02,快篩販售時間:星期一~五早上10:00-12:00
5921050076,千代藥局,臺南市中西區民生路一段６０號１樓,120.2034,22.99337,(06)2256895,羅氏家用新冠病毒抗原自我檢測套組,71,2022/05/06 10:27:02,快篩試劑實名制:星期1~6下午一點至三點販售（星期日當日貨到開始販售）
5921050138,金德藥局,臺南市中西區府前路１段３３號,120.2108,22.98881,(06)2149082,羅氏家用新冠病毒抗原自我檢測套組,67,2022/05/06 10:27:02,星期一-日08:00-23:00
5921050174,春天藥局,臺南市中西區民族路２段２７４號,120.2008,22.99758,(06)2221562,羅氏家用新冠病毒抗原自我檢測套組,14,2022/05/06 10:27:02,上午9:30開始，售完為止，周日停售
5921050423,吉仁大藥局,臺南市中西區白金里民權路２段８６號,120.2045,22.99468,(06)2263777,羅氏家用新冠病毒抗原自我檢測套組,1,2022/05/06 10:27:02,周ㄧ15:30~16:30到周日11:00~12:00開始依序購買快篩，售完為止。
5921051582,丞功藥局,臺南市中西區成功路３１號,120.2095,22.99747,(06)2287641,羅氏家用新冠病毒抗原自我檢測套組,1,2022/05/06 10:27:02,星期一-六08:00-售完
5921060143,嘉庭藥局,臺南市安南區海佃里國安街１１８號,120.1887,23.0224,(06)2581618,羅氏家用新冠病毒抗原自我檢測套組,18,2022/05/06 10:27:02,快篩試劑.進貨時間不確定.貨到即賣.請來電洽詢
5921060198,平光藥局,臺南市安南區安中路１段８２２號,120.1947,23.0437,(06)2459641,羅氏家用新冠病毒抗原自我檢測套組,137,2022/05/06 10:27:02,快篩 早上 10:30 開店起 販售 周日不賣快篩
5921060321,慈安藥局,臺南市安南區大安街５３號,120.1919,23.03148,(06)2551117,羅氏家用新冠病毒抗原自我檢測套組,78,2022/05/06 10:27:02,下午2:00
5921071226,康活藥局,臺南市安平區健康三街１８６號,120.1686,22.98883,(06)2936483,羅氏家用新冠病毒抗原自我檢測套組,6,2022/05/06 10:27:02,快篩晚上18:00開賣.
5921071244,全家藥局,臺南市安平區華平路１７０號,120.1749,22.98882,(06)2939000,羅氏家用新冠病毒抗原自我檢測套組,19,2022/05/06 10:27:02,早上１０：３０開賣快篩　到貨時間不確定　數量依現場為主
5921080010,羽田藥局,臺南市中西區府前路一段２１４號,120.205,22.98913,(06)2214066,羅氏家用新冠病毒抗原自我檢測套組,21,2022/05/06 10:27:02,週一至週六09:00起依序販售防疫口罩，售完為止
5922010361,壽生堂藥局,嘉義市東區府路里延平街２８０號,120.4502,23.47683,(05)2225058,羅氏家用新冠病毒抗原自我檢測套組,1,2022/05/06 10:27:02,周一至周日上午09:00起，至20:00或售鑿為止。
5922010718,安泰藥局,嘉義市東區民族路１８１號,120.4566,23.47649,(05)2294202,羅氏家用新冠病毒抗原自我檢測套組,34,2022/05/06 10:27:02,每天早上九點開始販售口罩! 售完為止
5922011966,源豪藥局,嘉義市東區光華路８２號,120.4529,23.4782,(05)2169696,羅氏家用新冠病毒抗原自我檢測套組,28,2022/05/06 10:27:02,周一至周六，售鑿為止。周日休
5922013059,杏光藥局,嘉義市東區保健街１４７號附４,120.4492,23.50036,(05)2745642,羅氏家用新冠病毒抗原自我檢測套組,78,2022/05/06 10:27:02,週一至週五 下午1:00~5:00 現場排隊，無號碼牌（ （六日及國定假日停售）
5922013111,富善藥局,嘉義市東區新生路２３４號,120.4609,23.48419,(05)2759559,羅氏家用新冠病毒抗原自我檢測套組,62,2022/05/06 10:27:02,5／13、14休假，實名制快篩早上9:10-12:00下午3:10-5:00
5922013157,軍輝健康幸福藥局,嘉義市東區軍輝路１９２號,120.46,23.45571,(05)2395789,羅氏家用新冠病毒抗原自我檢測套組,78,2022/05/06 10:27:02,無
5922013193,民權藥局,嘉義市東區民權路１５５號１樓、１５７號１樓,120.4604,23.48374,(05)2775322,羅氏家用新冠病毒抗原自我檢測套組,78,2022/05/06 10:27:02,快篩實名制，每天16:00開始販售，售完為止。
5922020125,照安藥局,嘉義市西區福全里博愛路２段３６１號,120.435,23.47573,(05)2332883,羅氏家用新冠病毒抗原自我檢測套組,32,2022/05/06 10:27:02,口罩代售時間於08：00開始販售；現場。
5922020358,泰春藥局,嘉義市西區學圃里民生北路６６號,120.4468,23.47543,(05)2224118,羅氏家用新冠病毒抗原自我檢測套組,7,2022/05/06 10:27:02,快篩試劑販售時間：早上9點至晚上9點
5922020376,勝華藥局,嘉義市西區垂楊路６２３號,120.4375,23.4726,(05)2856642,羅氏家用新冠病毒抗原自我檢測套組,1,2022/05/06 10:27:02,週一至週六早上 8:00開始販售口罩.週日休息.
5922020509,全德藥局,嘉義市西區福民里興業西路２８９號,120.4392,23.46776,(05)2854263,羅氏家用新冠病毒抗原自我檢測套組,65,2022/05/06 10:27:02,營業時間請電話洽詢  販售：19 :30~20:30
5922020563,信康藥局,嘉義市西區翠岱里仁愛路２２６號,120.443,23.46984,(05)2161680,羅氏家用新冠病毒抗原自我檢測套組,35,2022/05/06 10:27:02,快篩星期一至星期五早上10:00開賣 星期六下午14:00開賣
5922020670,興嘉藥局,嘉義市西區興業西路３７０號,120.4373,23.46793,(05)2841812,羅氏家用新冠病毒抗原自我檢測套組,1,2022/05/06 10:27:02,固定週一至週日8:15開放領取口罩，至售完為止
5922020858,大統藥局,嘉義市西區慶安里北興街１３６號,120.4421,23.48389,(05)2330230,羅氏家用新冠病毒抗原自我檢測套組,70,2022/05/06 10:27:02,5月6.7.8.9.10.11.12日預約登記已滿.有預約的民眾請於上午9:00點後領取
5922020938,仁愛弘安藥局,嘉義市西區仁愛路３９３號１樓,120.442,23.47654,(05)2239000,羅氏家用新冠病毒抗原自我檢測套組,1,2022/05/06 10:27:02,收到快篩即開賣，賣完為止
5922020983,睿安藥局,嘉義市西區八德路２７８號１樓,120.4303,23.49014,(05)2910678,羅氏家用新冠病毒抗原自我檢測套組,13,2022/05/06 10:27:02,快篩賣完為止 自備500元不找零 周一到六 中午12點-下午2點半休息 周日休息
5922020992,昭安藥局,嘉義市西區民生南路４７９號１樓,120.4437,23.45821,(05)2842240,羅氏家用新冠病毒抗原自我檢測套組,34,2022/05/06 10:27:02,無
5922028596,一安藥局,嘉義市西區福民里興業西路３１１號,120.4387,23.4677,(05)2859275,羅氏家用新冠病毒抗原自我檢測套組,37,2022/05/06 10:27:02,周一至周日早上9點至晚上10點半依發放號碼排依序售完
5922028863,益生堂藥局,嘉義市西區杭州三街３０號,120.4446,23.46678,(05)2861415,羅氏家用新冠病毒抗原自我檢測套組,17,2022/05/06 10:27:02,平日（W一~W六）09:00，星期日（W日）10:30
5922028881,中興中西藥局,嘉義市西區垂楊路５０１號,120.4422,23.47297,(05)2353096,羅氏家用新冠病毒抗原自我檢測套組,8,2022/05/06 10:27:02,周一至周五10點開始，周末下午5點開始，並依序販售快篩售完為止
5931010315,優良藥局,新北市板橋區莊敬路９３號,121.4727,25.02628,(02)22550251,羅氏家用新冠病毒抗原自我檢測套組,3,2022/05/06 10:27:02,無
5931010342,宏達大藥局,新北市板橋區莒光路１７號,121.47,25.02478,(02)22572345,羅氏家用新冠病毒抗原自我檢測套組,156,2022/05/06 10:27:02,快篩 晚上20:00開始販售! 不要打電話來 問題這麼多就到現場 也不給你問
5931010397,正成藥師藥局,新北市板橋區三民路２段１５４巷７號,121.4787,25.01515,(02)29512760,羅氏家用新冠病毒抗原自我檢測套組,156,2022/05/06 10:27:02,無
5931010726,賜您康大藥局,新北市板橋區國泰街５０號,121.4679,25.00668,(02)29513166,羅氏家用新冠病毒抗原自我檢測套組,23,2022/05/06 10:27:02,快篩配發時間，每天早上:10:00~11:00
5931011223,民侑藥局,新北市板橋區大觀路２段３７巷３１０號,121.45,25.00221,(02)22755938,羅氏家用新冠病毒抗原自我檢測套組,8,2022/05/06 10:27:02,快篩號碼牌發放時間為早上9點。12點前須拿號碼牌完成購買。
5931011947,長弘藥局,新北市板橋區龍泉街１１０號,121.4568,25.02454,(02)22558789,羅氏家用新冠病毒抗原自我檢測套組,36,2022/05/06 10:27:02,無
5931012042,喬治藥局,新北市板橋區國慶路１５５號１樓,121.4616,24.99617,(02)29630787,羅氏家用新冠病毒抗原自我檢測套組,78,2022/05/06 10:27:02,網路數量不準。13:00開賣，如排隊人數過半，將提早開始販售。星期日公休無販售
5931012051,全曜藥局,新北市板橋區民權路２６０巷６２號,121.4603,25.01495,(02)29682681,羅氏家用新冠病毒抗原自我檢測套組,2,2022/05/06 10:27:02,實名制快篩下午七點發放，依現場數量為準（星期六.星期日休）
5931012131,中山大藥局,新北市板橋區中山路１段１０７號,121.4618,25.01025,(02)29575029,羅氏家用新冠病毒抗原自我檢測套組,19,2022/05/06 10:27:02,口罩配發時間.星期一~六早上9點開始.星期日下午1點開始
5931013389,谷全藥局,新北市板橋區裕民街４９號,121.4613,25.02851,(02)22561856,羅氏家用新冠病毒抗原自我檢測套組,25,2022/05/06 10:27:02,無
5931013781,佳和藥局,新北市板橋區文化路１段３８７巷５號１樓,121.4667,25.02193,(02)22589598,羅氏家用新冠病毒抗原自我檢測套組,38,2022/05/06 10:27:02,快篩週一 至五均分早上8:30 和下午3:00販售- 週六早上售完為止. 週日休
5931014420,萬泰藥局,新北市板橋區信義路２２１之１號,121.4597,24.99145,(02)89645570,羅氏家用新冠病毒抗原自我檢測套組,78,2022/05/06 10:27:02,無
5931014831,詠濟藥局,新北市板橋區幸福路２３號,121.4618,25.02023,(02)22536951,羅氏家用新冠病毒抗原自我檢測套組,58,2022/05/06 10:27:02,無
5931015687,正康健保藥局,新北市板橋區大觀路２段６５號１樓,121.4467,25.00246,(02)22756681,羅氏家用新冠病毒抗原自我檢測套組,78,2022/05/06 10:27:02,下午13:30依現場順序開始販售快篩，快篩配送絮亂庫存不準!!
5931015721,新進發大藥局,新北市板橋區大同街２４號１樓,121.4787,25.0275,(02)22593926,羅氏家用新冠病毒抗原自我檢測套組,89,2022/05/06 10:27:02,快篩上午10點開門即賣，排隊不發號碼
5931016273,湯明藥局,新北市板橋區中山路２段３１９號１樓,121.479,25.01866,(02)29571980,羅氏家用新冠病毒抗原自我檢測套組,47,2022/05/06 10:27:02,週一到週五 下午四點  六日時間未定 排隊不發號碼
5931016611,民川藥局,新北市板橋區四川路１段９７號１樓,121.4598,25.00544,(02)29520090,羅氏家用新冠病毒抗原自我檢測套組,40,2022/05/06 10:27:02,星期一~星期六（快篩上午9:00販售38份下午3:00販售40份）
5931017092,康橋藥局,新北市板橋區文化路１段２７３號,121.4646,25.01848,(02)22532560,羅氏家用新冠病毒抗原自我檢測套組,78,2022/05/06 10:27:02,快篩試劑 每天下午2點販售 不發號碼牌 售完為止 周日公休
5931017261,正康新埔藥局,新北市板橋區介壽街４號（１樓）,121.467,25.02025,(02)82595882,羅氏家用新冠病毒抗原自我檢測套組,74,2022/05/06 10:27:02,下午2:30依現場順序開始販售快篩。週日無快篩!
5931017618,新埔健保藥局,新北市板橋區自由路２號１樓,121.4654,25.02222,(02)22558878,羅氏家用新冠病毒抗原自我檢測套組,78,2022/05/06 10:27:02,無
5931017636,福澤藥局,新北市板橋區南雅南路１段８５號（１樓）,121.4556,25.00543,(02)29690013,羅氏家用新冠病毒抗原自我檢測套組,78,2022/05/06 10:27:02,口罩代售9:00-23:00
5931017663,盛生藥局,新北市板橋區合宜路９９號（１樓）,121.4479,24.9984,(02)89697299,羅氏家用新冠病毒抗原自我檢測套組,78,2022/05/06 10:27:02,政府快篩下午1:50發放號碼牌.下午2:00準時銷售..假日視政府配量（銷售時間相同）
5931017681,浣熊藥局,新北市板橋區中正路３０１號（１樓）,121.4552,25.01954,(02)29650355,羅氏家用新冠病毒抗原自我檢測套組,1,2022/05/06 10:27:02,無
5931017869,躍獅國慶藥局,新北市板橋區國慶路１７９號（１樓）,121.4626,24.99636,(02)29641548,羅氏家用新冠病毒抗原自我檢測套組,156,2022/05/06 10:27:02,快篩實名制，每天14:00開始販售，售完為止
5931017994,後埔藥局,新北市板橋區華興街９號（１樓）,121.459,25.00457,(02)89510306,羅氏家用新冠病毒抗原自我檢測套組,78,2022/05/06 10:27:02,5／6  下午2點發放號碼牌*確保作業流暢請自備500元*每天 78 份晚上10 點以前領取完畢（過卡時間差異剩餘數量僅供參考）
5931020400,新迪化中西藥局,新北市三重區三陽路２７號１樓,121.4855,25.05893,(02)29884755,羅氏家用新冠病毒抗原自我檢測套組,78,2022/05/06 10:27:02,快篩實名制中午12點開始販售，發號碼牌
5931020562,力健藥局,新北市三重區自強路３段３８號,121.4868,25.07266,(02)29856255,羅氏家用新冠病毒抗原自我檢測套組,13,2022/05/06 10:27:02,無
5931020599,德林藥局,新北市三重區中正北路５７２號,121.4705,25.07205,(02)29832019,羅氏家用新冠病毒抗原自我檢測套組,78,2022/05/06 10:27:02,無
5931020704,建芳藥局,新北市三重區集美街１７４號,121.4904,25.05321,(02)29763351,羅氏家用新冠病毒抗原自我檢測套組,44,2022/05/06 10:27:02,無
5931020795,杜廣德藥師藥局,新北市三重區大智街５３號,121.4928,25.06775,(02)29843152,羅氏家用新冠病毒抗原自我檢測套組,70,2022/05/06 10:27:02,防疫快篩代售時間 星期一至星期日 時間未定
5931020848,吳廣隆藥局,新北市三重區長壽西街５－１號,121.498,25.06765,(02)29715020,羅氏家用新冠病毒抗原自我檢測套組,76,2022/05/06 10:27:02,每天下午2點開始販售防疫口罩
5931020866,裕福藥局,新北市三重區長壽西街１４４號,121.4939,25.06661,(02)29831769,羅氏家用新冠病毒抗原自我檢測套組,27,2022/05/06 10:27:02,快篩代售等貨到才販售；現場排隊
5931021023,義中藥局,新北市三重區大同北路１０７號,121.4942,25.06421,(02)29815088,羅氏家用新冠病毒抗原自我檢測套組,78,2022/05/06 10:27:02,無
5931021167,禮隆藥局,新北市三重區自強路４段６４號,121.4901,25.07853,(02)29894735,羅氏家用新冠病毒抗原自我檢測套組,41,2022/05/06 10:27:02,快篩試劑早上九點開始發號碼牌，發完為止
5931021532,龍門藥局,新北市三重區龍門路１８９號,121.4996,25.07322,(02)29756141,羅氏家用新冠病毒抗原自我檢測套組,138,2022/05/06 10:27:02,實名制快篩販售時間~星期一至星期六下午3點
5931023447,安泰藥局,新北市三重區正義北路３００－３號２樓,121.4953,25.06978,(02)89815379,羅氏家用新冠病毒抗原自我檢測套組,78,2022/05/06 10:27:02,5／2只有早上8:30--12:00營業下午.及晚上休息
5931023527,德慈藥局,新北市三重區重新路３段１６號１樓,121.4951,25.06138,(02)29736693,羅氏家用新冠病毒抗原自我檢測套組,57,2022/05/06 10:27:02,快篩試劑販售時間自每日13:00開始
5931025781,芯慈藥局,新北市三重區永安北路２段１０５號１樓,121.4831,25.08392,(02)28570670,羅氏家用新冠病毒抗原自我檢測套組,5,2022/05/06 10:27:02,國定假日有提供藥劑服務
5931032811,華特健康藥局,新北市永和區永貞路３６２號１樓,121.5102,25.00667,(02)29264391,羅氏家用新冠病毒抗原自我檢測套組,16,2022/05/06 10:27:02,快篩販賣時間13:00-15:00
5931032955,博輝藥局,新北市永和區中興街６０號１樓,121.5171,25.01162,(02)89211766,羅氏家用新冠病毒抗原自我檢測套組,12,2022/05/06 10:27:02,星期日提供急診服務
5931033676,九州藥局,新北市永和區自由街５號１樓,121.515,25.00699,(02)29226879,羅氏家用新冠病毒抗原自我檢測套組,57,2022/05/06 10:27:02,實名制快篩5月6日到貨，現在開始發售
5931034093,順儷中正藥局,新北市永和區中正路１１號１樓,121.514,24.99578,(02)86685058,羅氏家用新冠病毒抗原自我檢測套組,78,2022/05/06 10:27:02,國定假日仍執行調劑業務
5931034146,亮點藥局,新北市永和區竹林路７１號１樓,121.5186,25.01355,(02)89253895,羅氏家用新冠病毒抗原自我檢測套組,92,2022/05/06 10:27:02,快篩發放時段 下午16:30-18:00
5931034208,正銨藥局,新北市永和區得和路２４７－１號（１樓）,121.5206,25.00009,(02)29288100,羅氏家用新冠病毒抗原自我檢測套組,59,2022/05/06 10:27:02,星期1~6下午1:45發號碼牌.星期日休息
5931040617,田邊藥局,新北市中和區泰和街４３號１樓,121.4991,24.99942,(02)22407725,羅氏家用新冠病毒抗原自我檢測套組,78,2022/05/06 10:27:02,W1~W6 下午1點發售快篩 （5／1 晚上7點開始發售快篩）
5931040680,博健藥局,新北市中和區忠孝街３７巷４號,121.5112,24.98368,(02)29402107,羅氏家用新冠病毒抗原自我檢測套組,6,2022/05/06 10:27:02,無
5931042326,璟福藥局,新北市中和區安平路７６號１樓,121.511,24.99652,(02)29408669,羅氏家用新冠病毒抗原自我檢測套組,1,2022/05/06 10:27:02,無
5931043421,錦和藥局,新北市中和區錦和路１６４號１樓,121.4898,24.99585,(02)82282296,羅氏家用新冠病毒抗原自我檢測套組,27,2022/05/06 10:27:02,週一~週六，早上10點開始發售快篩試劑，週日公休。
5931043798,永成藥局,新北市中和區景平路１５６號１樓,121.5176,24.99222,(02)29407619,羅氏家用新冠病毒抗原自我檢測套組,78,2022/05/06 10:27:02,實名制快篩，下午三點領取號碼並開始販售（每日78份）
5931043921,良安藥局,新北市中和區連城路４７７巷１號１樓,121.4833,24.99555,(02)22225798,羅氏家用新冠病毒抗原自我檢測套組,42,2022/05/06 10:27:02,週六日不開店，實名制快篩，晚上9:00開始販售
5931044044,宥元藥局,新北市中和區德光路６２號１樓,121.4696,25.00398,(02)89535473,羅氏家用新冠病毒抗原自我檢測套組,45,2022/05/06 10:27:02,週一至周六10:30-22:00發放口罩
5931045210,廣來藥師藥局,新北市中和區員山路３９３號１樓,121.4811,25.00293,(02)32340393,羅氏家用新冠病毒抗原自我檢測套組,78,2022/05/06 10:27:02,星期一到星期日，上午11點到中午12點為止。
5931045327,景新藥局,新北市中和區景新街４２９號１樓,121.513,24.98908,(02)86686091,羅氏家用新冠病毒抗原自我檢測套組,31,2022/05/06 10:27:02,無
5931045416,信毅藥局,新北市中和區捷運路５６號１樓,121.5081,24.99078,(02)29423663,羅氏家用新冠病毒抗原自我檢測套組,1,2022/05/06 10:27:02,無
5931045452,安華藥局,新北市中和區圓通路２９３之２號２樓,121.4949,24.99236,(02)22426010,羅氏家用新冠病毒抗原自我檢測套組,29,2022/05/06 10:27:02,無
5931050444,活元藥局,新北市新店區民族路４９號１樓,121.5403,24.97854,(02)29125526,羅氏家用新冠病毒抗原自我檢測套組,6,2022/05/06 10:27:02,快篩代售時間平日早上10:00開始   星期日休息
5931051852,康裕藥局,新北市新店區民權路８號,121.5426,24.98306,(02)29135479,羅氏家用新冠病毒抗原自我檢測套組,19,2022/05/06 10:27:02,無
5931052288,躍獅正新藥局,新北市新店區中正路５７之１號１樓,121.5443,24.96989,(02)89145930,羅氏家用新冠病毒抗原自我檢測套組,109,2022/05/06 10:27:02,星期一至六13:00-20:00為領取口罩時間，20:00後將不發放
5931052313,欣康藥局,新北市新店區中正路２９３號１樓,121.5372,24.97449,(02)89113189,羅氏家用新冠病毒抗原自我檢測套組,78,2022/05/06 10:27:02,快篩試劑，下午一點發號碼牌同步販售
5931052608,佑成藥局,新北市新店區民權路１０１號１樓,121.537,24.98281,(02)86673537,羅氏家用新冠病毒抗原自我檢測套組,78,2022/05/06 10:27:02,下午四點發快篩
5931053070,美康中正藥局,新北市新店區中正路２１５號１、２樓,121.5397,24.97284,(02)29112669,羅氏家用新冠病毒抗原自我檢測套組,78,2022/05/06 10:27:02,無號牌.自主排隊.自主管理.快篩 1430-2200 唷~
5931053169,貳品藥局,新北市新店區新和街７５號１樓,121.5205,24.98612,(02)89418890,羅氏家用新冠病毒抗原自我檢測套組,78,2022/05/06 10:27:02,實名制快篩下午一點半依排隊順序發售
5931053178,長照藥局,新北市新店區如意街１６號１樓,121.4944,24.94838,(02)22153325,羅氏家用新冠病毒抗原自我檢測套組,78,2022/05/06 10:27:02,請注意丫~5／6篩劑下午2:00開賣囉!以現場排隊為主（自備500）雙號一人一卡
5931053203,巧新藥局,新北市新店區北宜路１段８４號１樓,121.5386,24.9556,(02)29183565,羅氏家用新冠病毒抗原自我檢測套組,78,2022/05/06 10:27:02,15:00 依序領取快篩，不發號碼牌，勿打電話詢問
5931053383,大豐藥局,新北市新店區北新路３段５３號之１（１樓）,121.5417,24.9807,(02)89113196,羅氏家用新冠病毒抗原自我檢測套組,78,2022/05/06 10:27:02,每日下午2點發號碼牌同步販售實名制快篩試劑 請自備500元
5931060628,錄新藥局,新北市新莊區後港一路７６巷１０弄１號,121.427,25.02604,(02)22051849,羅氏家用新冠病毒抗原自我檢測套組,233,2022/05/06 10:27:02,無
5931060824,禮安藥師藥局,新北市新莊區自立街１０９號１樓,121.4555,25.0455,(02)29942891,羅氏家用新冠病毒抗原自我檢測套組,79,2022/05/06 10:27:02,無
5931067092,恩泰藥局,新北市新莊區民安西路２６５號－１,121.4262,25.01296,(02)22038680,羅氏家用新冠病毒抗原自我檢測套組,15,2022/05/06 10:27:02,無
5931067216,鍵豐藥局,新北市新莊區中和街１５８號１樓,121.4474,25.04878,(02)29917452,羅氏家用新冠病毒抗原自我檢測套組,78,2022/05/06 10:27:02,無
5931067403,建嘉藥局,新北市新莊區中誠街４２號１樓,121.4513,25.04812,(02)29925261,羅氏家用新冠病毒抗原自我檢測套組,78,2022/05/06 10:27:02,無
5931068302,宏發藥局,新北市新莊區民安西路２６３號１樓,121.4262,25.01307,(02)22048303,羅氏家用新冠病毒抗原自我檢測套組,1,2022/05/06 10:27:02,無
5931068464,健安藥局,新北市新莊區光和里民安西路２０９號１樓,121.4261,25.0147,(02)22043765,羅氏家用新冠病毒抗原自我檢測套組,78,2022/05/06 10:27:02,無
5931069603,中信藥師藥局,新北市新莊區中信街８０號１樓,121.448,25.05311,(02)29969811,羅氏家用新冠病毒抗原自我檢測套組,78,2022/05/06 10:27:02,AM 07:30 開始
5931069792,宏泰藥局,新北市新莊區自信街３７號１樓,121.4543,25.04863,(02)29964649,羅氏家用新冠病毒抗原自我檢測套組,79,2022/05/06 10:27:02,無
593106A039,大仁藥局,新北市新莊區公園一路３２號１樓,121.4435,25.03531,(02)22776023,羅氏家用新冠病毒抗原自我檢測套組,78,2022/05/06 10:27:02,快篩販售時間:週一至週五 （16：30-17：30）， 週六（20：30-21：30）、週日公休
593106A388,元大藥局,新北市新莊區富國路２０４號１、２樓,121.4249,25.02427,(02)22020082,羅氏家用新冠病毒抗原自我檢測套組,77,2022/05/06 10:27:02,無
593106A771,新佑康健保藥局,新北市新莊區中華路１段３５號１樓,121.4519,25.03765,(02)29947490,羅氏家用新冠病毒抗原自我檢測套組,64,2022/05/06 10:27:02,無
593106A897,陽光豐年藥局,新北市新莊區豐年街１４號１樓,121.4463,25.03287,(02)22060665,羅氏家用新冠病毒抗原自我檢測套組,87,2022/05/06 10:27:02,無
593106B152,福原藥局,新北市新莊區中原東路７０號（１樓）,121.4632,25.05461,(02)85216190,羅氏家用新冠病毒抗原自我檢測套組,79,2022/05/06 10:27:02,下午2點發放號碼牌
593106B223,吉田藥局,新北市新莊區西盛街３１３號１樓,121.4281,25.01516,(02)22065185,羅氏家用新冠病毒抗原自我檢測套組,69,2022/05/06 10:27:02,無
593106B287,盛弘藥局,新北市新莊區中平路２９５號１樓,121.4447,25.05099,(02)22763336,羅氏家用新冠病毒抗原自我檢測套組,78,2022/05/06 10:27:02,政府快篩於平日下午13:50發放號碼牌，下午14:00準時販售，假日視政府配量（販售時間相同）
5931070080,耀鴻藥局,新北市樹林區中山路３段７６號,121.3936,24.97239,(02)26808989,羅氏家用新冠病毒抗原自我檢測套組,78,2022/05/06 10:27:02,每天都有發放口罩
5931070213,明川藥師藥局,新北市樹林區三福街１號,121.4093,25.0169,(02)26894728,羅氏家用新冠病毒抗原自我檢測套組,78,2022/05/06 10:27:02,無
5931070366,聖和藥局,新北市樹林區太元街５０號,121.4183,24.97967,(02)86866609,羅氏家用新冠病毒抗原自我檢測套組,78,2022/05/06 10:27:02,中午12:30分開始發放快篩
5931071836,弘昌藥師藥局,新北市樹林區保安街１段６５號１樓,121.4232,24.99491,(02)26871276,羅氏家用新冠病毒抗原自我檢測套組,58,2022/05/06 10:27:02,執業時段請電洽藥局
5931071881,盛立藥局,新北市樹林區大雅路２８５號１樓,121.3795,24.94735,(02)35018218,羅氏家用新冠病毒抗原自我檢測套組,78,2022/05/06 10:27:02,政府快篩平日下午1:50發號碼牌，下午2:00準時販售，假日視政府配量（販售時間相同）
5931071934,樹新藥局,新北市樹林區樹新路３０－３號１樓,121.4272,24.99462,(02)26821080,羅氏家用新冠病毒抗原自我檢測套組,78,2022/05/06 10:27:02,無
5931071970,保康藥局,新北市樹林區保安街１段３６４號,121.4176,24.99856,(02)86875503,羅氏家用新冠病毒抗原自我檢測套組,78,2022/05/06 10:27:02,無
5931072468,樹林丁丁藥局,新北市樹林區中華路１７４號１樓,121.4208,24.9819,(02)86851518,羅氏家用新冠病毒抗原自我檢測套組,19,2022/05/06 10:27:02,無
5931072520,世淇健保藥局,新北市樹林區復興路５０號１樓,121.4221,24.99391,(02)26842255,羅氏家用新冠病毒抗原自我檢測套組,29,2022/05/06 10:27:02,無
5931072584,佳園藥局,新北市樹林區佳園路一段４１巷２０號１樓,121.3941,24.97095,(02)26685056,羅氏家用新冠病毒抗原自我檢測套組,46,2022/05/06 10:27:02,快篩實名制早上9點10分販售，發號碼牌，帶500元／健保卡
5931081234,文瑞藥局,新北市鶯歌區尖山路２９６號,121.3406,24.94437,(02)26780589,羅氏家用新冠病毒抗原自我檢測套組,78,2022/05/06 10:27:02,快篩下午14:00開始販售  假日販售時間前一天公告
5931081412,小樹藥師藥局,新北市鶯歌區光明街１２６號１樓,121.3455,24.95592,(02)26785107,羅氏家用新冠病毒抗原自我檢測套組,7,2022/05/06 10:27:02,快篩販賣時間: 早上10:00~11:00開始販售
5931081494,康群藥局,新北市鶯歌區建國路２０２號１樓,121.3494,24.95357,(02)26796690,羅氏家用新冠病毒抗原自我檢測套組,2,2022/05/06 10:27:02,*星期五休診不發放口罩，其餘上班日上午九點開始發放*現場排隊
5931081510,鶯歌藥局,新北市鶯歌區鶯桃路２段１１號１樓,121.3258,24.97205,(02)86778778,羅氏家用新冠病毒抗原自我檢測套組,78,2022/05/06 10:27:02,口罩販售時間：14:00 - 16:00
5931081547,信義健保藥局,新北市鶯歌區信義街６３號１樓,121.3534,24.95571,(02)86775563,羅氏家用新冠病毒抗原自我檢測套組,38,2022/05/06 10:27:02,無
5931091865,大新藥局,新北市三峽區大義路２５９號１樓,121.3774,24.94638,(02)86713204,羅氏家用新冠病毒抗原自我檢測套組,1,2022/05/06 10:27:02,實名制快篩下午2:50開始發號碼牌 3:00販售
5931100092,上全藥局,新北市淡水區民族路３６號,121.4614,25.13622,(02)28098022,羅氏家用新冠病毒抗原自我檢測套組,6,2022/05/06 10:27:02,實名制快篩若有到貨，早上十點現場販售，售完為止。星期天若無庫存則不販售。
5931100154,尚運藥局,新北市淡水區學府路５１巷１弄２０號,121.4473,25.16892,(02)26225149,羅氏家用新冠病毒抗原自我檢測套組,183,2022/05/06 10:27:02,無
5931102176,淡水健康人生藥局,新北市淡水區清水街９－２號１樓,121.4447,25.17037,(02)26269679,羅氏家用新冠病毒抗原自我檢測套組,103,2022/05/06 10:27:02,快篩代售時間:週一至週日09:30，現場排隊購買，售完為止。（物流配送不及則例外，以門市公告為主）
5931102265,佳藥長照藥局,新北市淡水區學府路７５號１樓,121.4484,25.16998,(02)26211321,羅氏家用新冠病毒抗原自我檢測套組,73,2022/05/06 10:27:02,有營業的時間，上午九點發放號碼牌，三點開始領口罩。
5931102336,淡大郭藥局,新北市淡水區英專路３２號１樓,121.4456,25.17008,(02)26229966,羅氏家用新冠病毒抗原自我檢測套組,35,2022/05/06 10:27:02,如前日有收到快篩，隔日販售時間為上午10點。（以現場公告為主）
5931102372,日揚藥局,新北市淡水區民族路３０巷５號,121.4612,25.13623,(02)26242059,羅氏家用新冠病毒抗原自我檢測套組,69,2022/05/06 10:27:02,若有收到快篩實名制，則13:00開始販售，售完為止。
5931102434,西雅圖聯合藥局,新北市淡水區新市一路３段１０１巷１６弄２０號１樓,121.4471,25.18403,(02)26200910,羅氏家用新冠病毒抗原自我檢測套組,78,2022/05/06 10:27:02,無
5931102461,淡水藥局,新北市淡水區中山路１２７號（１、２樓）,121.4414,25.17107,(02)86313663,羅氏家用新冠病毒抗原自我檢測套組,78,2022/05/06 10:27:02,快篩實名制，每天16:00開始販售，售完為止。
5931110034,麒豐藥局,新北市汐止區樟樹一路１３５巷２號,121.6421,25.0656,(02)26434737,羅氏家用新冠病毒抗原自我檢測套組,78,2022/05/06 10:27:02,實名制口罩銷售時間9:30~21:00
5931111988,滿益藥局,新北市汐止區仁愛路１３０號,121.6632,25.06397,(02)86421562,羅氏家用新冠病毒抗原自我檢測套組,68,2022/05/06 10:27:02,口罩代售時間自13:30 ， 現場排隊
5931112083,裕和藥局,新北市汐止區宜興街４號１樓,121.6211,25.04126,(02)26609119,羅氏家用新冠病毒抗原自我檢測套組,150,2022/05/06 10:27:02,晚上9.00領實名制快篩時間
5931112314,杏光藥局,新北市汐止區建成路５９巷１９號１樓,121.6617,25.07287,(02)26411340,羅氏家用新冠病毒抗原自我檢測套組,93,2022/05/06 10:27:02,快篩每日早上十點販售  不發號碼牌
5931112645,健成藥局,新北市汐止區新興路２０號１樓,121.6564,25.06456,(02)26428989,羅氏家用新冠病毒抗原自我檢測套組,4,2022/05/06 10:27:02,無
5931112789,富康東科藥局,新北市汐止區新台五路１段９６號Ｃ棟１樓Ｃ１５號,121.6483,25.06047,(02)26969222,羅氏家用新冠病毒抗原自我檢測套組,25,2022/05/06 10:27:02,每日九點至下午六點開放購買口罩，周六周日公休
5931113142,林美藥局,新北市汐止區康寧街４６５號１樓,121.6318,25.06839,(02)26935696,羅氏家用新冠病毒抗原自我檢測套組,41,2022/05/06 10:27:02,每日14:00販售實名制快篩，現場排隊 。禮拜天公休（5／5當日配額已售罄，庫存問題修正中）
5931113197,博昱忠孝藥局,新北市汐止區忠孝東路２７８號（１樓）,121.6637,25.06809,(02)86423838,羅氏家用新冠病毒抗原自我檢測套組,146,2022/05/06 10:27:02,下午兩點開始賣快篩
5931120049,本平藥局,新北市瑞芳區瑞芳街４５號,121.8076,25.10913,(02)24972167,羅氏家用新冠病毒抗原自我檢測套組,33,2022/05/06 10:27:02,無
5931121297,瑞芳東亞大藥局,新北市瑞芳區中正路８４號,121.8055,25.10773,(02)24960179,羅氏家用新冠病毒抗原自我檢測套組,1,2022/05/06 10:27:02,快篩試劑下午1點開始
5931131579,祥安大藥局,新北市土城區立德路４２－１號,121.4636,24.98727,(02)22629707,羅氏家用新冠病毒抗原自我檢測套組,156,2022/05/06 10:27:02,無
5931131864,學府實和藥局,新北市土城區學府路１段１２１號,121.4553,24.98727,(02)22612111,羅氏家用新冠病毒抗原自我檢測套組,82,2022/05/06 10:27:02,無
5931132263,立新藥局,新北市土城區光明街５號１樓,121.4421,24.97475,(02)82626111,羅氏家用新冠病毒抗原自我檢測套組,78,2022/05/06 10:27:02,快篩試劑下午3點開始銷售
5931132343,誠安藥局,新北市土城區中央路４段３６號１樓,121.4207,24.96088,(02)22677737,羅氏家用新冠病毒抗原自我檢測套組,156,2022/05/06 10:27:02,快篩代售時段：平日晚上8點，售完為止
5931132807,健業藥局,新北市土城區中央路２段２２３－１０號,121.4407,24.97312,(02)22704798,羅氏家用新冠病毒抗原自我檢測套組,78,2022/05/06 10:27:02,無
5931132950,美康藥妝藥局,新北市土城區延吉街２５４號１樓,121.4664,24.98465,(02)22616868,羅氏家用新冠病毒抗原自我檢測套組,78,2022/05/06 10:27:02,無
5931133108,三豐藥局,新北市土城區永豐路１３５巷８號,121.4672,24.98333,(02)22733766,羅氏家用新冠病毒抗原自我檢測套組,3,2022/05/06 10:27:02,無
5931133331,城安大藥局,新北市土城區金城路３段４０號,121.4656,24.98639,(02)22646561,羅氏家用新冠病毒抗原自我檢測套組,6,2022/05/06 10:27:02,快篩代售時間晚上8:30
5931133500,菩提藥局,新北市土城區延和路１１４號１樓,121.4673,24.98988,(02)22624866,羅氏家用新冠病毒抗原自我檢測套組,78,2022/05/06 10:27:02,無
5931133519,埔銓藥局,新北市土城區裕民路１６４號１、２樓,121.4522,24.98569,(02)22630230,羅氏家用新冠病毒抗原自我檢測套組,1,2022/05/06 10:27:02,營業時間9:00-21:00
5931133617,芮櫟頂埔大藥局,新北市土城區中央路４段３０號１樓,121.4208,24.96094,(02)22677888,羅氏家用新冠病毒抗原自我檢測套組,11,2022/05/06 10:27:02,無
5931141637,華興藥師藥局,新北市蘆洲區中山一路１８４號１樓,121.4739,25.08104,(02)22893899,羅氏家用新冠病毒抗原自我檢測套組,42,2022/05/06 10:27:02,防疫口罩：早上10點直接販售
5931141726,松展多利日式連鎖藥粧藥局,新北市蘆洲區民族路１６１號,121.4793,25.08817,(02)22882586,羅氏家用新冠病毒抗原自我檢測套組,22,2022/05/06 10:27:02,防疫物資每日下午02:00開始販售
5931151302,宏安藥局,新北市五股區成泰路２段１３６號,121.4382,25.08369,(02)22915932,羅氏家用新冠病毒抗原自我檢測套組,78,2022/05/06 10:27:02,口罩販售時間:每日08:15~23:00售完為止 星期日如果前一日還有庫存，當日照常販售
5931151437,虹元藥局,新北市五股區自強路５６號,121.4331,25.07364,(02)22925067,羅氏家用新冠病毒抗原自我檢測套組,6,2022/05/06 10:27:02,無
5931151482,源昇藥局,新北市五股區五股里成泰路２段６１號２樓,121.4379,25.0836,(02)82952027,羅氏家用新冠病毒抗原自我檢測套組,1,2022/05/06 10:27:02,無
5931151660,祐康藥師藥局,新北市五股區五福路３６號１樓,121.4339,25.08922,(02)82921335,羅氏家用新冠病毒抗原自我檢測套組,1,2022/05/06 10:27:02,口罩代售時間:一至六早上8:30開始販售， 星期日早上9:00
5931171582,綠園藥局,新北市林口區仁愛路２段１０５號１樓,121.3843,25.07507,(02)86012258,羅氏家用新冠病毒抗原自我檢測套組,6,2022/05/06 10:27:02,上午8:30-12:00、下午2:30-18:00、晚上18:00-21:30
5931171680,一家好藥局,新北市林口區中山路５００號,121.3794,25.08303,(02)26028270,羅氏家用新冠病毒抗原自我檢測套組,70,2022/05/06 10:27:02,無
5931171724,林康藥局,新北市林口區文化二路１段２２２號１樓,121.3695,25.07226,(02)26088869,羅氏家用新冠病毒抗原自我檢測套組,78,2022/05/06 10:27:02,快篩於下午2點販售，周日公休
5931171742,唯恩藥局,新北市林口區麗園一街９巷１號１樓之２,121.3768,25.07139,(02)26005805,羅氏家用新冠病毒抗原自我檢測套組,78,2022/05/06 10:27:02,快篩發放固定13點，領取號碼牌
5931171813,力行藥局,新北市林口區文化３路１段４２３、４２５號１、２樓,121.3653,25.07438,(02)26080711,羅氏家用新冠病毒抗原自我檢測套組,2,2022/05/06 10:27:02,快篩實名制，每天16:00開始販售，售完為止。
5931171831,沐霖藥局,新北市林口區文化三路２段２８６號１樓,121.3775,25.08304,(02)26032086,羅氏家用新冠病毒抗原自我檢測套組,78,2022/05/06 10:27:02,無
5931171895,奇異果三井藥局,新北市林口區文化三路１段２４１號１樓,121.3632,25.07147,(02)26068650,羅氏家用新冠病毒抗原自我檢測套組,84,2022/05/06 10:27:02,實名制快篩每日13:00開賣喔
5931181104,介新大藥局,新北市深坑區文化街９４號,121.6172,25.002,(02)26648149,羅氏家用新冠病毒抗原自我檢測套組,1,2022/05/06 10:27:02,執業時段請電洽藥局
5932011870,永祥大藥局,桃園市桃園區永安路５２８號,121.2986,25.00181,(03)3337161,羅氏家用新冠病毒抗原自我檢測套組,5,2022/05/06 10:27:02,口罩販賣時段：週一至週六早上9點
5932013123,桃康藥局,桃園市桃園區桃鶯路２０３號,121.3184,24.98495,(03)3641815,羅氏家用新冠病毒抗原自我檢測套組,10,2022/05/06 10:27:02,實名制快篩：早上10點發號碼牌，每日78份
5932013392,桃園中正藥局,桃園市桃園區中正路３７３號,121.3079,24.99955,(03)3381600,羅氏家用新冠病毒抗原自我檢測套組,13,2022/05/06 10:27:02,快篩實名制，每天16:00開始販售，售完為止。
5932013687,桃園春日藥局,桃園市桃園區春日路８７８號,121.3096,25.01561,(03)3580101,羅氏家用新冠病毒抗原自我檢測套組,1,2022/05/06 10:27:02,快篩實名制，每天16:00開始販售，售完為止。
5932014102,小飛象藥局,桃園市桃園區慈文路１９２號,121.3041,25.00907,(03)3552771,羅氏家用新冠病毒抗原自我檢測套組,78,2022/05/06 10:27:02,5／6 [21:30] 開賣78份，別再問了。不發放號碼牌，請自行計算人數。即日起本所有調劑確診者之視訊處方，請自保。
5932014111,鴻發藥師藥局,桃園市桃園區大有路５４３號,121.3171,25.0149,(03)3582468,羅氏家用新冠病毒抗原自我檢測套組,78,2022/05/06 10:27:02,實聯快篩:早上09:30發放號碼牌，限當日下午2~4點憑牌購買，逾時不候請見諒
5932014184,浤安藥局,桃園市桃園區慈德街１號１樓,121.3019,25.00685,(03)3577665,羅氏家用新冠病毒抗原自我檢測套組,78,2022/05/06 10:27:02,14:00開始發放實名制快篩
5932014273,藝文藥局,桃園市桃園區大興西路１段１６５號,121.3049,25.01414,(03)3261789,羅氏家用新冠病毒抗原自我檢測套組,78,2022/05/06 10:27:02,快篩實名制，每天16:00開始販售，售完為止。
5932014317,躍獅省桃藥局,桃園市桃園區龍壽街２４號,121.2697,24.97836,(03)3791488,羅氏家用新冠病毒抗原自我檢測套組,45,2022/05/06 10:27:02,週1-7實名制快篩10:00開賣，5／6開始每日10點販售，沒發號碼牌
5932014344,豐藝藥局,桃園市桃園區泰昌三街２３號１樓,121.2943,24.98954,(03)2200977,羅氏家用新冠病毒抗原自我檢測套組,78,2022/05/06 10:27:02,實名制快篩下午3點販售，依序排隊購買，售完為止。
5932014424,桃園中山藥局,桃園市桃園區中山路７０７號,121.2914,24.99079,(03)2207168,羅氏家用新冠病毒抗原自我檢測套組,78,2022/05/06 10:27:02,快篩實名制，每天16:00開始販售，售完為止。
5932014442,新光藥局,桃園市桃園區大有路１７２號,121.3209,25.00752,(03)3310133,羅氏家用新冠病毒抗原自我檢測套組,59,2022/05/06 10:27:02,營業時間:週一至週五10:00-22:00；快篩下午2:00開始，賣完為止，不發號碼牌
5932014488,琦舜藥師藥局,桃園市桃園區文中三路６３號,121.2885,24.99724,(03)3695001,羅氏家用新冠病毒抗原自我檢測套組,78,2022/05/06 10:27:02,營業時間: 9:00-21:30　　　　　　　　快篩販售時間於到貨後公布於FB【琦舜藥師藥局-桃園中路】粉絲專頁
5932017096,榮生藥師藥局,桃園市桃園區民生路２７５號一樓,121.3118,24.99697,(03)3396120,羅氏家用新冠病毒抗原自我檢測套組,14,2022/05/06 10:27:02,快篩販賣時段：星期一到星期六上午10:00-12:00 依配送時間滾動調整
5932017112,全安藥師藥局,桃園市桃園區寶慶路４２９號,121.29,25.01915,(03)3023107,羅氏家用新冠病毒抗原自我檢測套組,1,2022/05/06 10:27:02,快篩實名制0900起販售~售完
5932018593,品一藥局,桃園市桃園區建新街７６號,121.3118,24.98261,(03)3638510,羅氏家用新冠病毒抗原自我檢測套組,26,2022/05/06 10:27:02,快篩販賣時間：週一至週五早上9：30；週六下午1：00（星期天休息），會發號碼牌（今天已發完）
5932019929,元氣藥局,桃園市桃園區民光東路一Ｏ九號,121.3183,25.0079,(03)3332201,羅氏家用新冠病毒抗原自我檢測套組,78,2022/05/06 10:27:02,現場排隊喔!，快篩試劑銷售時間:星期一三四六15:30，星期二五19:00，星期日無，12:00~15:00；18:00~18:30為休息時間
593201A506,永忻藥局,桃園市桃園區大興路一九三號一樓,121.312,25.01564,(03)3585569,羅氏家用新冠病毒抗原自我檢測套組,17,2022/05/06 10:27:02,口罩販賣時段：週一~週六 15:00~1700
5932021401,懷仁藥師健保藥局,桃園市中壢區中北路９３號１樓,121.238,24.95653,(03)4378466,羅氏家用新冠病毒抗原自我檢測套組,12,2022/05/06 10:27:02,實名制快篩販賣時間早上10:00開始，星期日沒有賣
5932021670,日光健康藥局,桃園市中壢區華祥一街２號１樓,121.2606,24.94827,(03)4383559,羅氏家用新冠病毒抗原自我檢測套組,78,2022/05/06 10:27:02,快篩販賣時段：星期一~星期六下午13:30開始，售完為止
5932021812,慧中健保藥局,桃園市中壢區成章二街１４１號１樓,121.2568,24.98025,(03)4556129,羅氏家用新冠病毒抗原自我檢測套組,1,2022/05/06 10:27:02,每日4:30開始領號碼牌販售快篩試劑
5932022159,躍獅新明藥局,桃園市中壢區新明路６６號１樓,121.215,24.95868,(03)2813361,羅氏家用新冠病毒抗原自我檢測套組,137,2022/05/06 10:27:02,快篩販賣時段：14:00~售完為止，現場排隊 ， 星期天沒有販售快篩
5932022980,美佑康活力藥局,桃園市中壢區五福里中正路６２７號,121.2108,24.95947,(03)2810018,羅氏家用新冠病毒抗原自我檢測套組,78,2022/05/06 10:27:02,快篩販賣時段：周一到周日每天14:00
5932023647,樂謙藥師藥局,桃園市中壢區龍東路１３４號,121.2522,24.92929,(03)4662775,羅氏家用新冠病毒抗原自我檢測套組,71,2022/05/06 10:27:02,實名快篩每日下午2點、晚上6點 各發39份
5932023807,東興藥局,桃園市中壢區中北路２段３９號,121.224,24.95033,(03)4282611,羅氏家用新冠病毒抗原自我檢測套組,78,2022/05/06 10:27:02,快篩實名制，每天16:00開始販售，售完為止。
5932023914,內壢忠孝藥局,桃園市中壢區忠孝路３６號,121.2566,24.97338,(03)4636641,羅氏家用新冠病毒抗原自我檢測套組,78,2022/05/06 10:27:02,快篩實名制，每天16:00開始販售，售完為止。
5932023987,薰衣草藥局,桃園市中壢區新生路３３５號１樓,121.2231,24.96495,(03)4253330,羅氏家用新冠病毒抗原自我檢測套組,1,2022/05/06 10:27:02,本週六日無販售快篩，下週一販售時間以粉絲團公告為準
5932024297,新資生弘揚大藥局,桃園市中壢區弘揚路６４號１樓,121.2411,24.95337,(03)3606180,羅氏家用新冠病毒抗原自我檢測套組,78,2022/05/06 10:27:02,無
5932024304,鈞康藥局,桃園市中壢區興仁路２段９１號１樓,121.263,24.96665,(03)2850505,羅氏家用新冠病毒抗原自我檢測套組,71,2022/05/06 10:27:02,營業時間：上午11點-售完。星期六日不販售
5932025007,劉藥局,桃園市中壢區中平路１６９號,121.222,24.95587,(03)4223338,羅氏家用新冠病毒抗原自我檢測套組,60,2022/05/06 10:27:02,因每日快篩配貨時間不定，收到立即開賣。可加入藥局Line獲取資訊，敬請見諒!
5932029676,中日大藥局,桃園市中壢區中北路二段７８號,121.225,24.95063,(03)4285068,羅氏家用新冠病毒抗原自我檢測套組,78,2022/05/06 10:27:02,快篩11點前到貨，11點開始販售；11點後到貨，到貨開始販售
593202A360,福德藥局,桃園市中壢區福德路３０號,121.2589,24.97388,(03)4511208,羅氏家用新冠病毒抗原自我檢測套組,23,2022/05/06 10:27:02,口罩販賣時段：8:00~
593202A833,君安藥局,桃園市中壢區中北路二段３９０號,121.2318,24.95388,(03)4685484,羅氏家用新冠病毒抗原自我檢測套組,70,2022/05/06 10:27:02,快篩試劑販售時間，週一至週五晚上7點，週六週日早上9點，每日提供78份，前15分鐘至30分鐘發號碼牌，視現場狀況而定
593202A931,佳佑藥局,桃園市中壢區環中東路二四一號,121.2573,24.96345,(03)4356190,羅氏家用新冠病毒抗原自我檢測套組,13,2022/05/06 10:27:02,口罩販賣時段：09:00以後發號碼牌，售完為止
5932030080,吉壽藥局,桃園市大溪區員林路三段４２號,121.2648,24.88175,(03)3802049,羅氏家用新冠病毒抗原自我檢測套組,78,2022/05/06 10:27:02,快篩試劑販賣時段：星期一~五晚上7:00起及星期六、日上午8:30起。由於近日進貨庫存異常，另78份為隔日販售！請諒解。
5932031756,明仁藥局,桃園市大溪區介壽路８１號１樓,121.2949,24.92218,(03)3804832,羅氏家用新冠病毒抗原自我檢測套組,4,2022/05/06 10:27:02,0800-11000
5932031890,福生藥局,桃園市大溪區民權東路１０３號１樓,121.2919,24.88209,(03)3873533,羅氏家用新冠病毒抗原自我檢測套組,79,2022/05/06 10:27:02,早上八點開始發放快篩試劑
5932031907,福澤大溪藥局,桃園市大溪區復興路１０５號１樓,121.2911,24.87917,(03)3884886,羅氏家用新冠病毒抗原自我檢測套組,39,2022/05/06 10:27:02,家用快篩販賣時段15:30至售完為止
5932042320,家康藥師藥局,桃園市楊梅區文化街二三二之一號,121.1851,24.91622,(03)4810893,羅氏家用新冠病毒抗原自我檢測套組,77,2022/05/06 10:27:02,快篩販售時間：12:00-13:00
5932043130,宜康美藥局,桃園市楊梅區環東路４５２號,121.1571,24.91005,(03)4883805,羅氏家用新冠病毒抗原自我檢測套組,58,2022/05/06 10:27:02,快篩販賣時段：早上09:30~10:30（20份）下午15:30~16:30（38份）晚上19:30~20:30（20份）
5932043309,資生楊梅大藥局,桃園市楊梅區楊新路１００號,121.1449,24.91341,(03)2889590,羅氏家用新冠病毒抗原自我檢測套組,63,2022/05/06 10:27:02,每日快篩代售時間14:00-21:00
5932043336,楊梅藥局,桃園市楊梅區大成路１４８、１５０號,121.1458,24.91148,(03)4880776,羅氏家用新冠病毒抗原自我檢測套組,78,2022/05/06 10:27:02,快篩實名制，每天16:00開始販售，售完為止。
5932050215,九德藥局,桃園市蘆竹區中山路６９號,121.3003,25.05242,(03)3116868,羅氏家用新冠病毒抗原自我檢測套組,72,2022/05/06 10:27:02,口罩販賣時段：中午12點
5932051472,康而美聖安藥師藥局,桃園市蘆竹區南山路一段二之一號,121.2916,25.04879,(03)3228753,羅氏家用新冠病毒抗原自我檢測套組,4,2022/05/06 10:27:02,暫停止販售
5932052068,誼康藥局,桃園市蘆竹區奉化路一二六號,121.2885,25.03943,(03)3129045,羅氏家用新冠病毒抗原自我檢測套組,101,2022/05/06 10:27:02,每日實名制快篩販售時間早上九點半開始
5932052755,大葉藥局,桃園市蘆竹區中山路１３２號１樓,121.2978,25.05699,(03)3125347,羅氏家用新冠病毒抗原自我檢測套組,78,2022/05/06 10:27:02,口罩販賣時段：以現場公告為主
5932052808,柏霖藥局,桃園市蘆竹區中正路３５９號２樓,121.291,25.04902,(03)2120284,羅氏家用新冠病毒抗原自我檢測套組,36,2022/05/06 10:27:02,快篩試劑販賣時間:18:00開始.售完為止
5932052835,悅兒藥局,桃園市蘆竹區忠孝西路１８６號,121.2892,25.04011,(03)3126967,羅氏家用新冠病毒抗原自我檢測套組,78,2022/05/06 10:27:02,快篩販賣時段：週一到週日 14:30 開賣
5932052951,永青健康人生藥局,桃園市蘆竹區奉化路１４２號１樓,121.289,25.03917,(03)3528361,羅氏家用新冠病毒抗原自我檢測套組,78,2022/05/06 10:27:02,實名制快篩每日兩點開賣，人潮眾多額滿會提早開始
5932052979,南崁藥局,桃園市蘆竹區中正路２５１、２５３、２５５號,121.2921,25.04695,(03)3522022,羅氏家用新冠病毒抗原自我檢測套組,157,2022/05/06 10:27:02,快篩實名制，每天16:00開始販售，售完為止。
5932062519,青埔辰安藥局,桃園市大園區致遠一路１號１樓,121.2111,25.00479,(03)2873274,羅氏家用新冠病毒抗原自我檢測套組,78,2022/05/06 10:27:02,無
5932076791,誠安生活藥局,桃園市龜山區文化七路７９之２號,121.3635,25.05166,(03)3271997,羅氏家用新冠病毒抗原自我檢測套組,180,2022/05/06 10:27:02,實名制快篩試劑每日下午三點啟售。5／1周日不販售
5932076862,和信藥局,桃園市龜山區南祥路５８號１樓,121.2979,25.04629,(03)2124028,羅氏家用新冠病毒抗原自我檢測套組,57,2022/05/06 10:27:02,快篩販賣時段：每日中午12點，5／5（四）停售一日
5932077056,桃園龜山藥局,桃園市龜山區萬壽路二段８９６號,121.3394,24.99586,(03)3203312,羅氏家用新冠病毒抗原自我檢測套組,78,2022/05/06 10:27:02,快篩實名制，每天16:00開始販售，售完為止。
5932077118,文青藥局,桃園市龜山區文青路２０２號,121.3878,25.04034,(03)3270581,羅氏家用新冠病毒抗原自我檢測套組,8,2022/05/06 10:27:02,快篩販賣時段：上午10點到12點。（星期一下午2點開始），快篩無每日配送
5932077163,新資生龜山大藥局,桃園市龜山區大同里自強東路１號,121.3414,24.99401,(03)3290429,羅氏家用新冠病毒抗原自我檢測套組,78,2022/05/06 10:27:02,快篩試劑11:00開始 不發號碼牌
5932077270,明昌藥局,桃園市龜山區中興里萬壽路二段１１９１－６號,121.3318,24.99291,(03)3501205,羅氏家用新冠病毒抗原自我檢測套組,7,2022/05/06 10:27:02,無
5932077369,安博氏藥師藥局,桃園市龜山區文青路１８５號１樓,121.3877,25.04079,(03)3283185,羅氏家用新冠病毒抗原自我檢測套組,78,2022/05/06 10:27:02,快篩販售時間11:00（星期日沒有販售） （營業時間 上午11點~晚上10點）
5932077510,左外野藥局,桃園市龜山區文光街６號１樓,121.3802,25.05471,(03)3271503,羅氏家用新冠病毒抗原自我檢測套組,54,2022/05/06 10:27:02,5月6日（週五）10:00-12:00加班販售快篩  *不發號碼牌 請直接排隊購買
5932077574,樂樂聯合藥局,桃園市龜山區萬壽路１段１０９號１、２樓,121.4091,25.01886,(02)82000560,羅氏家用新冠病毒抗原自我檢測套組,29,2022/05/06 10:27:02,實名制快篩於每日9點開始發放號碼牌，發完為止。 中午12點至14點半為藥局休息時間
5932077627,文興藥局,桃園市龜山區復興一路１０２號１、２、３樓,121.368,25.0592,(03)3285330,羅氏家用新冠病毒抗原自我檢測套組,78,2022/05/06 10:27:02,快篩實名制，每天16:00開始販售，售完為止。
5932083545,興豐藥局,桃園市八德區介壽路二段一一七五號,121.2975,24.93165,(03)3654229,羅氏家用新冠病毒抗原自我檢測套組,78,2022/05/06 10:27:02,無
5932083670,保健藥局,桃園市八德區介壽路一段８３３號２樓,121.3,24.96168,(03)3669486,羅氏家用新冠病毒抗原自我檢測套組,234,2022/05/06 10:27:02,無
5932083974,晨鴻藥師藥局,桃園市八德區桃鶯路７號１樓,121.3265,24.97179,(03)3764299,羅氏家用新冠病毒抗原自我檢測套組,102,2022/05/06 10:27:02,快篩為早上8:30跟晚上6:00領取號碼牌，因有送貨時間及短少的因素，所以快篩地圖數量參考就好，請勿再打電話詢問 謝謝
5932084248,佑兒康藥局,桃園市八德區永豐路５７０號,121.2718,24.97541,(03)3709680,羅氏家用新冠病毒抗原自我檢測套組,1,2022/05/06 10:27:02,快篩販售時間:  每週一.二.四.五.六 下午2:30 開始 ； 每週三.日 晚上8:50開始
5932084613,健民大藥局,桃園市八德區介壽路２段２８２號,121.2978,24.95003,(03)3666639,羅氏家用新冠病毒抗原自我檢測套組,1,2022/05/06 10:27:02,營業時間:9:00-22:00
5932084695,康馥藥局,桃園市八德區金和路５３號１樓,121.2971,24.95494,(03)3749620,羅氏家用新冠病毒抗原自我檢測套組,156,2022/05/06 10:27:02,口罩販賣時段：15:00 ， 週日14:30開始營業；星期六公休。
5932084793,美康健保藥局,桃園市八德區桃鶯路９１號１、２樓,121.328,24.97036,(03)3613624,羅氏家用新冠病毒抗原自我檢測套組,78,2022/05/06 10:27:02,無
5932084855,中山啄木鳥藥局,桃園市八德區中山路２１１號、２１３號、２１５號、２１７號１樓,121.2849,24.92539,(03)3656375,羅氏家用新冠病毒抗原自我檢測套組,78,2022/05/06 10:27:02,無
5932099383,龍星藥局,桃園市龍潭區中正路二八四號二樓,121.2175,24.86201,(03)4707390,羅氏家用新冠病毒抗原自我檢測套組,78,2022/05/06 10:27:02,無
5932099856,佳欣社區藥局,桃園市龍潭區中正路２６２號１樓,121.2173,24.86254,(03)4808717,羅氏家用新冠病毒抗原自我檢測套組,44,2022/05/06 10:27:02,無
5932099892,百年聯和藥局,桃園市龍潭區中豐路３００號,121.2119,24.87808,(03)4895268,羅氏家用新冠病毒抗原自我檢測套組,78,2022/05/06 10:27:02,快篩實名制：週一至週五14:30準時販售，週六週日12:30準時販售
5932099927,大心聯合藥局,桃園市龍潭區中興路３９０號,121.2313,24.87337,(03)4897998,羅氏家用新冠病毒抗原自我檢測套組,78,2022/05/06 10:27:02,快篩實名制：週一至週日下午15:30開始販售
5932099963,龍潭北龍藥局,桃園市龍潭區北龍路２７５號,121.2174,24.8681,(03)4893123,羅氏家用新冠病毒抗原自我檢測套組,78,2022/05/06 10:27:02,快篩實名制，每天16:00開始販售，售完為止。
5932100185,德聯藥師藥局,桃園市平鎮區龍南路３１號,121.2452,24.92473,(03)4603613,羅氏家用新冠病毒抗原自我檢測套組,78,2022/05/06 10:27:02,無
5932100210,福澤中豐藥局,桃園市平鎮區中豐路３４５號,121.2116,24.91034,(03)4283805,羅氏家用新冠病毒抗原自我檢測套組,2,2022/05/06 10:27:02,家用快篩販賣時段15:30至售完為止
5932100354,世新藥局,桃園市平鎮區廣泰路７５之２號,121.2052,24.94629,(03)4941234,羅氏家用新冠病毒抗原自我檢測套組,40,2022/05/06 10:27:02,實名制快篩13:30販售
5932100809,福澤民族藥局,桃園市平鎮區民族路二段１３９號１樓,121.2048,24.95706,(03)4014747,羅氏家用新冠病毒抗原自我檢測套組,78,2022/05/06 10:27:02,家用快篩販賣時段15:30至售完為止
5932100925,譽達藥局,桃園市平鎮區育達路２４０號１樓,121.2072,24.95155,(03)4922990,羅氏家用新冠病毒抗原自我檢測套組,77,2022/05/06 10:27:02,快篩星期一到五下午三點開始，現場領取，口罩地圖不準，以現場門口公告為主
5932101155,杏一平鎮環南藥局,桃園市平鎮區環南路２號,121.2067,24.95694,(03)4951758,羅氏家用新冠病毒抗原自我檢測套組,74,2022/05/06 10:27:02,快篩販售時間為週一到週五11:00，10:55發號碼牌
5932101191,譽達文化藥局,桃園市平鎮區文化街８巷２號１樓,121.2027,24.95667,(03)4919660,羅氏家用新冠病毒抗原自我檢測套組,39,2022/05/06 10:27:02,星期一至星期六.早上10點發放（無預先發放號碼牌）-現場排隊購買.需自備零錢不找零
5932101226,平鎮中豐藥局,桃園市平鎮區中豐路山頂段１６４號,121.2109,24.90035,(03)4690939,羅氏家用新冠病毒抗原自我檢測套組,78,2022/05/06 10:27:02,快篩實名制，每天16:00開始販售，售完為止。
5932108430,建德藥局,桃園市平鎮區北勢里金陵路１０３號,121.2229,24.94747,(03)4686662,羅氏家用新冠病毒抗原自我檢測套組,1,2022/05/06 10:27:02,國定假日皆休診.口罩販售時段:上午9:30起至售完為止
593210A238,美樂蒂藥局,桃園市平鎮區民族路二三七號二樓,121.2091,24.95658,(03)4023131,羅氏家用新冠病毒抗原自我檢測套組,53,2022/05/06 10:27:02,貨到開賣 其餘下午14:30賣  勿提早排隊
5932120016,吉利藥師藥局,桃園市觀音區富源里新富路１７０５號,121.1326,24.99095,(03)4901701,羅氏家用新冠病毒抗原自我檢測套組,1,2022/05/06 10:27:02,口罩販賣時段：週一至週六早上7:30起，售完為止
5933010064,明德藥局,新竹縣關西鎮中山路１８號,121.1778,24.79152,(03)5874335,羅氏家用新冠病毒抗原自我檢測套組,7,2022/05/06 10:27:02,無
5933010091,進安藥局,新竹縣關西鎮正義路１５號,121.1761,24.79111,(03)5872153,羅氏家用新冠病毒抗原自我檢測套組,78,2022/05/06 10:27:02,12:00-14:00休息（配合醫療院所）。
5933010144,佳仁藥局,新竹縣關西鎮中興路１２號,121.1771,24.79227,(035)872298,羅氏家用新冠病毒抗原自我檢測套組,76,2022/05/06 10:27:02,全年無休（星期日不定期）
5933011196,高平堂藥局,新竹縣關西鎮正義路66號,121.1762,24.79269,(03)5872263,羅氏家用新冠病毒抗原自我檢測套組,1,2022/05/06 10:27:02,相關公告 請搜尋FB【高平堂藥局】
5933011258,安東藥師藥局,新竹縣關西鎮中山路６２號,121.1766,24.79147,(03)5872385,羅氏家用新冠病毒抗原自我檢測套組,78,2022/05/06 10:27:02,口罩販賣時段：星期一至六08:00-21:00、星期日08:00-17:00
5933030306,華德藥局,新竹縣竹東鎮東林路１５號,121.0888,24.73692,(03)5940019,羅氏家用新冠病毒抗原自我檢測套組,78,2022/05/06 10:27:02,快篩販賣時段：11:00開始，售完為止
5933031885,東林藥局,新竹縣竹東鎮東林路８０號,121.0913,24.73683,(03)5961321,羅氏家用新冠病毒抗原自我檢測套組,78,2022/05/06 10:27:02,快篩實名制，每天16:00開始販售，售完為止。
5933052875,健樹藥局,新竹縣竹北市莊敬三路３９號１樓,121.0249,24.82242,(03)5505262,羅氏家用新冠病毒抗原自我檢測套組,35,2022/05/06 10:27:02,如期收到快篩時，每日早上10點開始販售，可追蹤啄木鳥耳鼻喉科臉書公告
5933052955,仁里藥局,新竹縣竹北市勝利二路１２５號,121.0278,24.82236,(03)6673878,羅氏家用新冠病毒抗原自我檢測套組,13,2022/05/06 10:27:02,實名制快篩販賣時段：星期一~日 上午10:00至售完為止
5933080119,建仁藥局,新竹縣新豐鄉建興路一段１２２號,120.9951,24.87287,(03)5595850,羅氏家用新冠病毒抗原自我檢測套組,2,2022/05/06 10:27:02,快篩AM7:00開始.賣完為止（發售時間請勿打電話）
5933081536,昌昌藥局,新竹縣新豐鄉新市路１９３號,120.9846,24.90465,(03)5598077,羅氏家用新冠病毒抗原自我檢測套組,10,2022/05/06 10:27:02,5／6（五）號碼牌已發放完畢。
5934020064,順昇藥局,宜蘭縣羅東鎮長春路６０號,121.7708,24.67803,(03)9541655,羅氏家用新冠病毒抗原自我檢測套組,17,2022/05/06 10:27:02,早上10:00開始販售快篩劑售完為止
5934020224,源生藥局,宜蘭縣羅東鎮忠孝路８９號,121.7652,24.67759,(03)9563476,羅氏家用新冠病毒抗原自我檢測套組,78,2022/05/06 10:27:02,執業時段請電洽藥局
5934021418,民生健保藥局,宜蘭縣羅東鎮中正南路５３號１樓,121.7716,24.66927,(03)9562354,羅氏家用新冠病毒抗原自我檢測套組,18,2022/05/06 10:27:02,快篩早上10點開賣:下午2:45開始. 週二下午休息 周六晚休
5934021525,喜樂藥師藥局,宜蘭縣羅東鎮中山路３段１７１號,121.7697,24.67491,(03)9547113,羅氏家用新冠病毒抗原自我檢測套組,78,2022/05/06 10:27:02,無
5934021552,慈濟大藥局,宜蘭縣羅東鎮公正路２７４之１號,121.7654,24.67989,(03)9551803,羅氏家用新冠病毒抗原自我檢測套組,74,2022/05/06 10:27:02,A.M09:00~A.M10:30 快篩，周日A.M09:00~A.M10:00加賣快篩
5934022031,大菖藥局,宜蘭縣羅東鎮公正路８８號１樓,121.7715,24.67827,(03)9559898,羅氏家用新冠病毒抗原自我檢測套組,19,2022/05/06 10:27:02,星期一到六上午10:00販售，不發號碼牌，現場排隊售完為止。星期日上午9:00販售
5934022102,杏一羅東興東藥局,宜蘭縣羅東鎮興東路２２８號,121.7701,24.68262,(03)9576701,羅氏家用新冠病毒抗原自我檢測套組,36,2022/05/06 10:27:02,快篩如有到貨，則早上10點開售
5934022175,公正藥局,宜蘭縣羅東鎮興東路１３７、１３９號,121.769,24.6802,(03)9560543,羅氏家用新冠病毒抗原自我檢測套組,1,2022/05/06 10:27:02,快篩實名制，每天16:00開始販售，售完為止。
5934031165,宏一藥局,宜蘭縣蘇澳鎮中山路１段２９號,121.8524,24.59604,(03)9962125,羅氏家用新冠病毒抗原自我檢測套組,7,2022/05/06 10:27:02,快篩販售時間 ~10:00
5934031263,皇超藥局,宜蘭縣蘇澳鎮華山路３號,121.8698,24.58087,(03)9951309,羅氏家用新冠病毒抗原自我檢測套組,11,2022/05/06 10:27:02,配合政府配送時間到貨販售5／6由0850-1200 1400-1800販售快篩試劑（售完為止）
5934081067,威仁藥局,宜蘭縣冬山鄉冬山路２１９號,121.7907,24.63453,(03)9595351,羅氏家用新冠病毒抗原自我檢測套組,64,2022/05/06 10:27:02,無
5935010222,正欣藥局,苗栗縣苗栗市清華里褔星街６０號,120.8273,24.57283,(037)264502,羅氏家用新冠病毒抗原自我檢測套組,7,2022/05/06 10:27:02,早上10點開始販賣快篩試劑
5935011523,天恩藥局,苗栗縣苗栗市中正路49號,120.8246,24.5688,(037)277285,羅氏家用新冠病毒抗原自我檢測套組,39,2022/05/06 10:27:02,口罩販賣時段：08:00 到售完（上班時間都可）
5935011738,佳禾藥局,苗栗縣苗栗市青苗里建台街7號,120.821,24.55742,(037)373041,羅氏家用新冠病毒抗原自我檢測套組,84,2022/05/06 10:27:02,快篩試劑7：30發號碼牌8：00開始販賣，販賣時段：營業時間至售完為止
5935012413,苗栗藥局,苗栗縣苗栗市光復路５５號,120.8165,24.5532,(037)360789,羅氏家用新冠病毒抗原自我檢測套組,78,2022/05/06 10:27:02,快篩實名制，每天16:00開始販售，售完為止。
5935030171,立安藥局,苗栗縣通霄鎮信義路１０７號,120.6804,24.48877,(037)760100,羅氏家用新冠病毒抗原自我檢測套組,77,2022/05/06 10:27:02,快篩實名制 週一到週六下午15:00開始販售  售完為止
5935030180,通霄藥局,苗栗縣通霄鎮中山路１３１號,120.678,24.48903,(037)755155,羅氏家用新冠病毒抗原自我檢測套組,76,2022/05/06 10:27:02,快篩實名制，每天16:00開始販售，售完為止。
5935040328,明志藥局,苗栗縣竹南鎮照南里博愛街４號,120.8797,24.68677,(037)472341,羅氏家用新冠病毒抗原自我檢測套組,1,2022/05/06 10:27:02,快篩賣時間:早上8:30~22:00。週六，周日照常。
5935041914,合康連鎖藥局,苗栗縣竹南鎮博愛街２７０號,120.8725,24.68724,(037)474987,羅氏家用新冠病毒抗原自我檢測套組,78,2022/05/06 10:27:02,販售快篩時間為下午17:00開始販售
5935050208,三峰藥局,苗栗縣頭份市新華里中正一路７８號,120.9259,24.68655,(037)668239,羅氏家用新冠病毒抗原自我檢測套組,1,2022/05/06 10:27:02,實名制快篩：週一至週六下午1點排隊直接購買；週日休息。
5935051929,仁方藥局,苗栗縣頭份市自強路１５０巷２－５號１樓,120.907,24.68785,(037)687238,羅氏家用新冠病毒抗原自我檢測套組,75,2022/05/06 10:27:02,正常營業AM08:00-PM10:00
5935051938,吉品藥局,苗栗縣頭份市中正路９號,120.9065,24.68438,(037)676898,羅氏家用新冠病毒抗原自我檢測套組,75,2022/05/06 10:27:02,口罩07:00起發放，發完為止。如有更動不另行通知
5935061452,後龍藥局,苗栗縣後龍鎮中山路２０９號１樓,120.7931,24.6127,(037)723660,羅氏家用新冠病毒抗原自我檢測套組,78,2022/05/06 10:27:02,快篩實名制，每天16:00開始販售，售完為止。
5935091156,信安藥局,苗栗縣公館鄉大同路７８號,120.8281,24.50026,(037)237849,羅氏家用新冠病毒抗原自我檢測套組,77,2022/05/06 10:27:02,實名制快篩試劑販售時間:星期一到星期六下午3點，周日不販售!
5935091245,芳鄰藥局,苗栗縣公館鄉玉泉村玉泉３６８之１１號,120.8267,24.50749,(037)223727,羅氏家用新冠病毒抗原自我檢測套組,78,2022/05/06 10:27:02,口罩販賣時段：13:00~售完
5935131075,安康藥局,苗栗縣三義鄉廣盛中正路１１４號,120.7698,24.41377,(037)875958,羅氏家用新冠病毒抗原自我檢測套組,7,2022/05/06 10:27:02,每天早上8:20開始銷售.售完為止.
5936012515,中正藥局,臺中市豐原區中正路１８６號,120.7186,24.25187,(04)25298379,羅氏家用新冠病毒抗原自我檢測套組,78,2022/05/06 10:27:02,健保快篩販售AM10:30（貨運延遲則改為PM15:00）
5936040135,德厚藥局,臺中市清水區慷榔里慷榔２街５０號,121.4874,25.07275,(04)26560733,羅氏家用新冠病毒抗原自我檢測套組,30,2022/05/06 10:27:02,實名制快篩試劑於12:00開賣，售完為止
5936050364,沙鹿福倫藥局,臺中市沙鹿區中山路４３５號１樓,120.5612,24.24291,(04)26657718,羅氏家用新冠病毒抗原自我檢測套組,78,2022/05/06 10:27:02,實名制快篩早上11點開賣。 賣完為止。謝謝。
5936080077,明興藥局,臺中市神岡區北庄里中山路１０３７號,120.6711,24.25617,(04)25621030,羅氏家用新冠病毒抗原自我檢測套組,78,2022/05/06 10:27:02,週日店休，快篩11:00
5936101893,新信和藥局,臺中市大雅區民興街５０號,120.6482,24.22531,(04)25603058,羅氏家用新冠病毒抗原自我檢測套組,78,2022/05/06 10:27:02,5／6（五）11點準時開賣！！健保卡尾數單數可以領！
5936102970,正豐藥局,臺中市大雅區民生路２段４號,120.6545,24.22937,(04)25678858,羅氏家用新冠病毒抗原自我檢測套組,78,2022/05/06 10:27:02,周一至週六上午11點開始販售快篩試劑
5936103002,學府藥局,臺中市大雅區學府路２２５號１樓,120.6498,24.22214,(04)25609333,羅氏家用新冠病毒抗原自我檢測套組,78,2022/05/06 10:27:02,實名制快篩12:00開始販售 8:30-10:00  星期天下午晚上休息
5936171359,健安藥局,臺中市龍井區國際街１５３號,120.5955,24.18746,(04)26527296,羅氏家用新冠病毒抗原自我檢測套組,48,2022/05/06 10:27:02,口罩販賣時段：週一至週六全天，週日晚上6：00
5936180152,祥暘藥局,臺中市霧峰區中正路１１６２號,120.6996,24.07068,(04)23391346,羅氏家用新冠病毒抗原自我檢測套組,78,2022/05/06 10:27:02,快篩實名制，每天16:00開始販售，售完為止。
5936190327,富眾藥局,臺中市太平區永豐路３５號,120.7131,24.12447,(04)22706009,羅氏家用新冠病毒抗原自我檢測套組,54,2022/05/06 10:27:02,111年平安吉祥年:星期一至星期六.下午1點.星期日:休息.
5936190416,同安藥局,臺中市太平區新平路三段８７號,120.7202,24.15065,(04)23918391,羅氏家用新冠病毒抗原自我檢測套組,3,2022/05/06 10:27:02,5／6起每日上午9點開賣快篩，週日休息
5936190710,東亞藥師大藥局,臺中市太平區中興路６６號,120.7167,24.12806,(04)22787987,羅氏家用新冠病毒抗原自我檢測套組,2,2022/05/06 10:27:02,每日早上9:00先領號碼牌下午2:00~10:00領快篩試劑
5936192312,安麗兒藥局太平店,臺中市太平區太平路１９０號,120.7204,24.12088,(04)22798819,羅氏家用新冠病毒抗原自我檢測套組,77,2022/05/06 10:27:02,快篩販售時間下午3點（15:00）開始.售完為止
5937010159,彰化明德藥局,彰化縣彰化市興北里三民路２０９號,120.5425,24.08556,(04)7299085,羅氏家用新冠病毒抗原自我檢測套組,2,2022/05/06 10:27:02,正常調劑時間8:30~22:00（調劑時間皆有賣口罩）
5937010908,日光堂藥局彰美分店,彰化縣彰化市彰美路１段２３５號,120.5369,24.08936,(04)7236611,羅氏家用新冠病毒抗原自我檢測套組,46,2022/05/06 10:27:02,口罩週一至週六下午1點半至2點半或7點至8點 兩時段販售／ 服務時段售完截止 ／ 週日公休
5937011058,大竹長生藥局,彰化縣彰化市彰南路二段８號,120.577,24.08537,(04)7384176,羅氏家用新冠病毒抗原自我檢測套組,45,2022/05/06 10:27:02,快篩代售早上10:00
5937012117,媽咪藥局,彰化縣彰化市彰南路２段１１５號,120.5793,24.08538,(04)7321517,羅氏家用新冠病毒抗原自我檢測套組,5,2022/05/06 10:27:02,實名制快篩:周一至周六下午3:00開始販售，售完為止
5937012180,大新藥局,彰化縣彰化市福山里彰南路一段４３３號,120.5763,24.0858,(04)7383535,羅氏家用新冠病毒抗原自我檢測套組,4,2022/05/06 10:27:02,快篩代售時間早上08：30（固定周一到周五），現場排隊，售完為止
5937012582,正光藥局中正店,彰化縣彰化市中正路１段２５３號,120.5466,24.08348,(04)7235068,羅氏家用新冠病毒抗原自我檢測套組,78,2022/05/06 10:27:02,領藥來正光，快篩實名13:30開始販售。
5937013132,正光藥局彰南店,彰化縣彰化市中庄里彰南路１段２１號,120.5662,24.08841,(04)7321003,羅氏家用新冠病毒抗原自我檢測套組,156,2022/05/06 10:27:02,領藥來正光.防疫實名制快篩13:30開始販售
5937013365,正光藥局民族店,彰化縣彰化市彰安里民族路２１１號,120.5389,24.07076,(04)7234876,羅氏家用新冠病毒抗原自我檢測套組,78,2022/05/06 10:27:02,每天下午1點30分開始\現場發號碼牌依序販售快篩試劑
5937013383,大心藥局,彰化縣彰化市中央里民族路５１７號,120.5406,24.07783,(04)7282797,羅氏家用新冠病毒抗原自我檢測套組,1,2022/05/06 10:27:02,星期日公休
5937013472,建國春生中西藥局,彰化縣彰化市建國北路１５０號,120.5498,24.09435,(04)7225047,羅氏家用新冠病毒抗原自我檢測套組,78,2022/05/06 10:27:02,下午2點發放號碼牌 發完即開始依序購買
5937013570,彰化藥局,彰化縣彰化市永安街２７８、２８０號,120.5438,24.08977,(04)7287877,羅氏家用新冠病毒抗原自我檢測套組,78,2022/05/06 10:27:02,快篩實名制，每天16:00開始販售，售完為止。
5937013703,友誼藥局自強店,彰化縣彰化市自強路４６號,120.5393,24.08961,(04)7233471,羅氏家用新冠病毒抗原自我檢測套組,78,2022/05/06 10:27:02,5／6快篩販售時間15:00~16:00免費領取，各大醫院連續處方簽，診所、衛生所處方簽，歡迎諮詢以現場量為主，友誼藥局
5937021401,展宏藥局,彰化縣鹿港鎮中山路５號,120.4367,24.05042,(04)7749001,羅氏家用新冠病毒抗原自我檢測套組,41,2022/05/06 10:27:02,周一至周日早上10點以後領快篩試劑
5937021750,正光藥局鹿港店,彰化縣鹿港鎮永安里復興路２５１號,120.438,24.05569,(04)7775769,羅氏家用新冠病毒抗原自我檢測套組,78,2022/05/06 10:27:02,每日13點30分開始販售快篩
5937031452,春生藥局愛民店,彰化縣和美鎮愛民路１０６號,120.4995,24.1099,(04)7566092,羅氏家用新冠病毒抗原自我檢測套組,13,2022/05/06 10:27:02,無
5937040148,北斗仁和藥局,彰化縣北斗鎮光復里光復路１８２號,120.5243,23.87364,(04)8880163,羅氏家用新冠病毒抗原自我檢測套組,14,2022/05/06 10:27:02,周一至周日0900當場排隊發放號碼牌，售完為止
5937041172,九和藥局,彰化縣北斗鎮西德里斗苑路一段２９０號,120.5211,23.87211,(04)8875039,羅氏家用新冠病毒抗原自我檢測套組,39,2022/05/06 10:27:02,無
5937041485,北斗啄木鳥藥局,彰化縣北斗鎮復興路２６９號,120.528,23.87822,(04)8875611,羅氏家用新冠病毒抗原自我檢測套組,24,2022/05/06 10:27:02,無
5937050313,東禾藥局,彰化縣員林市仁美里和平東街６２－１號,120.5754,23.9623,(04)8350030,羅氏家用新冠病毒抗原自我檢測套組,7,2022/05/06 10:27:02,每天早上八點半開始販售，售完為止
5937050322,必安藥局,彰化縣員林市仁美里育英路１７４號,120.5741,23.96417,(04)8324986,羅氏家用新冠病毒抗原自我檢測套組,22,2022/05/06 10:27:02,無
5937050395,裕良大藥局,彰化縣員林市莒光路３號,120.5663,23.95163,(04)8360388,羅氏家用新冠病毒抗原自我檢測套組,61,2022/05/06 10:27:02,全年無休
5937051703,員林健康藥局,彰化縣員林市中正路２２４號１樓,120.5747,23.95417,(04)8396798,羅氏家用新冠病毒抗原自我檢測套組,1,2022/05/06 10:27:02,10月11日雙十連假有營業
5937051730,青田藥局,彰化縣員林市林森路一二七號,120.5778,23.95633,(04)8347776,羅氏家用新冠病毒抗原自我檢測套組,12,2022/05/06 10:27:02,物流配送時間不確定～每日的販售時間將另行公布
5937051847,天一藥局,彰化縣員林市光明里中正路４４１號,120.5724,23.95817,(04)8384875,羅氏家用新冠病毒抗原自我檢測套組,24,2022/05/06 10:27:02,固定周一到周六，早上14:30開始販賣防疫口罩（現場排隊）。
5937051865,萬年藥局,彰化縣員林市員水路２段２０９號,120.5841,23.95512,(04)8366522,羅氏家用新冠病毒抗原自我檢測套組,19,2022/05/06 10:27:02,無
5937051963,東山永安藥局,彰化縣員林市南東里山腳路４段３１號,120.5988,23.96424,(04)8311471,羅氏家用新冠病毒抗原自我檢測套組,10,2022/05/06 10:27:02,快篩試劑販賣，上午8點30分開賣.
5937052059,華衛藥局,彰化縣員林市惠來里南昌路９６號,120.5719,23.95464,(04)8397503,羅氏家用新冠病毒抗原自我檢測套組,8,2022/05/06 10:27:02,快篩販售時間8:20至09:50
5937052184,躍獅永聖藥局,彰化縣員林市三信里中山路２段３２５號,120.5712,23.9678,(04)8369065,羅氏家用新冠病毒抗原自我檢測套組,15,2022/05/06 10:27:02,固定周一到周六，早上9:30開始販賣公發快篩，周日沒營業。
5937052246,新義藥局,彰化縣員林市南平里新義街２８８號,120.5678,23.96254,(04)8396788,羅氏家用新冠病毒抗原自我檢測套組,6,2022/05/06 10:27:02,配送物流的關係暫時無法確定販賣時間.請先電話訊問
5937052255,淑德藥局,彰化縣員林市仁美里中山路２段１１０、１１２號,120.5713,23.96388,(04)8359155,羅氏家用新冠病毒抗原自我檢測套組,58,2022/05/06 10:27:02,周日沒營業。
5937052264,醫聯藥師藥局,彰化縣員林市三條里員東路二段４１０號１樓,120.5811,23.95898,(04)8360617,羅氏家用新冠病毒抗原自我檢測套組,62,2022/05/06 10:27:02,快篩實名制每天下午15:00開始販售，售完為止
5937052273,員林鼎澄藥局,彰化縣員林市仁愛里三民東街２５２號,120.58,23.95997,(04)8330918,羅氏家用新冠病毒抗原自我檢測套組,78,2022/05/06 10:27:02,實名制快篩，星期一-六每日下午2點開始依現場排隊販售
5937052335,大樹三民藥局,彰化縣員林市三民東街３５６號,120.5825,23.96065,(04)8372837,羅氏家用新冠病毒抗原自我檢測套組,78,2022/05/06 10:27:02,快篩實名制，每天16:00開始販售，售完為止。
5937052353,壽春中西藥局,彰化縣員林市成功路５５號,120.5797,23.96462,(04)8361667,羅氏家用新冠病毒抗原自我檢測套組,41,2022/05/06 10:27:02,5／6（五）起。快篩試劑早上9點半後發售，時間若有變動請看粉絲專頁。
5937052380,日信藥局員林店,彰化縣員林市中正路２５５號,120.5741,23.95487,(04)8352030,羅氏家用新冠病毒抗原自我檢測套組,78,2022/05/06 10:27:02,快篩試劑每天下午2點開始販售，售完為止
5937052399,裕良藥局大同店,彰化縣員林市大同路二段２０３－１號,120.5746,23.96891,(04)8344612,羅氏家用新冠病毒抗原自我檢測套組,78,2022/05/06 10:27:02,全年無休
5937052433,迪迪連鎖藥局員林店,彰化縣員林市林森路１６３號１樓,120.5777,23.95715,(04)8312898,羅氏家用新冠病毒抗原自我檢測套組,50,2022/05/06 10:27:02,快篩實名制販售時間：每日十點發放，依物流配送時間為準。
5937052451,統信藥局,彰化縣員林市正興街３７２號,120.5722,23.95997,(04)8367089,羅氏家用新冠病毒抗原自我檢測套組,16,2022/05/06 10:27:02,無
5937052479,莒光藥局,彰化縣員林市莒光路３１６號１樓,120.5669,23.95942,(04)8361388,羅氏家用新冠病毒抗原自我檢測套組,78,2022/05/06 10:27:02,快篩實名制，每天16:00開始販售，售完為止。
5937052497,家家藥局,彰化縣員林市惠來街８７號,120.5704,23.95526,(04)8367007,羅氏家用新冠病毒抗原自我檢測套組,17,2022/05/06 10:27:02,無
5937052513,正光藥局員林店,彰化縣員林市三民東街３１０、３１２號,120.5814,23.96036,(04)8328765,羅氏家用新冠病毒抗原自我檢測套組,75,2022/05/06 10:27:02,實名制快篩下午13:30開始販售
5937052540,莒光啄木鳥藥局,彰化縣員林市中山路一段４５４號１樓,120.5668,23.95171,(04)8399625,羅氏家用新冠病毒抗原自我檢測套組,32,2022/05/06 10:27:02,無
5937052559,知心健康藥局,彰化縣員林市三民東街１９６號１樓,120.5788,23.95965,(04)8396161,羅氏家用新冠病毒抗原自我檢測套組,5,2022/05/06 10:27:02,無
5937061432,康健藥局,彰化縣溪湖鎮光平里彰水路３段３８８號,120.4802,23.96206,(04)8822549,羅氏家用新冠病毒抗原自我檢測套組,3,2022/05/06 10:27:02,每天8:30開門即開始配售防疫口罩及快篩試劑（星期日休）5／2正常作業
5937061594,正光藥局溪湖店,彰化縣溪湖鎮大竹里平和街２０２、２０４號,120.4797,23.95728,(04)8825138,羅氏家用新冠病毒抗原自我檢測套組,78,2022/05/06 10:27:02,領藥來正光，快篩實名13：30開始販售。
5937091056,線西藥局,彰化縣線西鄉寓埔村中央路二段４８號,120.4709,24.13103,(04)7582482,羅氏家用新冠病毒抗原自我檢測套組,78,2022/05/06 10:27:02,快篩試劑配送時間不穩定 請搜尋FB線西藥局 週一至週五中午12點開始  週六早上9點開始 週日公休
5937101217,友誼藥局,彰化縣伸港鄉新港村中山路１５號,120.4864,24.14731,(047)980591,羅氏家用新冠病毒抗原自我檢測套組,103,2022/05/06 10:27:02,5／4 快篩早上10:30~12:00；星期一.六.日不發放快篩；免費領取各大醫院診所牙科衛生所處方箋
5937101244,春生藥局伸港店,彰化縣伸港鄉新港村新港路４１７號,120.4868,24.15135,(04)7986263,羅氏家用新冠病毒抗原自我檢測套組,78,2022/05/06 10:27:02,每週一至週日早上8:30開始發放號碼，發完為售完
5937101253,佑全伸港新港藥局,彰化縣伸港鄉新港路１６６、１６８號,120.487,24.1459,(04)7980979,羅氏家用新冠病毒抗原自我檢測套組,78,2022/05/06 10:27:02,疫情期間營業時間改為早上9點至晚上9點，快篩試劑如果有貨，下午2點開賣
5937121237,福慧藥局,彰化縣秀水鄉彰水路２段２０３號,120.4917,24.02402,(04)7689180,羅氏家用新冠病毒抗原自我檢測套組,3,2022/05/06 10:27:02,1.早上8；45開始營業，早上9:00開始販售口罩 2.每日中午12:00-15:00休息
5937170034,淑惠藥局,彰化縣埔心鄉亙北村員鹿路一段２４４號,120.5574,23.95515,(04)8297798,羅氏家用新冠病毒抗原自我檢測套組,78,2022/05/06 10:27:02,星期一~星期六16:00-18:00（2小時販售快篩試劑），星期日：休
5937180094,天喜生大藥局,彰化縣永靖鄉永西村西門路４１號,120.545,23.9228,(04)8221821,羅氏家用新冠病毒抗原自我檢測套組,4,2022/05/06 10:27:02,每個星期天暫停發放
5937181279,佳恩藥局,彰化縣永靖鄉永西村瑚璉路３０２號,120.547,23.92421,(04)8235753,羅氏家用新冠病毒抗原自我檢測套組,79,2022/05/06 10:27:02,快篩實名制 :電話預約制，當日早上9點開始預約（已額滿）
5937181304,永靖藥局,彰化縣永靖鄉瑚璉路１１６號,120.5505,23.92624,(04)8230220,羅氏家用新冠病毒抗原自我檢測套組,78,2022/05/06 10:27:02,快篩實名制，每天16:00開始販售，售完為止。
5937191300,社頭藥局,彰化縣社頭鄉社斗路一段３７３號,120.5846,23.89651,(04)8720030,羅氏家用新冠病毒抗原自我檢測套組,78,2022/05/06 10:27:02,快篩實名制，每天16:00開始販售，售完為止。
5937201061,長春藥局,彰化縣二水鄉文化村光文路１０３號,120.6167,23.81189,(04)8795289,羅氏家用新冠病毒抗原自我檢測套組,78,2022/05/06 10:27:02,早上8:00發放號碼牌，13:00開始販售至17:00止
5937201105,安利藥局,彰化縣二水鄉光化村員集路４段３號,120.6159,23.81147,(04)8794933,羅氏家用新冠病毒抗原自我檢測套組,77,2022/05/06 10:27:02,快篩下午3點現場販售 不發號碼牌 身障.醫護可優先購買
5937221198,祐幼藥局,彰化縣埤頭鄉合興村彰水路3段496號,120.4594,23.89158,(04)8911910,羅氏家用新冠病毒抗原自我檢測套組,78,2022/05/06 10:27:02,無
5937251105,宏吉藥局,彰化縣竹塘鄉竹塘村仁愛街５０號,120.4271,23.86282,(04)8976709,羅氏家用新冠病毒抗原自我檢測套組,3,2022/05/06 10:27:02,周一到周六，7:50開始販賣快篩試劑（無發放號碼牌）
5937261227,成記大藥局,彰化縣溪州鄉中山路三段３００號,120.4935,23.85316,(04)8891788,羅氏家用新冠病毒抗原自我檢測套組,3,2022/05/06 10:27:02,周一至周日09:30開始販售，售完為止
5937261236,溪州貓頭鷹藥局,彰化縣溪州鄉中山路三段臨２９１號、２９３號,120.4933,23.85328,(04)8890101,羅氏家用新冠病毒抗原自我檢測套組,5,2022/05/06 10:27:02,無
5938011810,南投丁丁藥局,南投縣南投市三和里三和二路１０號,120.69,23.90461,(049)2245977,羅氏家用新冠病毒抗原自我檢測套組,30,2022/05/06 10:27:02,健保快篩早上8點開賣
5938011918,聖宸健保藥局,南投縣南投市彰南路三段１６２號１樓,120.6744,23.92727,(049)2251741,羅氏家用新冠病毒抗原自我檢測套組,37,2022/05/06 10:27:02,早上10點發號碼牌銷售 離開視同放棄
5938020079,仁和藥局,南投縣埔里鎮薰化里中山路三段９７號,120.9631,23.96619,(049)2985470,羅氏家用新冠病毒抗原自我檢測套組,20,2022/05/06 10:27:02,固定周一至周日上午10.00，下午20:00販售，售完為止
5938020257,德林藥局,南投縣埔里鎮大城路２０６號,120.9517,23.97306,(049)2915293,羅氏家用新冠病毒抗原自我檢測套組,3,2022/05/06 10:27:02,每日10點開始販售快篩試劑，直至當日應售數量完畢或店休為止。
5938021781,幸福藥局,南投縣埔里鎮中正路５４８號,120.9643,23.96946,(049)2999800,羅氏家用新冠病毒抗原自我檢測套組,12,2022/05/06 10:27:02,無
5938022180,久泰藥局,南投縣埔里鎮南興街３２４、３２６號,120.9634,23.96481,(049)2980968,羅氏家用新冠病毒抗原自我檢測套組,10,2022/05/06 10:27:02,無
5938030735,草屯福倫藥局,南投縣草屯鎮中山街１４２號,120.6828,23.9769,(049) 2314218,羅氏家用新冠病毒抗原自我檢測套組,78,2022/05/06 10:27:02,早上11:00開始販賣＜實名制快篩＞，售完為止。
5938032435,順安藥局,南投縣草屯鎮中正路７６８號,120.6848,23.98161,(049)2333228,羅氏家用新冠病毒抗原自我檢測套組,20,2022/05/06 10:27:02,實名制快篩試劑於早上10 點開始販售，售完為止
5938040366,竹山藥局,南投縣竹山鎮中山里竹山路１５０之２號,120.6818,23.7539,(049)2644930,羅氏家用新冠病毒抗原自我檢測套組,19,2022/05/06 10:27:02,處方單調劑，快篩試劑代售
5938041685,宗穎藥局,南投縣竹山鎮集山路３段５８７號,120.6908,23.76006,(049)2635379,羅氏家用新冠病毒抗原自我檢測套組,28,2022/05/06 10:27:02,早上8:10~起認購快篩試劑（星期日休息）
5938041729,早安藥局,南投縣竹山鎮雲林路４１號,120.6834,23.75608,(049)2651032,羅氏家用新冠病毒抗原自我檢測套組,21,2022/05/06 10:27:02,實名制快篩試劑早上10點開始販售
5938041756,集山啄木鳥藥局,南投縣竹山鎮集山路３段４０５號,120.696,23.76179,(049)2659287,羅氏家用新冠病毒抗原自我檢測套組,49,2022/05/06 10:27:02,口罩代售時間無限制
5938041809,維淇藥師藥局,南投縣竹山鎮集山路三段８１６－１號,120.6863,23.75949,(049)2653689,羅氏家用新冠病毒抗原自我檢測套組,6,2022/05/06 10:27:02,早上8：30~晚上21：00，星期六下午晚上及星期日休息
5938041845,博愛藥局,南投縣竹山鎮雲林路３５號,120.6836,23.75612,(049)2642748,羅氏家用新冠病毒抗原自我檢測套組,29,2022/05/06 10:27:02,0830AM開始販售，售完為止
5938041872,優適藥局,南投縣竹山鎮大明路１４９－５號,120.6858,23.75999,(049)2630355,羅氏家用新冠病毒抗原自我檢測套組,36,2022/05/06 10:27:02,10:00販售快篩，售完為止 *周日公休
5938050120,家禾藥局,南投縣集集鎮民生路２３７號,120.779,23.82647,(049)2760565,羅氏家用新冠病毒抗原自我檢測套組,67,2022/05/06 10:27:02,快篩代售：w1~w5 下午2：00（當場發放號碼牌，而後當場代售）
5938110078,立特藥局,南投縣水里鄉中央村中正路６８號,120.8543,23.81587,(049)2775837,羅氏家用新冠病毒抗原自我檢測套組,1,2022/05/06 10:27:02,每天早上8點現場排隊持健保卡領號碼牌，下午3點至晚上9點半持號碼牌領快篩劑
5939011850,明真西藥局,雲林縣斗六市自由路１號,120.5447,23.70513,(05)5321605,羅氏家用新冠病毒抗原自我檢測套組,45,2022/05/06 10:27:02,口罩販售:早上0800-1200中午1200-1400休息下午1400到2100賣完為止
5939012400,陽光藥局,雲林縣斗六市永安路６９號,120.548,23.70923,(05)5362097,羅氏家用新冠病毒抗原自我檢測套組,67,2022/05/06 10:27:02,快篩16:00開賣~現場排隊，請勿電話詢問
5939012428,德昌藥局,雲林縣斗六市明德路１０１號,120.5374,23.69834,(05)5340870,羅氏家用新冠病毒抗原自我檢測套組,11,2022/05/06 10:27:02,快篩每日9點30至11點30現場排隊.當日有剩.下午3點30至售完
5939012580,林博彥藥師藥局,雲林縣斗六市莊敬路６５號,120.5495,23.70354,(05)5361258,羅氏家用新冠病毒抗原自我檢測套組,33,2022/05/06 10:27:02,無
5939021463,安瑞藥局,雲林縣斗南鎮新興街９４號,120.48,23.67483,(05)5972099,羅氏家用新冠病毒抗原自我檢測套組,3,2022/05/06 10:27:02,因物流配送時間不一定，原則上9:00販售
5939030177,上方藥局,雲林縣虎尾鎮中山里中正路１７７號,120.4325,23.70765,(05)6332828,羅氏家用新冠病毒抗原自我檢測套組,23,2022/05/06 10:27:02,星期天不定時營業，需要服務者請提前電話詢問（6332828）
5939030355,祥惠藥局,雲林縣虎尾鎮惠來里惠來８１之５號,120.4892,23.72847,(05)6224308,羅氏家用新冠病毒抗原自我檢測套組,73,2022/05/06 10:27:02,週日請先電話洽詢
5939031585,利芳藥局,雲林縣虎尾鎮光復路３１０號,120.4385,23.71011,(05)6311016,羅氏家用新冠病毒抗原自我檢測套組,17,2022/05/06 10:27:02,販賣口罩時間:0830-賣完為止
5939031996,端發藥局,雲林縣虎尾鎮林森路一段３２９號,120.4368,23.71237,(05)6314168,羅氏家用新冠病毒抗原自我檢測套組,41,2022/05/06 10:27:02,販賣快篩時間:周一至周日08:30-賣完為止
5939041901,佑全西螺建興藥局,雲林縣西螺鎮建興路２４９號,120.4593,23.80042,(05)5883161,羅氏家用新冠病毒抗原自我檢測套組,72,2022/05/06 10:27:02,無
5939050044,健康藥局,雲林縣土庫鎮順天里中正路１１號,120.388,23.6739,(05)6622889,羅氏家用新冠病毒抗原自我檢測套組,3,2022/05/06 10:27:02,代售口罩時間早上七點三十五分開始，現場排隊，售完為止
5939051238,天愛藥局,雲林縣土庫鎮中山路８０號,120.3903,23.6749,(05)6629923,羅氏家用新冠病毒抗原自我檢測套組,8,2022/05/06 10:27:02,無
