醫事機構代碼,醫事機構名稱,醫事機構地址,經度,緯度,醫事機構電話,廠牌項目,快篩試劑截至目前結餘存貨數量,來源資料時間,備註
0291010010,連江縣立醫院,連江縣南竿鄉復興村２１７號,119.9492,26.16084,(083)623995,羅氏家用新冠病毒抗原自我檢測套組,78,2022/05/12 08:24:34,4／29起固定周一至周六上午8:30-9:30快篩試劑販售.
2331200010,新北市坪林區衛生所,新北市坪林區坪林街１０４號,121.7095,24.93592,(02)26656272,羅氏家用新冠病毒抗原自我檢測套組,2,2022/05/12 08:24:34,防疫口罩販售服務時間，星期一至五09:00-12:00 。（倘若遇政府規定補班日，仍會提供販售口罩服務）
2331260016,新北市貢寮區衛生所,新北市貢寮區朝陽街７０巷１０號、新北市貢寮區仁愛路１２８號,121.9095,25.02258,(02)24901431,羅氏家用新冠病毒抗原自我檢測套組,82,2022/05/12 08:24:34,快篩試劑販售時間為周一至周五早上9點開始販售，每日販售一箱，數量有限售完為止。
2333100013,新竹縣寶山鄉衛生所,新竹縣寶山鄉雙溪村７鄰雙園路二段２７３號,120.9949,24.76691,(03)5292106,羅氏家用新冠病毒抗原自我檢測套組,78,2022/05/12 08:24:34,快篩試劑於星期一~星期六8:30-9:30販售
2334110013,宜蘭縣大同鄉衛生所,宜蘭縣大同鄉崙埤村朝陽４０號,121.6088,24.67785,(03)9801175,羅氏家用新冠病毒抗原自我檢測套組,3,2022/05/12 08:24:34,防疫快篩試劑販賣時間為週一到週五上午10:50-11:50 （或售罄為止），10:40開始發放號碼牌，詳細事項請至本所網站查詢。
2335110017,苗栗縣南庄鄉衛生所,苗栗縣南庄鄉東村大同路１７號,121,24.59733,(037)822024,羅氏家用新冠病毒抗原自我檢測套組,4,2022/05/12 08:24:34,口罩販賣時段:週一至週五上午8:00~下午5:00
2335150011,苗栗縣造橋鄉衛生所,苗栗縣造橋鄉造橋村１４鄰８－２號,120.8643,24.63672,(037)542755,羅氏家用新冠病毒抗原自我檢測套組,63,2022/05/12 08:24:34,實名制快篩試劑販賣時段：周一至周五08:20-12:00（每天限78份）；週六、日及國定假日無販售。
2335180019,苗栗縣泰安鄉衛生所,苗栗縣泰安鄉清安村２鄰７２號,120.9083,24.44722,(037)941054,羅氏家用新冠病毒抗原自我檢測套組,78,2022/05/12 08:24:34,口罩販賣時段：星期一~五：8:30~15：00。
2336210034,臺中市和平區梨山衛生所,臺中市和平區中正路１２號１樓、６８號１樓,121.2592,24.25678,(04)25989540,羅氏家用新冠病毒抗原自我檢測套組,78,2022/05/12 08:24:34,提供24小時急診待診服務，快篩試劑販售時段為周一至五0900-12:00，六日及國定假日為0900-1100
2338080016,南投縣中寮鄉衛生所,南投縣中寮鄉永平村永昌街１０２號,120.7657,23.881,(049)2691404,羅氏家用新冠病毒抗原自我檢測套組,32,2022/05/12 08:24:34,無
2338120015,南投縣信義鄉衛生所,南投縣信義鄉明德村玉山路４５號,120.8547,23.69653,(049)2791148,羅氏家用新冠病毒抗原自我檢測套組,1,2022/05/12 08:24:34,快篩試劑販售時間星期一至星期五上午09：00-11：00，現場排隊發售，國定假日不販賣。
2340170016,嘉義縣大埔鄉衛生所,嘉義縣大埔鄉大埔村５３－１號,120.5928,23.29397,(05)2521214,羅氏家用新冠病毒抗原自我檢測套組,47,2022/05/12 08:24:34,無
2340180012,嘉義縣阿里山鄉衛生所,嘉義縣阿里山鄉樂野村３鄰９７－２號,120.7019,23.4666,(05)2561573,羅氏家用新冠病毒抗原自我檢測套組,78,2022/05/12 08:24:34,無
2342130010,高雄市田寮區衛生所,高雄市田寮區南安里崗北路３２號,120.3594,22.87301,(07)6361504,羅氏家用新冠病毒抗原自我檢測套組,192,2022/05/12 08:24:34,巡迴醫療:每星期一、四下午及每月第一個有上班的星期三下午巡迴醫療
2342180010,高雄市永安區衛生所,高雄市永安區永安路２６號,120.2254,22.81879,(07)6912015,羅氏家用新冠病毒抗原自我檢測套組,78,2022/05/12 08:24:34,本所防疫快篩試劑販賣時間為週一到週五上班日 9:00-11:00 （或售罄為止），現場叫號不到，視同放棄
2342250017,高雄市茂林區衛生所,高雄市茂林區茂林里茂林巷８－４號,120.6641,22.88641,(07)6801046,羅氏家用新冠病毒抗原自我檢測套組,78,2022/05/12 08:24:34,夜間急診，請先撥電話07-6801046
2342260013,高雄市桃源區衛生所,高雄市桃源區桃源里南進巷１８８－１號,120.7642,23.15845,(07)6861126,羅氏家用新冠病毒抗原自我檢測套組,78,2022/05/12 08:24:34,IDS提供24小時服務
2342270019,高雄市那瑪夏區衛生所,高雄市那瑪夏區瑪雅里６鄰平和巷２５２號,120.7024,23.24708,(07)6701142,羅氏家用新冠病毒抗原自我檢測套組,79,2022/05/12 08:24:34,春節期間正常門診
2343210017,屏東縣佳冬鄉衛生所,屏東縣佳冬鄉六根村佳和路８７－１號,120.5496,22.41426,(08)8662018,羅氏家用新冠病毒抗原自我檢測套組,14,2022/05/12 08:24:34,無
2343270013,屏東縣霧台鄉衛生所,屏東縣霧台鄉霧台村神山巷６８號,120.7261,22.74989,(08)7902232,羅氏家用新冠病毒抗原自我檢測套組,78,2022/05/12 08:24:34,5／6 20份販售於禮納里公共服務中心一樓（下午2~4點）
2343280019,屏東縣瑪家鄉衛生所,屏東縣瑪家鄉北葉村風景巷８６號,120.6496,22.70801,(08)7991164,羅氏家用新冠病毒抗原自我檢測套組,24,2022/05/12 08:24:34,口罩販售時間:星期一至星期五8:30-12:00 13:00-16:30
2343290015,屏東縣泰武鄉衛生所,屏東縣泰武鄉佳平村１７９號,120.6327,22.59212,(08)7832059,羅氏家用新冠病毒抗原自我檢測套組,60,2022/05/12 08:24:34,4／2-4／5門診照常
2343300016,屏東縣來義鄉衛生所,屏東縣來義鄉古樓村中正路９０號,120.632,22.52584,(08)7850103,羅氏家用新冠病毒抗原自我檢測套組,29,2022/05/12 08:24:34,無
2343320018,屏東縣獅子鄉衛生所,屏東縣獅子鄉楓林村楓林二巷３１號,120.7057,22.18402,(08)8771324,羅氏家用新冠病毒抗原自我檢測套組,28,2022/05/12 08:24:34,特休日：每年農曆除夕、初一
2344011036,澎湖縣馬公市第三衛生所,澎湖縣馬公市西文里１１８之２號,119.5836,23.56813,(06)9211723,羅氏家用新冠病毒抗原自我檢測套組,104,2022/05/12 08:24:34,本所快篩試劑只提供離島衛生室（虎井、桶盤）販售，時間週一至週五08:30-17:00售完為止，星期六、日國定假日09:00-12:00。
2344030013,澎湖縣白沙鄉衛生所,澎湖縣白沙鄉赤崁村３５９號,119.5982,23.66669,(06)9931044,羅氏家用新冠病毒抗原自我檢測套組,32,2022/05/12 08:24:34,星期日上午門診看診（每月最後一個星期日休診）； 星期五上午巡迴醫療（中屯村，講美村，通樑村）
2344030022,澎湖縣白沙鄉鳥嶼衛生所,澎湖縣白沙鄉鳥嶼村漁港新村３號,119.6599,23.66008,(06)9916092,羅氏家用新冠病毒抗原自我檢測套組,194,2022/05/12 08:24:34,非上班時間提供急診服務
2344030031,澎湖縣白沙鄉吉貝衛生所,澎湖縣白沙鄉吉貝村８－１３號,119.6138,23.74056,(06)9911430,羅氏家用新冠病毒抗原自我檢測套組,303,2022/05/12 08:24:34,無
2344050015,澎湖縣望安鄉衛生所,澎湖縣望安鄉西安村３６－７號,119.4972,23.36161,(06)9991036,羅氏家用新冠病毒抗原自我檢測套組,15,2022/05/12 08:24:34,夜間急診。快篩試劑販售時間為:每日08:00-12:00、13:30-17:30售完為止，如有餘數為離島未售出（東嶼坪、花嶼）。
2344050024,澎湖縣望安鄉將軍衛生所,澎湖縣望安鄉將軍村１２鄰將軍澳１之３號,119.5216,23.3615,(06)9902066,羅氏家用新冠病毒抗原自我檢測套組,81,2022/05/12 08:24:34,24小時急診
2344060011,澎湖縣七美鄉衛生所,澎湖縣七美鄉中和村埔內５４號,119.431,23.2041,(06)9971005,羅氏家用新冠病毒抗原自我檢測套組,25,2022/05/12 08:24:34,無
2345080017,衛生福利部花蓮醫院豐濱原住民分院,花蓮縣豐濱鄉豐濱村光豐路４１號,121.5215,23.60195,(03)8358141,羅氏家用新冠病毒抗原自我檢測套組,78,2022/05/12 08:24:34,*本院口罩每天販售，時間自上午8點至晚上9點  *本院週一至週五上下午皆有門診，星期六隔週提供門診，及24小時急診。
2345100014,花蓮縣富里鄉衛生所,花蓮縣富里鄉富里村中山路２０３號,121.2491,23.17847,(03)8831029,羅氏家用新冠病毒抗原自我檢測套組,70,2022/05/12 08:24:34,*內科:每週二下午東里玉蓮寺巡診 **牙科:每週二至卓溪醫療站***口罩販賣時間8:30起至11:00止
2345110010,花蓮縣秀林鄉衛生所,花蓮縣秀林鄉秀林村１２鄰秀林路８８號,121.6334,24.1269,(03)8612122,羅氏家用新冠病毒抗原自我檢測套組,75,2022/05/12 08:24:34,口罩代售時間上班日上午8:10至12時止（口罩限量故售完為止）
2345120016,花蓮縣萬榮鄉衛生所,花蓮縣萬榮鄉萬榮村１鄰１６號,121.4092,23.71558,(03)8751651,羅氏家用新冠病毒抗原自我檢測套組,65,2022/05/12 08:24:34,快篩試劑代售時間：週一至週五下午2點至下午4點，販售為止。
2345130012,花蓮縣卓溪鄉衛生所,花蓮縣卓溪鄉卓溪村中正路６５號,121.3033,23.33294,(03)8882592,羅氏家用新冠病毒抗原自我檢測套組,78,2022/05/12 08:24:34,快篩試劑代售時間：週一至週五上午8：30-11：00（售完即結束）
2346030011,臺東縣關山鎮衛生所,臺東縣關山鎮中福里中華路７８號,121.1639,23.04957,(089)811042,羅氏家用新冠病毒抗原自我檢測套組,78,2022/05/12 08:24:34,無
2346050013,台東縣大武鄉衛生所,臺東縣大武鄉大武村復興路２－２號,120.9078,22.36414,(089)791143,羅氏家用新冠病毒抗原自我檢測套組,78,2022/05/12 08:24:34,24小時急診服務（急診無販售快篩試劑）
2346070015,臺東縣東河鄉衛生所,臺東縣東河鄉東河村南東河路１０鄰３００號,121.3031,22.96846,(089)896289,羅氏家用新冠病毒抗原自我檢測套組,78,2022/05/12 08:24:34,快篩試劑販售時間:◆平日（星期一三四五）上午9-11時販售，星期二下午13-15時販售售完為止。
2346110014,台東縣綠島鄉衛生所,臺東縣綠島鄉中寮村１－１號,121.4696,22.67319,(089)672511,羅氏家用新冠病毒抗原自我檢測套組,215,2022/05/12 08:24:34,家用快篩實名制，販售時段為上午08:30至12:00，下午13:30至16:30（周一至周五），售完為止。）
2346130016,台東縣海端鄉衛生所,臺東縣海端鄉海端村３鄰２９號,121.1767,23.10094,(089)931391,羅氏家用新冠病毒抗原自我檢測套組,52,2022/05/12 08:24:34,星期一至星期五家用快篩試劑販售時間上午10點~12點（售完為止）
2346140012,台東縣達仁鄉衛生所,臺東縣達仁鄉安朔村復興路１２２號,120.8836,22.29488,(089)702209,羅氏家用新冠病毒抗原自我檢測套組,143,2022/05/12 08:24:34,12／31 元旦連假
2346150018,台東縣金峰鄉衛生所,臺東縣金峰鄉賓茂村１鄰１４號,120.9606,22.53248,(089)772201,羅氏家用新冠病毒抗原自我檢測套組,186,2022/05/12 08:24:34,快篩試劑販售時間為星期一至星期五，早上8:30~12:00；下午1:30~5:00
2346160014,台東縣蘭嶼鄉衛生所,臺東縣蘭嶼鄉紅頭村３６號,121.5546,22.02493,(089)732575,羅氏家用新冠病毒抗原自我檢測套組,89,2022/05/12 08:24:34,販售口罩時間 星期一至星期五 8:00~12:00 13:30~17:30
2390040518,金門縣金寧鄉衛生所,金門縣金寧鄉盤山村仁愛新屯２之１號,118.3374,24.44479,(082)325735,羅氏家用新冠病毒抗原自我檢測套組,11,2022/05/12 08:24:34,購買快篩實名制週一至週五上班日上午8:00開始依排隊發放號碼牌，每日78份，售完即止
2390050032,金門縣烈嶼鄉衛生所,金門縣烈嶼鄉西口村西方６－５號,118.2395,24.43519,(082)362078,羅氏家用新冠病毒抗原自我檢測套組,78,2022/05/12 08:24:34,快篩試劑販售時間:周一至周五下午1點至3點
2391020010,連江縣北竿鄉衛生所,連江縣北竿鄉塘岐村２８１－６號,119.9991,26.22617,(083)655592,羅氏家用新冠病毒抗原自我檢測套組,93,2022/05/12 08:24:34,新冠快篩試劑販售於週一至周六每日上午08:30-12:00開放購買。
2391030016,連江縣莒光鄉西莒衛生所,連江縣莒光鄉青帆村１４－１號,119.9331,25.97157,(083)689122,羅氏家用新冠病毒抗原自我檢測套組,207,2022/05/12 08:24:34,防疫口罩星期一至五09:00-17:00、（六）09:00-12:00現場購買
2391030026,連江縣莒光鄉東莒衛生所,連江縣莒光鄉大坪村３０－１號,119.9731,25.96113,(083)689038,羅氏家用新冠病毒抗原自我檢測套組,431,2022/05/12 08:24:34,防疫口罩星期一至星期日上午10:00-12:00收取健保卡，下午3:30至本所領取口罩。
2391040012,連江縣東引鄉衛生所,連江縣東引鄉中柳村１２３號,120.4904,26.36701,(083)677206,羅氏家用新冠病毒抗原自我檢測套組,77,2022/05/12 08:24:34,防疫口罩每日08:30-09:30現場購買
5901010290,健全藥局,臺北市松山區民權東路３段１０３巷２０號,121.5449,25.06327,(02)27128293,羅氏家用新冠病毒抗原自我檢測套組,12,2022/05/12 08:24:34,無
5901010496,瑞昌大藥局,臺北市松山區民權東路３段１０３巷１０號,121.5449,25.06298,(02)27151881,羅氏家用新冠病毒抗原自我檢測套組,1,2022/05/12 08:24:34,無
5901011975,萬泰藥局,臺北市松山區敦化北路２２２巷３８號,121.5471,25.05994,(02)27135891,羅氏家用新冠病毒抗原自我檢測套組,15,2022/05/12 08:24:34,每日早上9.00販售快篩試劑
5901012409,家音藥局,臺北市松山區民生東路５段７３號,121.5585,25.05871,(02)37652080,羅氏家用新冠病毒抗原自我檢測套組,7,2022/05/12 08:24:34,實名制快篩販售時段公告，請追蹤美康健保藥局 家音店 FB粉絲頁，謝謝~
5901012516,惠登藥局,臺北市松山區民生東路３段１３０巷３４號,121.5461,25.0562,(02)25472432,羅氏家用新冠病毒抗原自我檢測套組,77,2022/05/12 08:24:34,實名制快篩週一到週五下午2點販售
5901012570,予志藥局,臺北市松山區富錦街５２１號,121.5649,25.06119,(02)27623522,羅氏家用新冠病毒抗原自我檢測套組,1,2022/05/12 08:24:34,實名制快篩星期一到三下午2點、星期四到六晚上8點、星期日停售
5901012598,婕登藥局,臺北市松山區八德路４段６９９號,121.5766,25.05021,(02)27482893,羅氏家用新冠病毒抗原自我檢測套組,11,2022/05/12 08:24:34,今天快篩已經發送完畢（電腦庫存不準）
5901012712,立康大藥局,臺北市松山區八德路四段２－１號,121.5581,25.04812,(02)27471749,羅氏家用新冠病毒抗原自我檢測套組,6,2022/05/12 08:24:34,快篩時間：周一～周五9:30-14:00，18:00-21:30。周六10:30-12:30，18:00-20:00。周日暫停販售。如有修正以店面公告為主
5901012767,晨新藥局,臺北市松山區八德路４段９１巷１－１號,121.5608,25.04894,(02)27422951,羅氏家用新冠病毒抗原自我檢測套組,67,2022/05/12 08:24:34,本店星期一不販售快篩，其餘時間為下午2點至5點排隊販售。若有修正依店內公告為主。
5901012963,綠之家藥局,臺北市松山區延壽街４２８號,121.5562,25.0562,(02)25289595,羅氏家用新冠病毒抗原自我檢測套組,126,2022/05/12 08:24:34,禮拜日不販售快篩
5901013095,康采藥局,臺北市松山區南京東路５段２９１巷１７－２號,121.5663,25.05236,(02)27670271,羅氏家用新冠病毒抗原自我檢測套組,13,2022/05/12 08:24:34,（已完售，庫存不準）快篩試劑每日16點販售，週日沒有販售
5901013120,誠康中西藥局,臺北市松山區南京東路５段５９巷３１弄４３號,121.5607,25.05346,(02)27619679,羅氏家用新冠病毒抗原自我檢測套組,50,2022/05/12 08:24:34,禮拜一到六早上7點發號碼牌，到貨時會用社群通知大家來取貨
5901013451,新德大藥局,臺北市松山區饒河街２０４號,121.577,25.05074,(02)27673402,羅氏家用新冠病毒抗原自我檢測套組,55,2022/05/12 08:24:34,周一至周六上午九點開賣；快篩實名制（周日休息）
5901013586,安禾大藥局,臺北市松山區撫遠街３８２號,121.5656,25.06443,(02)27602952,羅氏家用新冠病毒抗原自我檢測套組,1,2022/05/12 08:24:34,週一~週五 14:00發放號碼牌，65歲以上老人12歲以下兒童優先
5901013595,巧心藥局,臺北市松山區八德路３段１２巷５７弄３９之３號１樓,121.5521,25.04567,(02)25703728,羅氏家用新冠病毒抗原自我檢測套組,62,2022/05/12 08:24:34,快篩試劑14:00販售，售完為止．
5901013620,躍獅敦北藥局,臺北市松山區民生東路４段８０巷５號１樓,121.5531,25.05713,(02)27155691,羅氏家用新冠病毒抗原自我檢測套組,17,2022/05/12 08:24:34,實名制快篩販售時間PM14:30 本店會預留28份供及人大廈住戶購買 剩餘數量供現場民眾排隊購買（14:30開始販購）
5901013693,民生盛康藥局,臺北市松山區民生東路５段２０４號１樓,121.5648,25.05826,(02)27460758,羅氏家用新冠病毒抗原自我檢測套組,51,2022/05/12 08:24:34,【每日70分】星期一~六9:00發號碼牌，11:00~20:00拿號碼牌回來領取，每人限1張號碼牌，逾時不候
5901020385,延吉大藥局,臺北市大安區延吉街１５３號１樓,121.5548,25.04066,(02)27819227,羅氏家用新冠病毒抗原自我檢測套組,41,2022/05/12 08:24:34,無
5901020563,施寶藥局,臺北市大安區安東街５０－５號１樓,121.5426,25.04277,(02)27114175,羅氏家用新冠病毒抗原自我檢測套組,7,2022/05/12 08:24:34,週一至週五早上11點到下午8點.周六周日及公訂例假日公休快篩早上11點開始銷售直到配額售完為止
5901020616,龍護大藥局,臺北市大安區大安路１段２２４巷７號１Ｆ,121.5454,25.03401,(02)23250686,羅氏家用新冠病毒抗原自我檢測套組,7,2022/05/12 08:24:34,無
5901020858,順天堂藥局,臺北市大安區龍泉街９６號,121.5292,25.02256,(02)23627149,羅氏家用新冠病毒抗原自我檢測套組,31,2022/05/12 08:24:34,實名制快篩早上9:30開始發放，每日78份，發完為止。禮拜日公休
5901020876,大興藥局,臺北市大安區通化街３９巷５０弄１５號１樓,121.5555,25.03056,(02)27053369,羅氏家用新冠病毒抗原自我檢測套組,84,2022/05/12 08:24:34,快篩試劑販售時間自08:30開始，現場排隊。（週日休息）
5901021382,建如藥局,臺北市大安區和平東路３段２２８巷１１號１Ｆ,121.5543,25.02174,(02)27331456,羅氏家用新冠病毒抗原自我檢測套組,112,2022/05/12 08:24:34,8:00先領取號碼牌並收取健保卡 .9:00後才領回健保卡及快篩 星期日休息
5901024007,古亭健康人生藥局,臺北市大安區羅斯福路２段８３號,121.5237,25.02572,(02)23660895,羅氏家用新冠病毒抗原自我檢測套組,1,2022/05/12 08:24:34,快篩僅販售14:00-16:00。營業時間9:30-21:55。
5901024098,杏一瑞安藥局,臺北市大安區瑞安街２０８巷１１弄１號,121.5406,25.02866,(02)27096710,羅氏家用新冠病毒抗原自我檢測套組,78,2022/05/12 08:24:34,3點發快篩，前5分鐘發牌
5901024543,奇威藥局,臺北市大安區雲和街９３號,121.5312,25.02338,(02)23651110,羅氏家用新冠病毒抗原自我檢測套組,12,2022/05/12 08:24:34,無
5901024669,百岳藥局,臺北市大安區和平東路２段３１１巷１１號,121.5452,25.02514,(02)27551037,羅氏家用新冠病毒抗原自我檢測套組,57,2022/05/12 08:24:34,快篩試劑販售時間:周一至周五10:30~12:00止
5901024918,康祥藥局,臺北市大安區忠孝東路４段２１６巷２１號,121.5531,25.04025,(02)27817891,羅氏家用新冠病毒抗原自我檢測套組,2,2022/05/12 08:24:34,星期天11:00-19:00
5901024954,佑全大安敦南藥局,臺北市大安區敦化南路２段６３巷４６號,121.5512,25.03089,(02)23257579,羅氏家用新冠病毒抗原自我檢測套組,78,2022/05/12 08:24:34,早上10點發放號碼牌，同時開始販賣實名制快篩
5901024981,專品六張犁藥局,臺北市大安區基隆路２段２１７號１樓,121.5513,25.02299,(02)87322226,羅氏家用新冠病毒抗原自我檢測套組,18,2022/05/12 08:24:34,無
5901025004,早安藥局,臺北市大安區建國南路２段１５１巷４２號１樓,121.5396,25.02865,(02)27002209,羅氏家用新冠病毒抗原自我檢測套組,49,2022/05/12 08:24:34,快篩早上9點發號碼牌留卡下午2點領取
5901025059,博醫仁愛藥局,臺北市大安區仁愛路４段８巷２號１樓,121.5443,25.0375,(02)27019107,羅氏家用新冠病毒抗原自我檢測套組,78,2022/05/12 08:24:34,每天11:30發號碼牌，12:00~15:00憑號碼牌與健保卡購買實名制快篩
5901090074,慈仁藥局,臺北市大同區歸綏街２６１號１樓,121.5101,25.05832,(02)25572733,羅氏家用新冠病毒抗原自我檢測套組,35,2022/05/12 08:24:34,平日營業至晚上6點，星期六營業至下午2點，星期日公休
5901090154,柯藥局,臺北市大同區重慶北路３段３３５巷６號,121.5144,25.07452,(02)25948515,羅氏家用新冠病毒抗原自我檢測套組,171,2022/05/12 08:24:34,库存已零如何歸零
5901090323,泰元藥局,臺北市大同區哈密街９１號,121.5146,25.07303,(02)25914592,羅氏家用新冠病毒抗原自我檢測套組,32,2022/05/12 08:24:34,無
5901091544,得意藥師藥局,臺北市大同區延平北路２段２２９號,121.5115,25.06029,(02)25534294,羅氏家用新冠病毒抗原自我檢測套組,7,2022/05/12 08:24:34,無
5901091688,宏泰藥師藥局,臺北市大同區酒泉街１３１號,121.5145,25.07213,(02)25957025,羅氏家用新冠病毒抗原自我檢測套組,39,2022/05/12 08:24:34,週一至週五9:30-22:00。週日14:00-22:00※快篩發放號碼牌時間為14:30，發完為止。
5901091759,儷安藥局,臺北市大同區錦西街５３巷１６號,121.5158,25.06065,(02)25578033,羅氏家用新冠病毒抗原自我檢測套組,1,2022/05/12 08:24:34,12點開始販售快篩試劑，營業時間:上午10點到下午6點
5901091884,躍獅雙蓮藥局,臺北市大同區涼州街４號,121.5147,25.06078,(02)25537551,羅氏家用新冠病毒抗原自我檢測套組,80,2022/05/12 08:24:34,實名制快篩：平日週一～五 下午３點開賣 （六、日停售）
5901092087,躍獅文昌藥局,臺北市大同區民生西路１０８號（實際營業：一層）,121.5197,25.0574,(02)25586189,羅氏家用新冠病毒抗原自我檢測套組,61,2022/05/12 08:24:34,無
5901092158,慶福藥局,臺北市大同區南京西路２３３巷２號（１樓）,121.5104,25.05397,(02)25503628,羅氏家用新冠病毒抗原自我檢測套組,78,2022/05/12 08:24:34,無
5901100066,名祥藥局,臺北市中山區龍江路１６６號,121.5403,25.05505,(02)25036265,羅氏家用新冠病毒抗原自我檢測套組,29,2022/05/12 08:24:34,實名制快篩代售時間為早上08:00＜售完為止＞
5901100155,大信藥局,臺北市中山區林森北路１５９巷６號,121.5255,25.0517,(02)25719080,羅氏家用新冠病毒抗原自我檢測套組,1,2022/05/12 08:24:34,無
5901100342,順泰藥局,臺北市中山區錦州街２６６號,121.5348,25.06025,(02)25038916,羅氏家用新冠病毒抗原自我檢測套組,3,2022/05/12 08:24:34,無
5901100422,滿順藥局,臺北市中山區伊通街５４號１樓,121.5347,25.05145,(02)25075283,羅氏家用新冠病毒抗原自我檢測套組,77,2022/05/12 08:24:34,快篩服務時間 AM 8:30 起 售完為止
5901100628,貢玄藥局,臺北市中山區錦州街２０７號,121.532,25.06039,(02)25637847,羅氏家用新冠病毒抗原自我檢測套組,2,2022/05/12 08:24:34,早上10點~11點領口罩
5901101607,蓁榛健康生活藥局,臺北市中山區合江街１００－２號１樓,121.5391,25.05845,(02)25099333,羅氏家用新冠病毒抗原自我檢測套組,3,2022/05/12 08:24:34,實名制快篩配售時間依到貨時間而定，請參考蓁榛健康生活藥局合江店臉書公告
5901101652,祥泰藥局,臺北市中山區林森北路１３６號,121.5251,25.05142,(02)25313097,羅氏家用新冠病毒抗原自我檢測套組,1,2022/05/12 08:24:34,快篩下午一點開始 星期六三點開始 現場排隊
5901101910,嘉恩藥局,臺北市中山區錦州街３２１號,121.5385,25.06033,(02)25181418,羅氏家用新冠病毒抗原自我檢測套組,39,2022/05/12 08:24:34,週一至週六下午一點販售快篩試劑
5901101929,樂活苑藥局,臺北市中山區北安路５４６號１樓,121.548,25.08014,(02)25323296,羅氏家用新冠病毒抗原自我檢測套組,10,2022/05/12 08:24:34,實名制快篩代售時間為18:00~19:00.現場排隊，不發號碼牌.
5901101992,大愛藥師藥局,臺北市中山區吉林路２５５號１樓,121.5304,25.06165,(02)25424723,羅氏家用新冠病毒抗原自我檢測套組,35,2022/05/12 08:24:34,週一~週五13:55發放號碼牌14:00發放快篩，週六、週日休息
5901102015,久大藥局,臺北市中山區林森北路４８０號,121.5255,25.06127,(02)25111594,羅氏家用新冠病毒抗原自我檢測套組,6,2022/05/12 08:24:34,即日起周一至周六下午1:00-4:00領取口罩。 周日休息
5901102060,專心藥局,臺北市中山區伊通街１１２－２號,121.5347,25.05426,(02)25155847,羅氏家用新冠病毒抗原自我檢測套組,31,2022/05/12 08:24:34,無
5901102686,富宥康藥局,臺北市中山區北安路６０８巷５弄２２號,121.5496,25.08263,(02)25325277,羅氏家用新冠病毒抗原自我檢測套組,1,2022/05/12 08:24:34,無
5901102837,正傑健保藥局,臺北市中山區長安東路２段１８１號,121.5426,25.04839,(02)27310181,羅氏家用新冠病毒抗原自我檢測套組,78,2022/05/12 08:24:34,下午四點開始販售
5901103110,大直健康藥局,臺北市中山區北安路５９１號,121.5486,25.08194,(02)25323310,羅氏家用新冠病毒抗原自我檢測套組,98,2022/05/12 08:24:34,發號碼牌時間:09:00   販售時間:12:00-17:00
5901103227,建誠中西藥局,臺北市中山區龍江路３８５之１號,121.541,25.06511,(02)25158608,羅氏家用新冠病毒抗原自我檢測套組,17,2022/05/12 08:24:34,實名制快篩發放時間 週一至週六13:00-14:00
5901103272,長安藥局,臺北市中山區長安東路２段１７１－３號,121.5418,25.0484,(02)27772740,羅氏家用新冠病毒抗原自我檢測套組,1,2022/05/12 08:24:34,實名制快篩下午四點開始發放，周日公休
5901103334,大直小太陽藥局,臺北市中山區北安路６０７之１號,121.5488,25.08241,(02)85093208,羅氏家用新冠病毒抗原自我檢測套組,38,2022/05/12 08:24:34,無
5901103352,美康正康藥局,臺北市中山區北安路６１６之１號、６１８號２樓之１,121.549,25.08243,(02)25323077,羅氏家用新冠病毒抗原自我檢測套組,33,2022/05/12 08:24:34,5月實名制快篩:14:30~售完
5901103405,大直永安藥局,臺北市中山區北安路５６７之２號,121.5482,25.08073,(02)25332125,羅氏家用新冠病毒抗原自我檢測套組,1,2022/05/12 08:24:34,今天下午兩點開始銷售
5901103423,農安藥局,臺北市中山區農安街１８之１號,121.5248,25.06483,(02)25959293,羅氏家用新冠病毒抗原自我檢測套組,32,2022/05/12 08:24:34,5／11起快篩2點開賣
5901103558,佳頤中西藥局,臺北市中山區長春路１４７之１號,121.5323,25.05495,(02)25641479,羅氏家用新冠病毒抗原自我檢測套組,2,2022/05/12 08:24:34,實名制快篩販售時間為下午1點起，售完為止，其他販售細節以店內公告為主
5901103727,盛康藥局,臺北市中山區吉林路３９９號１樓,121.5305,25.06587,(02)25969580,羅氏家用新冠病毒抗原自我檢測套組,1,2022/05/12 08:24:34,國定假日仍執行調劑業務
5901103736,杏一龍錦藥局,臺北市中山區龍江路２７９號１樓,121.5408,25.05973,(02)25174618,羅氏家用新冠病毒抗原自我檢測套組,2,2022/05/12 08:24:34,快篩提供時段週一到週六 9:00-12:00 週日不提供發放!!! 不發號碼牌 每日販售78人次 售完為止＞＜
5901103754,永育康暉藥局,臺北市中山區樂群二路２１０之２號１樓,121.5593,25.07952,(02)85012227,羅氏家用新冠病毒抗原自我檢測套組,1,2022/05/12 08:24:34,快篩試劑8:30開始販售，賣完為止
5901103772,興耀生活藥局,臺北市中山區林森北路４０５號（１樓）,121.5257,25.05943,(02)25818210,羅氏家用新冠病毒抗原自我檢測套組,36,2022/05/12 08:24:34,國定假日仍執行調劑業務
5901103781,龍江台安藥局,臺北市中山區龍江路２４７號（１樓）,121.5408,25.05862,(02)25091007,羅氏家用新冠病毒抗原自我檢測套組,1,2022/05/12 08:24:34,實名制快篩下午2:00開始拿號碼牌
5901110268,赫得藥局,臺北市內湖區康樂街７２巷１７弄４號１Ｆ,121.6178,25.06976,(02)26328642,羅氏家用新冠病毒抗原自我檢測套組,1,2022/05/12 08:24:34,每周日公休。快篩試劑於周一至周六，早上8:30開賣（賣完為止）。
5901110311,永安藥局,臺北市內湖區文德路２１０巷３０弄４８號,121.5852,25.07723,(02)26586658,羅氏家用新冠病毒抗原自我檢測套組,1,2022/05/12 08:24:34,口罩販售時間早上10點開始發號碼牌  同時販售
5901110339,富山藥局,臺北市內湖區麗山街３６４巷２號１樓,121.5728,25.08168,(02)27996446,羅氏家用新冠病毒抗原自我檢測套組,7,2022/05/12 08:24:34,周日公休，政府供貨不穩定，請搜尋facebook「富山生活藥妝」查看每日公告
5901112100,盧狄聯合藥局,臺北市內湖區康寧路３段１８９巷５７號,121.6129,25.07133,(02)26308897,羅氏家用新冠病毒抗原自我檢測套組,3,2022/05/12 08:24:34,營業時間08:00~22:00，週六上半天   **快篩實名制販售辦法公告在fb及門口**
5901112593,康健藥局,臺北市內湖區康樂街８０號,121.6189,25.07015,(02)26305825,羅氏家用新冠病毒抗原自我檢測套組,72,2022/05/12 08:24:34,無
5901112726,高昱藥局,臺北市內湖區陽光街３２１巷２６號２樓之１５,121.5786,25.07236,(02)87519962,羅氏家用新冠病毒抗原自我檢測套組,18,2022/05/12 08:24:34,週六日預約
5901112762,樂活藥師藥局,臺北市內湖區內湖路２段３６８號,121.591,25.0823,(02)27968052,羅氏家用新冠病毒抗原自我檢測套組,70,2022/05/12 08:24:34,實名制快篩作業: 早上7:30領號碼牌，下午2:00領快篩。周日公休。
5901112824,思恩藥局,臺北市內湖區成功路４段６１巷２６號,121.5932,25.08121,(02)27965808,羅氏家用新冠病毒抗原自我檢測套組,36,2022/05/12 08:24:34,快篩販售時間:禮拜一~五 14:00~17:00
5901112879,壹零捌藥局,臺北市內湖區成功路４段３４４號,121.5996,25.08488,(02)27910061,羅氏家用新冠病毒抗原自我檢測套組,1,2022/05/12 08:24:34,快篩晚上7:30開始販售（星期一至星期六）
5901113018,桔子藥局,臺北市內湖區內湖路２段３３３號,121.5917,25.08319,(02)27930052,羅氏家用新冠病毒抗原自我檢測套組,78,2022/05/12 08:24:34,早0900-1200，午1400-1700，晚1900-2100
5901113296,喜越藥局,臺北市內湖區內湖路１段２８５巷５９弄７號,121.5673,25.08377,(02)26271955,羅氏家用新冠病毒抗原自我檢測套組,61,2022/05/12 08:24:34,無
5901113367,瑞暉藥局,臺北市內湖區文德路１０５號,121.5837,25.0787,(02)26276828,羅氏家用新冠病毒抗原自我檢測套組,4,2022/05/12 08:24:34,營業時間: 09:00~22:00
5901113590,維安藥局,臺北市內湖區成功路３段１７４巷２３號,121.5906,25.08143,(02)27944520,羅氏家用新冠病毒抗原自我檢測套組,156,2022/05/12 08:24:34,快篩每周一至六0930開賣，10點結束，視人數發號，每日固定78位，多的78為隔日庫存
5901113625,富康文德藥局,臺北市內湖區文德路２２巷２７弄４號,121.58,25.0766,(02)26272000,羅氏家用新冠病毒抗原自我檢測套組,14,2022/05/12 08:24:34,無
5901113652,加一藥師藥局,臺北市內湖區星雲街２４號１樓,121.5908,25.07804,(02)87912653,羅氏家用新冠病毒抗原自我檢測套組,59,2022/05/12 08:24:34,無
5901113705,富康活力湖光藥局,臺北市內湖區康寧路１段２５號１樓,121.5914,25.08062,(02)87927999,羅氏家用新冠病毒抗原自我檢測套組,6,2022/05/12 08:24:34,視快篩實際到貨時間販售（通常是下午2:00）**Line社群搜尋[[富康活力湖光藥局]]，會有第一線消息唷**
5901113741,原大藥局,臺北市內湖區內湖路１段７３７巷５０弄５號１樓,121.5788,25.08058,(02)26596358,羅氏家用新冠病毒抗原自我檢測套組,122,2022/05/12 08:24:34,9:00開賣快篩，不發號碼牌，現場售完為止。
5901120022,旭村藥局,臺北市南港區興華路１１２號,121.6055,25.05661,(02)27820948,羅氏家用新冠病毒抗原自我檢測套組,65,2022/05/12 08:24:34,快篩實名制販賣以號碼牌為準
5901120139,裕成藥局,臺北市南港區玉成街１６６巷１３號,121.5835,25.04433,(02)27851227,羅氏家用新冠病毒抗原自我檢測套組,23,2022/05/12 08:24:34,2／12~12／15公休
5901120175,新錦安藥局,臺北市南港區南港路３段３４號,121.5922,25.05429,(02)27825218,羅氏家用新冠病毒抗原自我檢測套組,78,2022/05/12 08:24:34,快篩販售時間星期一到星期六上午8:30開始   星期日上午10:30開始
5901121421,祥安藥局,臺北市南港區中坡南路２５號,121.5832,25.04329,(02)26547322,羅氏家用新冠病毒抗原自我檢測套組,3,2022/05/12 08:24:34,無
5901121583,健園藥局,臺北市南港區研究院路１段１９號１樓,121.6166,25.05401,(02)27851567,羅氏家用新冠病毒抗原自我檢測套組,33,2022/05/12 08:24:34,早上8點開賣 （政府有配送的狀況下） 沒發放號碼牌售完為止
5901121627,富康活力藥局,臺北市南港區研究院路１段１０１巷８號,121.6165,25.05181,(02)27828810,羅氏家用新冠病毒抗原自我檢測套組,1,2022/05/12 08:24:34,週一至週六，每天09:00-21:00販售口罩，請記得帶健保卡&零錢，售完為止。
5901121869,南港藥局,臺北市南港區南港路一段１６６號,121.6119,25.05536,(02)27829137,羅氏家用新冠病毒抗原自我檢測套組,78,2022/05/12 08:24:34,快篩販售時間晚上6:00~晚上8:00（每天78份，售完即止）（周日休息）
5901121912,成恩藥局,臺北市南港區成福路２３號,121.5867,25.04473,(02)27856602,羅氏家用新冠病毒抗原自我檢測套組,39,2022/05/12 08:24:34,快篩販賣時間：平日 周一到周五 下午3:00~5:00，現場排隊不發放號碼牌
5901122062,躍獅忠孝藥局,臺北市南港區成福路１６號,121.586,25.04561,(02)27862829,羅氏家用新冠病毒抗原自我檢測套組,12,2022/05/12 08:24:34,下午3:30開始販售快篩，不發放號碼牌
5901150128,新興藥局,臺北市士林區德行西路１１７號,121.5206,25.10398,(02)28362643,羅氏家用新冠病毒抗原自我檢測套組,76,2022/05/12 08:24:34,無
5901150253,文祥藥局,臺北市士林區光華路２６巷２弄２號,121.542,25.13749,(02)28623487,羅氏家用新冠病毒抗原自我檢測套組,78,2022/05/12 08:24:34,周一至周日早上8點30分開始售實名制快篩
5901152024,今欣藥局,臺北市士林區天母西路４１巷９號１樓,121.5274,25.11931,(02)28713129,羅氏家用新冠病毒抗原自我檢測套組,1,2022/05/12 08:24:34,快篩周一到周五每天早上10點開始販售，周日及國定假日休息
5901152079,資生堂藥局,臺北市士林區承德路４段４０巷１７號１Ｆ,121.522,25.08107,(02)28857588,羅氏家用新冠病毒抗原自我檢測套組,78,2022/05/12 08:24:34,今日快篩已售完
5901152293,安泰藥師藥局,臺北市士林區延平北路六段８３號（實際使用：１、２樓）,121.5087,25.08844,(02)28166977,羅氏家用新冠病毒抗原自我檢測套組,59,2022/05/12 08:24:34,星期一~星期六 下午2點30分 開始發快篩~
5901152604,達揚藥局,臺北市士林區社正路３６號１樓,121.5099,25.08877,(02)88115559,羅氏家用新冠病毒抗原自我檢測套組,8,2022/05/12 08:24:34,無
5901152659,和樹藥局,臺北市士林區後港街４５巷１號１樓,121.5228,25.08444,(02)28821188,羅氏家用新冠病毒抗原自我檢測套組,78,2022/05/12 08:24:34,週日公休，周一早上9:30
5901152686,三光藥局,臺北市士林區延平北路５段３２０號１樓,121.5096,25.08628,(02)28123786,羅氏家用新冠病毒抗原自我檢測套組,76,2022/05/12 08:24:34,無
5901152748,柏雅大藥局,臺北市士林區德行西路６４號,121.5227,25.10506,(02)88664398,羅氏家用新冠病毒抗原自我檢測套組,25,2022/05/12 08:24:34,每天早上10:30開始販售快篩試劑，星期日公休不販售。
5901152793,信光藥局,臺北市士林區文昌路６８號,121.5214,25.09619,(02)28366277,羅氏家用新冠病毒抗原自我檢測套組,3,2022/05/12 08:24:34,下午三點發放快篩
5901153245,大東健保藥局,臺北市士林區大東路８６－４號,121.5257,25.09131,(02)28834672,羅氏家用新冠病毒抗原自我檢測套組,107,2022/05/12 08:24:34,實名制快篩販售以現場門口公告為主  請勿來電詢問時間
5901153263,健揚藥局,臺北市士林區延平北路５段２５１號,121.5097,25.08483,(02)28163698,羅氏家用新冠病毒抗原自我檢測套組,5,2022/05/12 08:24:34,每日下午13:30開始販售
5901153503,祥新藥局,臺北市士林區社子街６５號,121.5067,25.08751,(02)28110906,羅氏家用新冠病毒抗原自我檢測套組,68,2022/05/12 08:24:34,實名制快篩星期2、3、5、6早上十點開賣；週一、四晚上7點開賣，周日公休
5901153674,愛佳藥局,臺北市士林區承德路４段２２２之１號,121.5215,25.0885,(02)28811199,羅氏家用新冠病毒抗原自我檢測套組,78,2022/05/12 08:24:34,實名制快篩平日一~五下午5:00販售，假日（六、日）不販售
5901153825,太和堂中西藥局,臺北市士林區大東路７４號（實際使用：１樓）,121.5257,25.09037,(02)28814122,羅氏家用新冠病毒抗原自我檢測套組,79,2022/05/12 08:24:34,上午8:30現場領號碼牌。週日公休
5901153905,躍獅芝山藥局,臺北市士林區福華路１５４號（實際使用：１樓）,121.5227,25.10357,(02)28365822,羅氏家用新冠病毒抗原自我檢測套組,4,2022/05/12 08:24:34,無
5901154019,忠義台安藥局,臺北市士林區忠義街７２號１樓,121.5315,25.106,(02)28380685,羅氏家用新冠病毒抗原自我檢測套組,75,2022/05/12 08:24:34,下午2點開始販售快篩試劑
5901154055,天母盛康藥局,臺北市士林區天母東路８巷８４號１樓,121.5304,25.11483,(02)28720208,羅氏家用新冠病毒抗原自我檢測套組,58,2022/05/12 08:24:34,實名制快篩每日14:00開始，賣完為止。
5901154108,藥本家藥局,臺北市士林區中山北路７段１４巷２６號１樓,121.5328,25.11884,(02)28766682,羅氏家用新冠病毒抗原自我檢測套組,2,2022/05/12 08:24:34,無
5901154144,加赫藥局,臺北市士林區文昌路７６號１樓,121.5212,25.09646,(02)28336362,羅氏家用新冠病毒抗原自我檢測套組,78,2022/05/12 08:24:34,無
5901160142,德昇藥局,臺北市北投區裕民二路２０號,121.517,25.11604,(02)28217565,羅氏家用新冠病毒抗原自我檢測套組,1,2022/05/12 08:24:34,週一至週五下午 2:30分 實名制快篩現場排隊發售
5901160222,新祥藥局,臺北市北投區知行路２０８號－１,121.4668,25.11935,(02)28582551,羅氏家用新冠病毒抗原自我檢測套組,41,2022/05/12 08:24:34,實名制快篩下午1:30分發放號碼牌，隨後依照號碼牌發售，周日休息
5901160277,建民藥局,臺北市北投區光明路１６１號,121.5027,25.13538,(02)28912339,羅氏家用新冠病毒抗原自我檢測套組,98,2022/05/12 08:24:34,快篩實名制星期一至星期六早上十點開始 （依現場公告為主）
5901160562,名山藥局,臺北市北投區東陽街４７５號１樓,121.5199,25.11231,(02)28226101,羅氏家用新冠病毒抗原自我檢測套組,58,2022/05/12 08:24:34,快篩試劑早上08:30販賣，先拿號碼牌，早上10；00前過卡，逾時放棄
5901162306,上頤藥局,臺北市北投區中和街３２７號１樓,121.4997,25.14097,(02)28981230,羅氏家用新冠病毒抗原自我檢測套組,279,2022/05/12 08:24:34,快篩販售時間:星期一~六 下午2點開賣，星期日停售
5901162833,維康藥局,臺北市北投區石牌路２段１９１．１９３號,121.5184,25.11874,(02)28206343,羅氏家用新冠病毒抗原自我檢測套組,17,2022/05/12 08:24:34,快篩發放時間為每日下午3點排隊，現場購賣
5901163107,小豬藥局,臺北市北投區東陽街４０３號１樓,121.5176,25.11244,(02)28217099,羅氏家用新冠病毒抗原自我檢測套組,11,2022/05/12 08:24:34,星期六.星期日不販售
5901163438,漢藥局,臺北市北投區吉利街１４６號,121.508,25.11854,(02)28236598,羅氏家用新冠病毒抗原自我檢測套組,18,2022/05/12 08:24:34,快篩實名制領取時間：周一至周六下午2點現場排隊
5901163465,振生大藥局,臺北市北投區中央北路３段６１號,121.4847,25.13785,(02)28977292,羅氏家用新冠病毒抗原自我檢測套組,68,2022/05/12 08:24:34,早上8:30點開始販售 週日公休
5901163545,天康大藥局,臺北市北投區中央南路１段５７號,121.5014,25.13192,(02)28914265,羅氏家用新冠病毒抗原自我檢測套組,1,2022/05/12 08:24:34,實名制快篩下午1:30現場販售
5901163554,良哲藥局,臺北市北投區明德路１５７－４號（實際使用：１樓）,121.5209,25.11129,(02)28285516,羅氏家用新冠病毒抗原自我檢測套組,135,2022/05/12 08:24:34,實名制快篩販售時間：早上 9:00~9:30／下午 2:30~3:00（週六人力不足不販售／週日休息）
5901163563,躍獅光明藥局,臺北市北投區光明路５１號、５３號（實際使用：１樓）,121.4998,25.13286,(02)28915993,羅氏家用新冠病毒抗原自我檢測套組,1,2022/05/12 08:24:34,*今日份快篩已售完*1.早上9:30發號碼牌2.等快篩到貨才開始賣3.有號碼牌者請在晚上8點前領取，逾期作廢
5901163572,永欣中西藥局,臺北市北投區中和街５０１號,121.4947,25.1452,(02)28910307,羅氏家用新冠病毒抗原自我檢測套組,7,2022/05/12 08:24:34,週一至週六 早上9:30發號碼牌 10點販售 周日公休（庫存不準 號碼牌發完即售完）謝謝
5901163616,江南育仁大藥局,臺北市北投區育仁路５５號１樓,121.4981,25.13361,(02)28981850,羅氏家用新冠病毒抗原自我檢測套組,1,2022/05/12 08:24:34,下午2點販售實名制快篩，假日視政府配發情況調整
5901170139,福華藥局,臺北市信義區吳興街２８１巷３號１樓,121.5643,25.02656,(02)27208527,羅氏家用新冠病毒抗原自我檢測套組,1,2022/05/12 08:24:34,現階段下午1:30配合政府發售快篩試劑
5901170648,立信藥局,臺北市信義區松山路４０３號,121.578,25.04144,(02)27687754,羅氏家用新冠病毒抗原自我檢測套組,1,2022/05/12 08:24:34,快篩試劑販賣時間:晚上七點至九點
5901170915,杏仁藥局,臺北市信義區大道路１３５號,121.5834,25.03901,(02)27262541,羅氏家用新冠病毒抗原自我檢測套組,27,2022/05/12 08:24:34,實名制快篩:週一至週五下午3點販售，週六週日無販售
5901172240,德康大藥局,臺北市信義區松山路５４１巷２１號,121.579,25.03794,(02)27272502,羅氏家用新冠病毒抗原自我檢測套組,6,2022/05/12 08:24:34,下午三點開始販售
5901172704,鴻濟藥局,臺北市信義區永吉路３２６巷２號１樓,121.5754,25.04507,(02)27645331,羅氏家用新冠病毒抗原自我檢測套組,4,2022/05/12 08:24:34,快篩販售時間:周一至周五: 15:00開始。週六.周日:視實際到貨情形請見門口公告
5901172964,榮泰藥局,臺北市信義區光復南路４１９巷１９號,121.5582,25.03659,(02)77296777,羅氏家用新冠病毒抗原自我檢測套組,18,2022/05/12 08:24:34,早上9:00開始發放實名制快篩號碼牌
5901173210,濟生中西藥局,臺北市信義區崇德街４１號,121.5542,25.02436,(02)27358452,羅氏家用新冠病毒抗原自我檢測套組,28,2022/05/12 08:24:34,最新資訊FB:Jcp濟生中西藥局＃口罩:每天早8點開始＃營業時間:星期1245:早9點~晚8點 星期36:早9點~中午12點（中午休12-15點）
5901173372,新永春藥局,臺北市信義區忠孝東路５段４２３巷１號,121.5753,25.04126,(02)27667385,羅氏家用新冠病毒抗原自我檢測套組,21,2022/05/12 08:24:34,快篩販售時間:每日13:00開始，售完為止
5901173407,康怡健保藥局,臺北市信義區吳興街４６７巷２弄１２號,121.5695,25.02381,(02)27206193,羅氏家用新冠病毒抗原自我檢測套組,83,2022/05/12 08:24:34,快篩早上9點開賣，賣完為止
5901173738,尚頤中西藥局,臺北市信義區虎林街１４５號,121.5767,25.03959,(02)27253818,羅氏家用新冠病毒抗原自我檢測套組,40,2022/05/12 08:24:34,無
5901173872,柏愛藥局,臺北市信義區基隆路２段１３１之９號,121.5567,25.02788,(02)27325472,羅氏家用新冠病毒抗原自我檢測套組,10,2022/05/12 08:24:34,國定假日營業時間為09:30-17:30；實名制快篩09:30開賣
5901173881,壹間藥師藥局,臺北市信義區虎林街１２０巷１４８號,121.5742,25.04213,(02)27672833,羅氏家用新冠病毒抗原自我檢測套組,1,2022/05/12 08:24:34,5／12（四）10:30實名制快篩開始販售
5901173934,躍獅光復藥局,臺北市信義區光復南路４１７之８號,121.5577,25.03682,(02)87862307,羅氏家用新冠病毒抗原自我檢測套組,16,2022/05/12 08:24:34,下午1點開始販售
5901174039,日安藥局,臺北市信義區松仁路２４０巷１３號１樓,121.5691,25.02454,(02)27203775,羅氏家用新冠病毒抗原自我檢測套組,29,2022/05/12 08:24:34,周一到周六每日預計下午16:30開始販售，售完為止。
5901174057,詠晴中西藥局,臺北市信義區松山路４８４之４號（１樓含夾層）,121.5778,25.0389,(02)27266890,羅氏家用新冠病毒抗原自我檢測套組,14,2022/05/12 08:24:34,實名制快篩 - 16:30領號碼牌.當天取貨即可.避免群聚風險
5901174066,愛維喜藥局,臺北市信義區莊敬路２７８號１樓,121.5627,25.02882,(02)27586989,羅氏家用新冠病毒抗原自我檢測套組,76,2022/05/12 08:24:34,快篩周一至五15:30.周六8:30開賣.約30分前收健保卡現金500元1張.發號碼牌.視情況更正.
5901174075,信義盛康藥局,臺北市信義區永吉路２８６號（１樓）,121.5744,25.04538,(02)23460521,羅氏家用新冠病毒抗原自我檢測套組,3,2022/05/12 08:24:34,無
5901180037,崇信藥局,臺北市中正區齊東街８８號,121.5272,25.04162,(02)23417557,羅氏家用新冠病毒抗原自我檢測套組,75,2022/05/12 08:24:34,上午8.30開始代售快篩 .售完為止.
5901180126,民生藥局,臺北市中正區濟南路２段４５－１號１樓,121.5305,25.0406,(02)23416470,羅氏家用新冠病毒抗原自我檢測套組,78,2022/05/12 08:24:34,4／15 公休無售口罩
5901180215,上海聯合藥局,臺北市中正區衡陽路３２號１樓,121.5126,25.04221,(02)23117744,羅氏家用新冠病毒抗原自我檢測套組,75,2022/05/12 08:24:34,無
5901180304,祥全藥局,臺北市中正區信義路２段７９巷１５－８號１Ｆ,121.527,25.03545,(02)23939339,羅氏家用新冠病毒抗原自我檢測套組,1,2022/05/12 08:24:34,星期一至六下午3點開始賣快篩試劑
5901182068,永興藥局,臺北市中正區汀州路１段９２巷２８號,121.5068,25.02999,(02)23050986,羅氏家用新冠病毒抗原自我檢測套組,75,2022/05/12 08:24:34,無
5901183396,慶安藥局,臺北市中正區徐州路２６號,121.5234,25.04061,(02)23582385,羅氏家用新冠病毒抗原自我檢測套組,7,2022/05/12 08:24:34,快篩販售時間：◆週一到週三09:00 ◆週四17:00 ◆週五到週六09:00，１５分鐘前發號碼牌。
5901183510,怡誠藥局,臺北市中正區汀州路２段２１２號,121.5237,25.02236,(02)23626905,羅氏家用新冠病毒抗原自我檢測套組,126,2022/05/12 08:24:34,無
5901183645,大愛生活藥局,臺北市中正區汀州路２段２３２號,121.5243,25.02189,(02)23661155,羅氏家用新冠病毒抗原自我檢測套組,50,2022/05/12 08:24:34,下午14:30開始發放快篩（不發號碼牌直接買）~~不要太早開始排隊啊啊啊啊
5901184080,活力健康藥妝藥局,臺北市中正區中華路２段３１５巷１號,121.5062,25.02795,(02)23392625,羅氏家用新冠病毒抗原自我檢測套組,2,2022/05/12 08:24:34,快篩14:00-15:00， 建議提早排隊
5901184366,宏越藥局,臺北市中正區中華路２段３１３巷４號,121.5061,25.02813,(02)23050880,羅氏家用新冠病毒抗原自我檢測套組,78,2022/05/12 08:24:34,代售實名制快篩時間 每日下午14:30開始  售完即停止  可關注FB公告當日是否代售
5901184375,大盛藥局,臺北市中正區中華路１段２１巷１６號,121.5105,25.04645,(02)23713838,羅氏家用新冠病毒抗原自我檢測套組,7,2022/05/12 08:24:34,周日及國定假日公休
5901184535,桐心藥局,臺北市中正區金華街１８之６號１樓,121.5202,25.03175,(02)23581663,羅氏家用新冠病毒抗原自我檢測套組,92,2022/05/12 08:24:34,無
5901184562,博昱連雲藥局,臺北市中正區連雲街７２號、７２之１號,121.53,25.03455,(02)23581898,羅氏家用新冠病毒抗原自我檢測套組,39,2022/05/12 08:24:34,無
5901184633,躍獅東門藥局,臺北市中正區金山南路１段１０８之１號（１樓）,121.5273,25.03538,(02)23920339,羅氏家用新冠病毒抗原自我檢測套組,3,2022/05/12 08:24:34,早上9點開始販售，不提早發放號碼牌
5901190024,長泰藥局,臺北市萬華區西園路２段２８０號,121.4942,25.02753,(02)23012869,羅氏家用新冠病毒抗原自我檢測套組,1,2022/05/12 08:24:34,快篩販賣時段，依貨運配送時間而訂
5901193105,安誠貴陽藥局,臺北市萬華區貴陽街２段１４８號,121.5016,25.04017,(02)23812190,羅氏家用新冠病毒抗原自我檢測套組,148,2022/05/12 08:24:34,無
5901193132,松本藥局,臺北市萬華區西昌街２３３號,121.5007,25.03723,(02)23029559,羅氏家用新冠病毒抗原自我檢測套組,2,2022/05/12 08:24:34,無
5901193196,青年宏越藥局,臺北市萬華區青年路４４號,121.5042,25.0255,(02)23011037,羅氏家用新冠病毒抗原自我檢測套組,122,2022/05/12 08:24:34,快篩六日不販售，禮拜一~五下午2:30-3:30，現場排隊
5901193329,西園宏越藥局,臺北市萬華區西園路２段２１３號,121.4942,25.02714,(02)23097336,羅氏家用新冠病毒抗原自我檢測套組,42,2022/05/12 08:24:34,實名制快篩下午4點~5點販售
5901200105,建興藥局,臺北市文山區木柵路２段８１號１樓,121.561,24.98889,(02)29399993,羅氏家用新冠病毒抗原自我檢測套組,60,2022/05/12 08:24:34,星期一至星期日早上8時30分現場販售實名制快篩試劑
5901200534,日信專業藥局,臺北市文山區木柵路２段１３９號１樓,121.5625,24.98906,(02)86618322,羅氏家用新冠病毒抗原自我檢測套組,59,2022/05/12 08:24:34,周一~周六早上8:30開始販售實名制快篩
5901201826,舒博威藥局,臺北市文山區興隆路２段９５巷３號,121.547,24.99952,(02)29306805,羅氏家用新冠病毒抗原自我檢測套組,45,2022/05/12 08:24:34,早上8:30開始販售
5901202627,杏隆藥局,臺北市文山區羅斯福路５段２６１號,121.5395,25.00115,(02)29313151,羅氏家用新冠病毒抗原自我檢測套組,158,2022/05/12 08:24:34,快篩實名制採預約登記，至5／14已登記額滿。
5901202752,躍獅奕新藥局,臺北市文山區木新路２段２７５號,121.566,24.98292,(02)22340378,羅氏家用新冠病毒抗原自我檢測套組,122,2022/05/12 08:24:34,週一至週六下午1:30售實名制快篩，週日停售
5901202850,北一藥師藥局,臺北市文山區木新路３段４７號,121.5642,24.98236,(02)22348686,羅氏家用新冠病毒抗原自我檢測套組,4,2022/05/12 08:24:34,實名制快篩：週一至週五14:30開賣（直接排隊）、週六看狀況、週日停售
5901202949,萬隆大藥局,臺北市文山區羅斯福路５段２１８巷１５號,121.538,25.00203,(02)29334580,羅氏家用新冠病毒抗原自我檢測套組,78,2022/05/12 08:24:34,9：00~23：00
5901203160,路加健康藥局,臺北市文山區興隆路２段２２０巷３９號,121.5522,25.00022,(02)29302336,羅氏家用新冠病毒抗原自我檢測套組,78,2022/05/12 08:24:34,無
5901203179,健安藥局,臺北市文山區景興路１６５號,121.5447,24.99346,(02)29323757,羅氏家用新冠病毒抗原自我檢測套組,9,2022/05/12 08:24:34,周一到周六.下午三點開賣實名制快篩.現場排隊不發號碼牌
5901203204,躍獅新芳藥局,臺北市文山區興隆路３段１６號（實際營業地址：１樓）,121.5549,25.00062,(02)29308172,羅氏家用新冠病毒抗原自我檢測套組,78,2022/05/12 08:24:34,早上九點開始販售實名制快篩，售完為止
5902022801,裕康中西大藥局,高雄市鼓山區裕誠路１５１９號,120.2951,22.66479,(07)5555352,羅氏家用新冠病毒抗原自我檢測套組,64,2022/05/12 08:24:34,藥局販售口罩時間，依藥局門口公告時間為主（售完為止）
5902030063,紅心藥局,高雄市左營區崇德路２５５號,120.3041,22.67535,(07)3416697,羅氏家用新冠病毒抗原自我檢測套組,48,2022/05/12 08:24:34,早上8點30賣快篩到完
5902030090,宏仁藥局,高雄市左營區左營大路３９０號,120.2932,22.68702,(07)5817895,羅氏家用新冠病毒抗原自我檢測套組,44,2022/05/12 08:24:34,口罩代售時間自早上10:00開始，售完為止。
5902030269,立文藥局,高雄市左營區立文路５４號,120.3058,22.66458,(07)5572899,羅氏家用新冠病毒抗原自我檢測套組,22,2022/05/12 08:24:34,0
5902030287,慈德藥局,高雄市左營區重愛路５３號,120.3186,22.68308,(07)3416212,羅氏家用新冠病毒抗原自我檢測套組,67,2022/05/12 08:24:34,快篩發放時間:週一至周六:上午9點至12點.週日下午2點半至5點；請自備剛好的錢.不用找錢.以利流程
5902030410,重仁藥局,高雄市左營區左營大路４０８號,120.2935,22.68725,(07)5824083,羅氏家用新冠病毒抗原自我檢測套組,7,2022/05/12 08:24:34,自2／11日~2／29日，營業日08:00~22:30為販賣口罩時間.售完為止
5902031999,平安藥局,高雄市左營區中華一路５之１號,120.287,22.66961,(07)5833688,羅氏家用新冠病毒抗原自我檢測套組,15,2022/05/12 08:24:34,週一~週六上午:8:00~12:00，下午:4:00~9:00， 週日例假日晚上6:00~9:00
5902032441,健怡藥局,高雄市左營區翠峰路４０號,120.2897,22.67229,(07)5821891,羅氏家用新冠病毒抗原自我檢測套組,43,2022/05/12 08:24:34,快篩星期一~星期六每天早上8:00開始販售
5902032450,可達藥局,高雄市左營區榮德街１７７號,120.3205,22.68359,(07)3420182,羅氏家用新冠病毒抗原自我檢測套組,6,2022/05/12 08:24:34,快篩販售時間週一～週六早上9點～11點。現場排隊，售完為止
5902040041,橘井藥局,高雄市楠梓區楠梓路１２９號,120.3286,22.73026,(07)3511869,羅氏家用新冠病毒抗原自我檢測套組,27,2022/05/12 08:24:34,快篩劑開賣時間：周一至週六每天上午8:00販售，售完為止。*** 周日店休，不販售***
5902040185,東初藥局,高雄市楠梓區楠梓路３２號,120.33,22.72873,(07)3511261,羅氏家用新冠病毒抗原自我檢測套組,25,2022/05/12 08:24:34,第一輪快篩試劑販售5／12（四）5／13（五）5／14（六）上午8:00每日78份
5902042769,家安藥局,高雄市楠梓區後昌新路１３號１樓,120.2917,22.71844,(07)3600066,羅氏家用新冠病毒抗原自我檢測套組,28,2022/05/12 08:24:34,週一到週六早上8點賣，星期日沒有賣快篩試劑
5902050298,瑞鶴藥局,高雄市三民區寶德里義德路２５號,120.3352,22.64301,(07)3862757,羅氏家用新冠病毒抗原自我檢測套組,11,2022/05/12 08:24:34,下午2:00至4:30午休勿擾，每日08:30至21:30發售快篩。星期日不發售。
5902050412,春仁藥局,高雄市三民區覺民路２２５號,120.3391,22.63944,(07)3962341,羅氏家用新冠病毒抗原自我檢測套組,77,2022/05/12 08:24:34,5／1-5／301時間自9:00-22:30現場排隊.（賣完為止）
5902050770,仁生藥局,高雄市三民區民享里熱河二街７８號,120.3006,22.64431,(07)3118765,羅氏家用新冠病毒抗原自我檢測套組,19,2022/05/12 08:24:34,上午:8點開始販售
5902051240,明皇藥局,高雄市三民區寶國里義華路１８１號,120.3399,22.64276,(07)3860121,羅氏家用新冠病毒抗原自我檢測套組,33,2022/05/12 08:24:34,藥局販售口罩時間，依藥局門口公告時間為主（售完為止）
5902054858,勝發藥局,高雄市三民區金鼎路３５０號,120.3197,22.66521,(07)3474780,羅氏家用新冠病毒抗原自我檢測套組,45,2022/05/12 08:24:34,營業日08:00為販賣快篩試劑時間.售完為止
5902057144,欣仁惠藥局,高雄市三民區大昌二路２４８號,120.3323,22.64529,(07)3837833,羅氏家用新冠病毒抗原自我檢測套組,24,2022/05/12 08:24:34,無
5902057368,崧民藥師藥局,高雄市三民區金鼎路２２８號,120.3238,22.66483,(07)3102496,羅氏家用新冠病毒抗原自我檢測套組,66,2022/05/12 08:24:34,服務時間9:00-22:30自05／01日~5月31日
5902057519,伍陸藥局,高雄市三民區正興路９４號,120.3208,22.64597,(07)3890676,羅氏家用新冠病毒抗原自我檢測套組,61,2022/05/12 08:24:34,快篩發放時間早上08:30開始 售完為止
5902057902,利安藥局,高雄市三民區建工路５４５號,120.3213,22.64854,(07)3965550,羅氏家用新冠病毒抗原自我檢測套組,1,2022/05/12 08:24:34,營業日9:00AM起販賣口罩，售完為止
5902061899,元盛藥局,高雄市新興區六合路１５３號,120.3149,22.63186,(07)2228183,羅氏家用新冠病毒抗原自我檢測套組,35,2022/05/12 08:24:34,快篩早上8點販售 週日公休
5902080474,弘宗藥局,高雄市苓雅區武智街２號,120.3356,22.62303,(07)7211088,羅氏家用新冠病毒抗原自我檢測套組,41,2022/05/12 08:24:34,家用實名制快篩試劑，早上8時開始販售。
5902081015,明群藥局,高雄市苓雅區英明路５４號,120.3253,22.61276,(07)7254953,羅氏家用新冠病毒抗原自我檢測套組,23,2022/05/12 08:24:34,每日8:00開始販售快篩試劑依現場排隊序販賣售完為止 午休時間13:00~~14:30 防疫口罩4／30停售
5902081328,東信藥局,高雄市苓雅區三多一路１８９號,120.3313,22.62258,(07)7613309,羅氏家用新冠病毒抗原自我檢測套組,27,2022/05/12 08:24:34,早上8:30開始發送號碼牌販售口罩，售完為止，假日正常販售
5902083457,順一藥局,高雄市苓雅區田西里成功一路２１０號,120.2969,22.61696,(07)3330011,羅氏家用新冠病毒抗原自我檢測套組,78,2022/05/12 08:24:34,營業時間早上8點30 至12點下午3點至9點（12點至3點休息）
5902084703,瑞生藥局,高雄市苓雅區自強三路３１號,120.2996,22.61376,(07)3305239,羅氏家用新冠病毒抗原自我檢測套組,78,2022/05/12 08:24:34,自6／1日~12／31日，營業日09:30~23:00為販賣口罩時間.售完為止
5902084749,琉璃光藥師藥局,高雄市苓雅區四維一路２９２號之一樓,120.3244,22.6242,(07)7160930,羅氏家用新冠病毒抗原自我檢測套組,37,2022/05/12 08:24:34,早上8點10分開始販賣
5902084801,邱吉祥藥局,高雄市苓雅區凱旋二路１３５號,120.3218,22.62917,(07)2226055,羅氏家用新冠病毒抗原自我檢測套組,77,2022/05/12 08:24:34,快篩販賣時間:週一至週六早上08:30現場賣~週日下午1:30到5:00販賣
5902085184,惠春藥局,高雄市苓雅區武慶三路９６號,120.3319,22.62043,(07)7611358,羅氏家用新冠病毒抗原自我檢測套組,29,2022/05/12 08:24:34,「藥局販售口罩時間，依藥局門口公告時間為主（售完為止）」
5902085344,意祥藥局,高雄市苓雅區武廟路１４２之１號,120.3276,22.63125,(07)7224835,羅氏家用新冠病毒抗原自我檢測套組,2,2022/05/12 08:24:34,藥局販售口罩時間，依藥局門口公告時間為主（售完為止）
5902090121,意文藥局,高雄市前鎮區瑞華里武營路１８３號,120.3374,22.60991,(07)7226570,羅氏家用新冠病毒抗原自我檢測套組,32,2022/05/12 08:24:34,每天8點營業 立即販賣
5902091128,北京藥局,高雄市前鎮區公正路３１號,120.3322,22.60291,(07)7113100,羅氏家用新冠病毒抗原自我檢測套組,63,2022/05/12 08:24:34,發放方式，下午15；00現場過卡
5902092296,迎廣藥局,高雄市前鎮區林森三路１５０號２樓,120.3089,22.61357,(07)3321466,羅氏家用新冠病毒抗原自我檢測套組,78,2022/05/12 08:24:34,週一至周六08:30至12:00  15:00至18:00 19:00至21:30 星期六晚休息  星期日休息
5902092410,旺盛藥局,高雄市前鎮區永豐路１０８號,120.3337,22.6065,(07)7512899,羅氏家用新冠病毒抗原自我檢測套組,51,2022/05/12 08:24:34,過年期間 111／01／31下午至111／02／03  休診
5902092910,健家藥局,高雄市前鎮區二聖二路４５號,120.3165,22.61293,(07)3389986,羅氏家用新冠病毒抗原自我檢測套組,1,2022/05/12 08:24:34,早上9:30營業，售完為止
5902092956,慈濟健保藥局,高雄市前鎮區鎮州路２１１號,120.3082,22.58819,(07)8159788,羅氏家用新冠病毒抗原自我檢測套組,70,2022/05/12 08:24:34,每天早上8點開始賣.售完為止藥局販售口罩時間，依藥局門口公告時間為主（售完為止）
5902100042,千佑藥局,高雄市旗津區復興里中洲三路５１３號,120.2736,22.60608,(07)5712619,羅氏家用新冠病毒抗原自我檢測套組,78,2022/05/12 08:24:34,5月1日-5月31日早上0831至1030為販賣快篩時間
5902110066,文祺藥局,高雄市小港區正苓里平治街１１２號,120.3543,22.56743,(07)8014066,羅氏家用新冠病毒抗原自我檢測套組,78,2022/05/12 08:24:34,自2／11日~2／29日，6:00發號碼牌，14:00為販賣口罩時間.售完為止
5902110422,臨生藥局,高雄市小港區鳳鳴路１４６－４號,120.3588,22.51445,(07)8711290,羅氏家用新冠病毒抗原自我檢測套組,70,2022/05/12 08:24:34,上午9時開始販售快篩劑售完為止。
5903010289,心美日藥局,臺中市豐原區中山路３５９號１樓,120.7149,24.24929,(04)25260703,羅氏家用新冠病毒抗原自我檢測套組,4,2022/05/12 08:24:34,早上8:00販售（如貨運延遲則改為14:00）
5903010341,昭仁藥局,臺中市豐原區南陽路１４０號,120.7307,24.24275,(04)25243559,羅氏家用新冠病毒抗原自我檢測套組,78,2022/05/12 08:24:34,早上8:30販售 （如貨運延遲則改為15:00）
5903010449,豐原藥局,臺中市豐原區新生北路２０６號之１（１樓）,120.7219,24.2551,(04)25260119,羅氏家用新冠病毒抗原自我檢測套組,39,2022/05/12 08:24:34,無
5903010458,心之藥局,臺中市豐原區中山路５０４號,120.7149,24.25009,(04)25254959,羅氏家用新冠病毒抗原自我檢測套組,39,2022/05/12 08:24:34,周一至周五 12:30
5903010510,安德豐原藥局,臺中市豐原區中正路２９５號１樓,120.7159,24.25142,(04)25200733,羅氏家用新冠病毒抗原自我檢測套組,2,2022/05/12 08:24:34,快篩0800發號碼牌，憑號碼牌領取時間1200-1900
5903020052,東勢福倫藥局,臺中市東勢區豐勢路４３８號,120.829,24.25586,(04)25876118,羅氏家用新冠病毒抗原自我檢測套組,78,2022/05/12 08:24:34,＜快篩＞ 5／7，5／8，5／9 早上08:30開賣.
5903020089,新明通藥局,臺中市東勢區豐勢路２３２號１樓,120.8302,24.25113,(04)25873969,羅氏家用新冠病毒抗原自我檢測套組,69,2022/05/12 08:24:34,5月9-14日  早上8:30  若有異動於門口公告
5903030030,大甲健康藥局,臺中市大甲區蔣公路２４２-１號１樓,120.6195,24.34722,(04)26805833,羅氏家用新冠病毒抗原自我檢測套組,22,2022/05/12 08:24:34,周一至周六營業，周日公休
5903030067,甲尚藥局,臺中市大甲區順天路１２９號１樓,120.622,24.3446,(04)26760885,羅氏家用新冠病毒抗原自我檢測套組,29,2022/05/12 08:24:34,實名制 快篩 早0800 開賣 （依經驗 約莫 0830 前完售）
5903030156,盈盈藥局,臺中市大甲區文武路１８號,120.626,24.34582,(04)26804212,羅氏家用新冠病毒抗原自我檢測套組,70,2022/05/12 08:24:34,每天早上０８：２０開始銷售，售完為止，庫存會歸零
5903050069,進騰藥局,臺中市沙鹿區鎮南路２段２３４號,120.5689,24.22394,(04)26314418,羅氏家用新冠病毒抗原自我檢測套組,28,2022/05/12 08:24:34,營業時間8:00-22:00，每日中午12點開始販售家用快篩
5903050103,北勢進騰藥局,臺中市沙鹿區北勢東路５０９之７號１樓,120.576,24.22526,(04)26330893,羅氏家用新冠病毒抗原自我檢測套組,62,2022/05/12 08:24:34,營業時間12:00-22:00，每日12:00販售實名制快篩
5903070025,得安藥局,臺中市后里區四村路７８號,120.7129,24.30469,(04)25585333,羅氏家用新冠病毒抗原自我檢測套組,37,2022/05/12 08:24:34,快篩販賣時間 14:00~15:00（售完為止）
5903070089,后里瑞士藥師藥局,臺中市后里區甲后路二段５７９號,120.7063,24.31155,(04)25566999,羅氏家用新冠病毒抗原自我檢測套組,3,2022/05/12 08:24:34,無
5903070105,后里藥局,臺中市后里區文明路１３３號１樓,120.7164,24.30682,(04)25590119,羅氏家用新冠病毒抗原自我檢測套組,54,2022/05/12 08:24:34,目前至8:40 銷售中   請勿排隊群聚 注意身體健康
5903080030,捷達藥局,臺中市神岡區大漢街２５號,120.6974,24.25352,(04)25225207,羅氏家用新冠病毒抗原自我檢測套組,46,2022/05/12 08:24:34,周一到周六上午8:00開始販售，售完為止。
5903080094,灃洲大藥局,臺中市神岡區豐洲路４６６－３號１樓,120.7045,24.26179,(04)25150169,羅氏家用新冠病毒抗原自我檢測套組,4,2022/05/12 08:24:34,星期日公休，實名制快篩販售時間為每日下午三點
5903090143,佳福藥局,臺中市潭子區中山路１段４３－１號,120.7023,24.19138,(04)25332982,羅氏家用新冠病毒抗原自我檢測套組,38,2022/05/12 08:24:34,每日中午12:00至下午3:00休息，星期六公休，營業日上午8:00快篩試劑開賣
5903090223,均安藥局,臺中市潭子區興華一路５０３號１樓,120.7014,24.21401,(04)25310998,羅氏家用新冠病毒抗原自我檢測套組,78,2022/05/12 08:24:34,星期一至星期日   每天 早上 8:30開始販售快篩
5903090330,潭子炘星藥局,臺中市潭子區中山路一段９７號１樓,120.7023,24.19319,(04)25320107,羅氏家用新冠病毒抗原自我檢測套組,49,2022/05/12 08:24:34,快篩上午8:30開始販售，售完為止，中午12:00-3:00休息
5903100180,杏一大雅中清藥局,臺中市大雅區中清路四段３１、３３、３５號１樓,120.6448,24.22615,(04)25601791,羅氏家用新冠病毒抗原自我檢測套組,5,2022/05/12 08:24:34,週一~週六14:00販售（13:50發號碼牌）每人每卡限定1份500元!週日無販售!
5903130017,祐民健保藥局,臺中市外埔區甲后路三段１０３０號１樓,120.6615,24.32387,(04)26836736,羅氏家用新冠病毒抗原自我檢測套組,18,2022/05/12 08:24:34,固定周一到周六，早上8:00開始發放號碼牌及販賣防疫口罩
5903140013,音聲藥局,臺中市大安區中松路１８號１樓,120.5872,24.34664,(04)26715318,羅氏家用新冠病毒抗原自我檢測套組,1,2022/05/12 08:24:34,固定周一到周日，早上8:00開始販賣快篩（依排隊順序）
5903190157,春長藥局,臺中市太平區太平路１４７號,120.7212,24.12003,(04)22799286,羅氏家用新冠病毒抗原自我檢測套組,78,2022/05/12 08:24:34,快篩代售時間:早上9點，現場排隊
5903190531,承泓藥局,臺中市太平區育賢路３６３號１樓,120.7137,24.1591,(04)23935148,羅氏家用新冠病毒抗原自我檢測套組,2,2022/05/12 08:24:34,營業時間08:30~23:00   公費快篩發放時間09:00
5903190737,精武丁丁藥局,臺中市太平區中山路四段１３２－１號,120.7044,24.14856,(04)23957235,羅氏家用新冠病毒抗原自我檢測套組,78,2022/05/12 08:24:34,周一～周日於早上09：00開始販售實名制快篩試劑！丁丁藥局關心您！
5903200121,弘佑藥局,臺中市大里區成功路５１５號１樓,120.7032,24.09071,(04)24911234,羅氏家用新冠病毒抗原自我檢測套組,16,2022/05/12 08:24:34,實名制快篩試劑早上九點開始販售，無號碼牌。星期天公休
5903200194,博德藥局,臺中市大里區成功２路１０４號１樓,120.7044,24.09467,(04)24968642,羅氏家用新冠病毒抗原自我檢測套組,73,2022/05/12 08:24:34,無
5903200229,信元藥局,臺中市大里區益民路２段３７２號１樓,120.684,24.11545,(04)24876051,羅氏家用新冠病毒抗原自我檢測套組,64,2022/05/12 08:24:34,下午5點發號碼牌並依序販賣
5903200443,佳霖藥局,臺中市大里區塗城路９６４號１樓,120.6933,24.09081,(04)24960895,羅氏家用新冠病毒抗原自我檢測套組,1,2022/05/12 08:24:34,健保卡快篩:（周日和周三停賣）.請備好健保卡和500元整.下午3點半開賣.現場排隊／售完為止
5903200621,德芳東榮藥局,臺中市大里區東榮路８號,120.6893,24.1102,(04)24863898,羅氏家用新冠病毒抗原自我檢測套組,5,2022/05/12 08:24:34,快篩販售時間：下午3點~6點，現場排隊，完售即停
5903200658,德芳成功藥局,臺中市大里區成功路５３５－３號１樓,120.7033,24.0913,(04)24920298,羅氏家用新冠病毒抗原自我檢測套組,2,2022/05/12 08:24:34,快篩販售時間:下午3點~6點
5903200667,永欣東榮藥局,臺中市大里區東榮路３７０號１樓,120.6836,24.11032,(04)24810599,羅氏家用新冠病毒抗原自我檢測套組,66,2022/05/12 08:24:34,快篩發放無特定時間.收到貨即發放.營業時間早上08:30至晚上10:00
5903200694,大里福倫藥局,臺中市大里區中興路二段１８３－２號１樓,120.6896,24.10679,(04)24850218,羅氏家用新冠病毒抗原自我檢測套組,36,2022/05/12 08:24:34,快篩販售時間：早上8點開始販售
5903200738,杏一大里國光藥局,臺中市大里區國光路二段４１１號１樓,120.6796,24.10921,(04)24071492,羅氏家用新冠病毒抗原自我檢測套組,5,2022/05/12 08:24:34,周一至周六16:00~19:00，周日及補假日人力不足不販售
5903200756,佑全大里大明藥局,臺中市大里區大明路３６０、３６２號,120.6787,24.11511,(04)24818633,羅氏家用新冠病毒抗原自我檢測套組,1,2022/05/12 08:24:34,實名制快篩，開賣時間:下午14:00，售完為止
5903220150,老順安大藥局,臺中市中區中華路二段６３號、６５號１樓,120.6794,24.14801,(04)22016306,羅氏家用新冠病毒抗原自我檢測套組,41,2022/05/12 08:24:34,5／11暫停販售        實名制快篩銷售時間:周一至周六下午兩點至三點
5903240198,鑫祐藥局,臺中市西區民權路３０２－５號,120.67,24.14767,(04)23027778,羅氏家用新冠病毒抗原自我檢測套組,6,2022/05/12 08:24:34,實名快篩每日開賣時間以店外公告為主，1人1或2卡，週一至週六早上銷售，週日停售
5903240376,台丞藥局,臺中市西區三民路一段１６６－５號,120.6746,24.13743,(04)22279666,羅氏家用新冠病毒抗原自我檢測套組,33,2022/05/12 08:24:34,快篩實名制販賣時間即營業時間：早上0800開始販售，週日無營業
5903240410,德芳美村藥局,臺中市西區美村路一段６８１、６８３號１樓,120.6618,24.13545,(04)23782848,羅氏家用新冠病毒抗原自我檢測套組,2,2022/05/12 08:24:34,周一至週五下午3點~6點
5903240438,真誠藥局,臺中市西區美村路一段３７８號１樓,120.6615,24.14458,(04)23015750,羅氏家用新冠病毒抗原自我檢測套組,76,2022/05/12 08:24:34,世鴻診所旁，星期一~星期六8:30開始賣，中午休息，週日休息。有困難，找藥師幫忙
5903250176,弘大美妝藥局,臺中市南區南門路１１５號１樓,120.6798,24.12222,(04)22859180,羅氏家用新冠病毒抗原自我檢測套組,20,2022/05/12 08:24:34,5月12日早上8點開始賣快篩，5月13日下午2點開始賣快篩，5月14日早上8點開始賣快篩
5903250505,心安藥局,臺中市南區國光路２４１號１樓,120.6794,24.12676,(04)22858773,羅氏家用新冠病毒抗原自我檢測套組,3,2022/05/12 08:24:34,每天下午三點排隊開賣，一人一卡，週日公休下次是5／9號
5903250514,泰友藥局,臺中市南區復興路二段９９巷１３號１樓,120.6626,24.12399,(04)22615701,羅氏家用新冠病毒抗原自我檢測套組,14,2022/05/12 08:24:34,領取實名制快篩時間：週一至週六早上9點開始，售完為止。週日不販售快篩 ～謝謝
5903250612,杏一南區台中藥局,臺中市南區台中路６６、６８號１樓,120.683,24.1339,(04)22220652,羅氏家用新冠病毒抗原自我檢測套組,1,2022/05/12 08:24:34,每日下午4點開始販售實名制快篩，售完為止。一人一卡一盒
5903260163,康甫藥師藥局,臺中市北區進化北路３６６號１樓,120.6806,24.16333,(04)22366682,羅氏家用新冠病毒抗原自我檢測套組,5,2022/05/12 08:24:34,有關口罩販售：周一至周六早上9:30發號碼牌，下午3:00過後發售口罩。周日休息。
5903260476,康媞藥局,臺中市北區北平路二段１２８號１樓,120.6774,24.17124,(04)22925388,羅氏家用新冠病毒抗原自我檢測套組,2,2022/05/12 08:24:34,無
5903260681,昭德藥師藥局,臺中市北區西屯路一段３４５號,120.6654,24.16007,(04)23235655,羅氏家用新冠病毒抗原自我檢測套組,55,2022/05/12 08:24:34,早上八點至下午十一點營業，上午九點至下午九點現場排隊過卡買口罩，售完為止
5903260707,新藥林藥局,臺中市北區健行路４４５－５號１樓,120.6803,24.15896,(04)22053458,羅氏家用新冠病毒抗原自我檢測套組,77,2022/05/12 08:24:34,.快篩:星期一~星期五 下午3點開始，星期六下午一點，星期三.日公休，現場排隊
5903260798,光恒藥局,臺中市北區五權路２６１號１樓,120.6767,24.15097,(04)22068638,羅氏家用新冠病毒抗原自我檢測套組,39,2022/05/12 08:24:34,無
5903260949,進化瑞昌藥局,臺中市北區進化路３３２號１樓,120.6946,24.15378,(04)23608199,羅氏家用新冠病毒抗原自我檢測套組,69,2022/05/12 08:24:34,上午10:00開賣，9:45發號碼牌，須在現場排隊過號即棄權，請依現場指示排隊謝謝
5903270089,信心藥局,臺中市西屯區四川路１９０號,120.6559,24.16046,(04)23163430,羅氏家用新冠病毒抗原自我檢測套組,37,2022/05/12 08:24:34,每天早上08:00開始販售快篩試劑，售完為止
5903270301,宥承藥局,臺中市西屯區西屯路３段１４８－１６號,120.6242,24.18563,(04)24626559,羅氏家用新冠病毒抗原自我檢測套組,8,2022/05/12 08:24:34,星期一到星期六， 開始快篩
5903270409,維恩藥局,臺中市西屯區甘肅路一段１９５號,120.6568,24.16846,(04)23174277,羅氏家用新冠病毒抗原自我檢測套組,4,2022/05/12 08:24:34,營業時間:星期一~星期日（08:30-22:00）快篩:07:30AM（售完為止）
5903270847,分子藥局,臺中市西屯區惠來路二段２３６－１號,120.6421,24.16318,(04)22513080,羅氏家用新冠病毒抗原自我檢測套組,18,2022/05/12 08:24:34,發放時間週一至週日早上10點起售完為止
5903270936,新元藥局,臺中市西屯區文心路三段５３２號１樓,120.6659,24.17267,(04)23121383,羅氏家用新冠病毒抗原自我檢測套組,2,2022/05/12 08:24:34,5／1-5／2公休，快篩為滾動式配送，請電洽04-23121383
5903271031,美十樂中科藥局,臺中市西屯區西屯路三段１６６－６５號１樓,120.6129,24.19035,(04)24610219,羅氏家用新冠病毒抗原自我檢測套組,468,2022/05/12 08:24:34,醫事人員卡片損壞，暫時無法販賣快篩
5903271139,百吉藥局,臺中市西屯區青海路一段７１號１樓,120.6547,24.1644,(04)23135698,羅氏家用新冠病毒抗原自我檢測套組,51,2022/05/12 08:24:34,周六休息
5903271157,富康家健保藥局,臺中市西屯區漢成四街８號１樓,120.6652,24.17026,(04)23174741,羅氏家用新冠病毒抗原自我檢測套組,3,2022/05/12 08:24:34,無
5903271308,祐生藥局,臺中市西屯區文華路３之１號１樓,120.6447,24.17535,(04)24517169,羅氏家用新冠病毒抗原自我檢測套組,188,2022/05/12 08:24:34,快篩發放時間：第一批中午12:00，第二批傍晚18:00，售完為止
5903280245,大墩何藥局,臺中市南屯區大敦南路４３１號１．２樓,120.6476,24.13497,(04)24710655,羅氏家用新冠病毒抗原自我檢測套組,78,2022/05/12 08:24:34,防疫用快篩試劑上午9點開始販售，售完為止
5903280334,長益藥局,臺中市南屯區忠勇路９９號,120.6155,24.14971,(04)23899383,羅氏家用新冠病毒抗原自我檢測套組,3,2022/05/12 08:24:34,週一至週六下午13點開始開始販售口罩（當場排隊，不發號碼牌售完為止）
5903280745,亨宇藥局,臺中市南屯區東興路二段２９－２號１樓,120.6529,24.13688,(04)24711206,羅氏家用新冠病毒抗原自我檢測套組,8,2022/05/12 08:24:34,無
5903290232,弘映藥局,臺中市北屯區崇德路２段４６７號,120.6859,24.18133,(04)22464485,羅氏家用新冠病毒抗原自我檢測套組,78,2022/05/12 08:24:34,快篩代售時間早上09:00開始，一人一份五入售完為止
5903290394,億銓藥局,臺中市北屯區北屯路２１０－１號,120.6961,24.16756,(04)22313670,羅氏家用新冠病毒抗原自我檢測套組,1,2022/05/12 08:24:34,快篩實名制週一~週五下午1：00開賣、週六上午11：00開賣，週日公休。
5903290689,大德安藥局,臺中市北屯區景賢路２３６號,120.7241,24.16701,(04)24378351,羅氏家用新冠病毒抗原自我檢測套組,11,2022/05/12 08:24:34,口罩代售時間從週一到週六09:00~現場排隊售完為止星期日早上10:00起至售完為止
5903291159,均福藥局,臺中市北屯區軍福十三路１００號１樓,120.7308,24.17096,(04)24391169,羅氏家用新冠病毒抗原自我檢測套組,21,2022/05/12 08:24:34,快篩實名制規則:晚上七點依現場排隊順序發號碼牌 （周日公休不販售）
5905010063,松柏藥局,臺南市新營區新南里新北街１號,120.3048,23.30861,(06)6590063,羅氏家用新冠病毒抗原自我檢測套組,31,2022/05/12 08:24:34,無
5905010296,躍獅新營藥局,臺南市新營區民生路１６８號１樓,120.3073,23.31112,(06)6564325,羅氏家用新冠病毒抗原自我檢測套組,36,2022/05/12 08:24:34,下午4點開始發放實名制快篩 （週日不發放）
5905010330,新進啄木鳥藥局,臺南市新營區新進路２段２５４號１樓,120.3056,23.30074,(06)6565303,羅氏家用新冠病毒抗原自我檢測套組,2,2022/05/12 08:24:34,5／10已售完.2個是系統錯誤
5905030010,美恩健保藥局,臺南市白河區永安里中山路８１號１樓,120.4153,23.35018,(06)6858865,羅氏家用新冠病毒抗原自我檢測套組,18,2022/05/12 08:24:34,快篩販售時間:早上7:30至售完為止
5905030038,美尚藥局,臺南市白河區白河里康樂路４３號,120.4148,23.34833,(06)6853538,羅氏家用新冠病毒抗原自我檢測套組,27,2022/05/12 08:24:34,快篩販售時間：星期一~五8:00-21:00 六07:00-18:00 售完為止 禮拜天視診所上班而定
5905030047,大源醫藥局,臺南市白河區中山路１７２之２號,120.4177,23.35257,(06)6852306,羅氏家用新冠病毒抗原自我檢測套組,10,2022/05/12 08:24:34,快篩實名制，上午8:00~售完為止，周一至六
5905040105,幸福藥局,臺南市麻豆區光復路１２７號１樓,120.245,23.18435,(06)5720977,羅氏家用新冠病毒抗原自我檢測套組,70,2022/05/12 08:24:34,實名制快篩 早上8:40~12:00  * 星期日固定休
5905050192,復佑藥局,臺南市佳里區光復路３１５號１樓,120.1746,23.16289,(06)7222771,羅氏家用新冠病毒抗原自我檢測套組,31,2022/05/12 08:24:34,週一至週六 晚上7點販售防疫家用快篩試劑
5905060081,新化景惠藥局,臺南市新化區護國里中山路１８５號,120.3103,23.03705,(06)5909659,羅氏家用新冠病毒抗原自我檢測套組,1,2022/05/12 08:24:34,週一到週六早上十點開始販售，顯示無庫存代表已售完。
5905060125,美麗安藥局,臺南市新化區護國里中山路１５０－１號１樓,120.3102,23.03714,(06)5909509,羅氏家用新冠病毒抗原自我檢測套組,1,2022/05/12 08:24:34,一至周六早上8點開始販售，周日休息，顯示無庫存請勿再來電詢問
5905070201,善化啄木鳥藥局,臺南市善化區中山路１８１號１、２樓,120.3006,23.13256,(06)5853585,羅氏家用新冠病毒抗原自我檢測套組,1,2022/05/12 08:24:34,快篩實名制，15:30-售完
5905090061,安安藥局柳營店,臺南市柳營區福安一街５０號１樓,120.3126,23.27711,(06)6220585,羅氏家用新冠病毒抗原自我檢測套組,32,2022/05/12 08:24:34,無
5905100062,美尚藥局後壁店,臺南市後壁區後壁里１６８－８號,120.364,23.36509,(06)6871138,羅氏家用新冠病毒抗原自我檢測套組,78,2022/05/12 08:24:34,星期六.日早上視狀況營業（會提早公告）早上10:00開始販售
5905130042,人大聯合藥局,臺南市六甲區中山路８號１樓,120.3513,23.23087,(06)6987822,羅氏家用新冠病毒抗原自我檢測套組,7,2022/05/12 08:24:34,快篩販售時間：星期一-日07:30-售完
5905140039,安安藥局隆田店,臺南市官田區中山路一段１５號１樓,120.3186,23.1927,(06)5795705,羅氏家用新冠病毒抗原自我檢測套組,2,2022/05/12 08:24:34,全日口罩販賣
5905170019,博士藥師專業藥局,臺南市七股區大埕里３５７號１樓,120.1416,23.14288,(06)7874226,羅氏家用新冠病毒抗原自我檢測套組,2,2022/05/12 08:24:34,早上7:30開始營業，也開始快篩實名制，W1-5 7:30~20:00 W6 7:30~18:00
5905170037,建昌藥局,臺南市七股區大寮里１之１１號,120.1493,23.1482,(06)7873777,羅氏家用新冠病毒抗原自我檢測套組,64,2022/05/12 08:24:34,【快篩販售時間】週一～週五08:15~19:00、週六08:15~11:00，貨到才開賣。
5905210027,愛心藥師藥局,臺南市安定區港南里港口１４７號,120.233,23.09041,(06)5935104,羅氏家用新冠病毒抗原自我檢測套組,42,2022/05/12 08:24:34,春節營業時間請電洽或依現場公告
5905280092,元康保健藥局,臺南市歸仁區中山路二段２２９號,120.2888,22.96721,(06)2309055,羅氏家用新冠病毒抗原自我檢測套組,6,2022/05/12 08:24:34,快篩販售時間星期一至五下午1點開始至售完.星期六不販售.星期日早上9點半販售（不分單雙）
5905280136,悅橙歸仁藥局,臺南市歸仁區大通路４３號１樓,120.296,22.9676,(06)2396660,羅氏家用新冠病毒抗原自我檢測套組,8,2022/05/12 08:24:34,實名制Covid-19快篩15:00開始現場販售至售完
5905280154,喜樂藥局,臺南市歸仁區辜厝里中正南路一段１１４號１樓,120.293,22.96419,(06)2305101,羅氏家用新冠病毒抗原自我檢測套組,1,2022/05/12 08:24:34,實名制快篩下午6:00開始販售，相關訊息將公告於喜樂藥局粉絲團FB。
5905310273,誠康藥局,臺南市永康區中山東路１１３號１樓,120.2367,23.01266,(06)3022005,羅氏家用新冠病毒抗原自我檢測套組,63,2022/05/12 08:24:34,實名制快篩販售時間：星期一到星期六  早上08:30~售完為止
5905310291,俐欣藥局,臺南市永康區大仁街２０６號１樓,120.2582,23.00553,(06)2050777,羅氏家用新冠病毒抗原自我檢測套組,15,2022/05/12 08:24:34,無
5905310540,裕安藥局,臺南市永康區中華二路３８５號,120.2315,23.0083,(06)3133251,羅氏家用新冠病毒抗原自我檢測套組,28,2022/05/12 08:24:34,早8:30-1200／午15:00-18:00／晚18:30-21:00。周日午14:00-17:00
5905310871,晶辰藥局,臺南市永康區大灣里民族路３９６巷１號、３號１樓、３９８號１樓,120.2661,23.00825,(06)2733368,羅氏家用新冠病毒抗原自我檢測套組,76,2022/05/12 08:24:34,周一~周五早上10點開始售完為止，周六日10點開始售完為止
5905310933,樂馨藥局,臺南市永康區中山路８５號１樓,120.2561,23.02984,(06)2038100,羅氏家用新冠病毒抗原自我檢測套組,5,2022/05/12 08:24:34,周一至周日8:00現場排隊依序販售快篩，售完為止
5905311225,安生堂藥局,臺南市永康區南灣里大灣路４２９號１樓,120.2655,23.00294,(06)2725265,羅氏家用新冠病毒抗原自我檢測套組,15,2022/05/12 08:24:34,實名制快篩試劑 上午08:10販售
5905320135,安麗兒藥局裕農店,臺南市東區裕農路１００號１樓,120.2268,22.9857,(06)2377378,羅氏家用新冠病毒抗原自我檢測套組,78,2022/05/12 08:24:34,實名制快篩販售時間:星期一到星期日下午三點~售完
5905320466,佑全中華藥局,臺南市東區中華東路三段２１５號,120.2253,22.97603,(06)2906386,羅氏家用新冠病毒抗原自我檢測套組,1,2022/05/12 08:24:34,星期一-六08:00-21:00
5905320475,美生藥局,臺南市東區德高里自由路一段１６１號１樓,120.2367,22.96862,(06)2670035,羅氏家用新冠病毒抗原自我檢測套組,70,2022/05/12 08:24:34,無
5905320751,倍加藥局,臺南市東區東門路一段２５５號１樓,120.2179,22.9872,(06)2364173,羅氏家用新冠病毒抗原自我檢測套組,36,2022/05/12 08:24:34,快篩販售時段 週一~週六 8:00~12:00 ＆ 14:30~21:30， 週日休息
5905320877,靈安藥局,臺南市東區大福里榮譽街３２－２號１樓,120.2163,22.97419,(06)2143727,羅氏家用新冠病毒抗原自我檢測套組,39,2022/05/12 08:24:34,週一至週五早上九點至晚上九點／週六早上九點至中午十二點
5905340262,瑞城藥局,臺南市中西區赤嵌里忠義路二段１７６號１樓,120.2043,22.99649,(06)2215810,羅氏家用新冠病毒抗原自我檢測套組,2,2022/05/12 08:24:34,週四公休 週一二三五六日09:30販售快篩 FB公告最新販售訊息 歡迎追蹤 居隔常備藥販售中
5905350062,嘉星藥師大藥局,臺南市北區開元路３３９號１樓,120.222,23.00854,(06)2093737,羅氏家用新冠病毒抗原自我檢測套組,27,2022/05/12 08:24:34,實名快篩星期一~星期六，早上8點開始販售，售完為止
5905350240,健康藥局,臺南市北區長榮路５段２１號,120.2206,23.00827,(06)2003078,羅氏家用新冠病毒抗原自我檢測套組,14,2022/05/12 08:24:34,9:00開始販售快篩，售完為止；六日停止販售快篩
5905350259,樂森藥局,臺南市北區和緯路二段３３６號１樓,120.2048,23.01259,(06)2511338,羅氏家用新冠病毒抗原自我檢測套組,4,2022/05/12 08:24:34,九天玄女唯一指定領取時間為每日下午兩點
5905350544,康是美藥局和緯店,臺南市北區福德里和緯路二段２３８號１樓,120.2067,23.01231,(06)2519076,羅氏家用新冠病毒抗原自我檢測套組,28,2022/05/12 08:24:34,實名制快篩因物流配送時間不確定請電話詢問
5905370073,宜康藥局同安店,臺南市安南區同安路２３５號１樓,120.1921,23.0425,(06)2470720,羅氏家用新冠病毒抗原自我檢測套組,2,2022/05/12 08:24:34,星期一~星期日08:10~23:00
5905370135,安南日日康藥局,臺南市安南區安和路五段３３號,120.2185,23.06398,(06)3550995,羅氏家用新冠病毒抗原自我檢測套組,25,2022/05/12 08:24:34,實名制快篩試劑周一至周六下午2點開始售完為止
5905370144,仁大藥局,臺南市安南區海佃路三段３４６號１樓,120.1788,23.05322,(06)2561777,羅氏家用新冠病毒抗原自我檢測套組,20,2022/05/12 08:24:34,週一至週六早上八點開始至售完，週日下午五點
5905370233,弘昇藥局,臺南市安南區鳳凰里安中路一段７００巷３２號１樓,120.1974,23.04387,(06)2567605,羅氏家用新冠病毒抗原自我檢測套組,1,2022/05/12 08:24:34,快篩販售時間會公告在臉書粉絲團（好藥坊-弘昇藥局）及門口看板上
5905370484,安中台安藥局,臺南市安南區北安路２段３６３之２４號１樓,120.2022,23.039,(06)2470015,羅氏家用新冠病毒抗原自我檢測套組,1,2022/05/12 08:24:34,實名制快篩劑:周1-周日下午:2:30開賣（如遇物流供貨異動，請電話詢問.不便處請見諒）
5905380177,凱順藥局,臺南市安平區育平里健康三街３９號１樓,120.168,22.98595,(06)2999752,羅氏家用新冠病毒抗原自我檢測套組,74,2022/05/12 08:24:34,快篩試劑每日9:00開始，售完為止。
5907010043,北京藥局文山店,高雄市鳳山區青年路二段３６７號１．２樓,120.3511,22.64152,(07)7676766,羅氏家用新冠病毒抗原自我檢測套組,78,2022/05/12 08:24:34,無
5907010178,華美藥局,高雄市鳳山區建國路三段１６１號,120.3535,22.6367,(07)7452732,羅氏家用新冠病毒抗原自我檢測套組,33,2022/05/12 08:24:34,若有患者領藥優先處理領藥，快篩08-12，14-1730，1830-2050販售，售完為止
5907010187,人人好藥局,高雄市鳳山區五甲三路１０巷７號１樓,120.3278,22.59336,(07)8151566,羅氏家用新冠病毒抗原自我檢測套組,16,2022/05/12 08:24:34,上午0830-1330下午1530-2100， 自2／11-2／29口罩販售周一三四五日，時間:9:00-12:00售完為止
5907010276,愛家社區藥局,高雄市鳳山區福德街１４１號,120.3267,22.59042,(07)8123698,羅氏家用新冠病毒抗原自我檢測套組,1,2022/05/12 08:24:34,星期一~星期日早上9:30開始販售快篩，現場發號碼牌，售完為止，領到號碼牌請勿離開，早上10:00後未領取者視同放棄
5907010409,好郝藥局,高雄市鳳山區武松里經武路１７８號１樓,120.3642,22.63619,(07)7468840,羅氏家用新冠病毒抗原自我檢測套組,78,2022/05/12 08:24:34,營業日15:00開始販售快篩，售完為止
5907010427,好郝藥局鳳林店,高雄市鳳山區誠智里鳳林路２９０號,120.3779,22.62216,(07)7869188,羅氏家用新冠病毒抗原自我檢測套組,39,2022/05/12 08:24:34,健保快篩周一到周六（周日不販售）下午三點開始現場販售，售完為止
5907010730,鳳山啄木鳥藥局,高雄市鳳山區善美里保泰路３３６號１樓,120.3348,22.60287,(07)7162314,羅氏家用新冠病毒抗原自我檢測套組,78,2022/05/12 08:24:34,營業日08:50發號碼牌，發完立即販售，售完為止
5907011004,永豐久億藥局,高雄市鳳山區和興里五甲一路１１號１樓,120.3586,22.62189,(07)7104281,羅氏家用新冠病毒抗原自我檢測套組,34,2022/05/12 08:24:34,無
5907011111,壹然藥局,高雄市鳳山區中正里瑞興路４６２號１樓,120.3713,22.63084,(07)7014966,羅氏家用新冠病毒抗原自我檢測套組,75,2022/05/12 08:24:34,早上8:25發號碼牌（不可離開隊伍）8:30開始販賣；請撥打7014966詢問
5907011200,和成藥局,高雄市鳳山區南成里和成路６５號１樓,120.3379,22.58986,(07)7961566,羅氏家用新冠病毒抗原自我檢測套組,24,2022/05/12 08:24:34,自2／11日~2／29日，營業日08:00~10:00為販賣口罩時間
5907011219,協康健保藥局,高雄市鳳山區瑞竹里博愛路２１５號１樓,120.3704,22.62887,(07)7199259,羅氏家用新冠病毒抗原自我檢測套組,1,2022/05/12 08:24:34,週一~週六實名制快篩於下午三點開賣，週日沒有販售
5907011291,桂林活力藥師藥局鳳山店,高雄市鳳山區中正里瑞興路４８８號１樓,120.3719,22.63089,(07)7012827,羅氏家用新冠病毒抗原自我檢測套組,49,2022/05/12 08:24:34,早上9點發放號碼牌，發完號碼牌即售完
5907011399,佑家藥師藥局,高雄市鳳山區新強里新富路２８８號１樓,120.3418,22.61265,(07)7673298,羅氏家用新冠病毒抗原自我檢測套組,1,2022/05/12 08:24:34,無
5907020021,柏康藥局,高雄市岡山區壽天路２２號,120.2938,22.79663,(07)6241688,羅氏家用新冠病毒抗原自我檢測套組,51,2022/05/12 08:24:34,無
5907030090,睛好活力藥局,高雄市旗山區湄洲里中山路１２７號,120.482,22.88873,(07)6625119,羅氏家用新冠病毒抗原自我檢測套組,1,2022/05/12 08:24:34,無
5907030134,旗山啄木鳥藥局,高雄市旗山區中華路１０５０號,120.4828,22.87904,(07)6625728,羅氏家用新冠病毒抗原自我檢測套組,1,2022/05/12 08:24:34,快篩實名制，早上10:30開始販售（若當天配送延誤，時間另行公布
5907040014,寶樹藥局,高雄市美濃區中山路１段８８號,120.5393,22.90148,(07)6812323,羅氏家用新冠病毒抗原自我檢測套組,9,2022/05/12 08:24:34,營業日08:00~19:00為販賣快篩試劑時間，售完為止
5907040032,廣元藥局,高雄市美濃區泰安里中正路一段８－１號,120.5412,22.90198,(07)6810125,羅氏家用新冠病毒抗原自我檢測套組,5,2022/05/12 08:24:34,無
5907060034,化春藥師藥局,高雄市大寮區中庄里中庄路３７號,120.3964,22.63453,(07)7037275,羅氏家用新冠病毒抗原自我檢測套組,78,2022/05/12 08:24:34,快篩實名制星期一至星期五早上8:00開始，六.日9:00開始
5907060258,杏合藥局,高雄市大寮區後庄里民族路２７０號１樓,120.3917,22.63746,(07)7023620,羅氏家用新冠病毒抗原自我檢測套組,35,2022/05/12 08:24:34,實名制快篩：週一~週五8:00，週六日9:00開始販售
5907060267,加嘉藥局,高雄市大寮區山頂里內厝路１９１號１樓,120.3901,22.60793,(07)7860683,羅氏家用新冠病毒抗原自我檢測套組,76,2022/05/12 08:24:34,無
5907080125,仁武丁丁藥局,高雄市仁武區仁和里鳳仁路２１之８號,120.3558,22.6802,(07)3721896,羅氏家用新冠病毒抗原自我檢測套組,78,2022/05/12 08:24:34,自5月1日~5月31日，營業日9:00起為販賣快篩時間，售完為止。
5907140117,悅安藥局,高雄市阿蓮區和蓮里信義路１１１號,120.3263,22.87952,(07)6319632,羅氏家用新冠病毒抗原自我檢測套組,20,2022/05/12 08:24:34,早上8點開始販售實名制快篩.售完為止
5907150024,安麗兒藥局路竹店,高雄市路竹區大社路５１號１樓,120.262,22.8632,(07)6071699,羅氏家用新冠病毒抗原自我檢測套組,1,2022/05/12 08:24:34,快篩實名制，週一至週六，早上9：00 開始，售完為止（週日無販售）
5907150220,天德藥局路竹店,高雄市路竹區忠孝路２６－２、２６－３號１樓,120.2601,22.86059,(07)6975656,羅氏家用新冠病毒抗原自我檢測套組,1,2022/05/12 08:24:34,下午三點發放快篩
5907160093,保生藥局,高雄市湖內區葉厝里保生路３４０．３４２號,120.2195,22.90733,(07)6990800,羅氏家用新冠病毒抗原自我檢測套組,1,2022/05/12 08:24:34,快篩實名制，每天16:00開始販售，售完為止。
5907240014,博林健保藥局,高雄市內門區觀亭里中正路１６０巷５１號,120.4539,22.9232,(07)6671883,羅氏家用新冠病毒抗原自我檢測套組,42,2022/05/12 08:24:34,自2／11日~2／29日，營業日07:40~18:00為販賣口罩時間，售完為止
5907290158,美館久億藥局,高雄市鼓山區美術東二路２４５、２４７號,120.2883,22.66526,(07)5227762,羅氏家用新冠病毒抗原自我檢測套組,1,2022/05/12 08:24:34,星期一至星期天快篩發放，以物流實際到貨時間開始發放，請持續注意快篩地圖
5907290176,為安藥局,高雄市鼓山區九如四路９５９號,120.2788,22.65541,(07)5212912,羅氏家用新冠病毒抗原自我檢測套組,77,2022/05/12 08:24:34,快篩實名制販賣時間：星期一至星期六  10:00開始，賣完為止  星期日休息
5907290265,新美館藥局,高雄市鼓山區中華一路９７２號,120.2919,22.65513,(07)5522006,羅氏家用新冠病毒抗原自我檢測套組,78,2022/05/12 08:24:34,5／12快篩於早上8:30領取號碼牌後販賣，請從後花園排隊，謝謝
5907300168,金元藥局,高雄市左營區重愛路２２０號,120.3156,22.68562,(07)3458378,羅氏家用新冠病毒抗原自我檢測套組,16,2022/05/12 08:24:34,快篩試劑郵差配送，約10點至11點左右會送到藥局，即開始販售，星期四，六營業時間至中午12點
5907300408,安闔藥局,高雄市左營區榮總路２３號１樓,120.3217,22.67851,(07)3596913,羅氏家用新冠病毒抗原自我檢測套組,78,2022/05/12 08:24:34,實名制快篩販售時間 : 早上8 : 30至售完為止
5907300417,森森藥師藥局,高雄市左營區緯六路２１５號１樓,120.2874,22.69707,(07)5853600,羅氏家用新冠病毒抗原自我檢測套組,25,2022/05/12 08:24:34,快篩販售（W1~W5） 8~19點；（W6） 8:30~12點，售完為止
5907300515,詮裕藥局,高雄市左營區華夏路７０６號１樓,120.3022,22.6778,(07)3453942,羅氏家用新冠病毒抗原自我檢測套組,25,2022/05/12 08:24:34,星期一到星期六早上8點銷售到售完為止.星期日---無
5907300677,佳寧峰藥局,高雄市左營區部後街２號,120.2886,22.6834,(07)5886408,羅氏家用新冠病毒抗原自我檢測套組,75,2022/05/12 08:24:34,快篩試劑販賣時段:上午8:30起至售完為止
5907300702,禾順左營藥局,高雄市左營區自由三路４１０號２樓,120.3127,22.67563,(07)3592582,羅氏家用新冠病毒抗原自我檢測套組,19,2022/05/12 08:24:34,星期一~星期六 實名制快篩劑發放時間13:30~15:00 （周日公休）
5907300766,悠仁藥局,高雄市左營區自由三路１７０號,120.3113,22.67165,(07)3457979,羅氏家用新冠病毒抗原自我檢測套組,78,2022/05/12 08:24:34,今日快篩0900開始販售。如提前一天配送，則為早上0900販售。不便之處，敬請見諒
5907301076,熊安心藥局華夏店,高雄市左營區華夏路１２１２號１樓,120.3104,22.68483,(07)3430632,羅氏家用新冠病毒抗原自我檢測套組,1,2022/05/12 08:24:34,快篩試劑-販售時間14:00起至售完為止
5907310137,青田藥局,高雄市楠梓區監理南街６８號,120.3188,22.72897,(07)3648257,羅氏家用新冠病毒抗原自我檢測套組,11,2022/05/12 08:24:34,銷售時間才販賣，別在看庫存了 ／ 周一至周五上午10:30-11:00 下午14:30-15:00 晚上19:00-20:00
5907320651,未來照護藥局,高雄市三民區鼎瑞街１０８號１樓,120.3154,22.66606,(07)3105356,羅氏家用新冠病毒抗原自我檢測套組,32,2022/05/12 08:24:34,實名制快篩發放規則: 周一至周六AM10:00發號碼牌，下午14:00~21:30為領取快篩時間  每 周日為公休日
5907320704,建工台安藥局,高雄市三民區建工路４９９號之１,120.3224,22.64884,(07)3807521,羅氏家用新冠病毒抗原自我檢測套組,76,2022/05/12 08:24:34,實名制快篩每日9:00開始販售，售完為止。
5907320768,心樂保健藥局,高雄市三民區光裕路７８號１樓,120.3331,22.63789,(07)3855377,羅氏家用新冠病毒抗原自我檢測套組,78,2022/05/12 08:24:34,星期一到星期四上午8:30-12:00（快篩售完為止）. 星期五下午14:00-17:00（售完為止）
5907320777,桉家藥師藥局,高雄市三民區明誠一路３９３號,120.3228,22.65998,(07)3929732,羅氏家用新冠病毒抗原自我檢測套組,65,2022/05/12 08:24:34,無
5907320946,熊安心藥局,高雄市三民區陽明路４０８號,120.3429,22.64609,(07)3815212,羅氏家用新冠病毒抗原自我檢測套組,26,2022/05/12 08:24:34,週一 ~ 週六快篩 14:00 販售
5907330184,崇信藥局,高雄市新興區中正四路５３號１樓,120.3,22.6305,(07)2810205,羅氏家用新冠病毒抗原自我檢測套組,35,2022/05/12 08:24:34,快篩實名制早上8:00開始販售，人多時發放號碼牌。
5907330228,林森合豐藥局,高雄市新興區林森一路３７號１樓,120.305,22.62388,(07)2823313,羅氏家用新冠病毒抗原自我檢測套組,9,2022/05/12 08:24:34,8:30領號碼牌，9點開賣，售完為止
5907350177,佳康藥局,高雄市苓雅區建國一路３３４號,120.3247,22.63293,(07)2266685,羅氏家用新冠病毒抗原自我檢測套組,23,2022/05/12 08:24:34,快篩代售時間:一至四13:30-21:00、五六9:00-16:30
5907350328,安杏藥局,高雄市苓雅區四維二路９４－１７號,120.3197,22.62273,(07)7511739,羅氏家用新冠病毒抗原自我檢測套組,77,2022/05/12 08:24:34,快篩試劑代售時間自早上9:00點服務
5907350597,武廟台安藥局,高雄市苓雅區武廟路１３３－１號,120.3266,22.63106,(07)7228893,羅氏家用新冠病毒抗原自我檢測套組,78,2022/05/12 08:24:34,實名制快篩販售時間：（一）~（六） 9:00~17:00
5907350631,三多藥局,高雄市苓雅區三多二路２９２號１樓,120.3173,22.61838,(07)3365889,羅氏家用新冠病毒抗原自我檢測套組,1,2022/05/12 08:24:34,快篩實名制，每天16:00開始販售，售完為止。
5907350659,北京藥局林泉店,高雄市苓雅區林泉里３鄰林泉街３５號１樓,120.3192,22.62323,(07)7263030,羅氏家用新冠病毒抗原自我檢測套組,2,2022/05/12 08:24:34,營業時間早上8點到下午11點，快篩下午3點30分開始販售
5907360146,好芳鄰藥局,高雄市前鎮區光華二路２５７號,120.3179,22.61398,(07)3318657,羅氏家用新冠病毒抗原自我檢測套組,43,2022/05/12 08:24:34,4／28日起.上午08:00為販賣快篩時間.售完為止（其餘時間不販賣）
5907360191,欣欣藥局,高雄市前鎮區翠亨北路５７９號,120.3129,22.59226,(07)8124862,羅氏家用新冠病毒抗原自我檢測套組,18,2022/05/12 08:24:34,實名制快篩販售:周一到週六上午8點至12點，周日休息。
5907360226,順康健保藥局,高雄市前鎮區一心二路６７號,120.3099,22.61142,(07)5364438,羅氏家用新冠病毒抗原自我檢測套組,3,2022/05/12 08:24:34,家用快篩販賣時間，每天早上9點開始，售完為止。
5907360324,有承中西藥局,高雄市前鎮區德昌路２５７號１樓,120.3155,22.5849,(07)8120880,羅氏家用新冠病毒抗原自我檢測套組,68,2022/05/12 08:24:34,配合政府實名制快篩， 早上08:00發放號碼牌
5907360360,親親藥局,高雄市前鎮區天山路１０巷６號,120.3151,22.60991,(07)3391078,羅氏家用新冠病毒抗原自我檢測套組,49,2022/05/12 08:24:34,周日休假，停售快篩!!!5／10快篩已售完
5907360440,隆德藥局,高雄市前鎮區前鎮街１７０號１樓,120.3073,22.59003,(07)8216030,羅氏家用新冠病毒抗原自我檢測套組,55,2022/05/12 08:24:34,每天早上八點營業.快篩劑要09:00後才開賣
5907360566,祥安健保藥局,高雄市前鎮區復興三路３９３號１樓,120.3116,22.61373,(07)3340393,羅氏家用新冠病毒抗原自我檢測套組,78,2022/05/12 08:24:34,無
5907360600,桂林活力藥師藥局草衙店,高雄市前鎮區草衙二路３６０號,120.323,22.57801,(07)8131819,羅氏家用新冠病毒抗原自我檢測套組,5,2022/05/12 08:24:34,9:00發放實名制快篩號碼牌.售完為止
5907380184,桂林活力藥師藥局孔鳳店,高雄市小港區孔鳳路５６１號１樓,120.3586,22.58393,(07)7912331,羅氏家用新冠病毒抗原自我檢測套組,2,2022/05/12 08:24:34,無
5907380317,朋盛藥局,高雄市小港區大鵬路１４２號,120.3586,22.56906,(07)8017288,羅氏家用新冠病毒抗原自我檢測套組,76,2022/05/12 08:24:34,健保快篩販售時間為星期一至星期六早上8點半
5907380371,希望藥局,高雄市小港區高坪二十七街４３０號１樓,120.3847,22.5586,(07)8911501,羅氏家用新冠病毒抗原自我檢測套組,58,2022/05/12 08:24:34,9:00-15:00  17:00-21:00  8:30開始販售實名制快篩
5911010097,俊德藥局,基隆市中正區中船路２０號１樓,121.7499,25.13684,(02)24281398,羅氏家用新冠病毒抗原自我檢測套組,19,2022/05/12 08:24:34,上午8點開始販售實名制快篩，慢性處方箋9:00~21:00
5911011227,和平大藥局,基隆市中正區中正路７５０號,121.7696,25.1519,(02)24628151,羅氏家用新冠病毒抗原自我檢測套組,63,2022/05/12 08:24:34,無
5911011334,海大藥局,基隆市中正區新豐街２５５號１樓,121.7879,25.13621,(02)24699222,羅氏家用新冠病毒抗原自我檢測套組,78,2022/05/12 08:24:34,平日：8：30~12：00，15：00~21：30；星期日：~12：00
5911011450,文裕藥局,基隆市中正區八斗街１０號,121.7962,25.13991,(02)24691239,羅氏家用新冠病毒抗原自我檢測套組,42,2022/05/12 08:24:34,星期一至星期六早上8:10開始販售，星期日時間於臉書公布
5911011496,源昌藥局,基隆市中正區北寧路384號1樓,121.7963,25.13946,(02)24691686,羅氏家用新冠病毒抗原自我檢測套組,45,2022/05/12 08:24:34,無
5911011521,禎宸藥局,基隆市中正區中正路１７５號１樓,121.7605,25.14233,(02)24620366,羅氏家用新冠病毒抗原自我檢測套組,45,2022/05/12 08:24:34,無
5911011576,百福義一藥師藥局,基隆市中正區義一路４８號１樓,121.7458,25.13279,(02)24268288,羅氏家用新冠病毒抗原自我檢測套組,46,2022/05/12 08:24:34,周一至周六08:00開門，周日09:00開門
5911011585,雙鶴藥局,基隆市中正區義一路３５號１樓,121.7456,25.13309,(02)24263193,羅氏家用新冠病毒抗原自我檢測套組,5,2022/05/12 08:24:34,下午14:00開始販售
5911011601,義一啄木鳥藥局,基隆市中正區義一路１１１號１、２樓,121.7471,25.13536,(02)24271456,羅氏家用新冠病毒抗原自我檢測套組,4,2022/05/12 08:24:34,國定假日無提供調劑業務，早上10:00到晚上09:50，每天10:30開始發快篩
5911021394,百福專業藥師藥局,基隆市七堵區自治街１３號１樓,121.7131,25.09609,(02)24556688,羅氏家用新冠病毒抗原自我檢測套組,11,2022/05/12 08:24:34,＊代售快篩每日早上8點，現場排隊購買!
5911021438,正心藥局,基隆市七堵區南興路１０號１樓,121.7149,25.09755,(02)24563378,羅氏家用新冠病毒抗原自我檢測套組,1,2022/05/12 08:24:34,每日限量78盒， 星期一~六下午13:30發號碼牌，14:00開始販賣，星期日上午9:00發號碼牌，9:30開始販賣，12:00停止領取
5911031158,柏林藥局,基隆市暖暖區暖暖街２４６巷１６７號１樓,121.7357,25.10036,(02)24592277,羅氏家用新冠病毒抗原自我檢測套組,76,2022/05/12 08:24:34,早上8.40銷售快篩實名制
5911031327,百福暖暖專業藥局,基隆市暖暖區暖暖街１８９號１樓,121.7357,25.09904,(02)24596999,羅氏家用新冠病毒抗原自我檢測套組,24,2022/05/12 08:24:34,無
5911040228,大田大藥局,基隆市仁愛區仁二路５號,121.7507,25.12744,(02)24258762,羅氏家用新冠病毒抗原自我檢測套組,58,2022/05/12 08:24:34,下午2:00發號碼牌並販售
5911041510,聯安藥局,基隆市仁愛區仁二路２５１號２樓,121.7428,25.1296,(02)24288809,羅氏家用新冠病毒抗原自我檢測套組,69,2022/05/12 08:24:34,安東耳鼻喉科二樓循環站正對面 快篩販售時間更改8:30-11:50， 假日8:30-11:00 售完為止
5911051392,寶慷藥局,基隆市中山區復興路１９１號１樓,121.7263,25.14611,(02)24362338,羅氏家用新冠病毒抗原自我檢測套組,77,2022/05/12 08:24:34,08:30開始販賣快篩
5911051481,仁登藥局,基隆市中山區復興路１２２號,121.7262,25.14453,(02)24375789,羅氏家用新冠病毒抗原自我檢測套組,78,2022/05/12 08:24:34,無
5911051490,大哈密藥局,基隆市中山區中山二路５號,121.741,25.13678,(02)24285368,羅氏家用新冠病毒抗原自我檢測套組,11,2022/05/12 08:24:34,發放快篩時間：星期一至星期五 15:00-17:00； 星期六 9:30-11:30
5911051507,百福安一藥局,基隆市中山區安一路８１號,121.7358,25.1314,(02)24258068,羅氏家用新冠病毒抗原自我檢測套組,51,2022/05/12 08:24:34,快篩每日早上8點販售，不發號碼牌，現場排隊
5912010046,中美藥局,新竹市東區南大里西大路１０２巷３號１樓,120.9708,24.79647,(03)5283828,羅氏家用新冠病毒抗原自我檢測套組,39,2022/05/12 08:24:34,快篩販賣時段:早上8:00現場排隊至售完為止。 週一至週六休息時段12:00-14:00  晚上18:00-19:00  週日整天店休
5912010331,大家藥局,新竹市東區南門里武昌街６號１樓,120.9685,24.8004,(035)234035,羅氏家用新冠病毒抗原自我檢測套組,76,2022/05/12 08:24:34,快篩販賣時段: 上午8:30現場排隊至售完為止。
5912010528,華安中西藥局,新竹市東區振興里南大路６４８號一樓,120.9627,24.79286,(03)5610088,羅氏家用新冠病毒抗原自我檢測套組,78,2022/05/12 08:24:34,快篩試劑實名制販售時間 早上 9:00
5912011865,長青藥師藥局,新竹市東區民生路１４５號,120.9765,24.81063,(03)5439673,羅氏家用新冠病毒抗原自我檢測套組,78,2022/05/12 08:24:34,快篩實名制上午9；00 開始發放 ，週日不發放
5912012120,仁美藥局,新竹市東區振興里振興路５２號,120.9625,24.79493,(03)5625398,羅氏家用新冠病毒抗原自我檢測套組,78,2022/05/12 08:24:34,週一~週六晚上六點販售（週日店休），下雨天，避免排隊淋雨，排隊超過10人，即開賣
5912012746,安康藥局,新竹市東區民族路１１２號,120.9771,24.8077,(03)5437048,羅氏家用新冠病毒抗原自我檢測套組,7,2022/05/12 08:24:34,快篩試劑代售時段 : 早上8點到賣完為止送貨時間早上9點到下午2點
5912012773,博弘藥局,新竹市東區南大路３８７號,120.9684,24.79662,(03)5619470,羅氏家用新冠病毒抗原自我檢測套組,50,2022/05/12 08:24:34,快篩試劑販賣時間；上午8:00起至售完為止
5912013412,牛津藥局,新竹市東區民族路６２號１樓,120.9756,24.8067,(03)5320780,羅氏家用新冠病毒抗原自我檢測套組,37,2022/05/12 08:24:34,5／12，5／13 快篩 於8:00開賣。5／14，5／15 於9:00開賣
5912013501,倫洲藥局,新竹市東區食品路９７號１樓,120.9779,24.79801,(03)5744088,羅氏家用新冠病毒抗原自我檢測套組,1,2022/05/12 08:24:34,快篩開賣時間星期一到五為下午兩點，星期六早上八點半，星期日休息
5912013529,新莊藥局,新竹市東區光復路１段４７３號１樓,121.015,24.78421,(03)5634775,羅氏家用新冠病毒抗原自我檢測套組,162,2022/05/12 08:24:34,5／11早上11點
5912013654,七二八藥局,新竹市東區明湖路１２４５號１樓,120.979,24.76774,(03)5200530,羅氏家用新冠病毒抗原自我檢測套組,1,2022/05/12 08:24:34,5／11政府快篩，已經售完。5／12政府快篩，12:30開始販售。
5912040106,永富大藥局,新竹市北區中山里北門街１８號,120.9661,24.80539,(035)234856,羅氏家用新冠病毒抗原自我檢測套組,48,2022/05/12 08:24:34,口罩販售時間：08:30；除夕晚上休息；其餘國定假日均正常營業
5912040188,健和藥局,新竹市北區大同里大同路１７８號,120.9668,24.80731,(03)5231734,羅氏家用新冠病毒抗原自我檢測套組,4,2022/05/12 08:24:34,快篩周一至周五 12點整開始 售完為止
5912042098,欣欣藥局,新竹市北區西大路736巷1號,120.9591,24.81011,(03)5351205,羅氏家用新冠病毒抗原自我檢測套組,1,2022/05/12 08:24:34,快篩代售周一~周六下午3點開始販售，售完為止  藥局營業時間上午8:00-12:00 ；下午15:00-18:00 ；晚上18:30-21:30
5912042404,豐盛藥局,新竹市北區光華二街３５號,120.9747,24.81816,(03)5335651,羅氏家用新冠病毒抗原自我檢測套組,5,2022/05/12 08:24:34,實名制快篩:早上9點開始發號碼牌，13-22點領取快篩
5912042940,新竹北門藥局,新竹市北區中正路３６０、３６２號１樓,120.9629,24.81414,(03)5333234,羅氏家用新冠病毒抗原自我檢測套組,1,2022/05/12 08:24:34,快篩實名制，每天16:00開始販售，售完為止。
5912042959,躍獅光華藥局,新竹市北區光華東街３６－１號１樓,120.9743,24.81586,(03)5331281,羅氏家用新冠病毒抗原自我檢測套組,33,2022/05/12 08:24:34,實際販售時間:AM08:30
5917010126,永大藥局,臺中市中區錦上里民族路１２２號,120.6786,24.14054,(04)22210180,羅氏家用新冠病毒抗原自我檢測套組,5,2022/05/12 08:24:34,09:00開始代售快篩，人多會發號碼牌。5／8上午8點開始販售
5917020060,來安藥局,臺中市東區十甲東路４８８號１樓,120.7073,24.13824,(04)22116977,羅氏家用新冠病毒抗原自我檢測套組,40,2022/05/12 08:24:34,發快篩時間早上8點
5917020104,七星中西藥局,臺中市東區東信里十甲東路４０６巷１號１樓,120.7061,24.13603,(04)22123014,羅氏家用新冠病毒抗原自我檢測套組,1,2022/05/12 08:24:34,無
5917020122,周藥師藥局,臺中市東區合作里力行路５５號１樓,120.6956,24.15085,(04)23606800,羅氏家用新冠病毒抗原自我檢測套組,68,2022/05/12 08:24:34,營業時間早上8:30-12:30 下午2:30-晚上9:00 ｛8:30賣快篩；週日不賣快篩｝
5917020417,群益藥局,臺中市東區東英八街１０６號１樓,120.7067,24.14148,(04)22129298,羅氏家用新冠病毒抗原自我檢測套組,77,2022/05/12 08:24:34,快篩實名制於早上8.30開始販售售完為止 周日公休
5917030128,太信藥局,臺中市西區三民路一段９５－１號１樓,120.6698,24.13322,(04)23718318,羅氏家用新冠病毒抗原自我檢測套組,38,2022/05/12 08:24:34,健保卡快篩請0900自備500元／份
5917030226,九和大藥局向上店,臺中市西區向上路一段１９２號１樓,120.6605,24.14684,(04)23020148,羅氏家用新冠病毒抗原自我檢測套組,47,2022/05/12 08:24:34,周一~六08:00開始。周日08:00~中午12:00，下午休息。
5917030388,富永藥局,臺中市西區三民西路１６１號,120.6638,24.12988,(04)23714681,羅氏家用新冠病毒抗原自我檢測套組,9,2022/05/12 08:24:34,郵差送達後，開始快篩發售！
5917030646,華隆藥局,臺中市西區樂群街６之２號,120.6735,24.14025,(04)22243785,羅氏家用新冠病毒抗原自我檢測套組,69,2022/05/12 08:24:34,上午09:00開始販售快篩試劑，售完為止
5917030726,元泉藥局,臺中市西區公益里中美街２５７號,120.6601,24.14874,(04)23015503,羅氏家用新冠病毒抗原自我檢測套組,70,2022/05/12 08:24:34,固定週一至週六早上8:30開始販售口罩.售完為止
5917032462,名亨藥局,臺中市西區五權路２９號１樓,120.6696,24.14423,(04)22201089,羅氏家用新冠病毒抗原自我檢測套組,47,2022/05/12 08:24:34,每日上午8:20至12，下午3至6時販售.周 日  . 周 六    下 午 休 息 .
5917040106,侑民藥局,臺中市南區興大路３９６巷４９號１樓,120.6712,24.11564,(04)22860146,羅氏家用新冠病毒抗原自我檢測套組,72,2022/05/12 08:24:34,週一至週日上午9點販賣防疫快篩試劑
5917040393,鴻儀大藥局,臺中市南區樹義里大慶街二段３－４號,120.6528,24.11405,(04)22611769,羅氏家用新冠病毒抗原自我檢測套組,2,2022/05/12 08:24:34,為避免排隊群聚05／09起周一至周六採取AM10:00寄健保卡PM14:00~PM17:00領回快篩及健保卡
5917050424,中心藥局,臺中市北區五權路２７９號１樓,120.6777,24.15169,(04)22012985,羅氏家用新冠病毒抗原自我檢測套組,28,2022/05/12 08:24:34,口罩每日上午8:00發放號碼牌，依序販售。全年無休。
5917050433,松鶴藥局,臺中市北區文莊里篤行路２２４號,120.6738,24.15187,(04)22028790,羅氏家用新冠病毒抗原自我檢測套組,51,2022/05/12 08:24:34,口罩每日上午8:30開始販售，現場排隊售完為止。（全年無休）
5917050577,東生藥局,臺中市北區永興街１１２－１號１樓,120.6825,24.16152,(04)22358880,羅氏家用新冠病毒抗原自我檢測套組,69,2022/05/12 08:24:34,周一到周六上午8:30到晚上10:00開始販售口罩，周日公休
5917052713,展弘藥局,臺中市北區漢口路４段３８０號,120.6841,24.16684,(04)22307388,羅氏家用新冠病毒抗原自我檢測套組,78,2022/05/12 08:24:34,實名制快篩每天8:30開始，售完為止
5917052928,盈佑藥局,臺中市北區進化路６３９號１樓,120.6941,24.16091,(04)22376737,羅氏家用新冠病毒抗原自我檢測套組,4,2022/05/12 08:24:34,週一至週五上午9點到下午9點賣口罩， 下午12~15點休息，週六下午晚上休息，星期日休息
5917060204,宏光藥局,臺中市西屯區何安里西屯路二段９５之２３號,120.656,24.16535,(04)23137278,羅氏家用新冠病毒抗原自我檢測套組,49,2022/05/12 08:24:34,星期一至六早上8:10分開始販賣快篩試劑（免號碼牌，依序隨到隨售，售完為止。）星期日試劑有到貨貨就賣
5917060331,宏吉藥局,臺中市西屯區大福里長安路二段３１６號１樓,120.6673,24.17773,(04)22910825,羅氏家用新冠病毒抗原自我檢測套組,18,2022/05/12 08:24:34,快篩試劑.防疫口罩.酒精上午7：30開始販售，營業至21:00（週日正常營業）
5917061061,佳蒝藥局,臺中市西屯區西屯路３段１５９之１０之５號１樓,120.6194,24.18731,(04)24617763,羅氏家用新冠病毒抗原自我檢測套組,8,2022/05/12 08:24:34,無
5917062353,典安大藥局,臺中市西屯區西屯路３段１５９－６０號,120.6177,24.18807,(04)24616571,羅氏家用新冠病毒抗原自我檢測套組,81,2022/05/12 08:24:34,每天10:00發放快篩
5917062531,久揚大藥局,臺中市西屯區工業區一路９８之１６號,120.6138,24.17453,(04)23580738,羅氏家用新冠病毒抗原自我檢測套組,62,2022/05/12 08:24:34,未發號碼牌，星期一至六早上9:00開始販賣口罩，星期日不一定
5917063676,百惠藥師藥局,臺中市西屯區漢口路二段２４７號,120.6649,24.16696,(04)23169852,羅氏家用新冠病毒抗原自我檢測套組,1,2022/05/12 08:24:34,實名制快篩購買時間:星期一至五:早上9-11  ， 星期六早上10-12 ，星期日店休.
5917063725,永旭大藥局,臺中市西屯區逢甲路９２號１樓,120.6439,24.17883,(04)27087952,羅氏家用新冠病毒抗原自我檢測套組,1,2022/05/12 08:24:34,5／6起實名快篩，星期一到五早上10點開始，星期六日中午12點開始排隊販售。
5917070248,聯發藥局,臺中市南屯區溝墘里大墩路８５０號,120.6496,24.15551,(04)23262738,羅氏家用新冠病毒抗原自我檢測套組,79,2022/05/12 08:24:34,週一至周六早上十點開賣，以現場數量為主，售完為止。販售時間忙碌，恕無法接聽電話，請見諒。
5917071781,吉運藥局,臺中市南屯區南屯里黎明路１段１１３５號,120.6382,24.14047,(04)23834755,羅氏家用新冠病毒抗原自我檢測套組,8,2022/05/12 08:24:34,固定周一到周六，早上8:00賣實名制快篩。不發號碼牌
5917080342,弘光藥局,臺中市北屯區太原路三段４５８號１樓,120.6951,24.16476,(04)22342999,羅氏家用新冠病毒抗原自我檢測套組,8,2022/05/12 08:24:34,早上7:30開始販賣防疫口罩（全年無休）
5917080593,崇安藥局,臺中市北屯區四民里昌平路二段５４－３號１樓,120.6831,24.19198,(04)24221929,羅氏家用新冠病毒抗原自我檢測套組,54,2022/05/12 08:24:34,實名制快篩周一至周日08:15發號碼牌
5917080888,大華藥局,臺中市北屯區熱河路２段１０９號１樓,120.6873,24.17054,(04)22331721,羅氏家用新冠病毒抗原自我檢測套組,9,2022/05/12 08:24:34,週一至週五1830-2030販售快篩，週六1430-1600販售快篩。週六晚上及週日全天休診。
5917082882,世富藥局,臺中市北屯區北屯路２９９－３號１樓,120.6961,24.16825,(04)22317085,羅氏家用新冠病毒抗原自我檢測套組,76,2022/05/12 08:24:34,營業早上08:00-12:00，下午15:00-21:00.星期六晚上休息.星期日休息
5917082908,安順藥局,臺中市北屯區大鵬路３２號,120.6672,24.17834,(04)22924966,羅氏家用新冠病毒抗原自我檢測套組,8,2022/05/12 08:24:34,防疫快篩於上午 07:30 開始販售， 售完為止
5917083012,佳家社區藥局,臺中市北屯區松義街１６８號,120.6984,24.18446,(04)22411678,羅氏家用新冠病毒抗原自我檢測套組,6,2022/05/12 08:24:34,｛快篩早上8點販售｝ 藥局營業時間8:30~22:00，週日下午公休.
5917083021,吉士康樂活藥局,臺中市北屯區昌平路２段８－１６號,120.6902,24.17986,(04)22410108,羅氏家用新冠病毒抗原自我檢測套組,21,2022/05/12 08:24:34,每日12:00開始販售快篩試劑.售完為止.；星期日營業至晚上8:00；國定假日照常營業
5917083058,福益藥局,臺中市北屯區東山路１段１８８－７號,120.7093,24.17085,(04)24367031,羅氏家用新冠病毒抗原自我檢測套組,4,2022/05/12 08:24:34,快篩販售時間:   7:00開始~售完為止（星期日休息）
5921010232,大家藥局,臺南市東區大同路二段１７５號,120.214,22.97682,(06)2153777,羅氏家用新冠病毒抗原自我檢測套組,73,2022/05/12 08:24:34,快篩實名制:星期一到星期日早上8:30開始營業  以當日配送到達時間開始販售
5921010429,乙田藥局,臺南市東區東明里怡東路３０號,120.2278,22.99109,(06)2359303,羅氏家用新冠病毒抗原自我檢測套組,2,2022/05/12 08:24:34,無
5921010625,益丞藥局,臺南市東區裕農路３４８號,120.2294,22.98681,(06)2359865,羅氏家用新冠病毒抗原自我檢測套組,32,2022/05/12 08:24:34,快篩送達時間不一定，請先打電話詢問
5921010689,億安大藥局,臺南市東區大福里大同路２段２６５號,120.2145,22.97486,(06)2159881,羅氏家用新冠病毒抗原自我檢測套組,74,2022/05/12 08:24:34,防疫快篩週一至週六；現場制不發號碼牌早上8:30開始販賣售完為止星期日休息
5921010705,華興藥局,臺南市東區崇善路５６２號,120.2302,22.97076,(06)2683757,羅氏家用新冠病毒抗原自我檢測套組,2,2022/05/12 08:24:34,星期日 休假  111／5／2 上午10點開始
5921012361,崇仁藥局,臺南市東區龍山里崇學路２３１號,120.2244,22.98125,(06)2894115,羅氏家用新冠病毒抗原自我檢測套組,74,2022/05/12 08:24:34,週一到週六，早上8:30開賣（視現場狀況稍做調整），售完為止；中午11:30-15:30休息
5921012683,連春藥局,臺南市東區莊敬路１５號,120.2326,22.99335,(06)2083685,羅氏家用新冠病毒抗原自我檢測套組,30,2022/05/12 08:24:34,早上8／30開始銷售
5921012870,麗生藥師藥局,臺南市東區崇德路５６５號,120.2276,22.97294,(06)3356868,羅氏家用新冠病毒抗原自我檢測套組,1,2022/05/12 08:24:34,快篩實名制販售時間14:30-16:00
5921020096,豐陽藥局,臺南市南區文南里文南路１１５號,120.1898,22.98481,(06)2610628,羅氏家用新冠病毒抗原自我檢測套組,17,2022/05/12 08:24:34,週一至週日08:00 開始營業及販售防疫快篩試劑，售完為止.
5921020210,興泰藥局,臺南市南區金華路一段１６５號,120.1897,22.96557,(06)2653638,羅氏家用新冠病毒抗原自我檢測套組,11,2022/05/12 08:24:34,星期一到星期六早上8點開始.售完為止
5921020256,久芳藥局,臺南市南區喜樹路３４０巷１６６號,120.1761,22.94113,(06)2625209,羅氏家用新冠病毒抗原自我檢測套組,3,2022/05/12 08:24:34,防疫口罩發放上午八點至下午八點
5921020425,日大中西藥局,臺南市南區永興一街３２號,120.1927,22.9659,(06)2612817,羅氏家用新冠病毒抗原自我檢測套組,27,2022/05/12 08:24:34,每日08:00~21:30
5921021708,為仁藥師藥局,臺南市南區大同路二段１０６號,120.2123,22.98022,(06)2139376,羅氏家用新冠病毒抗原自我檢測套組,25,2022/05/12 08:24:34,實名制快篩試劑每日上午8:05販售
5921030127,平安藥局,臺南市中西區永華路一段２３６號,120.1909,22.98852,(06)2292789,羅氏家用新冠病毒抗原自我檢測套組,78,2022/05/12 08:24:34,上午10:00到晚上23:00
5921040221,好鄰居藥局,臺南市北區西華里公園路１２８號２樓７室,120.2076,22.99889,(06)2219015,羅氏家用新冠病毒抗原自我檢測套組,52,2022/05/12 08:24:34,固定星期一至星期六8:30開始販賣快篩，星期天早上9:00開始販賣快篩
5921040276,全一藥局,臺南市北區大豐里和緯路四段９５巷３８號,120.1912,23.0076,(06)2580021,羅氏家用新冠病毒抗原自我檢測套組,1,2022/05/12 08:24:34,快篩實名制，每天上午07:50開始販售（週日有）
5921040294,澄清堂藥局,臺南市北區勝利路４９５號,120.2185,23.00648,(06)2377224,羅氏家用新冠病毒抗原自我檢測套組,59,2022/05/12 08:24:34,星期一至星期六早上09:00開始賣~賣完
5921040301,永生藥局,臺南市北區六甲里公園路４８１號,120.2079,23.00898,(06)2813681,羅氏家用新冠病毒抗原自我檢測套組,4,2022/05/12 08:24:34,已全數售完／即日至15日暫停販售
5921040392,宏吉藥局,臺南市北區大港里大興街２２４號,120.1879,23.01085,(06)2589692,羅氏家用新冠病毒抗原自我檢測套組,73,2022/05/12 08:24:34,代售實名制快篩試劑時間：5／6起上午08：30開始販售至售完為止。【每星期日停售一天】
5921041924,芳鄰藥局,臺南市北區公園北路１５２號,120.2084,23.00521,(06)2811101,羅氏家用新冠病毒抗原自我檢測套組,8,2022/05/12 08:24:34,營業時間早上九點~晚上九點
5921041979,康友藥師藥局,臺南市北區和緯路二段２４３號,120.2044,23.01224,(06)2520666,羅氏家用新冠病毒抗原自我檢測套組,19,2022/05/12 08:24:34,快篩實名制，上午8:00開始販售，售完為止。（星期日店休）
5921050076,千代藥局,臺南市中西區民生路一段６０號１樓,120.2034,22.99337,(06)2256895,羅氏家用新冠病毒抗原自我檢測套組,78,2022/05/12 08:24:34,快篩試劑實名制:星期1~6下午一點至三點販售（星期日當日貨到開始販售）
5921050138,金德藥局,臺南市中西區府前路１段３３號,120.2108,22.98881,(06)2149082,羅氏家用新冠病毒抗原自我檢測套組,48,2022/05/12 08:24:34,星期一-日08:00-23:00
5921051582,丞功藥局,臺南市中西區成功路３１號,120.2095,22.99747,(06)2287641,羅氏家用新冠病毒抗原自我檢測套組,27,2022/05/12 08:24:34,星期一-六08:00-售完
5921060072,翰昌藥局,臺南市安南區溪東里北安路二段１１９號,120.2046,23.0272,(06)2596372,羅氏家用新冠病毒抗原自我檢測套組,1,2022/05/12 08:24:34,無
5921060161,仲宏藥局,臺南市安南區淵中里安中路３段４３１號,120.1737,23.05,(06)2567798,羅氏家用新冠病毒抗原自我檢測套組,8,2022/05/12 08:24:34,星期一~星期六08:00-22:00 星期日:公休
5921060376,涂逸權藥師藥局,臺南市安南區長溪路一段３１４號,120.2074,23.03892,(06)2560583,羅氏家用新冠病毒抗原自我檢測套組,71,2022/05/12 08:24:34,星期一~星期六 08:00-22:00
5921061668,新資生藥師藥局,臺南市安南區城北路５２號１樓,120.1309,23.06296,(06)2571153,羅氏家用新冠病毒抗原自我檢測套組,29,2022/05/12 08:24:34,星期一~星期六早上.快篩販售8點到10點止
5921061757,宏恩藥局,臺南市安南區長溪路１段５２號,120.2118,23.03457,(06)2474513,羅氏家用新冠病毒抗原自我檢測套組,76,2022/05/12 08:24:34,即日起，快篩試劑平日早上8:30開賣，周日不營業，一人藥局，請勿再撥電話詢問，行車注意安全，謝謝
5921071226,康活藥局,臺南市安平區健康三街１８６號,120.1686,22.98883,(06)2936483,羅氏家用新冠病毒抗原自我檢測套組,6,2022/05/12 08:24:34,快篩晚上18:00開賣.
5921080010,羽田藥局,臺南市中西區府前路一段２１４號,120.205,22.98913,(06)2214066,羅氏家用新冠病毒抗原自我檢測套組,2,2022/05/12 08:24:34,週一至週六09:00起依序販售實名制快篩，售完為止。周日停止販售。
5922010147,普羅藥局,嘉義市東區民權路１１４號,120.458,23.48361,(05)2754836,羅氏家用新冠病毒抗原自我檢測套組,50,2022/05/12 08:24:34,快篩試劑每日08:00開始銷售.週日休息 .
5922010281,上安中西藥局,嘉義市東區府路里延平街２３８號之１,120.4502,23.47683,(05)2231005,羅氏家用新冠病毒抗原自我檢測套組,52,2022/05/12 08:24:34,星期一至星期五:上午7點半至8點，下午2點至3點，星期六:上午7點半至9點（售完提前截止）
5922010361,壽生堂藥局,嘉義市東區府路里延平街２８０號,120.4502,23.47683,(05)2225058,羅氏家用新冠病毒抗原自我檢測套組,57,2022/05/12 08:24:34,周一至周日上午09:00起，至20:00或售鑿為止。
5922010405,信輝藥局,嘉義市東區安寮里吳鳳南路３５３號,120.4553,23.4643,(05)2252415,羅氏家用新冠病毒抗原自我檢測套組,38,2022/05/12 08:24:34,5／6（五）起每天早上08:00開始販售~售完為止
5922010441,穎川保健藥局,嘉義市東區仁武里中山路２０４號,120.4517,23.48096,(05)2223609,羅氏家用新冠病毒抗原自我檢測套組,38,2022/05/12 08:24:34,固定周一到周日07:00開始快篩賣
5922010736,全民藥局,嘉義市東區新店里林森東路２８９ 號,120.4665,23.49007,(05)2777900,羅氏家用新冠病毒抗原自我檢測套組,54,2022/05/12 08:24:34,實名制快篩試劑：週一至週六，早上 8：20開始販售。週日店休。
5922012712,誠泰藥師藥局,嘉義市東區安寮里興業東路５６號１樓,120.4555,23.46932,(05)2168905,羅氏家用新冠病毒抗原自我檢測套組,47,2022/05/12 08:24:34,快篩實名制早上8點開始販售
5922012721,仁藥集藥局,嘉義市東區太平里新生路５３９號,120.4582,23.49167,(05)2755533,羅氏家用新冠病毒抗原自我檢測套組,2,2022/05/12 08:24:34,8:30-11:00收健保卡，14:00發快篩
5922012856,民族弘安藥局,嘉義市東區朝陽里民族路１６５號,120.4571,23.47653,(05)2240101,羅氏家用新冠病毒抗原自我檢測套組,56,2022/05/12 08:24:34,周一至周日快篩到貨開始販售快篩，至售完為止.
5922012874,德風藥局,嘉義市東區仁義里台林街１０８－４號１樓,120.4547,23.49514,(05)2716233,羅氏家用新冠病毒抗原自我檢測套組,77,2022/05/12 08:24:34,週一至六 上午8:30開賣 周日下午5:30開賣
5922012909,昱安藥局,嘉義市東區成仁街１８０號,120.4521,23.48057,(05)2252395,羅氏家用新冠病毒抗原自我檢測套組,5,2022/05/12 08:24:34,購買時段星期（一）至（六）下午4:00-5:00
5922013059,杏光藥局,嘉義市東區保健街１４７號附４,120.4492,23.50036,(05)2745642,羅氏家用新冠病毒抗原自我檢測套組,77,2022/05/12 08:24:34,週一至週五 下午1:00~5:00 現場排隊，無號碼牌（ （六日及國定假日停售）
5922013148,後庄弘安藥局,嘉義市東區吳鳳南路２９８號１樓,120.4587,23.4566,(05)2305678,羅氏家用新冠病毒抗原自我檢測套組,47,2022/05/12 08:24:34,無
5922013175,森活中西藥局,嘉義市東區吳鳳北路２０８號一樓,120.4533,23.47931,(05)2288518,羅氏家用新冠病毒抗原自我檢測套組,74,2022/05/12 08:24:34,8:30開始發放號碼牌，12:00~14:00領取快篩
5922020063,弘安藥局,嘉義市西區文化路２７７號,120.4486,23.48383,(05)2259000,羅氏家用新冠病毒抗原自我檢測套組,49,2022/05/12 08:24:34,營業時間 08:00-22:00 週一~週日販售快篩時間08:00-售罄；請自備零錢（面額500、1000不找零）
5922020116,興業藥局,嘉義市西區福民里興業西路３８１號,120.4366,23.46751,(05)2861880,羅氏家用新冠病毒抗原自我檢測套組,3,2022/05/12 08:24:34,每日早上 8 點 售完為止
5922020303,新宏祥藥局,嘉義市西區湖內里民生南路５７４號,120.4427,23.45504,(05)2355588,羅氏家用新冠病毒抗原自我檢測套組,19,2022/05/12 08:24:34,羅氏家用快篩:每日早上8點開始販售.售完為止
5922020358,泰春藥局,嘉義市西區學圃里民生北路６６號,120.4468,23.47543,(05)2224118,羅氏家用新冠病毒抗原自我檢測套組,76,2022/05/12 08:24:34,快篩試劑販售時間：早上9點至晚上9點
5922020376,勝華藥局,嘉義市西區垂楊路６２３號,120.4375,23.4726,(05)2856642,羅氏家用新冠病毒抗原自我檢測套組,40,2022/05/12 08:24:34,週一至週六早上 8:00開始販售快篩試劑.週日休息.
5922020456,啄木鳥藥局,嘉義市西區國華里文化路２５３號,120.4488,23.48298,(05)2226497,羅氏家用新冠病毒抗原自我檢測套組,51,2022/05/12 08:24:34,實名制快篩8:15開始販售.售完為止
5922020483,逢春藥局,嘉義市西區竹圍里北興街４１７號,120.4348,23.48739,(05)2326990,羅氏家用新冠病毒抗原自我檢測套組,45,2022/05/12 08:24:34,快篩:週一至週六，早上8點開始 售完為止
5922020518,永安藥局,嘉義市西區西平里信義路４９之１號,120.4344,23.47431,(05)2358368,羅氏家用新冠病毒抗原自我檢測套組,46,2022/05/12 08:24:34,口罩：星期一至星期日9點販售，售完為止，現場排隊
5922020661,大正藥局,嘉義市西區書院里民族路７０２號,120.4435,23.47554,(05)2285812,羅氏家用新冠病毒抗原自我檢測套組,11,2022/05/12 08:24:34,早上8:00開始販售~售完為止 !
5922020670,興嘉藥局,嘉義市西區興業西路３７０號,120.4373,23.46793,(05)2841812,羅氏家用新冠病毒抗原自我檢測套組,63,2022/05/12 08:24:34,固定週一至週日8:15開放領取口罩，至售完為止
5922020812,海鴻藥師藥局,嘉義市西區民生南路５５２號,120.4433,23.45878,(05)2837758,羅氏家用新冠病毒抗原自我檢測套組,64,2022/05/12 08:24:34,固定每日上午8 : 00 直接排隊發放
5922020910,苰安藥局,嘉義市西區竹圍里友愛路２３６號１樓,120.434,23.48268,(05)2910585,羅氏家用新冠病毒抗原自我檢測套組,31,2022/05/12 08:24:34,營業時間 08:00-22:00。快篩實名制早上8點開始販售，售完為止。
5922020938,仁愛弘安藥局,嘉義市西區仁愛路３９３號１樓,120.442,23.47654,(05)2239000,羅氏家用新冠病毒抗原自我檢測套組,59,2022/05/12 08:24:34,早上八點開賣，賣完為止
5922020974,嚴昔志藥局,嘉義市西區新民路７８５號１樓,120.4396,23.4706,(05)2853991,羅氏家用新冠病毒抗原自我檢測套組,37,2022/05/12 08:24:34,無
5922020992,昭安藥局,嘉義市西區民生南路４７９號１樓,120.4437,23.45821,(05)2842240,羅氏家用新冠病毒抗原自我檢測套組,66,2022/05/12 08:24:34,無
5922028925,健安藥局,嘉義市西區民族路６２６號,120.4452,23.4757,(05)2281219,羅氏家用新冠病毒抗原自我檢測套組,38,2022/05/12 08:24:34,口罩:星期一至星期六9點-12點，15點-21點
592202A054,萬泰藥師藥局,嘉義市西區民族路４９４號,120.449,23.47605,(05)2168605,羅氏家用新冠病毒抗原自我檢測套組,63,2022/05/12 08:24:34,快篩實名制8:00開始販售
592202A349,力健藥局,嘉義市西區文化路５９１號,120.4443,23.49355,(05)2323217,羅氏家用新冠病毒抗原自我檢測套組,45,2022/05/12 08:24:34,營業時間為早上8:00至中午13:00，下午2:30至晚上9:30，口罩發放從早上8:30至售完為止
592202A358,國豐藥局,嘉義市西區北興街２４５－２號１樓,120.4386,23.4854,(05)2318473,羅氏家用新冠病毒抗原自我檢測套組,78,2022/05/12 08:24:34,週一至週六上午10:00開始販售，無號碼牌（週六下午及例假日停售）
592202A465,廣元藥局,嘉義市西區民安里中正路６９７號,120.4421,23.47842,(05)2252733,羅氏家用新冠病毒抗原自我檢測套組,71,2022/05/12 08:24:34,5／6（五）起，實名制快篩早上8:30開賣~售完為止!
5931010066,翰林藥局,新北市板橋區中正路２４０號,121.4557,25.01906,(02)29602748,羅氏家用新冠病毒抗原自我檢測套組,22,2022/05/12 08:24:34,早上8：00─晚上11：00
5931010217,皇安藥局,新北市板橋區中山路２段２４１號,121.4772,25.01757,(02)29524089,羅氏家用新冠病毒抗原自我檢測套組,78,2022/05/12 08:24:34,快篩星期一三五單號，星期二四號雙號
5931010342,宏達大藥局,新北市板橋區莒光路１７號,121.47,25.02478,(02)22572345,羅氏家用新冠病毒抗原自我檢測套組,7,2022/05/12 08:24:34,快篩 晚上20:00開始販售! 不要打電話來 問題這麼多就到現場 也不給你問
5931010708,一誠藥局,新北市板橋區府中路６２號,121.4569,25.00965,(02)29673956,羅氏家用新冠病毒抗原自我檢測套組,78,2022/05/12 08:24:34,無
5931010842,大福藥局,新北市板橋區三民路１段３１巷１５號,121.48,25.02326,(02)29610311,羅氏家用新冠病毒抗原自我檢測套組,11,2022/05/12 08:24:34,每週一至周六13:30開始販售實名制快篩試劑，週日無販售
5931011054,國光藥師藥局,新北市板橋區國光路１７２號,121.4605,25.01825,(02)29698181,羅氏家用新冠病毒抗原自我檢測套組,5,2022/05/12 08:24:34,無
5931011330,戴安藥局,新北市板橋區溪北路５４號,121.4276,24.98982,(02)26818663,羅氏家用新冠病毒抗原自我檢測套組,61,2022/05/12 08:24:34,無
5931012051,全曜藥局,新北市板橋區民權路２６０巷６２號,121.4603,25.01495,(02)29682681,羅氏家用新冠病毒抗原自我檢測套組,1,2022/05/12 08:24:34,實名制快篩下午七點發放，依現場數量為準（星期日休）
5931012060,溪北藥局,新北市板橋區溪北路７８號１樓,121.4281,24.98953,(02)26866528,羅氏家用新冠病毒抗原自我檢測套組,23,2022/05/12 08:24:34,無
5931013343,晉麟藥局,新北市板橋區懷德街７８巷４號,121.4781,25.03164,(02)22509069,羅氏家用新冠病毒抗原自我檢測套組,18,2022/05/12 08:24:34,實名制快篩早上8:00販售，（依快篩到貨時間會滾動式調整）
5931013361,長欣藥師藥局,新北市板橋區中山路２段５０５巷３６號,121.4821,25.02246,(02)29585308,羅氏家用新冠病毒抗原自我檢測套組,1,2022/05/12 08:24:34,無
5931013478,富盛藥局,新北市板橋區四維路２９１巷４弄２４號１樓,121.4622,25.02879,(02)22596016,羅氏家用新冠病毒抗原自我檢測套組,17,2022/05/12 08:24:34,快篩試劑.下午2點販售.預防群聚 滾動式調整時間.請勿打電話詢問.謝謝
5931014224,大峰藥局,新北市板橋區莒光路１６８號１樓,121.4741,25.02314,(02)22510338,羅氏家用新冠病毒抗原自我檢測套組,1,2022/05/12 08:24:34,AM8:00起發放防疫口罩
5931014537,友虹藥師藥局,新北市板橋區國光路１６號,121.457,25.01739,(02)29691181,羅氏家用新冠病毒抗原自我檢測套組,17,2022/05/12 08:24:34,早上十點開始販賣到十一點
5931015687,正康健保藥局,新北市板橋區大觀路２段６５號１樓,121.4467,25.00246,(02)22756681,羅氏家用新冠病毒抗原自我檢測套組,3,2022/05/12 08:24:34,下午13:30依現場順序開始販售快篩，快篩配送絮亂庫存不準!!
5931015721,新進發大藥局,新北市板橋區大同街２４號１樓,121.4787,25.0275,(02)22593926,羅氏家用新冠病毒抗原自我檢測套組,5,2022/05/12 08:24:34,快篩上午10點開門即賣，排隊不發號碼
5931016237,幸福健保藥局,新北市板橋區四維路１０６號１樓,121.4657,25.02457,(02)22530009,羅氏家用新冠病毒抗原自我檢測套組,1,2022/05/12 08:24:34,無
5931016737,必生好藥局,新北市板橋區松柏街６７號１樓,121.4763,25.03065,(02)22511057,羅氏家用新冠病毒抗原自我檢測套組,24,2022/05/12 08:24:34,快篩早上8點開賣 開門即賣，排隊不發號碼直接購買
5931016755,禾田藥局,新北市板橋區大觀路２段２６５巷１２號（１樓）,121.4428,24.99858,(02)29659899,羅氏家用新冠病毒抗原自我檢測套組,4,2022/05/12 08:24:34,8：30發放號碼牌，9：30-21：30來購買，當日未刷健保卡購買者視為無效
5931017494,佑全板橋四川藥局,新北市板橋區四川路１段４７１號１樓,121.4573,24.99744,(02)29559598,羅氏家用新冠病毒抗原自我檢測套組,49,2022/05/12 08:24:34,快篩販售時間：周一到周五1500開始，週六日公休，現場排隊
5931017547,好爸爸藥局,新北市板橋區民治街１０７號１樓,121.4788,25.03138,(02)22559955,羅氏家用新冠病毒抗原自我檢測套組,8,2022/05/12 08:24:34,無
5931017556,光鹽藥局,新北市板橋區中山路２段８４之２號（２樓）,121.4748,25.0161,(02)29552167,羅氏家用新冠病毒抗原自我檢測套組,74,2022/05/12 08:24:34,無
5931017654,葆康藥局,新北市板橋區四川路２段２４５巷３號（１樓）,121.4507,24.99346,(02)89678373,羅氏家用新冠病毒抗原自我檢測套組,31,2022/05/12 08:24:34,下午四點開始販售實名制快篩，不用抽號碼牌，直接排隊購買。
5931017707,上嘉藥局,新北市板橋區四維路２９６號１樓,121.4628,25.02936,(02)22582278,羅氏家用新冠病毒抗原自我檢測套組,3,2022/05/12 08:24:34,無
5931017716,星辰藥局,新北市板橋區實踐路４９號（１樓）,121.4638,25.00679,(02)89521666,羅氏家用新冠病毒抗原自我檢測套組,5,2022/05/12 08:24:34,換快篩請自備$500 沒這麼多$500可以找
5931017752,泓泰藥局,新北市板橋區館前西路１４０號２樓,121.4563,25.0081,(02)29686559,羅氏家用新冠病毒抗原自我檢測套組,7,2022/05/12 08:24:34,無
5931017789,明翠藥局,新北市板橋區四維路１４６、１４８號１、２樓,121.4651,25.02555,(02)22550201,羅氏家用新冠病毒抗原自我檢測套組,78,2022/05/12 08:24:34,快篩實名制，每天16:00開始販售，售完為止。
5931017805,利安藥師藥局,新北市板橋區南雅西路２段１１７號１樓、１１９號１樓,121.4524,25.01085,(02)29666951,羅氏家用新冠病毒抗原自我檢測套組,5,2022/05/12 08:24:34,快篩每日下午三點依現場順序販售，售完為止
5931017869,躍獅國慶藥局,新北市板橋區國慶路１７９號（１樓）,121.4626,24.99636,(02)29641548,羅氏家用新冠病毒抗原自我檢測套組,78,2022/05/12 08:24:34,快篩實名制，每天14:00開始販售，售完為止
5931017976,豐禾藥局,新北市板橋區中山路１段２７９號１樓,121.4696,25.0142,(02)89516666,羅氏家用新冠病毒抗原自我檢測套組,1,2022/05/12 08:24:34,快篩試劑販售時間為上午9:00~10:30，下午3:00~4:30。若上午售完，下午即停止販售。
5931018017,有田藥局,新北市板橋區忠孝路１８１號（１樓）,121.4642,25.00262,(02)29598095,羅氏家用新冠病毒抗原自我檢測套組,52,2022/05/12 08:24:34,早上十點開始販售，售完為止
5931018099,廣品藥局,新北市板橋區漢生西路８２號（１樓）,121.4628,25.01934,(02)22576880,羅氏家用新冠病毒抗原自我檢測套組,1,2022/05/12 08:24:34,實名制快篩 周一~周五下午16；00發放 週六.日 早上09；30發放 請勿打電話詢問 感謝配合
5931018115,振昌藥局,新北市板橋區溪崑二街１４號１樓,121.4288,24.99175,(02)26862119,羅氏家用新冠病毒抗原自我檢測套組,1,2022/05/12 08:24:34,快篩實名制14:50發放號碼牌，15:00開始憑號碼牌販售
5931020017,建宏藥局,新北市三重區名源街１６號,121.4819,25.06065,(02)29714533,羅氏家用新冠病毒抗原自我檢測套組,43,2022/05/12 08:24:34,星期一至日 營業時間早上8點-中午12點、下午2點-晚上9點30分（星期日偶會休息）
5931020133,上豪藥局,新北市三重區中正北路２２０號１樓,121.4822,25.06757,(02)29820399,羅氏家用新冠病毒抗原自我檢測套組,1,2022/05/12 08:24:34,星期天公休
5931020464,合眾藥局,新北市三重區文化北路１０２巷３９號,121.4972,25.06597,(02)29897379,羅氏家用新冠病毒抗原自我檢測套組,78,2022/05/12 08:24:34,實名制快篩，販售時間：星期一~星期六早上 9:00 開始販售。星期日早上8-10 點販售!!
5931020688,厚德藥局,新北市三重區大智街１７５號１樓,121.4898,25.07265,(02)29717277,羅氏家用新冠病毒抗原自我檢測套組,75,2022/05/12 08:24:34,防疫口罩於早上0830發放，售完為止
5931020704,建芳藥局,新北市三重區集美街１７４號,121.4904,25.05321,(02)29763351,羅氏家用新冠病毒抗原自我檢測套組,27,2022/05/12 08:24:34,無
5931020795,杜廣德藥師藥局,新北市三重區大智街５３號,121.4928,25.06775,(02)29843152,羅氏家用新冠病毒抗原自我檢測套組,78,2022/05/12 08:24:34,防疫快篩代售時間 5／8無配送快篩 請勿排隊
5931020919,東裕藥局,新北市三重區重新路４段１２２號,121.487,25.05652,(02)29773255,羅氏家用新冠病毒抗原自我檢測套組,39,2022/05/12 08:24:34,實名制快篩販售時間:AM9:00開始現場排隊，售完為止.（星期日休息）
5931020991,久洲藥局,新北市三重區長元街５１－９號,121.5009,25.06616,(02)29783515,羅氏家用新冠病毒抗原自我檢測套組,75,2022/05/12 08:24:34,快篩八點半發號碼牌售完為止
5931021532,龍門藥局,新北市三重區龍門路１８９號,121.4996,25.07322,(02)29756141,羅氏家用新冠病毒抗原自我檢測套組,78,2022/05/12 08:24:34,實名制快篩販售時間~星期一至星期六下午3點
5931023198,成立藥局,新北市三重區正義北路３１０－１號２樓,121.4951,25.07004,(02)89852355,羅氏家用新冠病毒抗原自我檢測套組,15,2022/05/12 08:24:34,2／3.2／10.2／24藥局有營業
5931023349,迪化藥局,新北市三重區中華路７７號,121.4836,25.06267,(02)29834445,羅氏家用新冠病毒抗原自我檢測套組,2,2022/05/12 08:24:34,實名制快篩每日早上九點發牌號／週日食藥署暫停供應快篩
5931023401,正大藥局,新北市三重區五華街３９號,121.4945,25.08106,(02)89815931,羅氏家用新冠病毒抗原自我檢測套組,22,2022/05/12 08:24:34,無
5931023447,安泰藥局,新北市三重區正義北路３００－３號２樓,121.4953,25.06978,(02)89815379,羅氏家用新冠病毒抗原自我檢測套組,78,2022/05/12 08:24:34,5／2只有早上8:30--12:00營業下午.及晚上休息
5931023830,忠信藥局,新北市三重區仁興街３２號,121.4991,25.07552,(02)29762963,羅氏家用新冠病毒抗原自我檢測套組,43,2022/05/12 08:24:34,無
5931024426,甜心健康生活藥局,新北市三重區福祉里集美街４５號１樓,121.488,25.05542,(02)29762223,羅氏家用新冠病毒抗原自我檢測套組,3,2022/05/12 08:24:34,無
5931024515,陳藥局,新北市三重區三民街７７號,121.4858,25.06293,(02)29848601,羅氏家用新冠病毒抗原自我檢測套組,2,2022/05/12 08:24:34,實名制快篩每日78人份販售時間: 周一到五 晚上7:30~9:00，週六 下午4:00~5:30現場購買沒有發號碼牌，星期天公休
5931024588,陽光藥師藥局,新北市三重區三和路２段１８２號１樓,121.4987,25.06886,(02)29788120,羅氏家用新冠病毒抗原自我檢測套組,73,2022/05/12 08:24:34,無
5931024784,中華健保藥局,新北市三重區中華路９５號,121.4836,25.0631,(02)29813155,羅氏家用新冠病毒抗原自我檢測套組,1,2022/05/12 08:24:34,每天下午3點半開始販賣實名制快篩
5931024908,力行德榮藥局,新北市三重區力行路２段１７０號１樓,121.483,25.07699,(02)22867170,羅氏家用新冠病毒抗原自我檢測套組,78,2022/05/12 08:24:34,星期一到星期五早上08:30.星期六.日中午12:10.
5931024962,建祥三和藥局,新北市三重區三和路２段１６０號１樓,121.4992,25.06853,(02)29703379,羅氏家用新冠病毒抗原自我檢測套組,10,2022/05/12 08:24:34,實名制快篩10:00發放號碼牌
5931025174,小林健保藥局,新北市三重區文化北路６１－１號１樓,121.4987,25.0663,(02)29763895,羅氏家用新冠病毒抗原自我檢測套組,3,2022/05/12 08:24:34,快篩販售時間公告於「小林健保藥局」粉絲專頁
5931025398,昌誠藥局,新北市三重區三和路４段１６１號１樓,121.4835,25.0785,(02)22876338,羅氏家用新冠病毒抗原自我檢測套組,5,2022/05/12 08:24:34,5／2 （休診）
5931025567,閎安藥局,新北市三重區重新路２段８５號１樓、２樓,121.4962,25.06181,(02)29881968,羅氏家用新冠病毒抗原自我檢測套組,6,2022/05/12 08:24:34,快篩代售時間:每日14:00發號碼牌（以在場者為主），15:00發快篩，當日領取至21:00
5931025638,華安生活藥局,新北市三重區重新路２段１２６號１樓,121.4963,25.0616,(02)29756534,羅氏家用新冠病毒抗原自我檢測套組,2,2022/05/12 08:24:34,國定例假日執行調劑業務
5931025647,幸康藥局,新北市三重區正義北路２０５號２樓,121.4962,25.0684,(02)29816105,羅氏家用新冠病毒抗原自我檢測套組,68,2022/05/12 08:24:34,國定假日，如元旦，端午，中秋不執行調劑業務。政府快篩實名制於週一~週六的14:30開始販售。
5931025692,杏一三重集成藥局,新北市三重區集成路４３號１樓,121.4893,25.05271,(02)29743410,羅氏家用新冠病毒抗原自我檢測套組,51,2022/05/12 08:24:34,5 ／ 11下午三點開始販售 5／12下午三點開始販售
5931025745,恆源藥局,新北市三重區仁興街２８巷４１號１樓,121.4982,25.07515,(02)29765002,羅氏家用新冠病毒抗原自我檢測套組,32,2022/05/12 08:24:34,國定假日有提供調劑業務
5931025781,芯慈藥局,新北市三重區永安北路２段１０５號１樓,121.4831,25.08392,(02)28570670,羅氏家用新冠病毒抗原自我檢測套組,66,2022/05/12 08:24:34,國定假日有提供藥劑服務
5931025807,永福藥局,新北市三重區永福街３號１樓,121.4827,25.07837,(02)22861161,羅氏家用新冠病毒抗原自我檢測套組,76,2022/05/12 08:24:34,15:00排隊拿號碼牌買快篩
5931025825,美康中正北藥局,新北市三重區中正北路１４９號１樓２樓,121.4826,25.06755,(02)29882836,羅氏家用新冠病毒抗原自我檢測套組,3,2022/05/12 08:24:34,無
5931025843,專品先嗇宮藥局,新北市三重區光復路１段４７號１樓,121.4722,25.04874,(02)85124658,羅氏家用新冠病毒抗原自我檢測套組,58,2022/05/12 08:24:34,國定假日有提供藥劑業務
5931025870,宏安藥局,新北市三重區集美街１５８號１樓,121.4898,25.05306,(02)29785866,羅氏家用新冠病毒抗原自我檢測套組,4,2022/05/12 08:24:34,無
5931025996,信義忠孝藥局,新北市三重區忠孝路２段４０號１樓,121.4854,25.07056,(02)89813529,羅氏家用新冠病毒抗原自我檢測套組,79,2022/05/12 08:24:34,早上8:30發放號碼牌 自備500+健保卡 12:00以後領取快篩歸還健保卡
5931030317,聖英藥局,新北市永和區福和路５５－１號,121.5231,25.00789,(02)29293613,羅氏家用新冠病毒抗原自我檢測套組,1,2022/05/12 08:24:34,無
5931032302,威康藥局,新北市永和區中正路１５３號,121.5163,24.9984,(02)29461128,羅氏家用新冠病毒抗原自我檢測套組,57,2022/05/12 08:24:34,無
5931032759,友辰藥局,新北市永和區中正路３８０號１樓,121.5177,25.00123,(02)29267131,羅氏家用新冠病毒抗原自我檢測套組,78,2022/05/12 08:24:34,無
5931032811,華特健康藥局,新北市永和區永貞路３６２號１樓,121.5102,25.00667,(02)29264391,羅氏家用新冠病毒抗原自我檢測套組,5,2022/05/12 08:24:34,快篩販賣時間13:00-15:00
5931033078,博昇藥局,新北市永和區仁愛路２２號１樓,121.5148,25.01361,(02)29267273,羅氏家用新冠病毒抗原自我檢測套組,78,2022/05/12 08:24:34,8：20開始發號碼牌、收健保卡、500元，下午3：00至6：00領取實名制快篩。星期日8：30至9：30現場販售實名制快篩。
5931033103,皇家藥師藥局,新北市永和區中正路７２０號１樓,121.5158,25.01017,(02)89216867,羅氏家用新冠病毒抗原自我檢測套組,8,2022/05/12 08:24:34,無
5931033176,緣來藥師藥局,新北市永和區福和路２５０、２５２號１樓,121.5143,25.00787,(02)29211798,羅氏家用新冠病毒抗原自我檢測套組,42,2022/05/12 08:24:34,無
5931033185,偉凱藥局,新北市永和區永元路６號１樓,121.522,25.00007,(02)29242595,羅氏家用新冠病毒抗原自我檢測套組,78,2022/05/12 08:24:34,無
5931033363,保安藥局,新北市永和區保安路２１２號１樓,121.5075,25.01393,(02)29277623,羅氏家用新冠病毒抗原自我檢測套組,76,2022/05/12 08:24:34,快篩配送時間不一定，依配送時間決定。目前時段下午3點開始，售完為止。
5931033461,常安中西藥局,新北市永和區保平路２６號１樓,121.5122,25.00749,(02)29283530,羅氏家用新冠病毒抗原自我檢測套組,8,2022/05/12 08:24:34,每日下午三點開始實名制快篩
5931033523,永奕藥局,新北市永和區永平路２８６之１號１樓,121.5077,25.01208,(02)22327709,羅氏家用新冠病毒抗原自我檢測套組,64,2022/05/12 08:24:34,無
5931033621,永正健康人生藥局,新北市永和區中正路１９１、１９３號１樓、１９７號２樓,121.5171,24.99931,(02)29467351,羅氏家用新冠病毒抗原自我檢測套組,78,2022/05/12 08:24:34,實名制快篩9點開賣
5931033792,明慧藥師藥局,新北市永和區仁愛路２９５號１樓,121.5053,25.00917,(02)29297118,羅氏家用新冠病毒抗原自我檢測套組,9,2022/05/12 08:24:34,早上11:30營業
5931033989,悠活藥局,新北市永和區得和路３３０號１樓,121.5233,24.99947,(02)31516288,羅氏家用新冠病毒抗原自我檢測套組,45,2022/05/12 08:24:34,快篩販售: 周一至周日早上8:10開始發售。
5931034039,叁品藥局,新北市永和區秀朗路２段１１８號１樓,121.5244,25.00152,(02)29208800,羅氏家用新冠病毒抗原自我檢測套組,53,2022/05/12 08:24:34,實名制快篩 下午一點發放號碼牌
5931034084,柏愛藥局,新北市永和區竹林路５７號１樓,121.5183,25.01386,(02)89285609,羅氏家用新冠病毒抗原自我檢測套組,80,2022/05/12 08:24:34,實名制快篩每日0930開賣.國定假日營業時間0900-1700
5931034093,順儷中正藥局,新北市永和區中正路１１號１樓,121.514,24.99578,(02)86685058,羅氏家用新冠病毒抗原自我檢測套組,46,2022/05/12 08:24:34,國定假日仍執行調劑業務
5931034119,仁愛陽光藥局,新北市永和區仁愛路１４３號１樓,121.5114,25.01293,(02)89213691,羅氏家用新冠病毒抗原自我檢測套組,4,2022/05/12 08:24:34,快篩代售時段14:00，售完為止...
5931034137,永杏中西藥局,新北市永和區竹林路１１８號１樓,121.5198,25.01141,(02)89210338,羅氏家用新冠病毒抗原自我檢測套組,1,2022/05/12 08:24:34,實名制快篩下午一點開賣，請留意FB官方訊息
5931034146,亮點藥局,新北市永和區竹林路７１號１樓,121.5186,25.01355,(02)89253895,羅氏家用新冠病毒抗原自我檢測套組,40,2022/05/12 08:24:34,快篩發放時段 下午16:30-18:00
5931034208,正銨藥局,新北市永和區得和路２４７－１號（１樓）,121.5206,25.00009,(02)29288100,羅氏家用新冠病毒抗原自我檢測套組,4,2022/05/12 08:24:34,星期1~6下午2:15發號碼牌.星期日休息
5931040055,瑞發藥局,新北市中和區民享街５６－１號,121.474,25.00236,(02)22235319,羅氏家用新冠病毒抗原自我檢測套組,23,2022/05/12 08:24:34,口罩代售時間自08:00；號碼牌發放時間自08:00
5931040082,中和光田藥局,新北市中和區連城路２８號１樓,121.4986,25.00219,(02)22459602,羅氏家用新冠病毒抗原自我檢測套組,42,2022/05/12 08:24:34,快篩販售:週1-6（周日）每日早上發號碼牌販售時間公告門口（歡迎加賴群組）
5931040224,欣祥藥局,新北市中和區民德路７４－１號,121.4687,25.00163,(02)29646442,羅氏家用新冠病毒抗原自我檢測套組,78,2022/05/12 08:24:34,每日早上9點，販售快篩。若有異動以現場公告為主 .
5931040322,宏信藥局,新北市中和區永貞路２６２巷４號,121.5139,25.0039,(02)29294976,羅氏家用新冠病毒抗原自我檢測套組,84,2022/05/12 08:24:34,如有到貨每日早上7點30分準時開賣快篩試劑
5931040402,健星藥局,新北市中和區景平路７５４號,121.4965,25.00456,(02)22403437,羅氏家用新冠病毒抗原自我檢測套組,6,2022/05/12 08:24:34,無
5931040671,吉立藥局,新北市中和區自立路１８３號１樓,121.5236,24.99187,(02)29450561,羅氏家用新冠病毒抗原自我檢測套組,10,2022/05/12 08:24:34,實名制口罩販售時間，星期一~星期六，早上0900-1200
5931040724,梓芳大藥局,新北市中和區圓通路２７８號,121.4918,24.99076,(02)22405025,羅氏家用新冠病毒抗原自我檢測套組,2,2022/05/12 08:24:34,09:00開始販賣實名制快篩與口罩（成人、中童、小童 幼幼），早上八點多發放號碼牌，週日無販賣快篩。
5931041070,祥田藥局,新北市中和區圓通路２３６號,121.4948,24.99268,(02)22452293,羅氏家用新冠病毒抗原自我檢測套組,9,2022/05/12 08:24:34,實名制快篩，08:00開始發號碼牌，同時開始販售，星期日休息
5931042326,璟福藥局,新北市中和區安平路７６號１樓,121.511,24.99652,(02)29408669,羅氏家用新冠病毒抗原自我檢測套組,25,2022/05/12 08:24:34,無
5931042648,恩溢藥局,新北市中和區復興路７９號１樓.２樓,121.5035,24.9902,(02)22452450,羅氏家用新冠病毒抗原自我檢測套組,2,2022/05/12 08:24:34,無
5931042899,家家藥局,新北市中和區民德路４３號,121.469,25.00219,(02)29587512,羅氏家用新冠病毒抗原自我檢測套組,78,2022/05/12 08:24:34,實名制快篩早上09:00販售，若人數眾多會發號碼牌，有拿到者可現場領取。
5931043234,康荃優生保健藥局,新北市中和區福祥路６６號１樓,121.4994,25.00494,(02)22486532,羅氏家用新冠病毒抗原自我檢測套組,11,2022/05/12 08:24:34,無
5931043396,立健藥局,新北市中和區連城路３１７號１樓,121.4892,24.99607,(02)22230614,羅氏家用新冠病毒抗原自我檢測套組,1,2022/05/12 08:24:34,週日休假
5931043627,銓家藥局,新北市中和區員山路３１９號１-２樓,121.4812,25.0006,(02)22257728,羅氏家用新冠病毒抗原自我檢測套組,44,2022/05/12 08:24:34,實名制快篩 下午3點販售 前15分鐘發號碼牌
5931043798,永成藥局,新北市中和區景平路１５６號１樓,121.5176,24.99222,(02)29407619,羅氏家用新冠病毒抗原自我檢測套組,78,2022/05/12 08:24:34,實名制快篩，下午三點領取號碼並開始販售（每日78份）
5931043921,良安藥局,新北市中和區連城路４７７巷１號１樓,121.4833,24.99555,(02)22225798,羅氏家用新冠病毒抗原自我檢測套組,61,2022/05/12 08:24:34,週六日不開店，實名制快篩，晚上9:00開始販售
5931044017,幸福連鎖藥局,新北市中和區忠孝街１２２號１樓,121.5122,24.98581,(02)29410771,羅氏家用新冠病毒抗原自我檢測套組,2,2022/05/12 08:24:34,無
5931044044,宥元藥局,新北市中和區德光路６２號１樓,121.4696,25.00398,(02)89535473,羅氏家用新冠病毒抗原自我檢測套組,30,2022/05/12 08:24:34,週一至周六10:30-22:00發放口罩
5931044133,康富力藥局,新北市中和區仁愛街３２號１樓,121.5109,24.98843,(02)29429896,羅氏家用新冠病毒抗原自我檢測套組,16,2022/05/12 08:24:34,快篩代售時間：周一至周五9:30、週六14:00
5931044393,躍獅康銓藥局,新北市中和區莒光路１４６號１樓,121.4725,25.00088,(02)29646452,羅氏家用新冠病毒抗原自我檢測套組,39,2022/05/12 08:24:34,實名制快篩 每日上午09:10開始販售，週日店休
5931044464,健暉藥局,新北市中和區連城路４８７號１樓,121.4829,24.99552,(02)22231437,羅氏家用新冠病毒抗原自我檢測套組,78,2022/05/12 08:24:34,實名快篩 周一~五 早上10點 39份 ／ 晚上7點 39份 週六 早上 10點 78份 周日休息
5931044580,躍獅天晴藥局,新北市中和區和平街９號１樓,121.5095,24.99025,(02)29491931,羅氏家用新冠病毒抗原自我檢測套組,78,2022/05/12 08:24:34,無
5931044615,安泰大藥局,新北市中和區南山路３５號１樓,121.5022,24.99882,(02)82459423,羅氏家用新冠病毒抗原自我檢測套組,39,2022/05/12 08:24:34,週一至週五下午2:00開賣快篩試劑（無號碼牌）
5931044624,奕采藥局,新北市中和區宜安路７７號１樓,121.5109,24.99733,(02)29429770,羅氏家用新冠病毒抗原自我檢測套組,13,2022/05/12 08:24:34,週一至週六10:00~12:00販售實名制快篩9:00發號碼牌（週日停售）
5931044660,吉佑藥局,新北市中和區大勇街３４號１樓,121.5174,24.99345,(02)89416539,羅氏家用新冠病毒抗原自我檢測套組,37,2022/05/12 08:24:34,無
5931044679,以法蓮藥局,新北市中和區中興街１５４號１樓,121.4998,24.99183,(02)22438983,羅氏家用新冠病毒抗原自我檢測套組,2,2022/05/12 08:24:34,實名制快篩下午3點開始過卡販售，不發號碼牌直接排隊，每人限持一卡（任何異動依現場公告為準）
5931044704,惠民藥局,新北市中和區中興街１５３號１樓,121.5001,24.99102,(02)22475303,羅氏家用新冠病毒抗原自我檢測套組,58,2022/05/12 08:24:34,快篩試劑於8:30發放號碼牌，並同時開始領取。
5931044786,坤暉藥局,新北市中和區中山路３段９４號２樓,121.4774,25.00583,(02)82217939,羅氏家用新冠病毒抗原自我檢測套組,68,2022/05/12 08:24:34,口罩發售時間早上9:00到11:00
5931044820,禾心藥局,新北市中和區秀朗路３段６４號１樓,121.5242,24.99482,(02)86688922,羅氏家用新冠病毒抗原自我檢測套組,13,2022/05/12 08:24:34,實名制快篩週一至週六9:00販售，週日不販售實名制快篩
5931044884,壹品藥局,新北市中和區福祥路５５號１樓,121.4992,25.00474,(02)22481818,羅氏家用新冠病毒抗原自我檢測套組,13,2022/05/12 08:24:34,實名制快篩下午1點發放號碼牌
5931044955,安騏生活藥局,新北市中和區南華路１５號１樓,121.5024,24.99567,(02)22445130,羅氏家用新冠病毒抗原自我檢測套組,1,2022/05/12 08:24:34,快篩周一至周六下午2點直接販售
5931044973,佳禾藥局,新北市中和區自立路３２號１樓,121.5226,24.9928,(02)29428989,羅氏家用新冠病毒抗原自我檢測套組,41,2022/05/12 08:24:34,快篩資訊 每天早上9點發號碼牌同時開始販售
5931044982,萊恩藥局,新北市中和區景安路２０９號１樓,121.5046,24.99192,(02)29468395,羅氏家用新冠病毒抗原自我檢測套組,103,2022/05/12 08:24:34,每週星期一到星期六（星期天依店內公告），早上9點發號碼牌押健保卡，12點後領取快篩
5931045292,福欣藥局,新北市中和區中和路１４８號１樓,121.504,24.99961,(02)22485500,羅氏家用新冠病毒抗原自我檢測套組,22,2022/05/12 08:24:34,無
5931045345,芳碩藥局,新北市中和區連城路４７巷２號１樓,121.4982,25.00162,(02)82458816,羅氏家用新冠病毒抗原自我檢測套組,2,2022/05/12 08:24:34,販售時間星期一~星期六下午14:00-21:00 （星期日休息）
5931045425,千樂台安藥局,新北市中和區安樂路１０１之２號１、２樓及１０１之３號１、２樓,121.5134,24.99526,(02)29406029,羅氏家用新冠病毒抗原自我檢測套組,75,2022/05/12 08:24:34,無
5931045470,富康活力永禎藥局,新北市中和區永貞路２５４號１樓,121.5141,25.00377,(02)29215999,羅氏家用新冠病毒抗原自我檢測套組,1,2022/05/12 08:24:34,無
5931045498,好意藥局,新北市中和區景新街４６７巷３號１樓,121.5136,24.98825,(02)89416598,羅氏家用新冠病毒抗原自我檢測套組,39,2022/05/12 08:24:34,週日無販售快篩試劑
5931045541,富康活力華興藥局,新北市中和區興南路２段９２號１樓,121.5054,24.98444,(02)29450988,羅氏家用新冠病毒抗原自我檢測套組,12,2022/05/12 08:24:34,無
5931050417,世明藥局,新北市新店區北新路３段１２０號１樓,121.5417,24.98174,(02)29122139,羅氏家用新冠病毒抗原自我檢測套組,4,2022/05/12 08:24:34,快篩實名制販售時間：下午13:00~14:00
5931051790,家得福藥局,新北市新店區安康路２段１２３號１樓,121.5125,24.96129,(02)22118346,羅氏家用新冠病毒抗原自我檢測套組,98,2022/05/12 08:24:34,無
5931052135,椿萱藥局,新北市新店區建國路６９號,121.5404,24.9759,(02)29188311,羅氏家用新冠病毒抗原自我檢測套組,46,2022/05/12 08:24:34,無
5931052288,躍獅正新藥局,新北市新店區中正路５７之１號１樓,121.5443,24.96989,(02)89145930,羅氏家用新冠病毒抗原自我檢測套組,87,2022/05/12 08:24:34,星期一至六9:00為領取快篩號碼牌，20:00以前帶號碼牌來取快篩
5931052484,大河藥局,新北市新店區三民路１４０號１樓,121.5351,24.97502,(02)29140910,羅氏家用新冠病毒抗原自我檢測套組,39,2022/05/12 08:24:34,週一至週六下午2點開始發購實名制快篩試劑。限1人1卡購買1份。5／15週日不發購。
5931052644,杏運草藥局,新北市新店區北新路１段１９號１樓,121.5378,24.95902,(02)89115998,羅氏家用新冠病毒抗原自我檢測套組,78,2022/05/12 08:24:34,【快篩：週一至週六，早上8點半現場排隊】本月星期天公休
5931052840,微笑生活藥局,新北市新店區建國路８５號１樓,121.5404,24.97657,(02)89113397,羅氏家用新冠病毒抗原自我檢測套組,41,2022/05/12 08:24:34,快篩於下午2點始賣，周日公休
5931052984,北一藥師藥局,新北市新店區北新路２段１６０號１樓、２樓,121.5431,24.97563,(02)89115686,羅氏家用新冠病毒抗原自我檢測套組,36,2022/05/12 08:24:34,14:30發完號碼牌即發口罩，勿持號碼牌離開，叫號未到視同放棄
5931053007,康曜藥師藥局,新北市新店區安康路２段２０４號１樓,121.5103,24.95964,(02)86669660,羅氏家用新冠病毒抗原自我檢測套組,53,2022/05/12 08:24:34,[週一至週五]13:20發號碼牌／13:30開始販售  [例假日無販售]
5931053123,大吉藥局,新北市新店區中正路３０號１樓,121.5452,24.96977,(02)29110151,羅氏家用新冠病毒抗原自我檢測套組,75,2022/05/12 08:24:34,實名制快篩，早上0905開賣，現場排隊販售，賣完為止。六日【無】販售
5931053141,禾康藥局,新北市新店區德正街４４號１樓,121.5443,24.97143,(02)29160596,羅氏家用新冠病毒抗原自我檢測套組,5,2022/05/12 08:24:34,無
5931053169,貳品藥局,新北市新店區新和街７５號１樓,121.5205,24.98612,(02)89418890,羅氏家用新冠病毒抗原自我檢測套組,78,2022/05/12 08:24:34,實名制快篩下午一點半依排隊順序發售
5931053267,富康活力惠國藥局,新北市新店區中正路７８號１樓,121.5439,24.97036,(02)29100066,羅氏家用新冠病毒抗原自我檢測套組,28,2022/05/12 08:24:34,實名制快篩，若當日有貨販售，於8:00準時開賣，請攜帶健保卡／居留證，謝謝您。
5931053276,富康活力新店藥局,新北市新店區中正路２２１號（１樓）,121.5396,24.97293,(02)29101111,羅氏家用新冠病毒抗原自我檢測套組,78,2022/05/12 08:24:34,無
5931053285,北新212藥局,新北市新店區北新路３段２１２號（２樓）,121.5413,24.98429,(02)29183212,羅氏家用新冠病毒抗原自我檢測套組,2,2022/05/12 08:24:34,依照行一昌勳診所門診時間營業
5931053365,十二願藥局,新北市新店區中正路６８２號１樓,121.5341,24.98998,(02)22181899,羅氏家用新冠病毒抗原自我檢測套組,6,2022/05/12 08:24:34,公費快篩每日下午2點販售~ 公費快篩每日下午2點販售
5931053383,大豐藥局,新北市新店區北新路３段５３號之１（１樓）,121.5417,24.9807,(02)89113196,羅氏家用新冠病毒抗原自我檢測套組,15,2022/05/12 08:24:34,每日下午2點發號碼牌同步販售實名制快篩試劑 請自備500元
5931060146,海山藥局,新北市新莊區景德路４２５號,121.4447,25.03331,(02)22019804,羅氏家用新冠病毒抗原自我檢測套組,121,2022/05/12 08:24:34,無
5931060262,明生藥局,新北市新莊區福樂街１３號,121.4578,25.04504,(02)29913260,羅氏家用新冠病毒抗原自我檢測套組,59,2022/05/12 08:24:34,無
5931060342,十安藥局,新北市新莊區中港路３１６號,121.4524,25.04544,(02)29922859,羅氏家用新冠病毒抗原自我檢測套組,1,2022/05/12 08:24:34,自111／04／01起不再販賣實名制口罩
5931060557,一安藥局,新北市新莊區立德里新泰路２６８號,121.446,25.04029,(02)29941618,羅氏家用新冠病毒抗原自我檢測套組,1,2022/05/12 08:24:34,實名制快篩發放時間為15:00  其他詳情請上FB查詢
5931060824,禮安藥師藥局,新北市新莊區自立街１０９號１樓,121.4555,25.0455,(02)29942891,羅氏家用新冠病毒抗原自我檢測套組,1,2022/05/12 08:24:34,無
5931067403,建嘉藥局,新北市新莊區中誠街４２號１樓,121.4513,25.04812,(02)29925261,羅氏家用新冠病毒抗原自我檢測套組,28,2022/05/12 08:24:34,無
5931067412,幸寧藥局,新北市新莊區福壽街８４巷１２號１樓,121.4588,25.04985,(02)29971150,羅氏家用新冠病毒抗原自我檢測套組,73,2022/05/12 08:24:34,快篩上午8點半開賣
5931067985,蘋果藥局,新北市新莊區八德街１０５號,121.4242,25.02112,(02)22053933,羅氏家用新冠病毒抗原自我檢測套組,4,2022/05/12 08:24:34,快篩試劑代售時間自14:00開始過卡販售.若排隊人數提前到達.則提前1小時開賣
5931068464,健安藥局,新北市新莊區光和里民安西路２０９號１樓,121.4261,25.0147,(02)22043765,羅氏家用新冠病毒抗原自我檢測套組,78,2022/05/12 08:24:34,無
5931068508,凱盛藥局,新北市新莊區光榮里西盛街１９９號,121.4282,25.01706,(02)22024914,羅氏家用新冠病毒抗原自我檢測套組,3,2022/05/12 08:24:34,無
5931068722,庭安藥局,新北市新莊區民有里西盛街１７２號１樓,121.4281,25.01901,(02)22080528,羅氏家用新冠病毒抗原自我檢測套組,78,2022/05/12 08:24:34,早上9:30開始販售實名制快篩.賣完為止週日公休
5931068875,旭生藥局,新北市新莊區裕民街４２號１樓,121.4188,25.02498,(02)29021289,羅氏家用新冠病毒抗原自我檢測套組,76,2022/05/12 08:24:34,快篩實名制，每天14:00開始販售。
5931069023,陽光藥局,新北市新莊區福壽街７２號,121.4583,25.0494,(02)22774399,羅氏家用新冠病毒抗原自我檢測套組,78,2022/05/12 08:24:34,週一到週日9點現場發號碼牌排隊販售口罩，售完為止
5931069201,招安藥師藥局,新北市新莊區西盛街３３８號１樓,121.428,25.01436,(02)22085138,羅氏家用新冠病毒抗原自我檢測套組,26,2022/05/12 08:24:34,5／1 5／2 並無快篩試劑到貨 請勿來電或來店購買
5931069425,國安藥局,新北市新莊區中和街１５５巷６號１樓,121.4472,25.04979,(02)29938003,羅氏家用新冠病毒抗原自我檢測套組,4,2022/05/12 08:24:34,無
5931069603,中信藥師藥局,新北市新莊區中信街８０號１樓,121.448,25.05311,(02)29969811,羅氏家用新冠病毒抗原自我檢測套組,8,2022/05/12 08:24:34,AM 07:30 開始
5931069792,宏泰藥局,新北市新莊區自信街３７號１樓,121.4543,25.04863,(02)29964649,羅氏家用新冠病毒抗原自我檢測套組,4,2022/05/12 08:24:34,無
593106A093,環球藥局,新北市新莊區中港路４３６號１、２樓,121.452,25.05105,(02)29901934,羅氏家用新冠病毒抗原自我檢測套組,3,2022/05/12 08:24:34,營業時間8-23，全年無休  **實名制快篩，每日下午3點發放號碼牌**
593106A584,記安大藥局,新北市新莊區天祥街４６號１樓,121.4169,25.02893,(02)22095331,羅氏家用新冠病毒抗原自我檢測套組,14,2022/05/12 08:24:34,無
593106A726,良和健保藥局,新北市新莊區龍安路４９號１樓,121.4158,25.02151,(02)29048157,羅氏家用新冠病毒抗原自我檢測套組,2,2022/05/12 08:24:34,快篩：晚上8點開始販售，星期六、日休息不代售
593106A735,樂家藥局,新北市新莊區中平路２７３號１樓,121.4447,25.04995,(02)29960723,羅氏家用新冠病毒抗原自我檢測套組,1,2022/05/12 08:24:34,無
593106A744,永明藥局,新北市新莊區幸福路５９８號１樓,121.4533,25.04943,(02)89920019,羅氏家用新冠病毒抗原自我檢測套組,83,2022/05/12 08:24:34,週日公休， 實名制快篩早上9點發放號碼牌， 早上10點~晚上8點販售
593106A897,陽光豐年藥局,新北市新莊區豐年街１４號１樓,121.4463,25.03287,(02)22060665,羅氏家用新冠病毒抗原自我檢測套組,67,2022/05/12 08:24:34,無
593106A995,美德心藥局,新北市新莊區中平路３６７號１樓,121.4446,25.05226,(02)29989025,羅氏家用新冠病毒抗原自我檢測套組,62,2022/05/12 08:24:34,快篩實名制，每天14:30發號碼牌，持號碼牌依現場順序排隊購買，售完為止。（如物流配送不及，則另行公告）
593106B036,家嘉藥局,新北市新莊區自立街１０３號（１樓）,121.4553,25.04549,(02)89926488,羅氏家用新冠病毒抗原自我檢測套組,20,2022/05/12 08:24:34,今天號碼牌都已發放完畢
593106B045,力源藥局,新北市新莊區復興路２段１３３號１樓,121.4572,25.04452,(02)89929919,羅氏家用新冠病毒抗原自我檢測套組,80,2022/05/12 08:24:34,無
593106B072,小林健保藥局,新北市新莊區昌明街３８之１號１樓,121.4565,25.05237,(02)29911764,羅氏家用新冠病毒抗原自我檢測套組,33,2022/05/12 08:24:34,無
593106B081,平安藥局,新北市新莊區民安西路６０號２樓,121.4273,25.02037,(02)22082368,羅氏家用新冠病毒抗原自我檢測套組,77,2022/05/12 08:24:34,無
593106B116,來福中西健保藥局,新北市新莊區中港路５１２號１樓,121.4518,25.05182,(02)29961615,羅氏家用新冠病毒抗原自我檢測套組,1,2022/05/12 08:24:34,無
593106B296,廣元藥局,新北市新莊區雙鳳路２號（１樓）,121.4175,25.02688,(02)29044988,羅氏家用新冠病毒抗原自我檢測套組,62,2022/05/12 08:24:34,快篩實名制17:00販售，沒有號碼牌。
5931070053,仁一藥局,新北市樹林區中正路６２２號,121.4102,25.016,(02)26893915,羅氏家用新冠病毒抗原自我檢測套組,68,2022/05/12 08:24:34,快篩代售時間自08:30；現場排隊
5931070080,耀鴻藥局,新北市樹林區中山路３段７６號,121.3936,24.97239,(02)26808989,羅氏家用新冠病毒抗原自我檢測套組,114,2022/05/12 08:24:34,每天都有發放口罩
5931070099,日弘藥師藥局,新北市樹林區復興路２９號,121.4223,24.9941,(02)26871919,羅氏家用新冠病毒抗原自我檢測套組,13,2022/05/12 08:24:34,快篩到貨時間不定，到貨即售，售完為止
5931070286,協安大藥局,新北市樹林區鎮前街１２６號,121.4248,24.99087,(02)26810386,羅氏家用新冠病毒抗原自我檢測套組,5,2022/05/12 08:24:34,05／29店休
5931071961,綠蘋果藥局,新北市樹林區學勤路５９７號１樓,121.3842,24.94905,(02)89706050,羅氏家用新冠病毒抗原自我檢測套組,42,2022/05/12 08:24:34,無
5931072039,樹林藥師藥局,新北市樹林區鎮前街２４號１樓,121.426,24.99315,(02)26823030,羅氏家用新冠病毒抗原自我檢測套組,1,2022/05/12 08:24:34,無
5931072244,彰安藥局,新北市樹林區千歲街８２號,121.4264,24.99772,(02)26827341,羅氏家用新冠病毒抗原自我檢測套組,26,2022/05/12 08:24:34,5／7起改成『早上八點』 周一到周六現場排隊發放
5931072253,活水藥局,新北市樹林區鎮前街２１號１樓,121.4259,24.99255,(02)26818928,羅氏家用新冠病毒抗原自我檢測套組,69,2022/05/12 08:24:34,無
5931072299,小蜜蜂中西健保藥局,新北市樹林區東榮街１１８號１樓,121.4154,24.9823,(02)86853677,羅氏家用新冠病毒抗原自我檢測套組,50,2022/05/12 08:24:34,快篩試劑發售時間：基本為早上八點   PS：如政府配送不及，發售時間會現場另行公告。
5931072404,伯安綜合藥局,新北市樹林區中華路１０８號１樓,121.4183,24.98074,(02)86856551,羅氏家用新冠病毒抗原自我檢測套組,43,2022/05/12 08:24:34,初一至初五春節休息
5931072539,樂澄藥局,新北市樹林區國凱街３２－３號１樓,121.4197,24.97853,(02)86860093,羅氏家用新冠病毒抗原自我檢測套組,1,2022/05/12 08:24:34,實名制快篩每天9:30發售，第一手訊息請參閱樂澄藥局官方臉書
5931081305,佑家藥局,新北市鶯歌區中正三路１５１號１樓,121.3367,24.94007,(02)26798282,羅氏家用新冠病毒抗原自我檢測套組,2,2022/05/12 08:24:34,星期一至六，下午1:30發號碼牌   每日提供8份給醫護警消等緊急使用
5931081378,鶯歌宏達藥局,新北市鶯歌區國慶街１３８號１樓,121.3508,24.95347,(02)26709693,羅氏家用新冠病毒抗原自我檢測套組,2,2022/05/12 08:24:34,下午三點開始販售實名制快篩~不要打電話來問~藥師有其他工作要做
5931081396,祐康藥局,新北市鶯歌區建國路３６號,121.356,24.95596,(02)26771223,羅氏家用新冠病毒抗原自我檢測套組,118,2022/05/12 08:24:34,快篩代售時段:星期一&四 上午8:30~9:30；星期二三五六 下午3:00~4:00；星期日公休。
5931081556,易加藥局,新北市鶯歌區尖山路１３７巷４號,121.3469,24.94851,(02)26705686,羅氏家用新冠病毒抗原自我檢測套組,24,2022/05/12 08:24:34,快篩週一至週六早上8:55發號碼牌，9:00開始販售，週日早上9:00-10:00販售
5931090180,人來安藥局,新北市三峽區文化路２６６－５號,121.3665,24.93583,(02)26721199,羅氏家用新冠病毒抗原自我檢測套組,16,2022/05/12 08:24:34,營業時間早上8點至中午1點下午5點至晚上9點-快篩早上8點開始過卡賣完為止
5931090279,勝全藥局,新北市三峽區大同路２７之１號１樓,121.3769,24.92836,(02)26736186,羅氏家用新冠病毒抗原自我檢測套組,21,2022/05/12 08:24:34,每日8:00-22:00營業，星期日11:00-17:00休息；快篩早上8點開始過卡賣完為止
5931091623,兆康藥局,新北市三峽區中華路２２號１樓,121.3742,24.93265,(02)26717875,羅氏家用新冠病毒抗原自我檢測套組,7,2022/05/12 08:24:34,實名制快篩早上9:00開始發放號碼牌
5931091696,祥祐藥局,新北市三峽區文化路１２５號１樓,121.3699,24.93598,(02)26738080,羅氏家用新冠病毒抗原自我檢測套組,5,2022/05/12 08:24:34,實名制快篩下午2點開始販售
5931091712,誠祐藥局,新北市三峽區光明路２２號１樓,121.3734,24.93084,(02)26746211,羅氏家用新冠病毒抗原自我檢測套組,69,2022/05/12 08:24:34,無
5931091810,誠美藥局,新北市三峽區復興路１０６號１樓,121.3727,24.9378,(02)26718131,羅氏家用新冠病毒抗原自我檢測套組,34,2022/05/12 08:24:34,星期1~6早上9點現場排隊購買口罩，4／4~4／5不販售防疫口罩
5931091829,有新藥局,新北市三峽區學勤路１８號１樓,121.3742,24.9454,(02)26710769,羅氏家用新冠病毒抗原自我檢測套組,1,2022/05/12 08:24:34,快篩發放時間為下午1點至下午3點
5931091892,三峽藥局,新北市三峽區介壽路１段２７號１樓,121.3757,24.93321,(02)26738868,羅氏家用新冠病毒抗原自我檢測套組,1,2022/05/12 08:24:34,快篩實名制，每天16:00開始販售，售完為止。
5931091972,三峽大昌藥局,新北市三峽區民生街５６號１樓,121.3752,24.93635,(02)26711560,羅氏家用新冠病毒抗原自我檢測套組,11,2022/05/12 08:24:34,無
5931091990,欣美大藥局,新北市三峽區大同路５２號１樓,121.377,24.92864,(02)86712269,羅氏家用新冠病毒抗原自我檢測套組,2,2022/05/12 08:24:34,營業時間:9:00-22:00
5931092040,一大藥局,新北市三峽區橫溪路２３號１樓,121.3964,24.93584,(02)86766677,羅氏家用新冠病毒抗原自我檢測套組,2,2022/05/12 08:24:34,無
5931092068,益銘藥師藥局,新北市三峽區大德路１８１號１樓,121.3753,24.94573,(02)26723662,羅氏家用新冠病毒抗原自我檢測套組,41,2022/05/12 08:24:34,無
5931092219,北大藥局,新北市三峽區大義路９號１樓,121.3788,24.94372,(02)26738535,羅氏家用新冠病毒抗原自我檢測套組,4,2022/05/12 08:24:34,快篩發放依政府實際到貨時間為主會公告在臉書粉專
5931100163,昇運藥局,新北市淡水區中山路１５７－１號,121.4405,25.17287,(02)26222083,羅氏家用新冠病毒抗原自我檢測套組,24,2022/05/12 08:24:34,無
5931101464,伯聯藥局,新北市淡水區清水街９－１０號１樓,121.4444,25.17023,(02)26255847,羅氏家用新冠病毒抗原自我檢測套組,34,2022/05/12 08:24:34,快篩實名制星期一到六08:00開賣（如有到貨），星期日無販售
5931101704,聖天藥局,新北市淡水區重建街２１８號,121.4413,25.1748,(02)26215677,羅氏家用新冠病毒抗原自我檢測套組,1,2022/05/12 08:24:34,實名制快篩試劑正常到貨早上9:00販售 星期日休息
5931101973,良順藥局,新北市淡水區中山北路１段２４號１樓,121.4417,25.1751,(02)26218111,羅氏家用新冠病毒抗原自我檢測套組,5,2022/05/12 08:24:34,快篩販售時間為週一至週六每日上午10:00. 週日不販售
