醫事機構代碼,醫事機構名稱,醫事機構地址,經度,緯度,醫事機構電話,廠牌項目,快篩試劑截至目前結餘存貨數量,來源資料時間,備註
2331260016,新北市貢寮區衛生所,新北市貢寮區朝陽街７０巷１０號、新北市貢寮區仁愛路１２８號,121.9095,25.02258,(02)24901431,羅氏家用新冠病毒抗原自我檢測套組,234,2022/04/28 18:02:03,星期一至星期日上午8點購買防疫口罩，售完為止.
2331290014,新北市烏來區衛生所,新北市烏來區新烏路５段１０９號,121.548,24.87197,(02)26617200,羅氏家用新冠病毒抗原自我檢測套組,248,2022/04/28 18:02:03,無
2333120015,新竹縣峨眉鄉衛生所,新竹縣峨眉鄉峨眉村峨眉街２鄰５號,121.0214,24.68842,(03)5800314,羅氏家用新冠病毒抗原自我檢測套組,234,2022/04/28 18:02:03,本所星期三下午中醫門診，4月8日（五）下午眼科，販賣口罩上午12時至13時止，國定及例假日不賣口罩
2333140017,新竹縣五峰鄉衛生所,新竹縣五峰鄉大隘村六鄰９９號,121.1194,24.63184,(03)5851005,羅氏家用新冠病毒抗原自我檢測套組,234,2022/04/28 18:02:03,無
2334110013,宜蘭縣大同鄉衛生所,宜蘭縣大同鄉崙埤村朝陽４０號,121.6088,24.67785,(03)9801175,羅氏家用新冠病毒抗原自我檢測套組,25,2022/04/28 18:02:03,防疫口罩販賣時間本所（週一到週六）8:20-10:20  衛生室販賣時間為星期一、二、四、五下午，詳細事項請至本所網站查詢.
2335110017,苗栗縣南庄鄉衛生所,苗栗縣南庄鄉東村大同路１７號,121,24.59733,(037)822024,羅氏家用新冠病毒抗原自我檢測套組,234,2022/04/28 18:02:03,口罩販賣時段:週一至週五上午8:00~下午5:00
2335150011,苗栗縣造橋鄉衛生所,苗栗縣造橋鄉造橋村１４鄰８－２號,120.8643,24.63672,(037)542755,羅氏家用新冠病毒抗原自我檢測套組,234,2022/04/28 18:02:03,口罩販賣時段：08:30-售完（含假日）
2335170013,苗栗縣獅潭鄉衛生所,苗栗縣獅潭鄉新店村１３０之６號,120.9201,24.53961,(037)931309,羅氏家用新冠病毒抗原自我檢測套組,234,2022/04/28 18:02:03,口罩販賣時段：08:30-16:00
2335180019,苗栗縣泰安鄉衛生所,苗栗縣泰安鄉清安村２鄰７２號,120.9083,24.44722,(037)941054,羅氏家用新冠病毒抗原自我檢測套組,234,2022/04/28 18:02:03,口罩販賣時段：星期一~五：8:30~15：00。
2336210034,臺中市和平區梨山衛生所,臺中市和平區中正路１２號１樓、６８號１樓,121.2592,24.25678,(04)25989540,羅氏家用新冠病毒抗原自我檢測套組,274,2022/04/28 18:02:03,提供24小時急診待診服務，111年4月28日起，快篩試劑販售時段為周一至周五0900-12:00，六日及國定假日為0900-1100
2338070010,南投縣鹿谷鄉衛生所,南投縣鹿谷鄉中正路二段２０號,120.7542,23.74488,(049)2752002,羅氏家用新冠病毒抗原自我檢測套組,234,2022/04/28 18:02:03,快篩試劑販售時間 上班日（星期一至星期五）14:00~16:00
2338120015,南投縣信義鄉衛生所,南投縣信義鄉明德村玉山路４５號,120.8547,23.69653,(049)2791148,羅氏家用新冠病毒抗原自我檢測套組,234,2022/04/28 18:02:03,快篩試劑販售時間星期一至星期五上午09：00-11：00，現場排隊發售，國定假日不販賣。
2340170016,嘉義縣大埔鄉衛生所,嘉義縣大埔鄉大埔村５３－１號,120.5928,23.29397,(05)2521214,羅氏家用新冠病毒抗原自我檢測套組,234,2022/04/28 18:02:03,無
2341250013,臺南市南化區衛生所,臺南市南化區南化里２２６－１號,120.4793,23.0444,(06)5771139,羅氏家用新冠病毒抗原自我檢測套組,246,2022/04/28 18:02:03,家用快篩週一~週五 （9:30-11:30）
2342130010,高雄市田寮區衛生所,高雄市田寮區南安里崗北路３２號,120.3594,22.87301,(07)6361504,羅氏家用新冠病毒抗原自我檢測套組,51,2022/04/28 18:02:03,巡迴醫療:每星期一、四下午及每月第一個有上班的星期三下午巡迴醫療
2342250017,高雄市茂林區衛生所,高雄市茂林區茂林里茂林巷８－４號,120.6641,22.88641,(07)6801046,羅氏家用新冠病毒抗原自我檢測套組,307,2022/04/28 18:02:03,夜間急診，請先撥電話07-6801046
2342260013,高雄市桃源區衛生所,高雄市桃源區桃源里南進巷１８８－１號,120.7642,23.15845,(07)6861126,羅氏家用新冠病毒抗原自我檢測套組,262,2022/04/28 18:02:03,IDS提供24小時服務
2342270019,高雄市那瑪夏區衛生所,高雄市那瑪夏區瑪雅里６鄰平和巷２５２號,120.7024,23.24708,(07)6701142,羅氏家用新冠病毒抗原自我檢測套組,296,2022/04/28 18:02:03,春節期間正常門診
2343270013,屏東縣霧台鄉衛生所,屏東縣霧台鄉霧台村神山巷６８號,120.7261,22.74989,(08)7902232,羅氏家用新冠病毒抗原自我檢測套組,290,2022/04/28 18:02:03,無
2343290015,屏東縣泰武鄉衛生所,屏東縣泰武鄉佳平村１７９號,120.6327,22.59212,(08)7832059,羅氏家用新冠病毒抗原自我檢測套組,265,2022/04/28 18:02:03,4／2-4／5門診照常
2343300016,屏東縣來義鄉衛生所,屏東縣來義鄉古樓村中正路９０號,120.632,22.52584,(08)7850103,羅氏家用新冠病毒抗原自我檢測套組,242,2022/04/28 18:02:03,無
2343320018,屏東縣獅子鄉衛生所,屏東縣獅子鄉楓林村楓林二巷３１號,120.7057,22.18402,(08)8771324,羅氏家用新冠病毒抗原自我檢測套組,234,2022/04/28 18:02:03,特休日：每年農曆除夕、初一
2343330014,屏東縣牡丹鄉衛生所,屏東縣牡丹鄉石門村１９號,120.7469,22.10105,(08)8831013,羅氏家用新冠病毒抗原自我檢測套組,234,2022/04/28 18:02:03,無
2344011036,澎湖縣馬公市第三衛生所,澎湖縣馬公市西文里１１８之２號,119.5836,23.56813,(06)9211723,羅氏家用新冠病毒抗原自我檢測套組,234,2022/04/28 18:02:03,本所口罩販售以離島（虎井、桶盤）為主，時間星期一至星期五08:30-17:00售完為止，星期六、日國定假日09:00-12:00。
2344030013,澎湖縣白沙鄉衛生所,澎湖縣白沙鄉赤崁村３５９號,119.5982,23.66669,(06)9931044,羅氏家用新冠病毒抗原自我檢測套組,239,2022/04/28 18:02:03,星期日上午門診看診（每月最後一個星期日休診）； 星期五上午巡迴醫療
2344030022,澎湖縣白沙鄉鳥嶼衛生所,澎湖縣白沙鄉鳥嶼村漁港新村３號,119.6599,23.66008,(06)9916092,羅氏家用新冠病毒抗原自我檢測套組,274,2022/04/28 18:02:03,非上班時間提供急診服務
2344030031,澎湖縣白沙鄉吉貝衛生所,澎湖縣白沙鄉吉貝村８－１３號,119.6138,23.74056,(06)9911430,羅氏家用新冠病毒抗原自我檢測套組,295,2022/04/28 18:02:03,無
2344050015,澎湖縣望安鄉衛生所,澎湖縣望安鄉西安村３６－７號,119.4972,23.36161,(06)9991036,羅氏家用新冠病毒抗原自我檢測套組,234,2022/04/28 18:02:03,夜間急診。口罩、快篩試劑販售時間為:每日08:00-12:00、13:30-17:30售完為止，如有餘數為離島未售出（東嶼坪、花嶼衛生室）。
2344050024,澎湖縣望安鄉將軍衛生所,澎湖縣望安鄉將軍村１２鄰將軍澳１之３號,119.5216,23.3615,(06)9902066,羅氏家用新冠病毒抗原自我檢測套組,289,2022/04/28 18:02:03,24小時急診
2344060011,澎湖縣七美鄉衛生所,澎湖縣七美鄉中和村埔內５４號,119.431,23.2041,(06)9971005,羅氏家用新冠病毒抗原自我檢測套組,276,2022/04/28 18:02:03,無
2345080017,花蓮縣豐濱鄉衛生所,花蓮縣豐濱鄉豐濱村光豐路３９號,121.5215,23.60195,(03)8791156,羅氏家用新冠病毒抗原自我檢測套組,178,2022/04/28 18:02:03,*本院口罩每天販售，時間自上午8點至晚上9點  *本院週一至週五上下午皆有門診，星期六隔週提供門診，及24小時急診。
2345130012,花蓮縣卓溪鄉衛生所,花蓮縣卓溪鄉卓溪村中正路６５號,121.3033,23.33294,(03)8882592,羅氏家用新冠病毒抗原自我檢測套組,3,2022/04/28 18:02:03,販賣口罩服務時段每周一至周五早上8點45分至11點45分，星期一至星期四安排巡迴醫療點販售（售完即結束）
2346050013,台東縣大武鄉衛生所,臺東縣大武鄉大武村復興路２－２號,120.9078,22.36414,(089)791143,羅氏家用新冠病毒抗原自我檢測套組,236,2022/04/28 18:02:03,24小時急診服務
2346070015,臺東縣東河鄉衛生所,臺東縣東河鄉東河村南東河路１０鄰３００號,121.3031,22.96846,(089)896289,羅氏家用新冠病毒抗原自我檢測套組,234,2022/04/28 18:02:03,口罩販售時間:◆平日早上08時30分~11時30分販售，售完為止。
2346130016,台東縣海端鄉衛生所,臺東縣海端鄉海端村３鄰２９號,121.1767,23.10094,(089)931391,羅氏家用新冠病毒抗原自我檢測套組,1,2022/04/28 18:02:03,星期一至星期五口罩販售時間上午8點~12點（售完為止）
2346140012,台東縣達仁鄉衛生所,臺東縣達仁鄉安朔村復興路１２２號,120.8836,22.29488,(089)702209,羅氏家用新冠病毒抗原自我檢測套組,245,2022/04/28 18:02:03,12／31 元旦連假
2346150018,台東縣金峰鄉衛生所,臺東縣金峰鄉賓茂村１鄰１４號,120.9606,22.53248,(089)772201,羅氏家用新冠病毒抗原自我檢測套組,250,2022/04/28 18:02:03,代售口罩時間:星期一至星期五為上午8:00-12:00，下午1:30-5:30
2346160014,台東縣蘭嶼鄉衛生所,臺東縣蘭嶼鄉紅頭村３６號,121.5546,22.02493,(089)732575,羅氏家用新冠病毒抗原自我檢測套組,234,2022/04/28 18:02:03,販售口罩時間 星期一至星期五 8:00~12:00 13:30~17:30
2391020010,連江縣北竿鄉衛生所,連江縣北竿鄉塘岐村２８１－６號,119.9991,26.22617,(083)655592,羅氏家用新冠病毒抗原自我檢測套組,247,2022/04/28 18:02:03,防疫口罩每日08:30-10:00於北竿衛生所購買。
2391030016,連江縣莒光鄉西莒衛生所,連江縣莒光鄉青帆村１４－１號,119.9331,25.97157,(083)689122,羅氏家用新冠病毒抗原自我檢測套組,290,2022/04/28 18:02:03,防疫口罩星期一至五09:00-17:00、（六）09:00-12:00現場購買
2391030026,連江縣莒光鄉東莒衛生所,連江縣莒光鄉大坪村３０－１號,119.9731,25.96113,(083)689038,羅氏家用新冠病毒抗原自我檢測套組,284,2022/04/28 18:02:03,防疫口罩星期一至星期日上午10:00-12:00收取健保卡，下午3:30至本所領取口罩。
2391040012,連江縣東引鄉衛生所,連江縣東引鄉中柳村１２３號,120.4904,26.36701,(083)677206,羅氏家用新冠病毒抗原自我檢測套組,245,2022/04/28 18:02:03,防疫口罩每日10:00-12:00現場購買
5901011699,建東大藥局,臺北市松山區三民路９７號１樓,121.5634,25.05723,(02)27676237,羅氏家用新冠病毒抗原自我檢測套組,1,2022/04/28 18:02:03,無
5901012409,家音藥局,臺北市松山區民生東路５段７３號,121.5585,25.05871,(02)37652080,羅氏家用新冠病毒抗原自我檢測套組,63,2022/04/28 18:02:03,無
5901012598,婕登藥局,臺北市松山區八德路４段６９９號,121.5766,25.05021,(02)27482893,羅氏家用新冠病毒抗原自我檢測套組,1,2022/04/28 18:02:03,無
5901012712,立康大藥局,臺北市松山區八德路四段２－１號,121.5581,25.04812,(02)27471749,羅氏家用新冠病毒抗原自我檢測套組,36,2022/04/28 18:02:03,無
5901013399,一安正昇藥局,臺北市松山區南京東路５段３０９號,121.5667,25.05155,(02)27680993,羅氏家用新冠病毒抗原自我檢測套組,3,2022/04/28 18:02:03,無
5901013728,康麗藥局,臺北市松山區南京東路３段３０３巷２０號（１樓）,121.5468,25.05374,(02)27174117,羅氏家用新冠病毒抗原自我檢測套組,1,2022/04/28 18:02:03,無
5901020385,延吉大藥局,臺北市大安區延吉街１５３號１樓,121.5548,25.04066,(02)27819227,羅氏家用新冠病毒抗原自我檢測套組,1,2022/04/28 18:02:03,8:30開始排隊販賣口罩
5901020563,施寶藥局,臺北市大安區安東街５０－５號１樓,121.5426,25.04277,(02)27114175,羅氏家用新冠病毒抗原自我檢測套組,22,2022/04/28 18:02:03,週一至週五早上11點到下午8點.周六周日及公訂例假日公休
5901020634,新廣生藥局,臺北市大安區仁愛路４段３４號,121.5467,25.03762,(02)27071221,羅氏家用新冠病毒抗原自我檢測套組,3,2022/04/28 18:02:03,固定周日公休
5901021248,永誠藥局,臺北市大安區忠孝東路４段２１６巷２５之１號,121.5531,25.03997,(02)27520273,羅氏家用新冠病毒抗原自我檢測套組,70,2022/04/28 18:02:03,無
5901021408,生百藥局,臺北市大安區臨江街１２４號,121.5539,25.03024,(02)27371011,羅氏家用新冠病毒抗原自我檢測套組,39,2022/04/28 18:02:03,無
5901023680,新富川藥局,臺北市大安區大安路１段５１巷４號,121.5464,25.04303,(02)27114758,羅氏家用新冠病毒抗原自我檢測套組,19,2022/04/28 18:02:03,無提供急診服務
5901024221,安居藥局,臺北市大安區安居街１９號,121.5549,25.02085,(02)23773537,羅氏家用新冠病毒抗原自我檢測套組,78,2022/04/28 18:02:03,領口罩注意事項:週一到週六早上8:30-12:00直接排隊購買 .週日不營業
5901024838,昶青藥局,臺北市大安區濟南路３段２２之１號,121.5346,25.04008,(02)27515678,羅氏家用新冠病毒抗原自我檢測套組,1,2022/04/28 18:02:03,無
5901025022,躍獅敦和藥局,臺北市大安區和平東路３段１０號,121.547,25.02453,(02)23785767,羅氏家用新冠病毒抗原自我檢測套組,5,2022/04/28 18:02:03,無
5901090369,保慶藥局,臺北市大同區保安街２１號,121.5129,25.05926,(02)25538988,羅氏家用新冠病毒抗原自我檢測套組,77,2022/04/28 18:02:03,快篩販售時間:晚上9:00-10:00（週日不販售），晚上8:50發號碼牌
5901092149,123宅藥局,臺北市大同區鄭州路１２３號（１樓）,121.5109,25.05033,(02)25588699,羅氏家用新冠病毒抗原自我檢測套組,23,2022/04/28 18:02:03,快篩一日 兩時段 （1） 09:30  （2）18:00
5901100628,貢玄藥局,臺北市中山區錦州街２０７號,121.532,25.06039,(02)25637847,羅氏家用新冠病毒抗原自我檢測套組,21,2022/04/28 18:02:03,早上10點~11點領口罩
5901101509,永直藥局,臺北市中山區北安路５９５巷２弄６號,121.5483,25.08192,(02)85098059,羅氏家用新冠病毒抗原自我檢測套組,18,2022/04/28 18:02:03,無
5901101929,樂活苑藥局,臺北市中山區北安路５４６號１樓,121.548,25.08014,(02)25323296,羅氏家用新冠病毒抗原自我檢測套組,43,2022/04/28 18:02:03,營業時間為09:30至10:00.疫苗預約及防疫口罩代售時間為14:30~16:30.
5901102444,啟美藥師藥局,臺北市中山區錦州街２８２號,121.5352,25.06024,(02)25178032,羅氏家用新冠病毒抗原自我檢測套組,78,2022/04/28 18:02:03,口罩19點開賣到21點，星期六日公休
5901103236,誠意中西藥局,臺北市中山區林森北路６１３號,121.5258,25.06647,(02)25950951,羅氏家用新冠病毒抗原自我檢測套組,1,2022/04/28 18:02:03,無
5901103414,元宏藥局,臺北市中山區北安路４５８巷４１弄４９號,121.5465,25.0794,(02)25339728,羅氏家用新冠病毒抗原自我檢測套組,4,2022/04/28 18:02:03,早上營業08:00至12:00，下午由14:30營業至21:30
5901103585,禾全藥局,臺北市中山區龍江路３３２號,121.5409,25.06532,(02)25165721,羅氏家用新冠病毒抗原自我檢測套組,39,2022/04/28 18:02:03,口罩代售時間：1400、20:00  ；現場排隊
5901110133,泰成藥局,臺北市內湖區內湖路３段１３５號１樓,121.5899,25.08685,(02)27921231,羅氏家用新冠病毒抗原自我檢測套組,76,2022/04/28 18:02:03,口罩販售:上午9:00開始發號碼牌，9點同步販售.
5901110311,永安藥局,臺北市內湖區文德路２１０巷３０弄４８號,121.5852,25.07723,(02)26586658,羅氏家用新冠病毒抗原自我檢測套組,3,2022/04/28 18:02:03,口罩販售時間早上10點開始發號碼牌  同時販售
5901112995,昇龍藥局,臺北市內湖區東湖路１５１號,121.6174,25.0681,(02)26316783,羅氏家用新冠病毒抗原自我檢測套組,6,2022/04/28 18:02:03,早0800-1200，午1200-1700，晚1800-2200
5901113250,大內湖藥局,臺北市內湖區成功路３段１６４號１樓,121.5903,25.08035,(02)27956286,羅氏家用新冠病毒抗原自我檢測套組,2,2022/04/28 18:02:03,早上9:30開始發放號碼牌
5901113385,躍獅康成藥局,臺北市內湖區成功路４段６１巷１１號,121.5928,25.0814,(02)87922031,羅氏家用新冠病毒抗原自我檢測套組,2,2022/04/28 18:02:03,每日早上10:00及下午3:00，每時段各100份大人口罩，50份兒童口罩，排隊人多時會發號碼牌。
5901113509,安安藥局,臺北市內湖區康寧路１段４號１樓,121.5912,25.08057,(02)87912187,羅氏家用新冠病毒抗原自我檢測套組,1,2022/04/28 18:02:03,早上時段08:30~11:00；晚上時段19:00~21:00。周日不販售
5901113590,維安藥局,臺北市內湖區成功路３段１７４巷２３號,121.5906,25.08143,(02)27944520,羅氏家用新冠病毒抗原自我檢測套組,1,2022/04/28 18:02:03,國定假日仍執行調劑業務
5901113705,富康活力湖光藥局,臺北市內湖區康寧路１段２５號１樓,121.5914,25.08062,(02)87927999,羅氏家用新冠病毒抗原自我檢測套組,2,2022/04/28 18:02:03,無
5901121421,祥安藥局,臺北市南港區中坡南路２５號,121.5832,25.04329,(02)26547322,羅氏家用新冠病毒抗原自我檢測套組,5,2022/04/28 18:02:03,無
5901121618,新東發藥局,臺北市南港區成福路１９８號,121.5883,25.04092,(02)27855190,羅氏家用新冠病毒抗原自我檢測套組,2,2022/04/28 18:02:03,無
5901121627,富康活力藥局,臺北市南港區研究院路１段１０１巷８號,121.6165,25.05181,(02)27828810,羅氏家用新冠病毒抗原自我檢測套組,2,2022/04/28 18:02:03,週一至週六，每天09:00-21:00販售口罩，請記得帶健保卡&零錢，售完為止。
5901121985,勝安藥局,臺北市南港區舊莊街１段１６５號,121.6211,25.03949,(02)27828450,羅氏家用新冠病毒抗原自我檢測套組,78,2022/04/28 18:02:03,無
5901150548,田倉藥局,臺北市士林區士東路１２４號,121.5302,25.11219,(02)88662188,羅氏家用新冠病毒抗原自我檢測套組,76,2022/04/28 18:02:03,-
5901152640,仁大藥局,臺北市士林區社子街１３號１樓,121.5083,25.08769,(02)88113793,羅氏家用新冠病毒抗原自我檢測套組,43,2022/04/28 18:02:03,快篩試劑販售時間:週一至週六上午8:30-12:00
5901153245,大東健保藥局,臺北市士林區大東路８６－４號,121.5257,25.09131,(02)28834672,羅氏家用新冠病毒抗原自我檢測套組,1,2022/04/28 18:02:03,週一至六下午14:00~16:00，若有剩餘週日相同，其餘時間藥局執行藥事服務與行政業務，不便之處敬請見諒
5901153432,大南春天生活藥局,臺北市士林區大南路３１７、３１９號,121.518,25.08888,(02)28882196,羅氏家用新冠病毒抗原自我檢測套組,2,2022/04/28 18:02:03,本藥局可領慢箋 快篩每天下午3點販售 售完為止
5901153905,躍獅芝山藥局,臺北市士林區福華路１５４號（實際使用：１樓）,121.5227,25.10357,(02)28365822,羅氏家用新冠病毒抗原自我檢測套組,15,2022/04/28 18:02:03,無
5901154082,德行盛康藥局,臺北市士林區德行東路２０６之１號１樓,121.532,25.1089,(02)28348756,羅氏家用新冠病毒抗原自我檢測套組,6,2022/04/28 18:02:03,無
5901154135,誠泰中西藥局,臺北市士林區永平街１３號１樓,121.5051,25.08996,(02)88112352,羅氏家用新冠病毒抗原自我檢測套組,4,2022/04/28 18:02:03,無
5901160286,昌源藥局,臺北市北投區中央北路４段４８５號,121.4692,25.12843,(02)28928695,羅氏家用新冠病毒抗原自我檢測套組,4,2022/04/28 18:02:03,周日公休
5901160428,九福藥局,臺北市北投區公館路２３６號,121.5081,25.12612,(02)28953009,羅氏家用新冠病毒抗原自我檢測套組,1,2022/04/28 18:02:03,★週日店休未營業
5901160544,黎明藥局,臺北市北投區尊賢街２５３－１號,121.5066,25.11817,(02)28223795,羅氏家用新冠病毒抗原自我檢測套組,14,2022/04/28 18:02:03,早上900至1230 下午1600至2100
5901161890,良興藥局,臺北市北投區中和街２８６號,121.5004,25.14047,(02)28933360,羅氏家用新冠病毒抗原自我檢測套組,61,2022/04/28 18:02:03,無
5901163296,天禧大藥局,臺北市北投區實踐街３５號,121.5087,25.11521,(02)28213558,羅氏家用新冠病毒抗原自我檢測套組,14,2022/04/28 18:02:03,實名制快篩下午1:30現場販售
5901163465,振生大藥局,臺北市北投區中央北路３段６１號,121.4847,25.13785,(02)28977292,羅氏家用新冠病毒抗原自我檢測套組,10,2022/04/28 18:02:03,無
5901163581,陳藥師藥局,臺北市北投區光明路２巷１３－２號（實際使用：１樓）,121.4997,25.13132,(02)28921971,羅氏家用新冠病毒抗原自我檢測套組,74,2022/04/28 18:02:03,無
5901170059,必欣藥局,臺北市信義區松仁路２６４號,121.5696,25.02425,(02)27225060,羅氏家用新冠病毒抗原自我檢測套組,78,2022/04/28 18:02:03,無
5901170406,鼎泰藥局,臺北市信義區基隆路１段１５５號１樓,121.5653,25.04222,(02)27620617,羅氏家用新冠病毒抗原自我檢測套組,7,2022/04/28 18:02:03,周一至周五 9：30-21：30 （9:30 開始發口罩） 5／1 有營業
5901170648,立信藥局,臺北市信義區松山路４０３號,121.578,25.04144,(02)27687754,羅氏家用新冠病毒抗原自我檢測套組,78,2022/04/28 18:02:03,快篩試劑販賣時間:晚上七點至九點
5901170915,杏仁藥局,臺北市信義區大道路１３５號,121.5834,25.03901,(02)27262541,羅氏家用新冠病毒抗原自我檢測套組,8,2022/04/28 18:02:03,春節期間看診時段請電洽
5901172240,德康大藥局,臺北市信義區松山路５４１巷２１號,121.579,25.03794,(02)27272502,羅氏家用新冠病毒抗原自我檢測套組,5,2022/04/28 18:02:03,無
5901172268,皇佳大藥局,臺北市信義區松山路５４１巷１９號,121.5789,25.03793,(02)27269868,羅氏家用新冠病毒抗原自我檢測套組,9,2022/04/28 18:02:03,早上9:00~21:00持健保卡領取實名制口罩，請自備零錢
5901172544,麗中藥局,臺北市信義區福德街２１７號,121.5847,25.03841,(02)27594416,羅氏家用新冠病毒抗原自我檢測套組,4,2022/04/28 18:02:03,無
5901172580,文興藥局,臺北市信義區福德街２４５號,121.5859,25.03874,(02)27590989,羅氏家用新冠病毒抗原自我檢測套組,1,2022/04/28 18:02:03,無
5901173390,馨馨藥局,臺北市信義區虎林街８２巷１９號,121.5764,25.04336,(02)27491208,羅氏家用新冠病毒抗原自我檢測套組,1,2022/04/28 18:02:03,無
5901173603,松德盛康藥局,臺北市信義區松德路４０號,121.5767,25.03896,(02)87891622,羅氏家用新冠病毒抗原自我檢測套組,5,2022/04/28 18:02:03,今日號碼牌已發放完畢，請依號碼牌於今日晚上21:00前購買
5901173738,尚頤中西藥局,臺北市信義區虎林街１４５號,121.5767,25.03959,(02)27253818,羅氏家用新冠病毒抗原自我檢測套組,1,2022/04/28 18:02:03,無
5901173818,博亞藥局,臺北市信義區莊敬路４６２號,121.5677,25.02672,(02)27580506,羅氏家用新冠病毒抗原自我檢測套組,39,2022/04/28 18:02:03,快篩需領號碼牌
5901173872,柏愛藥局,臺北市信義區基隆路２段１３１之９號,121.5567,25.02788,(02)27325472,羅氏家用新冠病毒抗原自我檢測套組,1,2022/04/28 18:02:03,無
5901173881,壹間藥師藥局,臺北市信義區虎林街１２０巷１４８號,121.5742,25.04213,(02)27672833,羅氏家用新冠病毒抗原自我檢測套組,2,2022/04/28 18:02:03,快篩星期一到六 10:00發號碼牌開賣； 星期日 12:00發號碼牌開賣
5901174039,日安藥局,臺北市信義區松仁路２４０巷１３號１樓,121.5691,25.02454,(02)27203775,羅氏家用新冠病毒抗原自我檢測套組,7,2022/04/28 18:02:03,無
5901174057,詠晴中西藥局,臺北市信義區松山路４８４之４號（１樓含夾層）,121.5778,25.0389,(02)27266890,羅氏家用新冠病毒抗原自我檢測套組,8,2022/04/28 18:02:03,無
5901174066,愛維喜藥局,臺北市信義區莊敬路２７８號１樓,121.5627,25.02882,(02)27586989,羅氏家用新冠病毒抗原自我檢測套組,2,2022/04/28 18:02:03,無
5901174075,信義盛康藥局,臺北市信義區永吉路２８６號（１樓）,121.5744,25.04538,(02)23460521,羅氏家用新冠病毒抗原自我檢測套組,5,2022/04/28 18:02:03,無
5901180322,南昌大藥局,臺北市中正區南昌路１段８６號１樓,121.5174,25.03086,(02)23510322,羅氏家用新冠病毒抗原自我檢測套組,6,2022/04/28 18:02:03,無
5901180368,古亭藥局,臺北市中正區汀州路３段１１７號,121.5301,25.01667,(02)23683618,羅氏家用新冠病毒抗原自我檢測套組,77,2022/04/28 18:02:03,無
5901182068,永興藥局,臺北市中正區汀州路１段９２巷２８號,121.5068,25.02999,(02)23050986,羅氏家用新冠病毒抗原自我檢測套組,1,2022/04/28 18:02:03,無
5901183387,丞良藥局,臺北市中正區南昌路１段７８號地下１樓,121.5173,25.03099,(02)33938868,羅氏家用新冠病毒抗原自我檢測套組,78,2022/04/28 18:02:03,週一~週五 晚上9:00~9:30現場領取
5901183789,佑康大藥局,臺北市中正區汀州路２段６４號,121.5184,25.02513,(02)23683602,羅氏家用新冠病毒抗原自我檢測套組,11,2022/04/28 18:02:03,快篩下午2點開賣
5901184213,71恩典藥局,臺北市中正區信義路２段７１號,121.5264,25.03466,(02)23223371,羅氏家用新冠病毒抗原自我檢測套組,78,2022/04/28 18:02:03,快篩==週一到週五19:00／週六17:00購買， 十分鐘前發號碼牌
5901184553,珍忻藥局,臺北市中正區南昌路１段６５號,121.5174,25.03107,(02)23965115,羅氏家用新冠病毒抗原自我檢測套組,7,2022/04/28 18:02:03,健保快篩發放:13:20及18:20分兩梯次發號碼牌
5901184599,長頸鹿藥師藥局,臺北市中正區南昌路１段１３２號,121.5183,25.02955,(02)23962120,羅氏家用新冠病毒抗原自我檢測套組,7,2022/04/28 18:02:03,無
5901184642,康呈安藥局,臺北市中正區汀州路２段１８７號１樓,121.522,25.02403,(02)23672215,羅氏家用新冠病毒抗原自我檢測套組,32,2022/04/28 18:02:03,快篩14:50~14:55發號碼牌15:00開始販售
5901190515,日昇藥局,臺北市萬華區廣州街１２４號,121.5016,25.03654,(02)23062975,羅氏家用新冠病毒抗原自我檢測套組,78,2022/04/28 18:02:03,實名制快篩晚上八點開始
5901190668,聯慶大藥局,臺北市萬華區萬大路３０６號１樓,121.5003,25.02495,(02)23039850,羅氏家用新冠病毒抗原自我檢測套組,6,2022/04/28 18:02:03,無
5901192162,寶興大藥局,臺北市萬華區寶興街１１９號,121.4948,25.02529,(02)23013375,羅氏家用新冠病毒抗原自我檢測套組,20,2022/04/28 18:02:03,無
5901193169,柏祥藥局,臺北市萬華區西藏路１４１號,121.5017,25.02944,(02)23018272,羅氏家用新冠病毒抗原自我檢測套組,70,2022/04/28 18:02:03,快篩服務時間PM06:00-07:00，售完提前截止。
5901193221,正盛藥局,臺北市萬華區中華路２段４３４－１號,121.5064,25.02708,(02)23050386,羅氏家用新冠病毒抗原自我檢測套組,66,2022/04/28 18:02:03,公費快篩晚上8點依現場後位順序發放
5901200105,建興藥局,臺北市文山區木柵路２段８１號１樓,121.561,24.98889,(02)29399993,羅氏家用新冠病毒抗原自我檢測套組,2,2022/04/28 18:02:03,無
5901200114,健群藥局,臺北市文山區景興路４１號,121.5448,24.99717,(02)29328898,羅氏家用新冠病毒抗原自我檢測套組,16,2022/04/28 18:02:03,無
5901200123,瑞安藥局,臺北市文山區溪口街６９－１號１樓,121.5393,24.99512,(02)29312888,羅氏家用新冠病毒抗原自我檢測套組,6,2022/04/28 18:02:03,早上8:30起服務星期日休息
5901200141,景美藥局,臺北市文山區景文街１２５號,121.5412,24.99033,(02)29335741,羅氏家用新冠病毒抗原自我檢測套組,1,2022/04/28 18:02:03,無
5901200490,永明大藥局,臺北市文山區興隆路１段２９７號１樓,121.5449,24.99875,(02)29314428,羅氏家用新冠病毒抗原自我檢測套組,2,2022/04/28 18:02:03,無
5901201568,康宜庭生活藥局,臺北市文山區興隆路４段６４號,121.5613,24.98514,(02)29385363,羅氏家用新冠病毒抗原自我檢測套組,2,2022/04/28 18:02:03,無
5901201826,舒博威藥局,臺北市文山區興隆路２段９５巷３號,121.547,24.99952,(02)29306805,羅氏家用新冠病毒抗原自我檢測套組,5,2022/04/28 18:02:03,早上8:30開始販售口罩
5901201871,佳醫景美藥局,臺北市文山區羅斯福路６段２９０號,121.5398,24.991,(02)86636659,羅氏家用新冠病毒抗原自我檢測套組,1,2022/04/28 18:02:03,周一至周六12:00-14:30販售，其餘時段不進行販售。星期日不販售口罩。
5901202627,杏隆藥局,臺北市文山區羅斯福路５段２６１號,121.5395,25.00115,(02)29313151,羅氏家用新冠病毒抗原自我檢測套組,35,2022/04/28 18:02:03,快篩實名制採預約登記，至5／5已登記額滿。
5901202949,萬隆大藥局,臺北市文山區羅斯福路５段２１８巷１５號,121.538,25.00203,(02)29334580,羅氏家用新冠病毒抗原自我檢測套組,9,2022/04/28 18:02:03,9：00~23：00
5901203268,躍獅木柵藥局,臺北市文山區指南路１段２８號,121.5695,24.98756,(02)86617752,羅氏家用新冠病毒抗原自我檢測套組,7,2022/04/28 18:02:03,無
5901203482,健康家藥局,臺北市文山區興隆路２段１３３號１樓,121.5481,25.00011,(02)29330858,羅氏家用新冠病毒抗原自我檢測套組,1,2022/04/28 18:02:03,無
5902021377,藍玉藥局,高雄市鼓山區鼓峰里九如四路２００２號,120.2861,22.66774,(07)5837528,羅氏家用新冠病毒抗原自我檢測套組,1,2022/04/28 18:02:03,賣口罩時間：周一至週五早上9:30起，售完為止。
5902022829,弘興藥局,高雄市鼓山區鼓山三路４８－１１號,120.2757,22.65468,(07)5612677,羅氏家用新冠病毒抗原自我檢測套組,1,2022/04/28 18:02:03,春節期間看診時段請電洽藥局
5902022874,康爾喜藥局,高雄市鼓山區慶豐街５０號,120.2935,22.66647,(07)5222650,羅氏家用新冠病毒抗原自我檢測套組,10,2022/04/28 18:02:03,早上9點半後開始販售口罩，營業時間為早上9:10至晚間10:00
5902022972,高雄藥局,高雄市鼓山區九如四路９２４號,120.2793,22.65466,(07)5214266,羅氏家用新冠病毒抗原自我檢測套組,5,2022/04/28 18:02:03,賣口罩時間為週一～週六晚上6點，售完為止
5902032432,威林藥局,高雄市左營區華夏路７２１號,120.3023,22.67845,(07)3414243,羅氏家用新冠病毒抗原自我檢測套組,5,2022/04/28 18:02:03,營業時間販售口罩（售完為止），星期一~五早上9:00~晚上9:00，星期六早上09:00~下午5:00執業
5902032441,健怡藥局,高雄市左營區翠峰路４０號,120.2897,22.67229,(07)5821891,羅氏家用新冠病毒抗原自我檢測套組,13,2022/04/28 18:02:03,快篩星期一~星期六早上8:30開始販售
5902032530,杏光藥局,高雄市左營區果峰街４７巷１號１樓,120.2869,22.6703,(07)5837060,羅氏家用新冠病毒抗原自我檢測套組,17,2022/04/28 18:02:03,上午營業時間為9 :00~12:00；晚上營業至21:30
5902040014,成吉藥局,高雄市楠梓區楠梓東街７４號,120.3301,22.72966,(07)3513339,羅氏家用新冠病毒抗原自我檢測套組,73,2022/04/28 18:02:03,上午7點30分憑健保卡購買口罩售完為止，星期日店休
5902042661,元春中西藥師藥局,高雄市楠梓區後昌路８３７巷３７號,120.294,22.71109,(07)3605656,羅氏家用新冠病毒抗原自我檢測套組,1,2022/04/28 18:02:03,早上.9:00為口罩領取時間售完為止星期日休息
5902050298,瑞鶴藥局,高雄市三民區寶德里義德路２５號,120.3352,22.64301,(07)3862757,羅氏家用新冠病毒抗原自我檢測套組,1,2022/04/28 18:02:03,下午2:00至4:30午休勿擾，每日10:00至21:00發售。春節期間看診時段請電洽藥局
5902050350,日星藥局,高雄市三民區寶龍里惠德街３８號,120.3241,22.64741,(07)3845188,羅氏家用新冠病毒抗原自我檢測套組,8,2022/04/28 18:02:03,銷售口罩時間:星期一至五16:00-22:00；星期六09:00-11:30，售完為止
5902050412,春仁藥局,高雄市三民區覺民路２２５號,120.3391,22.63944,(07)3962341,羅氏家用新冠病毒抗原自我檢測套組,2,2022/04/28 18:02:03,4／1-4／30售時間自9；00-22:00現場排隊.（賣完為止）
5902050636,嘉益藥局,高雄市三民區重慶街３０號,120.302,22.64223,(07)3110157,羅氏家用新冠病毒抗原自我檢測套組,3,2022/04/28 18:02:03,無
5902050798,友泰藥局,高雄市三民區中和街１６９號,120.2868,22.6388,(07)3125236,羅氏家用新冠病毒抗原自我檢測套組,42,2022/04/28 18:02:03,無
5902050903,皇安藥局,高雄市三民區九如一路４６１號,120.3296,22.63865,(07)3866779,羅氏家用新冠病毒抗原自我檢測套組,1,2022/04/28 18:02:03,營業日08:15~08:30可先領取號碼牌，上午08:30~12:00及下午3:00~10:.00為販賣口罩時間，售完為止
5902051786,億生藥局,高雄市三民區南台路２００號,120.2982,22.63706,(07)2873436,羅氏家用新冠病毒抗原自我檢測套組,1,2022/04/28 18:02:03,「藥局販售口罩時間，依藥局門口公告時間為主（售完為止）」
5902056754,大家藥局,高雄市三民區鼎中路２２９號１樓,120.3191,22.66421,(07)3107632,羅氏家用新冠病毒抗原自我檢測套組,1,2022/04/28 18:02:03,營業日08:30-12:00，15:30-21:00為販賣口罩時間.售完為止
5902056807,長慶藥局,高雄市三民區金鼎路３１０號,120.3207,22.66513,(07)3105835,羅氏家用新冠病毒抗原自我檢測套組,1,2022/04/28 18:02:03,自110／01／01-110／12／31，營業日早上08:30至晚上10:30為販賣口罩時間.售完為止
5902057368,崧民藥師藥局,高雄市三民區金鼎路２２８號,120.3238,22.66483,(07)3102496,羅氏家用新冠病毒抗原自我檢測套組,1,2022/04/28 18:02:03,服務時間9:00-22:30自01／01日~1月29日
5902057484,永勝藥局,高雄市三民區褒忠街１１４號,120.334,22.64262,(07)3814643,羅氏家用新冠病毒抗原自我檢測套組,1,2022/04/28 18:02:03,口罩代售時間14:00--16:00.現場排隊.週日休
5902060025,連作藥局,高雄市新興區大同一路２０３－１號,120.3003,22.62856,(07)2154716,羅氏家用新冠病毒抗原自我檢測套組,23,2022/04/28 18:02:03,快篩試紙領用時間為每日下午2點  4／29日起，28日已售完
5902061540,長青藥局,高雄市新興區六合路１１４號,120.3159,22.63223,(07)2223969,羅氏家用新冠病毒抗原自我檢測套組,3,2022/04/28 18:02:03,上午8點40分   領完為止
5902061899,元盛藥局,高雄市新興區六合路１５３號,120.3149,22.63186,(07)2228183,羅氏家用新冠病毒抗原自我檢測套組,2,2022/04/28 18:02:03,無
5902080465,廣德泰藥局,高雄市苓雅區苓雅二路７６號,120.2997,22.61762,(07)3340769,羅氏家用新冠病毒抗原自我檢測套組,1,2022/04/28 18:02:03,早上8點30開始口罩販，售完為止
5902080474,弘宗藥局,高雄市苓雅區武智街２號,120.3356,22.62303,(07)7211088,羅氏家用新冠病毒抗原自我檢測套組,4,2022/04/28 18:02:03,8:00~22:00（營業時段）
5902081328,東信藥局,高雄市苓雅區三多一路１８９號,120.3313,22.62258,(07)7613309,羅氏家用新冠病毒抗原自我檢測套組,1,2022/04/28 18:02:03,早上8:30開始發送號碼牌販售口罩，售完為止，假日正常販售
5902085148,召祐健保藥局,高雄市苓雅區正義路９３號,120.3385,22.63037,(07)7493719,羅氏家用新冠病毒抗原自我檢測套組,3,2022/04/28 18:02:03,無
5902085184,惠春藥局,高雄市苓雅區武慶三路９６號,120.3319,22.62043,(07)7611358,羅氏家用新冠病毒抗原自我檢測套組,52,2022/04/28 18:02:03,「藥局販售口罩時間，依藥局門口公告時間為主（售完為止）」
5902085344,意祥藥局,高雄市苓雅區武廟路１４２之１號,120.3276,22.63125,(07)7224835,羅氏家用新冠病毒抗原自我檢測套組,7,2022/04/28 18:02:03,藥局販售口罩時間，依藥局門口公告時間為主（售完為止）
5902090087,久億藥局,高雄市前鎮區保泰路３５１號,120.3341,22.60289,(07)7619333,羅氏家用新冠病毒抗原自我檢測套組,2,2022/04/28 18:02:03,無實名制口罩
5902090827,博平藥局,高雄市前鎮區草衙二路３７７號,120.3224,22.57808,(07)8311814,羅氏家用新冠病毒抗原自我檢測套組,7,2022/04/28 18:02:03,藥局販售口罩時間，依藥局門口公告時間為主（售完為止）
5902092956,慈濟健保藥局,高雄市前鎮區鎮州路２１１號,120.3082,22.58819,(07)8159788,羅氏家用新冠病毒抗原自我檢測套組,2,2022/04/28 18:02:03,每天早上8點開始賣.售完為止藥局販售口罩時間，依藥局門口公告時間為主（售完為止）
5902110422,臨生藥局,高雄市小港區鳳鳴路１４６－４號,120.3588,22.51445,(07)8711290,羅氏家用新冠病毒抗原自我檢測套組,1,2022/04/28 18:02:03,早上9:00開始販售口罩，快篩劑售完為止。
5902110628,悅是康藥局,高雄市小港區漢民路２７６號,120.3536,22.56665,(07)8010012,羅氏家用新冠病毒抗原自我檢測套組,1,2022/04/28 18:02:03,無
5902111670,桂林活力藥師藥局,高雄市小港區桂陽路４０號,120.3575,22.58194,(07)7931248,羅氏家用新冠病毒抗原自我檢測套組,5,2022/04/28 18:02:03,自2／11日~2／29日，營業日08:30及13:00各50份為販賣口罩時間.售完為止
5903010609,隔壁藥局,臺中市豐原區一心路２４０之２號１樓,120.7007,24.24613,(04)25231527,羅氏家用新冠病毒抗原自我檢測套組,67,2022/04/28 18:02:03,無
5903030012,康好藥局,臺中市大甲區三民路１３２－２號,120.622,24.34851,(04)26802149,羅氏家用新冠病毒抗原自我檢測套組,78,2022/04/28 18:02:03,每天早上8-12點.下午14:30至售完為止.星期四不銷售. 星期日只銷售前日剩餘口罩
5903030076,百禾藥局,臺中市大甲區仁愛街５８號,120.6187,24.34717,(04)26872538,羅氏家用新冠病毒抗原自我檢測套組,5,2022/04/28 18:02:03,周一到周六全天販售防疫口罩，周三下午及周日全天休息
5903030156,盈盈藥局,臺中市大甲區文武路１８號,120.626,24.34582,(04)26804212,羅氏家用新冠病毒抗原自我檢測套組,4,2022/04/28 18:02:03,08:30~21:30
5903050149,立好藥局,臺中市沙鹿區北勢東路６９３號１樓,120.5722,24.22957,(04)26522389,羅氏家用新冠病毒抗原自我檢測套組,1,2022/04/28 18:02:03,無
5903050194,樂齊藥局,臺中市沙鹿區北中路８６－１、８６－２號,120.5692,24.22827,(04)26338867,羅氏家用新冠病毒抗原自我檢測套組,78,2022/04/28 18:02:03,防疫家用快篩試劑每日19點開賣，售完為止，庫存請依現場為主。
5903070132,內埔瑞士藥師藥局,臺中市后里區中山路３７號１樓,120.7113,24.30446,(04)25566959,羅氏家用新冠病毒抗原自我檢測套組,3,2022/04/28 18:02:03,發放口罩以藥局店內公告為主
5903070141,甲后藥局,臺中市后里區甲后路一段２５３號１樓,120.727,24.30906,(04)25585273,羅氏家用新冠病毒抗原自我檢測套組,52,2022/04/28 18:02:03,周一到周六，早上8點開始用健保卡排隊，10點後領取口罩及健保卡
5903150135,全品藥局,臺中市烏日區公園路２４０之１號１樓,120.6254,24.10234,(04)23362690,羅氏家用新冠病毒抗原自我檢測套組,1,2022/04/28 18:02:03,防疫口罩每日上午8時30分開始販售
5903190077,八醫健保藥局,臺中市太平區中山路２段３５７號,120.7297,24.15021,(04)23935050,羅氏家用新冠病毒抗原自我檢測套組,2,2022/04/28 18:02:03,公發篩檢試劑時間0830開始，售完為止（1人1次限購1份）
5903190522,聖康佳禾藥局,臺中市太平區光興路８３１號,120.7307,24.1121,(04)22772065,羅氏家用新冠病毒抗原自我檢測套組,3,2022/04/28 18:02:03,1~6早上11點30分 發放
5903200176,聖康藥局,臺中市大里區立仁路７９號１樓,120.7036,24.1078,(04)22700625,羅氏家用新冠病毒抗原自我檢測套組,8,2022/04/28 18:02:03,無
5903200667,永欣東榮藥局,臺中市大里區東榮路３７０號１樓,120.6836,24.11032,(04)24810599,羅氏家用新冠病毒抗原自我檢測套組,2,2022/04/28 18:02:03,無
5903220169,公園大藥局,臺中市中區公園路９５號１樓,120.6796,24.1462,(04)22062682,羅氏家用新冠病毒抗原自我檢測套組,1,2022/04/28 18:02:03,每日上午8點至下午11點59分
5903220196,日安藥局,臺中市中區臺灣大道一段３３０號１樓,120.6801,24.1422,(04)22234246,羅氏家用新冠病毒抗原自我檢測套組,78,2022/04/28 18:02:03,無
5903240492,好好誠美藥局,臺中市西區向上北路１８６號１樓,120.6611,24.14797,(04)23022838,羅氏家用新冠病毒抗原自我檢測套組,2,2022/04/28 18:02:03,無
5903250443,千美台安藥局,臺中市南區美村南路２６３號,120.6666,24.11426,(04)22602101,羅氏家用新冠病毒抗原自我檢測套組,22,2022/04/28 18:02:03,周一到周日，下午3:00發放號碼牌，開始販售防疫口罩
5903260627,明曜藥局,臺中市北區北平路二段１９０號１樓,120.6784,24.17117,(04)22916775,羅氏家用新冠病毒抗原自我檢測套組,5,2022/04/28 18:02:03,無
5903260743,黎明安德藥局,臺中市北區中清路１段８５２號１樓,120.6718,24.17295,(04)22956098,羅氏家用新冠病毒抗原自我檢測套組,78,2022/04/28 18:02:03,禮拜四公休、禮拜日下午2點開始營業
5903260798,光恒藥局,臺中市北區五權路２６１號１樓,120.6767,24.15097,(04)22068638,羅氏家用新冠病毒抗原自我檢測套組,15,2022/04/28 18:02:03,快篩 周一到周六早上8:00到12:00 開放購買
5903260912,莒光藥局,臺中市北區錦南街１２號１樓,120.6886,24.15399,(04)22336663,羅氏家用新冠病毒抗原自我檢測套組,27,2022/04/28 18:02:03,實名制快篩上午9:30開賣50份 下午6:30開賣28份
5903260967,正尚藥局,臺中市北區榮華街１６６號１樓,120.6868,24.16444,(04)22350347,羅氏家用新冠病毒抗原自我檢測套組,77,2022/04/28 18:02:03,實名制快篩18:00發放，周日09:00（若有剩餘）
5903270721,舒健藥局,臺中市西屯區西屯路二段２５５號２樓,120.6459,24.17179,(04)27077858,羅氏家用新冠病毒抗原自我檢測套組,76,2022/04/28 18:02:03,周一至周六每日晚上7點發號碼牌並依序領口罩。
5903270865,尚禾藥局,臺中市西屯區青海路一段６５號,120.6548,24.16438,(04)23147688,羅氏家用新冠病毒抗原自我檢測套組,38,2022/04/28 18:02:03,無
5903270883,祥和大藥局,臺中市西屯區青海路二段２４０－９號,120.6418,24.17323,(04)27000122,羅氏家用新冠病毒抗原自我檢測套組,1,2022/04/28 18:02:03,口罩販售時間：每日早上10點至夜間10點。
5903271031,美十樂中科藥局,臺中市西屯區西屯路三段１６６－６５號１樓,120.6129,24.19035,(04)24610219,羅氏家用新冠病毒抗原自我檢測套組,78,2022/04/28 18:02:03,固定周一至周日10:00開始販售口罩
5903271139,百吉藥局,臺中市西屯區青海路一段７１號１樓,120.6547,24.1644,(04)23135698,羅氏家用新冠病毒抗原自我檢測套組,1,2022/04/28 18:02:03,無
5903271200,甘肅台安藥局,臺中市西屯區甘肅路一段１號１樓,120.6602,24.16453,(04)23160761,羅氏家用新冠病毒抗原自我檢測套組,3,2022/04/28 18:02:03,無
5903271246,柏醫藥局,臺中市西屯區上安路５６號１樓,120.6412,24.17052,(04)24526391,羅氏家用新冠病毒抗原自我檢測套組,52,2022/04/28 18:02:03,公費快篩試劑10:00、15:00、19:00開放過卡領取
5903271308,祐生藥局,臺中市西屯區文華路３之１號１樓,120.6447,24.17535,(04)24517169,羅氏家用新冠病毒抗原自我檢測套組,57,2022/04/28 18:02:03,無
5903280101,成記大藥局,臺中市南屯區大墩１７街１２３號１樓,120.648,24.15557,(04)23288877,羅氏家用新冠病毒抗原自我檢測套組,1,2022/04/28 18:02:03,實名制快篩下午一點開始販售
5903280165,南屯福倫藥局,臺中市南屯區南屯路２段３１７號,120.6456,24.13754,(04)24758018,羅氏家用新冠病毒抗原自我檢測套組,76,2022/04/28 18:02:03,無
5903280521,百康健保藥局,臺中市南屯區黎明路二段３６３號,120.6353,24.15033,(04)22547776,羅氏家用新冠病毒抗原自我檢測套組,3,2022/04/28 18:02:03,周一到周日每日上午8:30到晚上22:30
5903280549,仁幼藥局,臺中市南屯區黎明東街２２９號１樓,120.6367,24.1482,(04)23809162,羅氏家用新冠病毒抗原自我檢測套組,78,2022/04/28 18:02:03,無
5903280781,美十樂藥局,臺中市南屯區東興路二段２７９號１樓,120.6528,24.1437,(04)24710219,羅氏家用新冠病毒抗原自我檢測套組,7,2022/04/28 18:02:03,持健保卡現領，共200份成人，20份兒童。發完為止
5903280889,精科藥局,臺中市南屯區嶺東路３２１號１樓,120.6106,24.14513,(04)23806288,羅氏家用新冠病毒抗原自我檢測套組,2,2022/04/28 18:02:03,快篩發放～早上9：30-10：30   下午4：30-5：30
5903280914,豐樹藥局,臺中市南屯區黎明路一段６３號１樓,120.6258,24.11362,(04)24792098,羅氏家用新冠病毒抗原自我檢測套組,39,2022/04/28 18:02:03,販售快篩時間 早上9:00～10：00   晚上8：00~9:00
5903290625,又昌中西健保藥局,臺中市北屯區東山路１段２２３號,120.7152,24.17452,(04)24375716,羅氏家用新冠病毒抗原自我檢測套組,78,2022/04/28 18:02:03,快篩實名制 周一~周五晚上18:30開賣
5903290750,長幼藥局,臺中市北屯區崇德路二路二段１５７號１樓,120.6853,24.17329,(04)22426767,羅氏家用新冠病毒抗原自我檢測套組,1,2022/04/28 18:02:03,防疫口罩於每天早上9點整開賣，採現場排隊無號碼牌，賣完為止
5903290830,齊方藥局,臺中市北屯區四平路３９號,120.6708,24.17885,(04)22912192,羅氏家用新冠病毒抗原自我檢測套組,2,2022/04/28 18:02:03,無
5903290983,祥和藥局,臺中市北屯區太原路三段１４７號１樓,120.6901,24.16507,(04)22369603,羅氏家用新冠病毒抗原自我檢測套組,6,2022/04/28 18:02:03,快篩販售4／30後：下午2點開始
5903291159,均福藥局,臺中市北屯區軍福十三路１００號１樓,120.7308,24.17096,(04)24391169,羅氏家用新冠病毒抗原自我檢測套組,78,2022/04/28 18:02:03,無
5903291168,日初藥局,臺中市北屯區軍功路一段４８２－３號１樓,120.7188,24.17102,(04)24363150,羅氏家用新冠病毒抗原自我檢測套組,1,2022/04/28 18:02:03,無
5903291275,康是美藥局東山店,臺中市北屯區東山路一段３２０號１樓、和福路２５８號１樓,120.7229,24.17591,(04)24634571,羅氏家用新冠病毒抗原自我檢測套組,1,2022/04/28 18:02:03,無
5905010296,躍獅新營藥局,臺南市新營區民生路１６８號１樓,120.3073,23.31112,(06)6564325,羅氏家用新冠病毒抗原自我檢測套組,73,2022/04/28 18:02:03,上午九點至晚上九點
5905060125,美麗安藥局,臺南市新化區護國里中山路１５０－１號１樓,120.3102,23.03714,(06)5909509,羅氏家用新冠病毒抗原自我檢測套組,61,2022/04/28 18:02:03,固定周一至周六早上8點發放號碼牌，並依序販賣口罩
5905080065,生祥大藥局學甲店,臺南市學甲區仁得里華宗路３６９號１樓,120.1821,23.23223,(06)7838462,羅氏家用新冠病毒抗原自我檢測套組,5,2022/04/28 18:02:03,無
5905100035,華恩藥局,臺南市後壁區菁寮里５１號１樓,120.3356,23.37883,(06)6623491,羅氏家用新冠病毒抗原自我檢測套組,234,2022/04/28 18:02:03,星期一到六上午8:00-12:00，下午2:30-7:30，星期日8:00-12:00；口罩發售時間自08:30-11:30，下午2:30-07:00
5905100062,美尚藥局後壁店,臺南市後壁區後壁里１６８－８號,120.364,23.36509,(06)6871138,羅氏家用新冠病毒抗原自我檢測套組,155,2022/04/28 18:02:03,星期天早上視狀況營
5905180051,晉昇藥師藥局,臺南市將軍區西甲里４鄰西華６７之２１號１樓,120.1563,23.19908,(06)7943667,羅氏家用新冠病毒抗原自我檢測套組,10,2022/04/28 18:02:03,無
5905210027,愛心藥師藥局,臺南市安定區港南里港口１４７號,120.233,23.09041,(06)5935104,羅氏家用新冠病毒抗原自我檢測套組,4,2022/04/28 18:02:03,春節營業時間請電洽或依現場公告
5905270121,安麗兒藥局仁德店,臺南市仁德區新田里中正路二段４４５號,120.2523,22.95461,(06)2498619,羅氏家用新冠病毒抗原自我檢測套組,2,2022/04/28 18:02:03,無
5905280118,和雅藥局,臺南市歸仁區民權三街９６號１樓,120.2902,22.96936,(06)2307757,羅氏家用新冠病毒抗原自我檢測套組,8,2022/04/28 18:02:03,無
5905310353,家嘉藥局,臺南市永康區復國一路２０６號,120.2462,23.00644,(06)3121328,羅氏家用新冠病毒抗原自我檢測套組,36,2022/04/28 18:02:03,無
5905311010,樂丞藥局,臺南市永康區中正北路６０號１樓,120.2406,23.04138,(06)2433319,羅氏家用新冠病毒抗原自我檢測套組,78,2022/04/28 18:02:03,口罩販售時間：星期一~星期日 10:00-售完
5905311172,美日新藥局,臺南市永康區塩行里中正北路６２號１樓,120.2406,23.04138,(06)2420980,羅氏家用新冠病毒抗原自我檢測套組,10,2022/04/28 18:02:03,無
5905320180,恩泉藥局,臺南市東區崇明路２０７號１樓,120.22,22.97794,(06)3352078,羅氏家用新冠病毒抗原自我檢測套組,78,2022/04/28 18:02:03,家用快篩 週一至週五 PM15；00-16；00 領取
5905320466,佑全中華藥局,臺南市東區中華東路三段２１５號,120.2253,22.97603,(06)2906386,羅氏家用新冠病毒抗原自我檢測套組,6,2022/04/28 18:02:03,星期一-六08:00-21:00
5905320564,杏一台南崇德藥局,臺南市東區崇德路６７４號,120.2274,22.96762,(06)2671939,羅氏家用新冠病毒抗原自我檢測套組,1,2022/04/28 18:02:03,防疫口罩發送時間:周一至周日:下午:15:00
5905320608,中華台安藥局,臺南市東區中華東路一段４號１樓,120.2344,22.99818,(06)2092622,羅氏家用新冠病毒抗原自我檢測套組,9,2022/04/28 18:02:03,固定週一至周日13點-20點販售口罩，售完為止，現場為主
5905320699,恆大藥局,臺南市東區崇明路５９０號１樓,120.2247,22.97262,(06)2905586,羅氏家用新冠病毒抗原自我檢測套組,1,2022/04/28 18:02:03,每日上午九時開業，晚上十時結束營業
5905320975,萬錠藥局,臺南市東區崇成里崇德路６１９號１樓,120.2277,22.97181,(06)2679299,羅氏家用新冠病毒抗原自我檢測套組,29,2022/04/28 18:02:03,無
5905340262,瑞城藥局,臺南市中西區赤嵌里忠義路二段１７６號１樓,120.2043,22.99649,(06)2215810,羅氏家用新冠病毒抗原自我檢測套組,78,2022/04/28 18:02:03,無
5905350026,良佑堂藥局,臺南市北區文賢路２９９號,120.1935,23.00631,(06)2586223,羅氏家用新冠病毒抗原自我檢測套組,1,2022/04/28 18:02:03,無
5905350311,美康藥局,臺南市北區公園路３７５－５號,120.2102,23.00597,(06)2810311,羅氏家用新冠病毒抗原自我檢測套組,9,2022/04/28 18:02:03,快篩實名制販賣時間上午9:00~11:00
5905350366,千多藥局,臺南市北區金華路五段１號,120.1962,23.0016,(06)2228641,羅氏家用新冠病毒抗原自我檢測套組,64,2022/04/28 18:02:03,晚上6點開始銷售實名制快篩試劑，賣完為止
5905370073,宜康藥局同安店,臺南市安南區同安路２３５號１樓,120.1921,23.0425,(06)2470720,羅氏家用新冠病毒抗原自我檢測套組,7,2022/04/28 18:02:03,星期一~星期日08:10~23:00
5905370180,安南啄木鳥藥局,臺南市安南區安和路一段１０７號,120.2143,23.02826,(06)2821265,羅氏家用新冠病毒抗原自我檢測套組,3,2022/04/28 18:02:03,口罩代售時間自早上9:30---售完為止
5905370322,鳳凰平光中西藥局,臺南市安南區鳳凰里安中路一段７００巷２７號１樓,120.1967,23.04319,(06)2565635,羅氏家用新冠病毒抗原自我檢測套組,10,2022/04/28 18:02:03,除夕 傍晚以後休息
5905380293,人仁藥局,臺南市安平區怡平里慶平路２８１號１樓,120.1763,22.99668,(06)2998667,羅氏家用新冠病毒抗原自我檢測套組,2,2022/04/28 18:02:03,快篩每日下午2點開賣
5905380300,新高橋藥局台南永華店,臺南市安平區華平路２７９號１樓,120.1748,22.99031,(06)2992362,羅氏家用新冠病毒抗原自我檢測套組,2,2022/04/28 18:02:03,無
5907010043,北京藥局文山店,高雄市鳳山區青年路二段３６７號１．２樓,120.3511,22.64152,(07)7676766,羅氏家用新冠病毒抗原自我檢測套組,1,2022/04/28 18:02:03,無
5907010212,北京藥局中崙店,高雄市鳳山區中崙四路１６號１樓,120.3519,22.59971,(07)7550655,羅氏家用新冠病毒抗原自我檢測套組,1,2022/04/28 18:02:03,營業時間上午08:00~下午11:00發口罩時間為上午:9:00售完為止00
5907011068,新高橋藥局文龍東店,高雄市鳳山區鎮北里文龍東路３１０號,120.3666,22.64074,(07)7353946,羅氏家用新冠病毒抗原自我檢測套組,1,2022/04/28 18:02:03,自2／11日~2／29日，早上10:00開始販售口罩，售完為止。
5907011184,肉豆公藥局南榮店,高雄市鳳山區善美里南榮路１６９號１樓,120.3366,22.60186,(07)7278385,羅氏家用新冠病毒抗原自我檢測套組,3,2022/04/28 18:02:03,自2／11日~2／29日，營業日14:00~22:30為販賣口罩時間
5907011200,和成藥局,高雄市鳳山區南成里和成路６５號１樓,120.3379,22.58986,(07)7961566,羅氏家用新冠病毒抗原自我檢測套組,16,2022/04/28 18:02:03,自2／11日~2／29日，營業日08:00~13:00為販賣口罩時間
5907011291,桂林活力藥師藥局鳳山店,高雄市鳳山區中正里瑞興路４８８號１樓,120.3719,22.63089,(07)7012827,羅氏家用新冠病毒抗原自我檢測套組,8,2022/04/28 18:02:03,自營業日販售口罩時間：早上8點半至晚上十點
5907011399,佑家藥師藥局,高雄市鳳山區新強里新富路２８８號１樓,120.3418,22.61265,(07)7673298,羅氏家用新冠病毒抗原自我檢測套組,2,2022/04/28 18:02:03,無
5907030072,旗美藥局,高雄市旗山區東平里延平二路４１號,120.4933,22.882,(07)6629839,羅氏家用新冠病毒抗原自我檢測套組,16,2022/04/28 18:02:03,實名制快篩劑購買時間為下午14:00~20:00
5907030090,睛好活力藥局,高雄市旗山區湄洲里中山路１２７號,120.482,22.88873,(07)6625119,羅氏家用新冠病毒抗原自我檢測套組,8,2022/04/28 18:02:03,無
5907030134,旗山啄木鳥藥局,高雄市旗山區中華路１０５０號,120.4828,22.87904,(07)6625728,羅氏家用新冠病毒抗原自我檢測套組,5,2022/04/28 18:02:03,發口罩時間:09:00-19:00
5907030152,旗山藥局,高雄市旗山區中華路２３號,120.4841,22.88027,(07)6621158,羅氏家用新冠病毒抗原自我檢測套組,31,2022/04/28 18:02:03,快篩實名制，每天16:00開始販售，售完為止。
5907040023,大佳藥局,高雄市美濃區獅山里中華路５９－７號,120.5704,22.87774,(07)6852988,羅氏家用新冠病毒抗原自我檢測套組,9,2022/04/28 18:02:03,營業日 08:30 - 20:00 為口罩販售時間。
5907060221,淑德健保藥局,高雄市大寮區內坑里淑德新村１號３樓,120.3707,22.58833,(07)7923556,羅氏家用新冠病毒抗原自我檢測套組,40,2022/04/28 18:02:03,無
5907070030,久堂藥局,高雄市大樹區久堂里久堂路１３６號１樓,120.4178,22.65813,(07)6512800,羅氏家用新冠病毒抗原自我檢測套組,2,2022/04/28 18:02:03,快篩實名制，每天16:00開始販售，售完為止。
5907080125,仁武丁丁藥局,高雄市仁武區仁和里鳳仁路２１之８號,120.3558,22.6802,(07)3721896,羅氏家用新冠病毒抗原自我檢測套組,2,2022/04/28 18:02:03,自4月1日~4月30日，營業日9:00起為販賣口罩時間，售完為止。
5907110048,和德藥局橋頭店,高雄市橋頭區橋南路１１６－１號,120.3125,22.75441,(07)6113580,羅氏家用新冠病毒抗原自我檢測套組,1,2022/04/28 18:02:03,下午15:00開賣.售完為止
5907110093,順和藥局,高雄市橋頭區仕豐路５號,120.3087,22.75144,(07)6118688,羅氏家用新冠病毒抗原自我檢測套組,62,2022/04/28 18:02:03,自2／11日~2／29日，營業日07:00開始販賣口罩，賣完為止
5907150239,固德藥局,高雄市路竹區金平路３１２號,120.269,22.86954,(07)6978641,羅氏家用新冠病毒抗原自我檢測套組,3,2022/04/28 18:02:03,無
5907240014,博林健保藥局,高雄市內門區觀亭里中正路１６０巷５１號,120.4539,22.9232,(07)6671883,羅氏家用新冠病毒抗原自我檢測套組,23,2022/04/28 18:02:03,自2／11日~2／29日，營業日07:40~18:00為販賣口罩時間，售完為止
5907290112,新高橋藥局華榮店,高雄市鼓山區華榮路２８７號１樓,120.2967,22.66616,(07)5534727,羅氏家用新冠病毒抗原自我檢測套組,1,2022/04/28 18:02:03,下午2:30開始販售口罩
5907290238,聯合藥師藥局,高雄市鼓山區中華一路９７０號１樓,120.2919,22.65515,(07)5500558,羅氏家用新冠病毒抗原自我檢測套組,9,2022/04/28 18:02:03,無
5907290265,新美館藥局,高雄市鼓山區中華一路９７２號,120.2919,22.65513,(07)5522006,羅氏家用新冠病毒抗原自我檢測套組,5,2022/04/28 18:02:03,無
5907290327,金好藥局,高雄市鼓山區青海路４１８號１樓,120.2845,22.65177,(07)5869556,羅氏家用新冠病毒抗原自我檢測套組,4,2022/04/28 18:02:03,無
5907290345,新高橋藥局裕明店,高雄市鼓山區裕誠路１６６８號１樓,120.294,22.66065,(07)5224680,羅氏家用新冠病毒抗原自我檢測套組,1,2022/04/28 18:02:03,連續假期正常營業
5907290354,文昇藥局,高雄市鼓山區慶豐街１２５號,120.2942,22.66724,(07)5525314,羅氏家用新冠病毒抗原自我檢測套組,55,2022/04/28 18:02:03,無
5907300211,勁好健保藥局,高雄市左營區果峰街１２巷２６號１樓,120.2881,22.67178,(07)5855767,羅氏家用新冠病毒抗原自我檢測套組,1,2022/04/28 18:02:03,無
5907300346,正心藥師藥局,高雄市左營區左營大路４７３之２號,120.295,22.68946,(07)5880386,羅氏家用新冠病毒抗原自我檢測套組,2,2022/04/28 18:02:03,無
5907300506,躍獅祐恩藥局,高雄市左營區明華一路１３２號１樓,120.3073,22.66307,(07)5508706,羅氏家用新冠病毒抗原自我檢測套組,78,2022/04/28 18:02:03,4／28-4／29快篩18:30開始販售，5月開始早上9:30開始販售~
5907300631,大樹孟子藥局,高雄市左營區孟子路２２６、２２８號,120.3112,22.67415,(07)3461772,羅氏家用新冠病毒抗原自我檢測套組,1,2022/04/28 18:02:03,快篩實名制，每天16:00開始販售，售完為止。
5907300882,得孚社區藥局,高雄市左營區重立路５３３號１樓,120.3098,22.67955,(07)3410121,羅氏家用新冠病毒抗原自我檢測套組,57,2022/04/28 18:02:03,營業日上午09:30-11:30為販賣口罩時間.售完為止
5907300980,大路藥局,高雄市左營區左營大路５５－２號１樓,120.2877,22.6813,(07)5851001,羅氏家用新冠病毒抗原自我檢測套組,6,2022/04/28 18:02:03,快篩實名制，每天16:00開始販售，售完為止。
5907301012,新高橋藥局華夏店,高雄市左營區華夏路１１１０號,120.3085,22.68343,(07)3410915,羅氏家用新冠病毒抗原自我檢測套組,22,2022/04/28 18:02:03,無
5907310280,久和藥局,高雄市楠梓區德民路１００６－５號,120.2863,22.71906,(07)3659555,羅氏家用新冠病毒抗原自我檢測套組,1,2022/04/28 18:02:03,國定假日休息
5907310388,宸實藥局,高雄市楠梓區後昌路４７巷２３－１號,120.3129,22.71975,(07)3642142,羅氏家用新冠病毒抗原自我檢測套組,7,2022/04/28 18:02:03,無
5907310468,黃藥局,高雄市楠梓區建楠路１８６號１樓,120.3261,22.72716,(07)3515700,羅氏家用新冠病毒抗原自我檢測套組,5,2022/04/28 18:02:03,無
5907320133,莊敬藥局,高雄市三民區大昌一路３２號１樓,120.3278,22.65307,(07)3976079,羅氏家用新冠病毒抗原自我檢測套組,1,2022/04/28 18:02:03,無
5907320768,心樂保健藥局,高雄市三民區光裕路７８號１樓,120.3331,22.63789,(07)3855377,羅氏家用新冠病毒抗原自我檢測套組,3,2022/04/28 18:02:03,星期一到星期四上午8:30-12:00，下午15:00-18:00（口罩售完為止）. 星期五下午14:00-17:00，18:00-20:30（售完為止）
5907320848,仕康健保藥妝藥局,高雄市三民區建興路２２２號,120.325,22.6447,(07)3845050,羅氏家用新冠病毒抗原自我檢測套組,17,2022/04/28 18:02:03,營業至10點.口罩兌換至21:30
5907320893,大樹天祥藥局,高雄市三民區天祥一路１６７號,120.3191,22.66737,(07)3429902,羅氏家用新冠病毒抗原自我檢測套組,1,2022/04/28 18:02:03,快篩實名制，每天16:00開始販售，售完為止。
5907320946,熊安心藥局,高雄市三民區陽明路４０８號,120.3429,22.64609,(07)3815212,羅氏家用新冠病毒抗原自我檢測套組,16,2022/04/28 18:02:03,週一 ~ 週六 AM8:00-PM10:00，快篩分兩梯次販售，14:00有63份，19:00有15份
5907320982,康圓藥局,高雄市三民區大豐二路３５９．３６１號１樓,120.3343,22.6468,(07)3909978,羅氏家用新冠病毒抗原自我檢測套組,14,2022/04/28 18:02:03,無
5907321005,諾亞藥局,高雄市三民區鼎華路１４號１樓,120.3164,22.65139,(07)3929966,羅氏家用新冠病毒抗原自我檢測套組,1,2022/04/28 18:02:03,無
5907321069,桂林活力藥局九如店,高雄市三民區懷安街１１２號１樓,120.3176,22.64095,(07)3981009,羅氏家用新冠病毒抗原自我檢測套組,14,2022/04/28 18:02:03,無
5907321078,振源藥局,高雄市三民區熱河一街３５５號１樓,120.3061,22.64365,(07)3112541,羅氏家用新冠病毒抗原自我檢測套組,11,2022/04/28 18:02:03,營業時間08:30-22:30，六日有營業，全年無休
5907321167,高杏健保藥局,高雄市三民區義華路４３２號,120.3325,22.6437,(07)3920588,羅氏家用新冠病毒抗原自我檢測套組,11,2022/04/28 18:02:03,無
5907350113,英祥藥局,高雄市苓雅區英祥街１９號,120.3257,22.61678,(07)7522786,羅氏家用新冠病毒抗原自我檢測套組,1,2022/04/28 18:02:03,無
5907350220,仁愛藥師藥局,高雄市苓雅區中正一路２３０號,120.3296,22.62921,(07)7222300,羅氏家用新冠病毒抗原自我檢測套組,3,2022/04/28 18:02:03,無
5907350319,御康藥局,高雄市苓雅區光華一路３５號,120.3172,22.61918,(07)3313535,羅氏家用新冠病毒抗原自我檢測套組,1,2022/04/28 18:02:03,無
5907350328,安杏藥局,高雄市苓雅區四維二路９４－１７號,120.3197,22.62273,(07)7511739,羅氏家用新冠病毒抗原自我檢測套組,1,2022/04/28 18:02:03,快篩試劑代售時間自早上9:00點服務
5907350480,健森藥局,高雄市苓雅區林森二路１３８號１、２樓,120.3066,22.62054,(07)3365169,羅氏家用新冠病毒抗原自我檢測套組,4,2022/04/28 18:02:03,早上9點領牌 下午3~5點領口罩
5907350533,健群藥局,高雄市苓雅區安業路４０號,120.3231,22.62731,(07)7150097,羅氏家用新冠病毒抗原自我檢測套組,1,2022/04/28 18:02:03,無
5907350560,成功合豐藥局,高雄市苓雅區成功一路１７０號１樓,120.2972,22.61595,(07)2695657,羅氏家用新冠病毒抗原自我檢測套組,7,2022/04/28 18:02:03,早上9點開始賣口罩~晚上9點   售完為止
5907350659,北京藥局林泉店,高雄市苓雅區林泉里３鄰林泉街３５號１樓,120.3192,22.62323,(07)7263030,羅氏家用新冠病毒抗原自我檢測套組,78,2022/04/28 18:02:03,無
5907360191,欣欣藥局,高雄市前鎮區翠亨北路５７９號,120.3129,22.59226,(07)8124862,羅氏家用新冠病毒抗原自我檢測套組,18,2022/04/28 18:02:03,實名制快篩販售:周一到週六上午8點至12點，周日休息。
5907360226,順康健保藥局,高雄市前鎮區一心二路６７號,120.3099,22.61142,(07)5364438,羅氏家用新冠病毒抗原自我檢測套組,2,2022/04/28 18:02:03,防疫口罩販賣時間，每天早上9點開始，售完為止。
5907360324,有承中西藥局,高雄市前鎮區德昌路２５７號１樓,120.3155,22.5849,(07)8120880,羅氏家用新冠病毒抗原自我檢測套組,2,2022/04/28 18:02:03,政府實名制快篩販售 09:00開始
5907360360,親親藥局,高雄市前鎮區天山路１０巷６號,120.3151,22.60991,(07)3391078,羅氏家用新冠病毒抗原自我檢測套組,28,2022/04/28 18:02:03,防疫期間晚上7:00-8:30
5907360584,聖名健保藥局,高雄市前鎮區復興三路２４６號１樓,120.312,22.61558,(07)3319431,羅氏家用新冠病毒抗原自我檢測套組,4,2022/04/28 18:02:03,無
5907360628,風鈴藥局,高雄市前鎮區管仲路３７號,120.3117,22.60649,(07)5367833,羅氏家用新冠病毒抗原自我檢測套組,5,2022/04/28 18:02:03,販售口罩時間：14:00-16:00（周日公休）
5907380184,桂林活力藥師藥局孔鳳店,高雄市小港區孔鳳路５６１號１樓,120.3586,22.58393,(07)7912331,羅氏家用新冠病毒抗原自我檢測套組,2,2022/04/28 18:02:03,無
5907380353,桂林活力藥師藥局漢民店,高雄市小港區漢民路６９１－１及６９１－２號１樓,120.3614,22.56762,(07)8010636,羅氏家用新冠病毒抗原自我檢測套組,7,2022/04/28 18:02:03,無
5911011469,維元社區藥局,基隆市中正區新豐街４４８號,121.7859,25.13568,(02)24601388,羅氏家用新冠病毒抗原自我檢測套組,72,2022/04/28 18:02:03,營業時間:早上8:30-晚上10:30
5911011478,天康新豐藥局,基隆市中正區新豐街２５１巷４弄９號１樓,121.7885,25.13594,(02)24695168,羅氏家用新冠病毒抗原自我檢測套組,7,2022/04/28 18:02:03,無
5911011521,禎宸藥局,基隆市中正區中正路１７５號１樓,121.7605,25.14233,(02)24620366,羅氏家用新冠病毒抗原自我檢測套組,1,2022/04/28 18:02:03,無
5911011610,躍獅大藥局,基隆市中正區義二路３５號,121.7453,25.1312,(02)24286960,羅氏家用新冠病毒抗原自我檢測套組,78,2022/04/28 18:02:03,營業時間11時-20時假日公休
5911030026,欣華藥局,基隆市暖暖區源遠路１９７號,121.7517,25.09843,(02)24576741,羅氏家用新冠病毒抗原自我檢測套組,5,2022/04/28 18:02:03,10
5911041332,光華藥局,基隆市仁愛區成功一路１２９號１樓,121.7364,25.12786,(02)24338703,羅氏家用新冠病毒抗原自我檢測套組,64,2022/04/28 18:02:03,快篩試劑販賣下午六點發號碼牌完立刻販售
5911041618,永樂藥局,基隆市仁愛區忠二路２２號,121.7401,25.13013,(02)24214878,羅氏家用新冠病毒抗原自我檢測套組,15,2022/04/28 18:02:03,無
5911041878,天康大藥局,基隆市仁愛區南榮路１４９號,121.743,25.12454,(02)77091122,羅氏家用新冠病毒抗原自我檢測套組,1,2022/04/28 18:02:03,無
5911041958,百福仁愛專業藥局,基隆市仁愛區仁四路５０號１樓,121.7413,25.12829,(02)24266699,羅氏家用新冠病毒抗原自我檢測套組,7,2022/04/28 18:02:03,無
5911050162,錦泰藥局,基隆市中山區中山二路４３號,121.7405,25.13786,(02)24228523,羅氏家用新冠病毒抗原自我檢測套組,77,2022/04/28 18:02:03,快篩販賣時間星期一至五晚上7點，星期六下午2點，星期日休息
5911051507,百福安一藥局,基隆市中山區安一路８１號,121.7358,25.1314,(02)24258068,羅氏家用新冠病毒抗原自我檢測套組,5,2022/04/28 18:02:03,每天下午兩點現場代售防疫口罩，售完為止
5911070011,信安藥局,基隆市信義區信二路９９號,121.7548,25.12912,(02)24238551,羅氏家用新冠病毒抗原自我檢測套組,1,2022/04/28 18:02:03,無
5911071483,蘋果藥局,基隆市信義區東明路９７號,121.7614,25.12757,(02)24685158,羅氏家用新冠病毒抗原自我檢測套組,7,2022/04/28 18:02:03,無
5912010528,華安中西藥局,新竹市東區振興里南大路６４８號一樓,120.9627,24.79286,(03)5610088,羅氏家用新冠病毒抗原自我檢測套組,1,2022/04/28 18:02:03,早上8:30販售快篩試劑
5912013207,明湖健保藥局,新竹市東區明湖路３９８號,120.9675,24.78555,(03)5191788,羅氏家用新冠病毒抗原自我檢測套組,23,2022/04/28 18:02:03,無
5912040491,全禾藥局,新竹市北區潛園里集和街２５號,120.9616,24.80483,(03)5249173,羅氏家用新冠病毒抗原自我檢測套組,5,2022/04/28 18:02:03,早上9點半至12點，下午3點至9點
5912042208,芳里藥局,新竹市北區延平路一段214巷2號,120.9544,24.80528,(03)5222989,羅氏家用新冠病毒抗原自我檢測套組,1,2022/04/28 18:02:03,星期日營業時間調整為9:00-18:00
5912042520,盛安藥局,新竹市北區育英里３鄰中山路２８１號,120.9603,24.8012,(03)5225668,羅氏家用新冠病毒抗原自我檢測套組,21,2022/04/28 18:02:03,12:40開始販售快篩劑
5912042815,合康連鎖藥局西大店,新竹市北區西大路６３６、６３８號１樓,120.9585,24.8101,(03)5233111,羅氏家用新冠病毒抗原自我檢測套組,40,2022/04/28 18:02:03,無
5912042986,仁佑藥局,新竹市北區南寮里西濱路一段５００號１樓,120.9342,24.8422,(03)5363818,羅氏家用新冠病毒抗原自我檢測套組,17,2022/04/28 18:02:03,無
5917010126,永大藥局,臺中市中區錦上里民族路１２２號,120.6786,24.14054,(04)22210180,羅氏家用新冠病毒抗原自我檢測套組,5,2022/04/28 18:02:03,09:00開始代售口罩，人多會發號碼牌 （周日休息）
5917011945,正三吉藥局,臺中市中區臺灣大道一段９５號,120.6831,24.13911,(04)22207700,羅氏家用新冠病毒抗原自我檢測套組,7,2022/04/28 18:02:03,快篩販售時間 14:00~17:00
5917020211,何藥局,臺中市東區精武路１８０號１樓,120.691,24.14765,(04)23605435,羅氏家用新冠病毒抗原自我檢測套組,1,2022/04/28 18:02:03,防疫口罩販售早上9:00~晚上10:00販售。
5917020417,群益藥局,臺中市東區東英八街１０６號１樓,120.7067,24.14148,(04)22129298,羅氏家用新冠病毒抗原自我檢測套組,1,2022/04/28 18:02:03,無
5917030860,振聲藥局,臺中市西區公正里向上路１段４４７號１樓,120.6541,24.14654,(04)24721100,羅氏家用新冠病毒抗原自我檢測套組,4,2022/04/28 18:02:03,週一至週六早上9:00開始販售口罩，售完為止
5917032613,向日睽藥局,臺中市西區林森路９８－２號１樓,120.6707,24.1379,(04)23731893,羅氏家用新冠病毒抗原自我檢測套組,1,2022/04/28 18:02:03,每日早上9點開始當場販售口罩.星期日也賣
5917040393,鴻儀大藥局,臺中市南區樹義里大慶街二段３－４號,120.6528,24.11405,(04)22611769,羅氏家用新冠病毒抗原自我檢測套組,5,2022/04/28 18:02:03,周一到周六下午3:00-5:00販賣防疫口罩，周日休息
5917050880,欣康藥局,臺中市北區館前路２１號,120.6657,24.15543,(04)23226837,羅氏家用新冠病毒抗原自我檢測套組,1,2022/04/28 18:02:03,週一至週六上午9時開始發放號碼牌，週日上午10時開始發放號碼牌。
5917050933,英才藥局,臺中市北區英才路２２９號,120.674,24.15558,(04)22012325,羅氏家用新冠病毒抗原自我檢測套組,1,2022/04/28 18:02:03,上午9~10:30及下午5~6:30依序發售口罩，週日公休。
5917052928,盈佑藥局,臺中市北區進化路６３９號１樓,120.6941,24.16091,(04)22376737,羅氏家用新冠病毒抗原自我檢測套組,4,2022/04/28 18:02:03,週一至週五上午9點到下午9點賣口罩 下午12~15點休息週六下午晚上都休息
5917061150,裕和藥局,臺中市西屯區大墩路９５１號１Ｆ,120.652,24.15929,(04)23252629,羅氏家用新冠病毒抗原自我檢測套組,2,2022/04/28 18:02:03,實名制快篩09:00持健保卡購買，若遇系統當機或其他因素則預收健保卡及費用，15:00後取回!星期日休息
5917062353,典安大藥局,臺中市西屯區西屯路３段１５９－６０號,120.6177,24.18807,(04)24616571,羅氏家用新冠病毒抗原自我檢測套組,2,2022/04/28 18:02:03,每天9:30發100份成人.10份兒童口罩   18:30發100份成人.10份兒童口罩
5917063332,新利賀專業藥局,臺中市西屯區河南路２段２９５號,120.6472,24.17334,(04)24525052,羅氏家用新冠病毒抗原自我檢測套組,2,2022/04/28 18:02:03,每週日休診.快篩採領號碼牌預收健保卡.
5917070677,康得美專業藥局,臺中市南屯區忠勇路１２之２６號,120.6119,24.13555,(04)23801185,羅氏家用新冠病毒抗原自我檢測套組,9,2022/04/28 18:02:03,無
5917071727,大愛藥局,臺中市南屯區向心南路９６２．９６４號１樓,120.644,24.13718,(04)24733646,羅氏家用新冠病毒抗原自我檢測套組,48,2022/04/28 18:02:03,每日上午08:30直接發放200份，每星期一公休一天!如還有口罩庫存繼續發放
5917072242,政豐大愛藥局,臺中市南屯區大業路１４５、１４７號１樓,120.6516,24.15344,(04)23274726,羅氏家用新冠病毒抗原自我檢測套組,16,2022/04/28 18:02:03,快篩發放~10:00及18:00兩梯次，現場排隊售完為止
5917072251,五六藥局,臺中市南屯區南屯路２段２４０號,120.6493,24.13696,(04)24757156,羅氏家用新冠病毒抗原自我檢測套組,1,2022/04/28 18:02:03,週一 到 週六，早上 9 : 30 開始販售， 售完為止. （不發號碼牌）
5917080379,大元藥局,臺中市北屯區北屯里昌平路一段２３號,120.6937,24.16657,(04)22357722,羅氏家用新冠病毒抗原自我檢測套組,48,2022/04/28 18:02:03,周一~周六每天18:00至20:00販售快篩劑， ，星期日公休
5917080744,早安藥局,臺中市北屯區崇德二路一段１９９號１樓,120.693,24.17641,(04)22439411,羅氏家用新冠病毒抗原自我檢測套組,2,2022/04/28 18:02:03,3月起周一至周六18:00開始販售口罩，週日全天休息
5917080762,順泰大藥局,臺中市北屯區北屯村北屯路１１５號,120.6939,24.165,(04)22341477,羅氏家用新冠病毒抗原自我檢測套組,33,2022/04/28 18:02:03,周三及周日公休，其餘時間每日上午9:00開賣，不需發號碼牌
5917080888,大華藥局,臺中市北屯區熱河路２段１０９號１樓,120.6873,24.17054,(04)22331721,羅氏家用新冠病毒抗原自我檢測套組,29,2022/04/28 18:02:03,周一至周五1830-2030販售快篩，周六1400-1600販售快篩。周六晚上及周日全天休診。
5917083076,瑞生藥局,臺中市北屯區大連路３段１２６號１樓,120.6948,24.17444,(04)22416759,羅氏家用新冠病毒抗原自我檢測套組,2,2022/04/28 18:02:03,每月固定禮拜天休息，每天早上8點30分準備開始領取口罩；每天早上8:30~晚上10:00，星期日休息
5917083101,北屯德康藥局,臺中市北屯區四平路４６９號１樓,120.681,24.19161,(04)24223378,羅氏家用新冠病毒抗原自我檢測套組,3,2022/04/28 18:02:03,每天早上9點30分發售口罩；前往領藥前先電話洽詢
5917083334,瑞東大藥局,臺中市北屯區東山路一段２４６之３號,120.7179,24.17542,(04)24373799,羅氏家用新冠病毒抗原自我檢測套組,14,2022/04/28 18:02:03,一~五9:00~14:00、15:00~22:00；六日 9:00~14:00、15:00~18:00
5921010107,榮泰藥局,臺南市東區崇誨里林森路２段１９２巷４９號,120.2256,22.98973,(06)2369095,羅氏家用新冠病毒抗原自我檢測套組,1,2022/04/28 18:02:03,AM07:30.---PM09:00.中午12:30.---01:30午休. .星期日休息
5921010205,文成藥局,臺南市東區大學里東寧路４３號之１,120.2212,22.99217,(06)2340860,羅氏家用新冠病毒抗原自我檢測套組,2,2022/04/28 18:02:03,早上10:30至晚上10點     中午2點至3點休息
5921010705,華興藥局,臺南市東區崇善路５６２號,120.2302,22.97076,(06)2683757,羅氏家用新冠病毒抗原自我檢測套組,2,2022/04/28 18:02:03,星期日 休假  111／4／29 111／4／30  早上10點開始
5921012094,王瑞敏藥師藥局,臺南市東區崇德路７３９號,120.2277,22.96801,(06)2896888,羅氏家用新冠病毒抗原自我檢測套組,1,2022/04/28 18:02:03,無
5921020185,安心藥局,臺南市南區喜東里喜樹路１５１巷３３號,120.18,22.94099,(06)2622570,羅氏家用新冠病毒抗原自我檢測套組,78,2022/04/28 18:02:03,無
5921040436,嘉洲藥局,臺南市北區文元里文賢路２４０號,120.1938,23.0153,(06)2583180,羅氏家用新冠病毒抗原自我檢測套組,1,2022/04/28 18:02:03,星期一~六早上8:30營業，星期日早上9:00
5921040678,賀康藥局,臺南市北區公園路７０１號,120.2146,23.0167,(06)2819515,羅氏家用新冠病毒抗原自我檢測套組,1,2022/04/28 18:02:03,快篩試劑下午1點~2點販售
5921040749,玖大藥局,臺南市北區勝利路３８３號,120.2187,23.00397,(06)2752048,羅氏家用新冠病毒抗原自我檢測套組,1,2022/04/28 18:02:03,星期一~六13:00~15:00
5921042145,王大藥局,臺南市北區開元路１５６號,120.2197,23.00691,(06)2086169,羅氏家用新冠病毒抗原自我檢測套組,5,2022/04/28 18:02:03,快篩實名制：週一 至 週六：上午 8:00 ~ 22:00  （ 需健保卡 ）
5921060198,平光藥局,臺南市安南區安中路１段８２２號,120.1947,23.0437,(06)2459641,羅氏家用新冠病毒抗原自我檢測套組,1,2022/04/28 18:02:03,無
5921060385,樂成藥局,臺南市安南區安和路一段１５９巷８３號,120.2115,23.03032,(06)2568576,羅氏家用新冠病毒抗原自我檢測套組,1,2022/04/28 18:02:03,無
5921061757,宏恩藥局,臺南市安南區長溪路１段５２號,120.2118,23.03457,(06)2474513,羅氏家用新冠病毒抗原自我檢測套組,12,2022/04/28 18:02:03,無
5921071226,康活藥局,臺南市安平區健康三街１８６號,120.1686,22.98883,(06)2936483,羅氏家用新冠病毒抗原自我檢測套組,68,2022/04/28 18:02:03,無
5922012285,聖安藥局,嘉義市東區仁武里民權路３６５號１樓,120.4506,23.48235,(05)2222941,羅氏家用新冠病毒抗原自我檢測套組,78,2022/04/28 18:02:03,每日8:30開始發放口罩，每週四休息.
5922012972,百佑藥局,嘉義市東區公明路８２號１樓,120.4602,23.48088,(05)2757387,羅氏家用新冠病毒抗原自我檢測套組,1,2022/04/28 18:02:03,固定周一至周六08:30開始發放號碼牌並依序販售口罩，售完為止
5922013175,森活中西藥局,嘉義市東區吳鳳北路２０８號一樓,120.4533,23.47931,(05)2288518,羅氏家用新冠病毒抗原自我檢測套組,2,2022/04/28 18:02:03,無
5922020456,啄木鳥藥局,嘉義市西區國華里文化路２５３號,120.4488,23.48298,(05)2226497,羅氏家用新冠病毒抗原自我檢測套組,1,2022/04/28 18:02:03,無
5922020509,全德藥局,嘉義市西區福民里興業西路２８９號,120.4392,23.46776,(05)2854263,羅氏家用新冠病毒抗原自我檢測套組,64,2022/04/28 18:02:03,營業時間請電話洽詢，口罩販售：19點~21點
5922020796,佑安藥局,嘉義市西區民權路４２３號１樓,120.4469,23.48185,(05)2278298,羅氏家用新冠病毒抗原自我檢測套組,1,2022/04/28 18:02:03,早上9點排隊預備 視現場情況調整販售
5922020894,平良藥局,嘉義市西區致遠里興業西路８４號１樓,120.4443,23.46856,(05)2235220,羅氏家用新冠病毒抗原自我檢測套組,2,2022/04/28 18:02:03,早上8點-12點  下午3點-6點
5922021006,竹圍藥局,嘉義市西區友愛路２７０、２７２號,120.4339,23.4837,(05)2811233,羅氏家用新冠病毒抗原自我檢測套組,2,2022/04/28 18:02:03,快篩實名制，每天16:00開始販售，售完為止。
5922028596,一安藥局,嘉義市西區福民里興業西路３１１號,120.4387,23.4677,(05)2859275,羅氏家用新冠病毒抗原自我檢測套組,5,2022/04/28 18:02:03,周一至周日早上9點至晚上10點半依發放號碼排依序售完
5931010315,優良藥局,新北市板橋區莊敬路９３號,121.4727,25.02628,(02)22550251,羅氏家用新冠病毒抗原自我檢測套組,19,2022/04/28 18:02:03,無
5931010342,宏達大藥局,新北市板橋區莒光路１７號,121.47,25.02478,(02)22572345,羅氏家用新冠病毒抗原自我檢測套組,75,2022/04/28 18:02:03,快篩 晚上20:00開始販售! 不要打電話來 問題這麼多就到現場 也不給你問
5931010397,正成藥師藥局,新北市板橋區三民路２段１５４巷７號,121.4787,25.01515,(02)29512760,羅氏家用新冠病毒抗原自我檢測套組,2,2022/04/28 18:02:03,無
5931011045,進發大藥局,新北市板橋區民治街１０１號,121.479,25.0315,(02)22528361,羅氏家用新冠病毒抗原自我檢測套組,37,2022/04/28 18:02:03,快篩17:30 販售謝謝
5931012051,全曜藥局,新北市板橋區民權路２６０巷６２號,121.4603,25.01495,(02)29682681,羅氏家用新冠病毒抗原自我檢測套組,70,2022/04/28 18:02:03,9AM-10PM，週六9AM-12AM
5931012060,溪北藥局,新北市板橋區溪北路７８號１樓,121.4281,24.98953,(02)26866528,羅氏家用新冠病毒抗原自我檢測套組,7,2022/04/28 18:02:03,口罩販售時段:早上8點至售完為止
5931013781,佳和藥局,新北市板橋區文化路１段３８７巷５號１樓,121.4667,25.02193,(02)22589598,羅氏家用新冠病毒抗原自我檢測套組,1,2022/04/28 18:02:03,8:30-12:00／15:00-18:00／19:00-22:00
5931014439,旭全藥局,新北市板橋區金門街３３１號,121.4294,24.98582,(02)26860526,羅氏家用新冠病毒抗原自我檢測套組,12,2022/04/28 18:02:03,星期1~6上午9:30~10:30 星期天上午9:30~下午5:00
5931014537,友虹藥師藥局,新北市板橋區國光路１６號,121.457,25.01739,(02)29691181,羅氏家用新冠病毒抗原自我檢測套組,78,2022/04/28 18:02:03,無
5931015187,皇慶藥局,新北市板橋區南門街８１、８３號１、２樓及館前西路１１２巷７號,121.4568,25.0077,(02)29655351,羅氏家用新冠病毒抗原自我檢測套組,1,2022/04/28 18:02:03,現場排隊／號碼牌發放防疫口罩時間自09:00
5931015972,德豐健保藥局,新北市板橋區四川路２段４７巷３弄１號１樓,121.4543,24.99479,(02)89675880,羅氏家用新冠病毒抗原自我檢測套組,4,2022/04/28 18:02:03,無
5931015990,名安藥局,新北市板橋區龍興街５７號(１樓),121.4432,25.00115,(02)82751784,羅氏家用新冠病毒抗原自我檢測套組,32,2022/04/28 18:02:03,無
5931016540,新海藥局,新北市板橋區新海路１２２號１、２樓,121.4612,25.02292,(02)22500190,羅氏家用新冠病毒抗原自我檢測套組,78,2022/04/28 18:02:03,營業時間:9:00~23:00
5931016611,民川藥局,新北市板橋區四川路１段９７號１樓,121.4598,25.00544,(02)29520090,羅氏家用新冠病毒抗原自我檢測套組,1,2022/04/28 18:02:03,星期一~星期六（早上9:00販售快篩38份下午3:00販售40份）
5931017396,美康四維藥局,新北市板橋區四維路１２２號１樓,121.4654,25.02499,(02)22506616,羅氏家用新冠病毒抗原自我檢測套組,2,2022/04/28 18:02:03,上午九點開始發 成人200份 兒童20份 發完為止
5931017529,埔全藥局,新北市板橋區忠孝路３３號（１樓）,121.4608,25.00206,(02)29567309,羅氏家用新冠病毒抗原自我檢測套組,39,2022/04/28 18:02:03,現場號碼牌發放時間:早上09:30及晚上7:00，拿到號碼牌即可購買口罩
5931017547,好爸爸藥局,新北市板橋區民治街１０７號１樓,121.4788,25.03138,(02)22559955,羅氏家用新冠病毒抗原自我檢測套組,1,2022/04/28 18:02:03,無
5931017618,新埔健保藥局,新北市板橋區自由路２號１樓,121.4654,25.02222,(02)22558878,羅氏家用新冠病毒抗原自我檢測套組,37,2022/04/28 18:02:03,無
5931017681,浣熊藥局,新北市板橋區中正路３０１號（１樓）,121.4552,25.01954,(02)29650355,羅氏家用新冠病毒抗原自我檢測套組,2,2022/04/28 18:02:03,無
5931017716,星辰藥局,新北市板橋區實踐路４９號（１樓）,121.4638,25.00679,(02)89521666,羅氏家用新冠病毒抗原自我檢測套組,29,2022/04/28 18:02:03,第一梯次1430  第二梯次1800
5931017770,光環藥局,新北市板橋區光環路２段１６號１樓,121.4822,25.01476,(02)89520920,羅氏家用新冠病毒抗原自我檢測套組,4,2022/04/28 18:02:03,無
5931017814,順儷新板藥局,新北市板橋區漢生東路１８７號１樓,121.4698,25.01181,(02)29512590,羅氏家用新冠病毒抗原自我檢測套組,1,2022/04/28 18:02:03,無
5931017903,吉發藥局,新北市板橋區文化路１段１８８巷５弄１５號（１樓）,121.4674,25.01986,(02)22577381,羅氏家用新冠病毒抗原自我檢測套組,1,2022/04/28 18:02:03,無
5931017976,豐禾藥局,新北市板橋區中山路１段２７９號１樓,121.4696,25.0142,(02)89516666,羅氏家用新冠病毒抗原自我檢測套組,2,2022/04/28 18:02:03,無
5931017994,後埔藥局,新北市板橋區華興街９號（１樓）,121.459,25.00457,(02)89510306,羅氏家用新冠病毒抗原自我檢測套組,13,2022/04/28 18:02:03,無
5931018053,廣福健保藥局,新北市板橋區三民路１段７６號（１樓）,121.4793,25.02207,(02)29544288,羅氏家用新冠病毒抗原自我檢測套組,5,2022/04/28 18:02:03,無
5931018106,力安藥局,新北市板橋區莒光路１９６巷８號（１樓）,121.4738,25.02255,(02)22503349,羅氏家用新冠病毒抗原自我檢測套組,2,2022/04/28 18:02:03,快篩實名制，早上9點依現場順序開始販售快篩，售完為止。
5931018115,振昌藥局,新北市板橋區溪崑二街１４號１樓,121.4288,24.99175,(02)26862119,羅氏家用新冠病毒抗原自我檢測套組,1,2022/04/28 18:02:03,無
5931020400,新迪化中西藥局,新北市三重區三陽路２７號１樓,121.4855,25.05893,(02)29884755,羅氏家用新冠病毒抗原自我檢測套組,4,2022/04/28 18:02:03,無
5931020473,天佑藥局,新北市三重區大同北路８號,121.4954,25.06207,(02)29857456,羅氏家用新冠病毒抗原自我檢測套組,7,2022/04/28 18:02:03,無
5931020866,裕福藥局,新北市三重區長壽西街１４４號,121.4939,25.06661,(02)29831769,羅氏家用新冠病毒抗原自我檢測套組,3,2022/04/28 18:02:03,口罩代售時間自9:00；現場排隊
5931021023,義中藥局,新北市三重區大同北路１０７號,121.4942,25.06421,(02)29815088,羅氏家用新冠病毒抗原自我檢測套組,7,2022/04/28 18:02:03,無
5931021167,禮隆藥局,新北市三重區自強路４段６４號,121.4901,25.07853,(02)29894735,羅氏家用新冠病毒抗原自我檢測套組,8,2022/04/28 18:02:03,無
5931023349,迪化藥局,新北市三重區中華路７７號,121.4836,25.06267,(02)29834445,羅氏家用新冠病毒抗原自我檢測套組,2,2022/04/28 18:02:03,無
5931023527,德慈藥局,新北市三重區重新路３段１６號１樓,121.4951,25.06138,(02)29736693,羅氏家用新冠病毒抗原自我檢測套組,2,2022/04/28 18:02:03,口罩代售時間自13:00-15:00無需領取號碼牌
5931023563,寶貝藥局,新北市三重區仁愛街３０２－１號,121.4921,25.07944,(02)29802190,羅氏家用新冠病毒抗原自我檢測套組,5,2022/04/28 18:02:03,無
5931023581,大重仁藥局,新北市三重區重新路５段５９２號１樓,121.4694,25.04539,(02)29958283,羅氏家用新冠病毒抗原自我檢測套組,20,2022/04/28 18:02:03,無
5931023830,忠信藥局,新北市三重區仁興街３２號,121.4991,25.07552,(02)29762963,羅氏家用新冠病毒抗原自我檢測套組,2,2022/04/28 18:02:03,無
5931024088,美滿藥局,新北市三重區中華路１６號,121.4834,25.0606,(02)89824272,羅氏家用新冠病毒抗原自我檢測套組,20,2022/04/28 18:02:03,4／28 晚上7點發號碼牌4／29起早上9點發號碼牌發完為止
5931024373,予康藥局,新北市三重區文化北路１９８號１樓,121.498,25.06794,(02)89858789,羅氏家用新冠病毒抗原自我檢測套組,6,2022/04/28 18:02:03,（星期日休息
5931024515,陳藥局,新北市三重區三民街７７號,121.4858,25.06293,(02)29848601,羅氏家用新冠病毒抗原自我檢測套組,78,2022/04/28 18:02:03,實名快篩購買時間周一到五晚上7:30~9:00，週六下午4:00~5:30
5931024962,建祥三和藥局,新北市三重區三和路２段１６０號１樓,121.4992,25.06853,(02)29703379,羅氏家用新冠病毒抗原自我檢測套組,1,2022/04/28 18:02:03,實名制快篩10:00發放號碼牌
5931024971,欽勝藥局,新北市三重區重陽路４段６號２樓,121.4906,25.06894,(02)29857389,羅氏家用新冠病毒抗原自我檢測套組,1,2022/04/28 18:02:03,無
5931025290,康新藥局,新北市三重區正義北路１８５號２樓,121.4964,25.06783,(02)29865982,羅氏家用新冠病毒抗原自我檢測套組,8,2022/04/28 18:02:03,實名制口罩代售時段：下午2點到4點。請自備零錢，恕不找零。.
5931025432,利民藥局,新北市三重區自強路１段１７１號、１７３號１樓及２樓,121.4974,25.06685,(02)29852826,羅氏家用新冠病毒抗原自我檢測套組,12,2022/04/28 18:02:03,實名制快篩1030發號碼牌+收費／1500憑號碼牌領快篩
5931025567,閎安藥局,新北市三重區重新路２段８５號１樓、２樓,121.4962,25.06181,(02)29881968,羅氏家用新冠病毒抗原自我檢測套組,4,2022/04/28 18:02:03,每日皆執行調劑業務，口罩代售時間每日下午兩點開始至晚間十點
5931025692,杏一三重集成藥局,新北市三重區集成路４３號１樓,121.4893,25.05271,(02)29743410,羅氏家用新冠病毒抗原自我檢測套組,15,2022/04/28 18:02:03,每日下午三點販售口罩
5931025781,芯慈藥局,新北市三重區永安北路２段１０５號１樓,121.4831,25.08392,(02)28570670,羅氏家用新冠病毒抗原自我檢測套組,1,2022/04/28 18:02:03,國定假日有提供藥劑服務
5931025932,永吉藥局,新北市三重區車路頭街９１號１樓,121.4844,25.07422,(02)22860432,羅氏家用新冠病毒抗原自我檢測套組,2,2022/04/28 18:02:03,快篩實名制，每天16:00開始販售，售完為止。
5931025950,美康三和藥局,新北市三重區三和路４段３２２號１、２樓,121.4841,25.07795,(02)22866858,羅氏家用新冠病毒抗原自我檢測套組,78,2022/04/28 18:02:03,無
5931025969,躍獅欣欣藥局,新北市三重區正義北路２３３號１樓,121.496,25.06915,(02)29816955,羅氏家用新冠病毒抗原自我檢測套組,76,2022/04/28 18:02:03,19:00開始販售實名制快篩
5931026055,芮櫟溪尾大藥局,新北市三重區仁愛街５１６號１樓,121.4871,25.08201,(02)22809009,羅氏家用新冠病毒抗原自我檢測套組,8,2022/04/28 18:02:03,無
5931032811,華特健康藥局,新北市永和區永貞路３６２號１樓,121.5102,25.00667,(02)29264391,羅氏家用新冠病毒抗原自我檢測套組,1,2022/04/28 18:02:03,無
5931033363,保安藥局,新北市永和區保安路２１２號１樓,121.5075,25.01393,(02)29277623,羅氏家用新冠病毒抗原自我檢測套組,1,2022/04/28 18:02:03,口罩代售時間 周一到周六: 09:00、15:30， 19:00。現場排隊發號碼牌
5931033523,永奕藥局,新北市永和區永平路２８６之１號１樓,121.5077,25.01208,(02)22327709,羅氏家用新冠病毒抗原自我檢測套組,4,2022/04/28 18:02:03,無
5931034057,佑全永和中山藥局,新北市永和區中山路１段２２７、２２９、２３１號１樓,121.508,25.00776,(02)22331546,羅氏家用新冠病毒抗原自我檢測套組,8,2022/04/28 18:02:03,無
5931034173,橘子藥局,新北市永和區仁愛路２９８號１樓,121.5035,25.00809,(02)32330390,羅氏家用新冠病毒抗原自我檢測套組,5,2022/04/28 18:02:03,無
5931042326,璟福藥局,新北市中和區安平路７６號１樓,121.511,24.99652,(02)29408669,羅氏家用新冠病毒抗原自我檢測套組,1,2022/04/28 18:02:03,星期一至星期六早上8:30分領口罩領完為止不發號碼牌
5931042648,恩溢藥局,新北市中和區復興路７９號１樓.２樓,121.5035,24.9902,(02)22452450,羅氏家用新冠病毒抗原自我檢測套組,7,2022/04/28 18:02:03,口罩販售:週一-六10:00-21:00；週日15:30-21:00（免號碼牌，免排隊）
5931043047,藥安藥局,新北市中和區廣福路１６號１樓,121.5052,25.00277,(02)22447066,羅氏家用新冠病毒抗原自我檢測套組,2,2022/04/28 18:02:03,星期日公休
5931043109,育新藥局,新北市中和區中安街４０巷６號,121.5127,25.00305,(02)29283479,羅氏家用新冠病毒抗原自我檢測套組,78,2022/04/28 18:02:03,週一、二、三、五、六早上八點開始販售，售完為止（四、日無販賣）
5931043770,宜安健康人生藥局,新北市中和區宜安路１６２號１樓,121.5091,24.99895,(02)29224648,羅氏家用新冠病毒抗原自我檢測套組,6,2022/04/28 18:02:03,無
5931043798,永成藥局,新北市中和區景平路１５６號１樓,121.5176,24.99222,(02)29407619,羅氏家用新冠病毒抗原自我檢測套組,1,2022/04/28 18:02:03,實名制快篩，下午三點領取號碼販售
5931043921,良安藥局,新北市中和區連城路４７７巷１號１樓,121.4833,24.99555,(02)22225798,羅氏家用新冠病毒抗原自我檢測套組,78,2022/04/28 18:02:03,週六日不開店
5931043976,詠邑藥局,新北市中和區南華路４３號１樓,121.5038,24.99671,(02)22445630,羅氏家用新冠病毒抗原自我檢測套組,5,2022/04/28 18:02:03,無
5931044464,健暉藥局,新北市中和區連城路４８７號１樓,121.4829,24.99552,(02)22231437,羅氏家用新冠病毒抗原自我檢測套組,39,2022/04/28 18:02:03,實名快篩 早上10點 39份 ／ 晚上7點 39份 賣完為止
5931044599,成合藥局,新北市中和區景平路４２９之２號１樓,121.5013,24.99545,(02)22483605,羅氏家用新冠病毒抗原自我檢測套組,4,2022/04/28 18:02:03,1月2日~1月8日防疫口罩暫停服務，1月9日正常提供防疫口罩購買服務.
5931044704,惠民藥局,新北市中和區中興街１５３號１樓,121.5001,24.99102,(02)22475303,羅氏家用新冠病毒抗原自我檢測套組,2,2022/04/28 18:02:03,口罩於8:40發放號碼牌，並同時開始領取。
5931044982,萊恩藥局,新北市中和區景安路２０９號１樓,121.5046,24.99192,(02)29468395,羅氏家用新冠病毒抗原自我檢測套組,1,2022/04/28 18:02:03,無
5931045292,福欣藥局,新北市中和區中和路１４８號１樓,121.504,24.99961,(02)22485500,羅氏家用新冠病毒抗原自我檢測套組,39,2022/04/28 18:02:03,實名快篩 早上09點 39份 ／ 晚上7點 39份 賣完為止
5931045309,杏一中和雙和藥局,新北市中和區圓通路２９５之３號１樓,121.4946,24.99191,(02)22436116,羅氏家用新冠病毒抗原自我檢測套組,1,2022/04/28 18:02:03,無
5931051585,益生大藥局,新北市新店區建國路１３２號,121.5391,24.97885,(02)29177961,羅氏家用新冠病毒抗原自我檢測套組,8,2022/04/28 18:02:03,每日12點左右排隊领取口罩，沒有號碼牌
5931051601,昇旺藥局,新北市新店區建國路１０－１號１樓,121.5401,24.97361,(02)86659233,羅氏家用新冠病毒抗原自我檢測套組,2,2022/04/28 18:02:03,無
5931052484,大河藥局,新北市新店區三民路１４０號１樓,121.5351,24.97502,(02)29140910,羅氏家用新冠病毒抗原自我檢測套組,10,2022/04/28 18:02:03,週一至週六下午2點開始發購實名制快篩試劑。限1人1卡購買1份。週日不發購。4／28全數售罄，勿再詢問。
5931052724,合康大藥局,新北市新店區中正路２６３－２號１樓,121.5384,24.97367,(02)29109888,羅氏家用新冠病毒抗原自我檢測套組,4,2022/04/28 18:02:03,上午 8:30 至 晚上 10:30
5931053196,康心藥局,新北市新店區北新路３段１０４號１樓,121.5419,24.9812,(02)86655858,羅氏家用新冠病毒抗原自我檢測套組,8,2022/04/28 18:02:03,無
5931053285,北新212藥局,新北市新店區北新路３段２１２號（２樓）,121.5413,24.98429,(02)29183212,羅氏家用新冠病毒抗原自我檢測套組,72,2022/04/28 18:02:03,無
5931053310,安和藥局,新北市新店區安和路３段１３７號１樓,121.517,24.9853,(02)86685309,羅氏家用新冠病毒抗原自我檢測套組,1,2022/04/28 18:02:03,111年春節連假期間1／31-2／4不營業
5931053347,健詮藥局,新北市新店區建國路１１９號１樓,121.5398,24.97777,(02)29116312,羅氏家用新冠病毒抗原自我檢測套組,2,2022/04/28 18:02:03,無
5931053365,十二願藥局,新北市新店區中正路６８２號１樓,121.5341,24.98998,(02)22181899,羅氏家用新冠病毒抗原自我檢測套組,1,2022/04/28 18:02:03,無
5931053383,大豐藥局,新北市新店區北新路３段５３號之１（１樓）,121.5417,24.9807,(02)89113196,羅氏家用新冠病毒抗原自我檢測套組,3,2022/04/28 18:02:03,無
5931060262,明生藥局,新北市新莊區福樂街１３號,121.4578,25.04504,(02)29913260,羅氏家用新冠病毒抗原自我檢測套組,9,2022/04/28 18:02:03,無
5931060431,武田藥局,新北市新莊區化成路２１２號,121.4657,25.0465,(02)29944029,羅氏家用新冠病毒抗原自我檢測套組,1,2022/04/28 18:02:03,無
5931060824,禮安藥師藥局,新北市新莊區自立街１０９號１樓,121.4555,25.0455,(02)29942891,羅氏家用新冠病毒抗原自我檢測套組,3,2022/04/28 18:02:03,無
5931067136,蒲陽藥局,新北市新莊區中港路５１４號,121.4518,25.05187,(02)29930069,羅氏家用新冠病毒抗原自我檢測套組,2,2022/04/28 18:02:03,無
5931067216,鍵豐藥局,新北市新莊區中和街１５８號１樓,121.4474,25.04878,(02)29917452,羅氏家用新冠病毒抗原自我檢測套組,3,2022/04/28 18:02:03,無
5931067565,豐年藥局,新北市新莊區中正路３７７巷１６號,121.4462,25.03395,(02)22071182,羅氏家用新冠病毒抗原自我檢測套組,1,2022/04/28 18:02:03,無
5931068508,凱盛藥局,新北市新莊區光榮里西盛街１９９號,121.4282,25.01706,(02)22024914,羅氏家用新冠病毒抗原自我檢測套組,4,2022/04/28 18:02:03,無
5931068819,東京大藥局,新北市新莊區民安路１７６號１樓,121.4251,25.02392,(02)22063806,羅氏家用新冠病毒抗原自我檢測套組,2,2022/04/28 18:02:03,口罩代售時間為9:30開始現場排隊販售
5931069372,羽豐藥局,新北市新莊區新莊路３８２號１樓,121.4491,25.03355,(02)22029812,羅氏家用新冠病毒抗原自我檢測套組,78,2022/04/28 18:02:03,不用過卡的醫療口罩整天有，過健保卡口罩限每早9:30至11:40
5931069425,國安藥局,新北市新莊區中和街１５５巷６號１樓,121.4472,25.04979,(02)29938003,羅氏家用新冠病毒抗原自我檢測套組,1,2022/04/28 18:02:03,無
5931069792,宏泰藥局,新北市新莊區自信街３７號１樓,121.4543,25.04863,(02)29964649,羅氏家用新冠病毒抗原自我檢測套組,2,2022/04/28 18:02:03,無
593106A039,大仁藥局,新北市新莊區公園一路３２號１樓,121.4435,25.03531,(02)22776023,羅氏家用新冠病毒抗原自我檢測套組,23,2022/04/28 18:02:03,口罩販售時間:週一至週五（14:00~16:00）週六、週日（公休）。5／1，5／2公休。
593106A155,日榮藥局,新北市新莊區龍安路４６１號１樓,121.4248,25.0186,(02)22051523,羅氏家用新冠病毒抗原自我檢測套組,7,2022/04/28 18:02:03,無
593106A511,明仁健保藥局,新北市新莊區民安西路１９５號１樓,121.4261,25.0151,(02)22085175,羅氏家用新冠病毒抗原自我檢測套組,2,2022/04/28 18:02:03,15:00-18:00販售口罩
593106A566,一心春天藥局,新北市新莊區中和街１３號１樓、地下室,121.4481,25.04342,(02)89929482,羅氏家用新冠病毒抗原自我檢測套組,7,2022/04/28 18:02:03,每日下午3:00開始販售實名制快篩（14:40發號碼牌）
593106A637,薇妮藥妝藥局,新北市新莊區民安路９９號１樓,121.4245,25.02524,(02)82010817,羅氏家用新冠病毒抗原自我檢測套組,16,2022/04/28 18:02:03,早上9:00到晚上23:00購買口罩
593106A726,良和健保藥局,新北市新莊區龍安路４９號１樓,121.4158,25.02151,(02)29048157,羅氏家用新冠病毒抗原自我檢測套組,78,2022/04/28 18:02:03,口罩：早上9點發號碼牌，星期六休息不代售口罩
593106A735,樂家藥局,新北市新莊區中平路２７３號１樓,121.4447,25.04995,(02)29960723,羅氏家用新冠病毒抗原自我檢測套組,2,2022/04/28 18:02:03,無
593106A824,家禾藥局,新北市新莊區立信五街６號１樓,121.4445,25.05148,(02)29972121,羅氏家用新冠病毒抗原自我檢測套組,34,2022/04/28 18:02:03,無
593106A897,陽光豐年藥局,新北市新莊區豐年街１４號１樓,121.4463,25.03287,(02)22060665,羅氏家用新冠病毒抗原自我檢測套組,51,2022/04/28 18:02:03,無
593106A922,德翰藥局,新北市新莊區四維路１７１巷１、３號１樓,121.4226,25.0215,(02)22025576,羅氏家用新冠病毒抗原自我檢測套組,6,2022/04/28 18:02:03,無
593106A995,美德心藥局,新北市新莊區中平路３６７號１樓,121.4446,25.05226,(02)29989025,羅氏家用新冠病毒抗原自我檢測套組,6,2022/04/28 18:02:03,無
593106B027,樂福藥局,新北市新莊區幸福路４８號１樓、幸福路６４巷２弄１６號１樓,121.4577,25.04953,(02)29923388,羅氏家用新冠病毒抗原自我檢測套組,4,2022/04/28 18:02:03,快篩每日上午11點發放號碼牌 下午2:30開始依號碼牌時間領取
593106B036,家嘉藥局,新北市新莊區自立街１０３號（１樓）,121.4553,25.04549,(02)89926488,羅氏家用新冠病毒抗原自我檢測套組,5,2022/04/28 18:02:03,無
593106B045,力源藥局,新北市新莊區復興路２段１３３號１樓,121.4572,25.04452,(02)89929919,羅氏家用新冠病毒抗原自我檢測套組,3,2022/04/28 18:02:03,無
593106B072,小林健保藥局,新北市新莊區昌明街３８之１號１樓,121.4565,25.05237,(02)29911764,羅氏家用新冠病毒抗原自我檢測套組,78,2022/04/28 18:02:03,無
593106B081,平安藥局,新北市新莊區民安西路６０號２樓,121.4273,25.02037,(02)22082368,羅氏家用新冠病毒抗原自我檢測套組,31,2022/04/28 18:02:03,無
593106B205,藥師佛藥局,新北市新莊區中正路８８１之４號１樓,121.4175,25.02544,(02)29016625,羅氏家用新冠病毒抗原自我檢測套組,78,2022/04/28 18:02:03,無
593106B214,微笑埔銓藥局,新北市新莊區中平路７７號（１樓、２樓）,121.4447,25.04507,(02)29901680,羅氏家用新冠病毒抗原自我檢測套組,38,2022/04/28 18:02:03,無
593106B232,新康健保藥局,新北市新莊區自立街１７２號１樓,121.4557,25.04537,(02)29962558,羅氏家用新冠病毒抗原自我檢測套組,3,2022/04/28 18:02:03,快篩販售時間14:00-15:00
593106B241,善美藥局,新北市新莊區公園路８９號１樓,121.4546,25.04041,(02)29960979,羅氏家用新冠病毒抗原自我檢測套組,22,2022/04/28 18:02:03,無
593106B296,廣元藥局,新北市新莊區雙鳳路２號（１樓）,121.4175,25.02688,(02)29044948,羅氏家用新冠病毒抗原自我檢測套組,2,2022/04/28 18:02:03,無
593106B303,新莊丁丁藥局,新北市新莊區民安西路２３７號１樓,121.4261,25.01398,(02)22022388,羅氏家用新冠病毒抗原自我檢測套組,5,2022/04/28 18:02:03,無
593106B330,和昌藥局,新北市新莊區中安街１５號１樓,121.4531,25.04585,(02)29900669,羅氏家用新冠病毒抗原自我檢測套組,78,2022/04/28 18:02:03,無
5931070062,鴻真藥局,新北市樹林區保安街１段２０巷６號,121.4277,24.99363,(02)26828977,羅氏家用新冠病毒抗原自我檢測套組,1,2022/04/28 18:02:03,無
5931070099,日弘藥師藥局,新北市樹林區復興路２９號,121.4223,24.9941,(02)26871919,羅氏家用新冠病毒抗原自我檢測套組,12,2022/04/28 18:02:03,早08:45 發放號碼牌
5931071916,立欣藥局,新北市樹林區三福街１６６號,121.4047,25.01619,(02)26764728,羅氏家用新冠病毒抗原自我檢測套組,3,2022/04/28 18:02:03,口罩代售時間 每日下午14:30 號碼牌發放時間14:20 現場排隊
5931071934,樹新藥局,新北市樹林區樹新路３０－３號１樓,121.4272,24.99462,(02)26821080,羅氏家用新冠病毒抗原自我檢測套組,1,2022/04/28 18:02:03,無
5931071970,保康藥局,新北市樹林區保安街１段３６４號,121.4176,24.99856,(02)86875503,羅氏家用新冠病毒抗原自我檢測套組,1,2022/04/28 18:02:03,無
5931072244,彰安藥局,新北市樹林區千歲街８２號,121.4264,24.99772,(02)26827341,羅氏家用新冠病毒抗原自我檢測套組,2,2022/04/28 18:02:03,無
5931072253,活水藥局,新北市樹林區鎮前街２１號１樓,121.4259,24.99255,(02)26818928,羅氏家用新冠病毒抗原自我檢測套組,1,2022/04/28 18:02:03,無
5931072404,伯安綜合藥局,新北市樹林區中華路１０８號１樓,121.4183,24.98074,(02)86856551,羅氏家用新冠病毒抗原自我檢測套組,11,2022/04/28 18:02:03,初一至初五春節休息
5931072422,三樹食在好健康藥局,新北市樹林區學成路６００號１樓,121.3818,24.94584,(02)26807101,羅氏家用新冠病毒抗原自我檢測套組,77,2022/04/28 18:02:03,無
5931081216,嘉泰藥師藥局,新北市鶯歌區鶯桃路２段３１號１樓,121.3254,24.97248,(02)26709668,羅氏家用新冠病毒抗原自我檢測套組,78,2022/04/28 18:02:03,星期日公休
5931081378,鶯歌宏達藥局,新北市鶯歌區國慶街１３８號１樓,121.3508,24.95347,(02)26709693,羅氏家用新冠病毒抗原自我檢測套組,3,2022/04/28 18:02:03,口罩發放時間下午2-4點，人力不足其他時段沒辦法供應
5931081396,祐康藥局,新北市鶯歌區建國路３６號,121.356,24.95596,(02)26771223,羅氏家用新冠病毒抗原自我檢測套組,78,2022/04/28 18:02:03,無
5931081403,純安大藥局,新北市鶯歌區國慶街１７９號１樓,121.3514,24.9527,(02)26791791,羅氏家用新冠病毒抗原自我檢測套組,78,2022/04/28 18:02:03,快篩代售時間:20:00販售。星期日不銷售
5931081458,食在好健康藥局,新北市鶯歌區國慶街１６５號１樓,121.3512,24.95312,(02)26702559,羅氏家用新冠病毒抗原自我檢測套組,78,2022/04/28 18:02:03,無
5931081494,康群藥局,新北市鶯歌區建國路２０２號１樓,121.3494,24.95357,(02)26796690,羅氏家用新冠病毒抗原自我檢測套組,78,2022/04/28 18:02:03,*星期五休診不發放口罩，其餘上班日上午九點開始發放*現場排隊
5931081547,信義健保藥局,新北市鶯歌區信義街６３號１樓,121.3534,24.95571,(02)86775563,羅氏家用新冠病毒抗原自我檢測套組,51,2022/04/28 18:02:03,無
5931091865,大新藥局,新北市三峽區大義路２５９號１樓,121.3774,24.94638,(02)86713204,羅氏家用新冠病毒抗原自我檢測套組,2,2022/04/28 18:02:03,無
5931092200,金美藥局,新北市三峽區大同路２３８號１樓,121.3663,24.92573,(02)86715859,羅氏家用新冠病毒抗原自我檢測套組,78,2022/04/28 18:02:03,無
5931092219,北大藥局,新北市三峽區大義路９號１樓,121.3788,24.94372,(02)26738535,羅氏家用新冠病毒抗原自我檢測套組,39,2022/04/28 18:02:03,快篩發放時段下午1點-2點 晚上9:30-11:00
5931100047,松和大藥局,新北市淡水區英專路９２號,121.4459,25.17167,(02)26203698,羅氏家用新冠病毒抗原自我檢測套組,1,2022/04/28 18:02:03,口罩代售時間自12:00  無發放號碼牌
5931100154,尚運藥局,新北市淡水區學府路５１巷１弄２０號,121.4473,25.16892,(02)26225149,羅氏家用新冠病毒抗原自我檢測套組,31,2022/04/28 18:02:03,無
5931100163,昇運藥局,新北市淡水區中山路１５７－１號,121.4405,25.17287,(02)26222083,羅氏家用新冠病毒抗原自我檢測套組,2,2022/04/28 18:02:03,無
5931101704,聖天藥局,新北市淡水區重建街２１８號,121.4413,25.1748,(02)26215677,羅氏家用新冠病毒抗原自我檢測套組,9,2022/04/28 18:02:03,實名制快篩試劑早上9:00販售 星期日休息
5931101937,文川藥局,新北市淡水區中山北路１段９３號１樓,121.4423,25.17631,(02)86319033,羅氏家用新冠病毒抗原自我檢測套組,14,2022/04/28 18:02:03,販售防疫口罩時間8:30-12:00，15:00-18:00，18:30-21:30
5931102434,西雅圖聯合藥局,新北市淡水區新市一路３段１０１巷１６弄２０號１樓,121.4471,25.18403,(02)26200910,羅氏家用新冠病毒抗原自我檢測套組,3,2022/04/28 18:02:03,無
5931110034,麒豐藥局,新北市汐止區樟樹一路１３５巷２號,121.6421,25.0656,(02)26434737,羅氏家用新冠病毒抗原自我檢測套組,2,2022/04/28 18:02:03,實名制口罩銷售時間9:30~21:00
5931111844,福恩藥師大藥局,新北市汐止區福德二路１７１之１號１樓,121.6307,25.06506,(02)26940835,羅氏家用新冠病毒抗原自我檢測套組,78,2022/04/28 18:02:03,無
5931112083,裕和藥局,新北市汐止區宜興街４號１樓,121.6211,25.04126,(02)26609119,羅氏家用新冠病毒抗原自我檢測套組,75,2022/04/28 18:02:03,早上9.30-晚上9.00領實名制口罩時間
5931112645,健成藥局,新北市汐止區新興路２０號１樓,121.6564,25.06456,(02)26428989,羅氏家用新冠病毒抗原自我檢測套組,6,2022/04/28 18:02:03,無
5931113133,祐欣藥局,新北市汐止區中興路２４０號１樓,121.6296,25.06805,(02)26950778,羅氏家用新冠病毒抗原自我檢測套組,2,2022/04/28 18:02:03,無
5931113142,林美藥局,新北市汐止區康寧街４６５號１樓,121.6318,25.06839,(02)26935696,羅氏家用新冠病毒抗原自我檢測套組,36,2022/04/28 18:02:03,無
5931120049,本平藥局,新北市瑞芳區瑞芳街４５號,121.8076,25.10913,(02)24972167,羅氏家用新冠病毒抗原自我檢測套組,10,2022/04/28 18:02:03,無
5931121279,大埔藥局,新北市瑞芳區大埔路１２８－３號１樓,121.762,25.10079,(02)24587020,羅氏家用新冠病毒抗原自我檢測套組,69,2022/04/28 18:02:03,無
5931130205,瑞益藥局,新北市土城區廣明街６３巷４號,121.4546,24.99356,(02)89668598,羅氏家用新冠病毒抗原自我檢測套組,23,2022/04/28 18:02:03,9:30開始賣口罩
5931130358,盛安大藥局,新北市土城區中央路１段２５８號,121.4442,24.98436,(02)22668525,羅氏家用新冠病毒抗原自我檢測套組,1,2022/04/28 18:02:03,無
5931132138,心中外藥局,新北市土城區中央路２段１５７號,121.4421,24.97649,(02)22603023,羅氏家用新冠病毒抗原自我檢測套組,2,2022/04/28 18:02:03,口罩販賣時段:上午9點起至售完為止
5931132245,萬昌健保藥局,新北市土城區中央路４段１６０號,121.417,24.95827,(02)22678057,羅氏家用新冠病毒抗原自我檢測套組,78,2022/04/28 18:02:03,3月2日起周一至周五15:00發號碼牌及販賣口罩  周六 10:00直接販售
5931132343,誠安藥局,新北市土城區中央路４段３６號１樓,121.4207,24.96088,(02)22677737,羅氏家用新冠病毒抗原自我檢測套組,72,2022/04/28 18:02:03,執業時段請電洽藥局
5931132389,凱一藥局,新北市土城區裕民路９２巷２１弄８號１樓,121.4501,24.98629,(02)22707679,羅氏家用新冠病毒抗原自我檢測套組,78,2022/04/28 18:02:03,服務時間10:00~21:00，每週二休息
5931133126,成康藥局,新北市土城區學府路１段１８８號１樓,121.4532,24.98614,(02)22706596,羅氏家用新冠病毒抗原自我檢測套組,1,2022/04/28 18:02:03,春節期間看診時段請電洽
5931133331,城安大藥局,新北市土城區金城路３段４０號,121.4656,24.98639,(02)22646561,羅氏家用新冠病毒抗原自我檢測套組,27,2022/04/28 18:02:03,無
5931133500,菩提藥局,新北市土城區延和路１１４號１樓,121.4673,24.98988,(02)22624866,羅氏家用新冠病毒抗原自我檢測套組,64,2022/04/28 18:02:03,無
5931133671,升立藥局,新北市土城區明德路２段１９５號１樓,121.4471,24.98333,(02)22605158,羅氏家用新冠病毒抗原自我檢測套組,36,2022/04/28 18:02:03,無
5931133680,土城金城藥局,新北市土城區裕民路２８０號１、２樓,121.4554,24.982,(02)22631616,羅氏家用新冠病毒抗原自我檢測套組,1,2022/04/28 18:02:03,快篩實名制，每天16:00開始販售，售完為止。
5931141726,松展多利日式連鎖藥粧藥局,新北市蘆洲區民族路１６１號,121.4793,25.08817,(02)22882586,羅氏家用新冠病毒抗原自我檢測套組,33,2022/04/28 18:02:03,防疫物資每日下午02:00開始販售40組 下午8:30販售餘額
5931142296,蓁美健康藥局,新北市蘆洲區九芎街９０巷２１號,121.4647,25.08116,(02)22827527,羅氏家用新冠病毒抗原自我檢測套組,3,2022/04/28 18:02:03,上午10點至晚上10點銷售口罩
5931143284,宥安藥局,新北市蘆洲區長榮路３８１號２樓,121.4592,25.08947,(02)22823556,羅氏家用新冠病毒抗原自我檢測套組,14,2022/04/28 18:02:03,無
5931143328,全家藥粧藥局,新北市蘆洲區光華路４號１樓,121.4699,25.08364,(02)22811215,羅氏家用新冠病毒抗原自我檢測套組,7,2022/04/28 18:02:03,無
5931143364,光禾藥局,新北市蘆洲區民權路１２２號１樓,121.4734,25.08868,(02)28480050,羅氏家用新冠病毒抗原自我檢測套組,6,2022/04/28 18:02:03,無
5931151277,永任藥局,新北市五股區水碓路９號１樓,121.4336,25.07236,(02)22911093,羅氏家用新冠病毒抗原自我檢測套組,5,2022/04/28 18:02:03,無
5931151302,宏安藥局,新北市五股區成泰路２段１３６號,121.4382,25.08369,(02)22915932,羅氏家用新冠病毒抗原自我檢測套組,13,2022/04/28 18:02:03,口罩販售時間:每日08:15~23:00售完為止 星期日如果前一日還有庫存，當日照常販售
5931151482,源昇藥局,新北市五股區五股里成泰路２段６１號２樓,121.4379,25.0836,(02)82952027,羅氏家用新冠病毒抗原自我檢測套組,1,2022/04/28 18:02:03,無
5931151599,闔安藥局,新北市五股區成德里成泰路３段５７９號１樓,121.4522,25.10267,(02)22921143,羅氏家用新冠病毒抗原自我檢測套組,78,2022/04/28 18:02:03,無
5931151679,東興藥局,新北市五股區成泰路２段６９號２樓,121.4389,25.08635,(02)82922718,羅氏家用新冠病毒抗原自我檢測套組,3,2022/04/28 18:02:03,無
5931160132,健康藥師藥局,新北市泰山區明志路２段３２３號,121.4264,25.046,(02)22972121,羅氏家用新冠病毒抗原自我檢測套組,30,2022/04/28 18:02:03,9:00發放號碼牌，當日22:00前持號碼牌領口罩。周日公休
5931161353,台灣藥局,新北市泰山區明志路１段２８２－２８６號,121.4319,25.06002,(02)22971969,羅氏家用新冠病毒抗原自我檢測套組,3,2022/04/28 18:02:03,無
5931161620,華特藥局,新北市泰山區明志路１段２６０號１樓,121.4321,25.06052,(02)29095662,羅氏家用新冠病毒抗原自我檢測套組,78,2022/04/28 18:02:03,實名制晚上7:00開始販售 每日限60組，另18組供給確診居家個案緊急使用
5931170165,龍點藥局,新北市林口區民族路６７號１樓,121.3655,25.07532,(02)26080636,羅氏家用新冠病毒抗原自我檢測套組,42,2022/04/28 18:02:03,無
5931171251,喜樂藥師藥局,新北市林口區麗林里公園路１５號１樓,121.3665,25.06762,(02)26005566,羅氏家用新冠病毒抗原自我檢測套組,2,2022/04/28 18:02:03,快篩實名制，每天14:00開始販售，售完為止
5931171411,康旭藥局,新北市林口區麗園一街６巷９號１樓－３,121.3751,25.07145,(02)26007808,羅氏家用新冠病毒抗原自我檢測套組,30,2022/04/28 18:02:03,口罩販賣時間：星期一到星期六08:00-17:30，售完為止。（星期日暫停販售）
5931171582,綠園藥局,新北市林口區仁愛路２段１０５號１樓,121.3843,25.07507,(02)86012258,羅氏家用新冠病毒抗原自我檢測套組,6,2022/04/28 18:02:03,上午8:30-12:00、下午2:30-18:00、晚上18:00-21:30
5931171680,一家好藥局,新北市林口區中山路５００號,121.3794,25.08303,(02)26028270,羅氏家用新冠病毒抗原自我檢測套組,78,2022/04/28 18:02:03,無
5931171822,榮昌藥局,新北市林口區仁愛路１段４１０號１樓,121.3867,25.07683,(02)26011312,羅氏家用新冠病毒抗原自我檢測套組,1,2022/04/28 18:02:03,無
5931171831,沐霖藥局,新北市林口區文化三路２段２８６號１樓,121.3775,25.08304,(02)26032086,羅氏家用新冠病毒抗原自我檢測套組,47,2022/04/28 18:02:03,無
5931181104,介新大藥局,新北市深坑區文化街９４號,121.6172,25.002,(02)26648149,羅氏家用新冠病毒抗原自我檢測套組,78,2022/04/28 18:02:03,執業時段請電洽藥局
5931190514,碇康藥局,新北市石碇區潭邊里石崁２４－１號,121.658,24.99424,(02)26634229,羅氏家用新冠病毒抗原自我檢測套組,156,2022/04/28 18:02:03,無
5931211045,三芝藥師藥局,新北市三芝區中正路１段４３號１樓,121.5032,25.25816,(02)86353982,羅氏家用新冠病毒抗原自我檢測套組,234,2022/04/28 18:02:03,無
5931250015,松南藥局,新北市雙溪區中華路２９號,121.8658,25.03728,(02)24931085,羅氏家用新冠病毒抗原自我檢測套組,235,2022/04/28 18:02:03,週一至週五營業至晚上21點.週六至20點週日至12點
5931250042,信芳藥局,新北市雙溪區中華路５０號,121.866,25.03761,(02)24931301,羅氏家用新冠病毒抗原自我檢測套組,234,2022/04/28 18:02:03,無
5931270026,仁又堂藥局,新北市金山區信義路１７號,121.6373,25.22091,(02)24982468,羅氏家用新冠病毒抗原自我檢測套組,234,2022/04/28 18:02:03,無
5931270044,金宏仁藥局,新北市金山區中山路１９０巷２號,121.6382,25.22174,(02)24982402,羅氏家用新冠病毒抗原自我檢測套組,234,2022/04/28 18:02:03,無
5931280013,萬里藥局,新北市萬里區瑪鍊路９０號,121.6837,25.18504,(02)24922235,羅氏家用新冠病毒抗原自我檢測套組,234,2022/04/28 18:02:03,無
5931281074,北海岸藥局,新北市萬里區瑪鍊路９８號,121.6906,25.17868,(02)24922022,羅氏家用新冠病毒抗原自我檢測套組,234,2022/04/28 18:02:03,6／25.26.27早上8:00-12:00拿藥，下午休診
5932010202,安琪兒藥局,桃園市桃園區莊敬路二段７６號１樓,121.2934,25.02282,(03)3016965,羅氏家用新冠病毒抗原自我檢測套組,38,2022/04/28 18:02:03,無
5932010328,七加恩聯合藥局,桃園市桃園區中埔二街１２３號１樓,121.2959,25.01191,(03)3029302,羅氏家用新冠病毒抗原自我檢測套組,20,2022/04/28 18:02:03,無
5932011147,維格藥局,桃園市桃園區大興西路二段１２９號,121.2974,25.01048,(03)3016639,羅氏家用新冠病毒抗原自我檢測套組,1,2022/04/28 18:02:03,營業時間:8:30-12:00、14:00-22:00
5932011370,家福聯合藥局,桃園市桃園區中山路６２３號,121.2939,24.99093,(03)2289492,羅氏家用新冠病毒抗原自我檢測套組,7,2022/04/28 18:02:03,無
5932012359,長鴻藥師藥局,桃園市桃園區中興里永安路２７７之５號,121.3018,24.99898,(03)3324728,羅氏家用新冠病毒抗原自我檢測套組,36,2022/04/28 18:02:03,快篩實名制 銷售時間 9:00~22:30
5932012402,聖昌藥師藥局,桃園市桃園區莊敬里中正路１２３８號１樓,121.2975,25.01898,(03)3266654,羅氏家用新冠病毒抗原自我檢測套組,1,2022/04/28 18:02:03,每日早上8:20開始賣快篩試劑
5932012493,吉生藥局,桃園市桃園區延平路３２號,121.3141,24.98537,(03)3626220,羅氏家用新冠病毒抗原自我檢測套組,1,2022/04/28 18:02:03,實名制快篩試劑每日10點開賣，現場排隊，售完為止
5932012591,迦南藥局,桃園市桃園區國聖一街６１號１樓之１,121.2885,24.98721,(03)3609938,羅氏家用新冠病毒抗原自我檢測套組,75,2022/04/28 18:02:03,無
5932013007,南門藥局,桃園市桃園區南華街５３號,121.3083,24.99047,(03)3335395,羅氏家用新冠病毒抗原自我檢測套組,20,2022/04/28 18:02:03,口罩放賣時段：上午09：00起至售完為止
5932013338,合豐藥局,桃園市桃園區中山東路８２號,121.3176,24.99664,(03)3394007,羅氏家用新冠病毒抗原自我檢測套組,4,2022/04/28 18:02:03,口罩販售時間：週一至週日
5932013409,欣立藥局,桃園市桃園區龍安街１８１－１號１樓,121.2782,24.99294,(03)3792001,羅氏家用新冠病毒抗原自我檢測套組,78,2022/04/28 18:02:03,口罩代售時間：早上9點至晚上10點。中午12點至3點休息。售完為止。
5932013856,大滝藥局,桃園市桃園區龍壽街７４－２號,121.269,24.97999,(03)3607258,羅氏家用新冠病毒抗原自我檢測套組,77,2022/04/28 18:02:03,無
5932013918,益壽藥局,桃園市桃園區中山路８２８、８３０、８３２、８３４、８３６號,121.2902,24.99093,(03)3693100,羅氏家用新冠病毒抗原自我檢測套組,1,2022/04/28 18:02:03,快篩實名制，每天16:00開始販售，售完為止。
5932013972,合祥藥局,桃園市桃園區國際路二段８號１樓,121.2886,24.99044,(03)3703010,羅氏家用新冠病毒抗原自我檢測套組,5,2022/04/28 18:02:03,口罩售完為止
5932014031,大廟藥局,桃園市桃園區中山路１５８號１樓,121.3091,24.99342,(03)3337006,羅氏家用新冠病毒抗原自我檢測套組,3,2022/04/28 18:02:03,無
5932014120,尚禾藥局,桃園市桃園區大業路１段２９２號１樓,121.3148,25.00932,(03)3256998,羅氏家用新冠病毒抗原自我檢測套組,11,2022/04/28 18:02:03,無
5932014148,躍獅興業藥局,桃園市桃園區大業路２段１５號１樓,121.3112,25.01628,(03)3163569,羅氏家用新冠病毒抗原自我檢測套組,3,2022/04/28 18:02:03,08:30-21:30
5932014157,愛兒康藥局,桃園市桃園區龍安街１４７號１樓,121.2794,24.99127,(03)3789142,羅氏家用新冠病毒抗原自我檢測套組,1,2022/04/28 18:02:03,營業時間AM:900-PM23:00
5932014166,華康中西藥局,桃園市桃園區中埔六街３號１號,121.2964,25.01549,(03)3166920,羅氏家用新冠病毒抗原自我檢測套組,1,2022/04/28 18:02:03,營業時間:週一~周六:9:00-21:30。週日10:00-18:30 （實名制快篩14:40發號碼牌／15:00開始販售）
5932014175,東門大藥局,桃園市桃園區春日路７５號,121.3169,24.99305,(03)3378919,羅氏家用新冠病毒抗原自我檢測套組,3,2022/04/28 18:02:03,無
5932014228,復興大藥局,桃園市桃園區復興路４３號１樓,121.3168,24.9908,(03)3398979,羅氏家用新冠病毒抗原自我檢測套組,21,2022/04/28 18:02:03,無
5932014291,躍獅民生藥局,桃園市桃園區民生路２２８號１樓,121.313,24.99472,(03)3362359,羅氏家用新冠病毒抗原自我檢測套組,7,2022/04/28 18:02:03,下午1點開始販售，會發號碼牌
5932014326,闔新藥局,桃園市桃園區中正路５７６號１樓,121.3054,25.00388,(03)3317279,羅氏家用新冠病毒抗原自我檢測套組,1,2022/04/28 18:02:03,營業時間:9:00-21:00
5932014399,澄心藥局,桃園市桃園區桃鶯路３０５號１樓,121.3193,24.98265,(03)3771468,羅氏家用新冠病毒抗原自我檢測套組,10,2022/04/28 18:02:03,營業時間:8:00-22:00
5932014433,樺品藥局,桃園市桃園區中華路４８號１樓,121.3104,24.99093,(03)3476667,羅氏家用新冠病毒抗原自我檢測套組,5,2022/04/28 18:02:03,營業時間:9:30-21:30，取號碼牌購買快篩試劑
5932014442,新光藥局,桃園市桃園區大有路１７２號,121.3209,25.00752,(03)3310133,羅氏家用新冠病毒抗原自我檢測套組,6,2022/04/28 18:02:03,營業時間:10:00-22:00
5932018593,品一藥局,桃園市桃園區建新街７６號,121.3118,24.98261,(03)3638510,羅氏家用新冠病毒抗原自我檢測套組,4,2022/04/28 18:02:03,快篩每天早上9：30販賣，會發號碼牌
5932018940,均安藥局,桃園市桃園區寶山街６１號,121.3172,25.01231,(03)3581695,羅氏家用新冠病毒抗原自我檢測套組,43,2022/04/28 18:02:03,防疫口罩上午9:00-12:00下午3:00-6:00
5932019143,弘光藥師藥局,桃園市桃園區國際路一段１１３５號,121.2891,24.98774,(03)2170167,羅氏家用新冠病毒抗原自我檢測套組,13,2022/04/28 18:02:03,無
593201A284,康泰藥局,桃園市桃園區大業路一段三二三號,121.3127,25.01136,(03)3588299,羅氏家用新冠病毒抗原自我檢測套組,3,2022/04/28 18:02:03,早上8:50 開始發號碼牌，20:00前購買
593201A506,永忻藥局,桃園市桃園區大興路一九三號一樓,121.312,25.01564,(03)3585569,羅氏家用新冠病毒抗原自我檢測套組,2,2022/04/28 18:02:03,口罩販賣時段：週一~週六 15:00~1700
593201A631,大國民藥局,桃園市桃園區中正路５７８號１樓,121.3053,25.00403,(03)3355575,羅氏家用新冠病毒抗原自我檢測套組,1,2022/04/28 18:02:03,無
5932020360,日進藥局,桃園市中壢區中山東路二段１５６號,121.2394,24.95276,(03)4569132,羅氏家用新冠病毒抗原自我檢測套組,1,2022/04/28 18:02:03,營業時間:早上08:30至晚上09:30（周日下午休息）
5932020502,禾安藥局,桃園市中壢區福德路５２號１F,121.2587,24.97445,(03)4627066,羅氏家用新冠病毒抗原自我檢測套組,2,2022/04/28 18:02:03,無
5932021045,井田藥局,桃園市中壢區東興里中北路二段八號一樓,121.2233,24.94962,(03)4572003,羅氏家用新冠病毒抗原自我檢測套組,2,2022/04/28 18:02:03,口罩販賣時段：等有空閒就賣
5932021090,新生藥師藥局,桃園市中壢區民權路５２號,121.2172,24.95608,(03)4919796,羅氏家用新冠病毒抗原自我檢測套組,11,2022/04/28 18:02:03,口罩販賣時段：08:30
5932021214,新象藥局,桃園市中壢區元化路６２號,121.2276,24.95767,(03)4277585,羅氏家用新冠病毒抗原自我檢測套組,1,2022/04/28 18:02:03,口罩販賣時段：週一至週六 上午8:00 週日例假日下午15:00
5932021812,慧中健保藥局,桃園市中壢區成章二街１４１號１樓,121.2568,24.98025,(03)4556129,羅氏家用新冠病毒抗原自我檢測套組,45,2022/04/28 18:02:03,無
5932022257,星康生活藥局,桃園市中壢區中美路二段94號,121.2218,24.96005,(03)4252869,羅氏家用新冠病毒抗原自我檢測套組,26,2022/04/28 18:02:03,9:00開始發放，售完為止
5932022971,得群藥局,桃園市中壢區自強六路４２號,121.2479,24.97409,(03)4535953,羅氏家用新冠病毒抗原自我檢測套組,1,2022/04/28 18:02:03,口罩販賣時段: 售完為止
5932023021,辰鴻藥局,桃園市中壢區環中東路１１０號,121.2585,24.96527,(03)4638639,羅氏家用新冠病毒抗原自我檢測套組,4,2022/04/28 18:02:03,實名制快篩:9:00發號碼牌於當日營業時間販售
5932023058,福澤健行藥局,桃園市中壢區健行路１３９號,121.2275,24.94943,(03)4681988,羅氏家用新冠病毒抗原自我檢測套組,22,2022/04/28 18:02:03,家用快篩販賣時段15:30至售完為止
5932023281,裕翔藥局,桃園市中壢區榮民路４８號１樓,121.2606,24.96956,(03)4355499,羅氏家用新冠病毒抗原自我檢測套組,27,2022/04/28 18:02:03,快篩下午五點販售
5932023307,晟康健保藥局,桃園市中壢區永光里環北路４號１樓桃園市中壢區民權路二段３４號,121.225,24.96565,(03)4950218,羅氏家用新冠病毒抗原自我檢測套組,11,2022/04/28 18:02:03,無
5932023567,內壢成章藥局,桃園市中壢區忠孝路１９８號,121.2553,24.97719,(03)4524123,羅氏家用新冠病毒抗原自我檢測套組,76,2022/04/28 18:02:03,口罩販售時間：14:00 - 16:00
5932023647,樂謙藥師藥局,桃園市中壢區龍東路１３４號,121.2522,24.92929,(03)4662775,羅氏家用新冠病毒抗原自我檢測套組,76,2022/04/28 18:02:03,實名快篩每日早上8點發放號碼牌 下午1點取貨
5932023727,大崙大藥局,桃園市中壢區內厝里中正路４段１１３號,121.1798,24.98888,(03)4983597,羅氏家用新冠病毒抗原自我檢測套組,5,2022/04/28 18:02:03,營業時間皆可買口罩
5932023843,晴一藥局,桃園市中壢區民族路五段２５８號１樓,121.1714,24.95865,(03)4909427,羅氏家用新冠病毒抗原自我檢測套組,31,2022/04/28 18:02:03,實名制快篩發放時間為17:30
5932023923,朝日藥局,桃園市中壢區新生路１２９號,121.2227,24.96044,(03)2805882,羅氏家用新冠病毒抗原自我檢測套組,78,2022/04/28 18:02:03,早上09:00至晚上22:00
5932023987,薰衣草藥局,桃園市中壢區新生路３３５號１樓,121.2231,24.96495,(03)4253330,羅氏家用新冠病毒抗原自我檢測套組,2,2022/04/28 18:02:03,無
5932024091,大和藥局,桃園市中壢區元化路２段６６號,121.2212,24.9627,(03)4260298,羅氏家用新冠病毒抗原自我檢測套組,11,2022/04/28 18:02:03,無
5932024144,內壢丁丁藥局,桃園市中壢區環中東路３２５號１樓,121.2552,24.96194,(03)4535351,羅氏家用新冠病毒抗原自我檢測套組,14,2022/04/28 18:02:03,營業時間:早上0900~1200，下午1300~1700，晚上1800~2200
5932024180,小瓢蟲藥局,桃園市中壢區正大街２５號１樓,121.2047,24.95836,(03)4020967,羅氏家用新冠病毒抗原自我檢測套組,8,2022/04/28 18:02:03,營業時間：上午0830-1200，下午1400-1730，晚上1800-2130
5932024279,中壢環東藥局,桃園市中壢區中山東路２段１９３號,121.2404,24.95171,(03)4562345,羅氏家用新冠病毒抗原自我檢測套組,2,2022/04/28 18:02:03,快篩實名制，每天16:00開始販售，售完為止。
593202A244,澤仁藥局,桃園市中壢區中正路２６３號,121.2193,24.95495,(03)4252254,羅氏家用新冠病毒抗原自我檢測套組,13,2022/04/28 18:02:03,口罩販賣時段：早上8:00-17:00
593202A931,佳佑藥局,桃園市中壢區環中東路二四一號,121.2573,24.96345,(03)4356190,羅氏家用新冠病毒抗原自我檢測套組,5,2022/04/28 18:02:03,口罩販賣時段：09:00以後發號碼牌，售完為止
593202B054,幸福藥局,桃園市中壢區中光路３號,121.2255,24.95742,(03)4223092,羅氏家用新冠病毒抗原自我檢測套組,78,2022/04/28 18:02:03,口罩販賣時段：六日一三8:30~售完為止 ／二五14:30~售完為止／四10:00~售完為止
593202B296,慧康藥局,桃園市中壢區中北路二段１０１號１樓,121.2255,24.95122,(03)2840064,羅氏家用新冠病毒抗原自我檢測套組,2,2022/04/28 18:02:03,口罩販賣時段:16:00
593202B394,永豐藥局,桃園市中壢區民族路五段四六Ｏ號,121.167,24.95824,(03)4205339,羅氏家用新冠病毒抗原自我檢測套組,1,2022/04/28 18:02:03,口罩販賣時段：07:00
593202B438,祐達藥局,桃園市中壢區民族路二九八號,121.2083,24.9574,(03)4015995,羅氏家用新冠病毒抗原自我檢測套組,3,2022/04/28 18:02:03,無
593202B447,榮善堂藥局,桃園市中壢區前龍街九號,121.2535,24.9298,(03)4564946,羅氏家用新冠病毒抗原自我檢測套組,76,2022/04/28 18:02:03,全台第一自助過卡領口罩系統，口罩販賣：每天8:00開始，賣完為止
5932030080,吉壽藥局,桃園市大溪區員林路三段４２號,121.2648,24.88175,(03)3802049,羅氏家用新冠病毒抗原自我檢測套組,78,2022/04/28 18:02:03,口罩販賣時段：星期一~五上午9:00至12:00及下午14:00至20:00，星期六早上8:30。例假日另行通知!
5932030160,永耘藥局,桃園市大溪區介壽路６４號,121.2946,24.92239,(03)3804770,羅氏家用新冠病毒抗原自我檢測套組,4,2022/04/28 18:02:03,口罩販賣時段: 週一至週六早上8:00~中午12:00 止
5932031578,宜暉健保藥局,桃園市大溪區介壽路７１８號,121.2849,24.90544,(03)3806695,羅氏家用新冠病毒抗原自我檢測套組,78,2022/04/28 18:02:03,9:00-22:00／端午.中秋.除夕~初三休息／快篩販賣時間19:00發號碼牌，售完為止
5932031863,大溪啄木鳥藥局,桃園市大溪區員林路１段１７３號１、２樓,121.2792,24.89706,(03)3809116,羅氏家用新冠病毒抗原自我檢測套組,1,2022/04/28 18:02:03,無
5932031890,福生藥局,桃園市大溪區民權東路１０３號１樓,121.2919,24.88209,(03)3873533,羅氏家用新冠病毒抗原自我檢測套組,10,2022/04/28 18:02:03,無
5932031907,福澤大溪藥局,桃園市大溪區復興路１０５號１樓,121.2911,24.87917,(03)3884886,羅氏家用新冠病毒抗原自我檢測套組,1,2022/04/28 18:02:03,家用快篩販賣時段15:30至售完為止
5932040246,龍泰藥局,桃園市楊梅區民族路五段１４７巷２號,121.1736,24.9586,(03)4901525,羅氏家用新冠病毒抗原自我檢測套組,78,2022/04/28 18:02:03,口罩販售時間：08:00開賣至11:00
5932040255,中美藥局,桃園市楊梅區埔心里中興路７７號,121.1848,24.91776,(03)4822483,羅氏家用新冠病毒抗原自我檢測套組,4,2022/04/28 18:02:03,口罩發放時間為早上8:30分
5932040308,弘大藥局,桃園市楊梅區大華街十三號,121.1452,24.9076,(03)4751858,羅氏家用新冠病毒抗原自我檢測套組,78,2022/04/28 18:02:03,口罩販售時間：週一至週六 08:00-16:00
5932042124,佑健藥師藥局,桃園市楊梅區中山北路二段一Ｏ八號一樓,121.1699,24.90855,(03)4315478,羅氏家用新冠病毒抗原自我檢測套組,4,2022/04/28 18:02:03,口罩販賣時段上午9點開始發放號碼牌， 售完為止
5932042320,家康藥師藥局,桃園市楊梅區文化街二三二之一號,121.1851,24.91622,(03)4810893,羅氏家用新冠病毒抗原自我檢測套組,7,2022/04/28 18:02:03,口罩販售時間：12:10-20:50
5932042339,德美藥局,桃園市楊梅區中正路８號,121.0829,24.93497,(03)2821668,羅氏家用新冠病毒抗原自我檢測套組,78,2022/04/28 18:02:03,口罩販售時間：19:30起售完為止
5932043130,宜康美藥局,桃園市楊梅區環東路４５２號,121.1571,24.91005,(03)4883805,羅氏家用新冠病毒抗原自我檢測套組,20,2022/04/28 18:02:03,口罩販賣時段：早上09:30~10:30（100份）下午15:30~16:30（50份）晚上19:30~20:30（50份）
5932043309,資生楊梅大藥局,桃園市楊梅區楊新路１００號,121.1449,24.91341,(03)2889590,羅氏家用新冠病毒抗原自我檢測套組,1,2022/04/28 18:02:03,每日快篩代售時間14:00-21:00
5932043336,楊梅藥局,桃園市楊梅區大成路１４８、１５０號,121.1458,24.91148,(03)4880776,羅氏家用新冠病毒抗原自我檢測套組,78,2022/04/28 18:02:03,快篩實名制，每天16:00開始販售，售完為止。
5932043381,楊梅丁丁藥局,桃園市楊梅區中山北路２段２２７號,121.1729,24.90958,(03)4815486,羅氏家用新冠病毒抗原自我檢測套組,71,2022/04/28 18:02:03,無
5932043390,元森藥局,桃園市楊梅區瑞溪路２段１２５號１樓,121.1806,24.90875,(03)4311058,羅氏家用新冠病毒抗原自我檢測套組,78,2022/04/28 18:02:03,無
5932043425,躍獅祥筠藥局,桃園市楊梅區萬大路１３５號,121.1786,24.90987,(03)4817458,羅氏家用新冠病毒抗原自我檢測套組,78,2022/04/28 18:02:03,無
5932050215,九德藥局,桃園市蘆竹區中山路６９號,121.3003,25.05242,(03)3116868,羅氏家用新冠病毒抗原自我檢測套組,9,2022/04/28 18:02:03,口罩販賣時段：AM09:00-PM10:00
5932051329,恆安藥局,桃園市蘆竹區忠孝西路２４號,121.2924,25.04425,(03)2120206,羅氏家用新冠病毒抗原自我檢測套組,9,2022/04/28 18:02:03,口罩販賣時段：下午16:00  晚上20:00
5932052013,誠心藥局,桃園市蘆竹區中山路一四五號一樓,121.2976,25.05671,(03)2127369,羅氏家用新冠病毒抗原自我檢測套組,21,2022/04/28 18:02:03,無
5932052228,大竹藥師藥局,桃園市蘆竹區南竹路五段二五九號,121.2594,25.02454,(03)3232508,羅氏家用新冠病毒抗原自我檢測套組,32,2022/04/28 18:02:03,口罩販賣時段：8:00起可購買至售完為止
5932052479,宜家藥局,桃園市蘆竹區大竹里大新路１０３號,121.2561,25.02469,(03)3236008,羅氏家用新冠病毒抗原自我檢測套組,36,2022/04/28 18:02:03,口罩販賣時段：8:00-21:00（週六休息）
5932052540,南竹健保藥局,桃園市蘆竹區南竹路一段７６號１樓,121.2909,25.04691,(03)3526182,羅氏家用新冠病毒抗原自我檢測套組,1,2022/04/28 18:02:03,口罩販賣時段：週一至週日10-22點販售  晚上18-19交班用餐時間不販售
5932052700,杏安藥局,桃園市蘆竹區大竹路５２９號,121.2594,25.02377,(03)3230491,羅氏家用新冠病毒抗原自我檢測套組,11,2022/04/28 18:02:03,無
5932052755,大葉藥局,桃園市蘆竹區中山路１３２號１樓,121.2978,25.05699,(03)3125347,羅氏家用新冠病毒抗原自我檢測套組,5,2022/04/28 18:02:03,口罩販賣時段：以現場公告為主
5932052808,柏霖藥局,桃園市蘆竹區中正路３５９號２樓,121.291,25.04902,(03)2120284,羅氏家用新冠病毒抗原自我檢測套組,72,2022/04/28 18:02:03,口罩販賣時段：現場排隊8:30-12:00.14:30-17:30.18:00-21:00.（周一至周六）.售完為止.星期日休息
5932052826,青新藥師藥局,桃園市蘆竹區南竹路五段２５１之１號,121.2597,25.0247,(03)3134328,羅氏家用新冠病毒抗原自我檢測套組,72,2022/04/28 18:02:03,無
5932052844,康維藥局,桃園市蘆竹區仁愛路一段２２號１樓,121.294,25.05063,(03)3125330,羅氏家用新冠病毒抗原自我檢測套組,69,2022/04/28 18:02:03,口罩 ／ 快篩 販賣時段：週一至週五18:00-20:00，週六09:00-11:00
5932052853,奇安藥局,桃園市蘆竹區南昌路２６９號,121.2921,25.03999,(03)2120207,羅氏家用新冠病毒抗原自我檢測套組,2,2022/04/28 18:02:03,無
5932052871,政興藥局,桃園市蘆竹區南昌路２５４號,121.2913,25.04012,(03)3215544,羅氏家用新冠病毒抗原自我檢測套組,3,2022/04/28 18:02:03,星期一~星期六AM8:30販售至售完
5932052933,天康南崁藥局,桃園市蘆竹區南崁路２４５號,121.2933,25.04894,(03)2122569,羅氏家用新冠病毒抗原自我檢測套組,2,2022/04/28 18:02:03,口罩販賣時段：週一至週日13:00起
5932053074,南崁丁丁藥局,桃園市蘆竹區南崁路１段５０號,121.2893,25.05126,(03)3115646,羅氏家用新冠病毒抗原自我檢測套組,4,2022/04/28 18:02:03,無
5932061003,保和大藥局,桃園市大園區大園里中山北路３６號,121.1972,25.06478,(03)3867448,羅氏家用新冠病毒抗原自我檢測套組,33,2022/04/28 18:02:03,口罩販賣時段：8:00~19:00皆可領取.售完為止
5932062215,快安藥師藥局,桃園市大園區新生北路４１號,121.1973,25.0676,(03)3856896,羅氏家用新冠病毒抗原自我檢測套組,7,2022/04/28 18:02:03,快篩試劑販賣時段:上午8:30起至售完為止；現場排隊
5932062528,全球菓林藥局,桃園市大園區菓林路２４８號,121.1791,25.02585,(03)3831247,羅氏家用新冠病毒抗原自我檢測套組,4,2022/04/28 18:02:03,營業時間:9:00-22:00
5932071009,德佑藥局,桃園市龜山區大崗里新興街２９３號,121.3558,25.04531,(03)3283556,羅氏家用新冠病毒抗原自我檢測套組,77,2022/04/28 18:02:03,口罩販賣時段為每日晚上07:30開始（星期日暫停販售）
5932076791,誠安生活藥局,桃園市龜山區文化七路７９之２號,121.3635,25.05166,(03)3271997,羅氏家用新冠病毒抗原自我檢測套組,11,2022/04/28 18:02:03,無
5932077118,文青藥局,桃園市龜山區文青路２０２號,121.3878,25.04034,(03)3270581,羅氏家用新冠病毒抗原自我檢測套組,9,2022/04/28 18:02:03,口罩販賣時段：上午10點到12點
5932077305,全興藥局,桃園市龜山區光峰路１５３號１樓,121.3427,25.0026,(03)3597901,羅氏家用新冠病毒抗原自我檢測套組,3,2022/04/28 18:02:03,上午8:30開始販售實名制快篩試劑、口罩，禮拜日公休。
5932077369,安博氏藥師藥局,桃園市龜山區文青路１８５號１樓,121.3877,25.04079,(03)3283185,羅氏家用新冠病毒抗原自我檢測套組,1,2022/04/28 18:02:03,無
5932077430,長庚藥局,桃園市龜山區文化三路８１巷２８號,121.3637,25.05847,(03)3181679,羅氏家用新冠病毒抗原自我檢測套組,4,2022/04/28 18:02:03,無
5932077510,左外野藥局,桃園市龜山區文光街６號１樓,121.3802,25.05471,(03)3271503,羅氏家用新冠病毒抗原自我檢測套組,77,2022/04/28 18:02:03,快篩販售時間:19:30-20:30 （週五公休）
5932077529,泰麟大藥局,桃園市龜山區自強西路２３８號１樓,121.3325,24.99625,(03)2133728,羅氏家用新冠病毒抗原自我檢測套組,1,2022/04/28 18:02:03,無
5932077538,維康藥局,桃園市龜山區復興一路８８號１樓,121.3683,25.05946,(03)3283880,羅氏家用新冠病毒抗原自我檢測套組,78,2022/04/28 18:02:03,平日上午9點至晚上6點執業
5932077556,全球萬壽藥局,桃園市龜山區萬壽路２段９２７號,121.339,24.99539,(03)3591247,羅氏家用新冠病毒抗原自我檢測套組,6,2022/04/28 18:02:03,營業時間:9:00-22:00
5932077574,樂樂聯合藥局,桃園市龜山區萬壽路１段１０９號１、２樓,121.4091,25.01886,(02)82000560,羅氏家用新冠病毒抗原自我檢測套組,3,2022/04/28 18:02:03,無
5932077618,大山藥局,桃園市龜山區中興路１段１８、２２、２４號１樓,121.3379,24.99376,(03)3191057,羅氏家用新冠病毒抗原自我檢測套組,1,2022/04/28 18:02:03,無
5932077645,美康萬壽藥局,桃園市龜山區萬壽路１段３２５號１、２樓,121.4024,25.0169,(02)82000001,羅氏家用新冠病毒抗原自我檢測套組,10,2022/04/28 18:02:03,無
5932083303,吉康生活藥局,桃園市八德區義勇街１２０號,121.3045,24.96354,(03)3768577,羅氏家用新冠病毒抗原自我檢測套組,19,2022/04/28 18:02:03,無
5932083670,保健藥局,桃園市八德區介壽路一段８３３號２樓,121.3,24.96168,(03)3669486,羅氏家用新冠病毒抗原自我檢測套組,3,2022/04/28 18:02:03,無
5932083974,晨鴻藥師藥局,桃園市八德區桃鶯路７號１樓,121.3265,24.97179,(03)3764299,羅氏家用新冠病毒抗原自我檢測套組,66,2022/04/28 18:02:03,兒童口罩早上8:30領取號碼牌 一定發完 因為一天只有20個名額 ，請勿再打電話詢問 謝謝
5932084533,柚兒藥局,桃園市八德區興仁里豐田三路７９號,121.2875,24.9285,(03)3652002,羅氏家用新冠病毒抗原自我檢測套組,78,2022/04/28 18:02:03,口罩販賣時段：10:00~11:30（如早上售完下午就無販售）／14:30~16:00
5932084668,奕成健保大藥局,桃園市八德區興豐路６７３號１樓,121.2958,24.93121,(03)3732113,羅氏家用新冠病毒抗原自我檢測套組,39,2022/04/28 18:02:03,早上10:30發放39份、晚上9:30發放39份
5932084739,元冠大藥局,桃園市八德區豐德路１７號,121.295,24.92466,(03)3657868,羅氏家用新冠病毒抗原自我檢測套組,1,2022/04/28 18:02:03,無
5932084828,阿爾富山藥局,桃園市八德區桃鶯路４號１樓,121.3261,24.97167,(03)3763350,羅氏家用新冠病毒抗原自我檢測套組,76,2022/04/28 18:02:03,8:00-22:00
5932084864,阿寶藥局,桃園市八德區東勇一路６號,121.3064,24.96452,(03)3750060,羅氏家用新冠病毒抗原自我檢測套組,43,2022/04/28 18:02:03,無
5932098091,悅發藥局,桃園市龍潭區龍元路８６號,121.2119,24.86481,(03)4705098,羅氏家用新冠病毒抗原自我檢測套組,1,2022/04/28 18:02:03,口罩販賣時段：上午09:30開始..週日停售.
5932099150,繕葆藥局,桃園市龍潭區中興路３０９號,121.2335,24.8737,(03)4803831,羅氏家用新冠病毒抗原自我檢測套組,1,2022/04/28 18:02:03,口罩販賣時段：8:30-售完為止
5932099383,龍星藥局,桃園市龍潭區中正路二八四號二樓,121.2175,24.86201,(03)4707390,羅氏家用新冠病毒抗原自我檢測套組,78,2022/04/28 18:02:03,上午8~11下午16~18晚上19~21，六、日9~12門診.口罩販賣
5932099516,１Ｏ１藥師聯合藥局,桃園市龍潭區中正路４４號,121.2144,24.86893,(03)4708593,羅氏家用新冠病毒抗原自我檢測套組,1,2022/04/28 18:02:03,口罩販賣時段：下午13:30 到 21:00點
5932099776,愛心藥局,桃園市龍潭區五福街１５巷３號,121.2177,24.86528,(03)4706717,羅氏家用新冠病毒抗原自我檢測套組,3,2022/04/28 18:02:03,口罩販賣時段：0800～售完
5932099856,佳欣社區藥局,桃園市龍潭區中正路２６２號１樓,121.2173,24.86254,(03)4808717,羅氏家用新冠病毒抗原自我檢測套組,13,2022/04/28 18:02:03,無
5932099954,新資生龍潭中正大藥局,桃園市龍潭區中正路１４０—１號１樓,121.2212,24.85382,(03)3606180,羅氏家用新冠病毒抗原自我檢測套組,14,2022/04/28 18:02:03,全年無休
5932100210,福澤中豐藥局,桃園市平鎮區中豐路３４５號,121.2116,24.91034,(03)4283805,羅氏家用新冠病毒抗原自我檢測套組,4,2022/04/28 18:02:03,家用快篩販賣時段15:30至售完為止
5932100612,名康藥局,桃園市平鎮區金陵路二段７２號,121.2228,24.94162,(03)4577559,羅氏家用新冠病毒抗原自我檢測套組,2,2022/04/28 18:02:03,口罩販賣時間：周一至周六13：00至賣完為止（周日沒賣），不需再行電話確認。
5932100916,唯康藥局,桃園市平鎮區中豐路南勢二段１４４號,121.2106,24.91564,(03)4396011,羅氏家用新冠病毒抗原自我檢測套組,30,2022/04/28 18:02:03,無
5932100925,譽達藥局,桃園市平鎮區育達路２４０號１樓,121.2072,24.95155,(03)4922990,羅氏家用新冠病毒抗原自我檢測套組,4,2022/04/28 18:02:03,快篩星期一到六下午三點開始，星期日無配送快篩，現場領取，不提前拿號碼牌
5932101057,大天藥局,桃園市平鎮區金陵路二段６號,121.2225,24.94303,(03)4570818,羅氏家用新冠病毒抗原自我檢測套組,27,2022/04/28 18:02:03,無
5932101191,譽達文化藥局,桃園市平鎮區文化街８巷２號１樓,121.2027,24.95667,(03)4919660,羅氏家用新冠病毒抗原自我檢測套組,16,2022/04/28 18:02:03,無
5932101217,夢田藥局,桃園市平鎮區東光路１１３號１樓,121.2533,24.91609,(03)4601966,羅氏家用新冠病毒抗原自我檢測套組,6,2022/04/28 18:02:03,無
5932101253,新大賀藥局,桃園市平鎮區新榮路２５９號１樓,121.2135,24.94617,(03)4927100,羅氏家用新冠病毒抗原自我檢測套組,1,2022/04/28 18:02:03,無
5932108430,建德藥局,桃園市平鎮區北勢里金陵路１０３號,121.2229,24.94747,(03)4686662,羅氏家用新冠病毒抗原自我檢測套組,73,2022/04/28 18:02:03,國定假日皆休診.口罩販售時段:上午9:30起至售完為止
5932109955,優達藥局,桃園市平鎮區廣明路六六號,121.2139,24.9538,(03)4943488,羅氏家用新冠病毒抗原自我檢測套組,5,2022/04/28 18:02:03,口罩販賣時段:8點成人兒童售完為止
593210A238,美樂蒂藥局,桃園市平鎮區民族路二三七號二樓,121.2091,24.95658,(03)4023131,羅氏家用新冠病毒抗原自我檢測套組,4,2022/04/28 18:02:03,無
5932120016,吉利藥師藥局,桃園市觀音區富源里新富路１７０５號,121.1326,24.99095,(03)4901701,羅氏家用新冠病毒抗原自我檢測套組,57,2022/04/28 18:02:03,口罩販賣時段：週一至週六早上7:30起，售完為止
5932120141,東尼藥局,桃園市觀音區觀音里中正路２２０號,121.0812,25.03472,(03)4734567,羅氏家用新冠病毒抗原自我檢測套組,11,2022/04/28 18:02:03,口罩販賣時段：週一至週日早上8點起
5933010091,進安藥局,新竹縣關西鎮正義路１５號,121.1761,24.79111,(03)5872153,羅氏家用新冠病毒抗原自我檢測套組,42,2022/04/28 18:02:03,12:00-14:00休息（配合醫療院所）。
5933011178,康和藥局,新竹縣關西鎮正義路７９號,121.1759,24.79386,(03)5870068,羅氏家用新冠病毒抗原自我檢測套組,3,2022/04/28 18:02:03,依看診時間供民眾取藥
5933011196,高平堂藥局,新竹縣關西鎮正義路66號,121.1762,24.79269,(03)5872263,羅氏家用新冠病毒抗原自我檢測套組,62,2022/04/28 18:02:03,相關公告 請搜尋FB【高平堂藥局】
5933011267,關西藥局,新竹縣關西鎮中山路６８號,121.1764,24.79148,(03)5171121,羅氏家用新冠病毒抗原自我檢測套組,3,2022/04/28 18:02:03,快篩實名制，每天16:00開始販售，售完為止。
5933031723,日榮堂藥局,新竹縣竹東鎮長春路一段２８１號,121.0892,24.73607,(03)5962335,羅氏家用新冠病毒抗原自我檢測套組,14,2022/04/28 18:02:03,口罩代售：於8:30-12:30，14:30-18，19-20販售，售完為止。W1-W6營業至20:30、W7至12點。
5933031821,新月藥局,新竹縣竹東鎮永康街８１號１樓,121.0818,24.74841,(03)5960501,羅氏家用新冠病毒抗原自我檢測套組,39,2022/04/28 18:02:03,快篩代售時間 上午11:00 下午19:00
5933052731,欣欣藥局,新竹縣竹北市成功八路１００號,121.0168,24.81817,(03)6676287,羅氏家用新冠病毒抗原自我檢測套組,39,2022/04/28 18:02:03,無
5933053041,中一藥局,新竹縣竹北市文興路一段２４２號１樓,121.0287,24.81018,(03)6670827,羅氏家用新冠病毒抗原自我檢測套組,1,2022/04/28 18:02:03,口罩代售時間自14:00至16:00，號碼牌發放時間自13:30
5933053265,金慧藥局,新竹縣竹北市科大二街１８５號一樓,121.0112,24.81944,(03)5586687,羅氏家用新冠病毒抗原自我檢測套組,2,2022/04/28 18:02:03,無
5933053461,合康連鎖藥局竹北二店,新竹縣竹北市福興東路一段３７３號,121.0259,24.81734,(03)6583777,羅氏家用新冠病毒抗原自我檢測套組,37,2022/04/28 18:02:03,8:30-12:00，14:00-17:00，18:00-22:00
5933053489,十興藥局,新竹縣竹北市莊敬五街７５號,121.0268,24.82346,(03)6684889,羅氏家用新冠病毒抗原自我檢測套組,1,2022/04/28 18:02:03,快篩實名制，每天16:00開始販售，售完為止。
5933053523,佑全竹北自強南藥局,新竹縣竹北市自強南路１６０號,121.0248,24.816,(03)6681950,羅氏家用新冠病毒抗原自我檢測套組,3,2022/04/28 18:02:03,0900-2100
5933053587,合康連鎖藥局竹北店,新竹縣竹北市博愛街３３５號,121.0081,24.83581,(03)5552288,羅氏家用新冠病毒抗原自我檢測套組,28,2022/04/28 18:02:03,8:30-14:00，16:00-22:30
5933053621,縣政丁丁藥局,新竹縣竹北市縣政二路５５８號,121.0188,24.8321,(03)5589176,羅氏家用新冠病毒抗原自我檢測套組,78,2022/04/28 18:02:03,9:00-22:00
5933080137,春安藥局,新竹縣新豐鄉重興村新庄路２５８號,120.9856,24.90331,(03)5591875,羅氏家用新冠病毒抗原自我檢測套組,71,2022/04/28 18:02:03,口罩販賣時段：星期一~六19:30-21:30 星期日08:00-11:00
5933081447,彰懷藥局,新竹縣新豐鄉新興路75號1樓,120.9926,24.86639,(03)5572995,羅氏家用新冠病毒抗原自我檢測套組,78,2022/04/28 18:02:03,星期一至星期五，早上九點現場購買至售完為止；星期六下午四點購買至售完為止；星期日公休
5934010086,圓滿堂藥局,宜蘭縣宜蘭市中山路３段４８號,121.7524,24.75614,(03)9323413,羅氏家用新冠病毒抗原自我檢測套組,2,2022/04/28 18:02:03,口罩代售時間自上午7:30開始至售完止（星期日有代售口罩，早上8:00至售完止
5934011636,興南藥局,宜蘭縣宜蘭市中山路３段１７８號,121.7532,24.75975,(03)9310984,羅氏家用新冠病毒抗原自我檢測套組,1,2022/04/28 18:02:03,無
5934011958,栢心藥局,宜蘭縣宜蘭市宜興路１段１１１號,121.7561,24.7514,(03)9357277,羅氏家用新冠病毒抗原自我檢測套組,77,2022/04/28 18:02:03,週一~週六，下午14:30~16:30販售快篩試劑
5934012044,富康新民藥局,宜蘭縣宜蘭市新民路１１３號,121.7551,24.75717,(03)9366060,羅氏家用新冠病毒抗原自我檢測套組,20,2022/04/28 18:02:03,下午兩點開賣
5934012240,東成藥局,宜蘭縣宜蘭市東港路２段３０６號１樓,121.7643,24.75315,(03)9380353,羅氏家用新冠病毒抗原自我檢測套組,8,2022/04/28 18:02:03,實名制快篩9點開始
5934012419,熊貓健保藥局,宜蘭縣宜蘭市中山路３段１６９號１樓,121.753,24.75984,(03)9331335,羅氏家用新冠病毒抗原自我檢測套組,8,2022/04/28 18:02:03,無
5934020279,博善藥局,宜蘭縣羅東鎮和平路６８號,121.772,24.67532,(03)9577811,羅氏家用新冠病毒抗原自我檢測套組,6,2022/04/28 18:02:03,（星期日4／3.4／17不營業）4／5早上營業
5934021409,德芳藥局,宜蘭縣羅東鎮公正路２５６號,121.7662,24.6797,(03)9557166,羅氏家用新冠病毒抗原自我檢測套組,10,2022/04/28 18:02:03,本藥局不販售口罩
5934030015,南陽藥局,宜蘭縣蘇澳鎮中山路１段１２０號,121.8496,24.59608,(03)9965076,羅氏家用新冠病毒抗原自我檢測套組,32,2022/04/28 18:02:03,快篩販售時間分兩時段：1.早上10:30，2.20:00，售完為止
5934081067,威仁藥局,宜蘭縣冬山鄉冬山路２１９號,121.7907,24.63453,(03)9595351,羅氏家用新冠病毒抗原自我檢測套組,1,2022/04/28 18:02:03,無
5934091081,五結健保藥局,宜蘭縣五結鄉五結路二段４３７號,121.7958,24.68437,(03)9503200,羅氏家用新冠病毒抗原自我檢測套組,14,2022/04/28 18:02:03,8:00發放號碼牌 18:00前領取..線上庫存不準
5934091125,安心藥局,宜蘭縣五結鄉禮運路３８－１號,121.7768,24.68105,(03)9551670,羅氏家用新冠病毒抗原自我檢測套組,53,2022/04/28 18:02:03,無
5934100030,三星健保藥局,宜蘭縣三星鄉三星路５段５１號,121.6515,24.66588,(03)9895816,羅氏家用新冠病毒抗原自我檢測套組,1,2022/04/28 18:02:03,無
5934120014,進昌健保藥局,宜蘭縣南澳鄉蘇花路２段３８３號,121.8039,24.46602,(03)9981011,羅氏家用新冠病毒抗原自我檢測套組,234,2022/04/28 18:02:03,無
5935010259,德鑫藥局,苗栗縣苗栗市清華里為公路３４８號,120.8309,24.57167,(037)261698,羅氏家用新冠病毒抗原自我檢測套組,5,2022/04/28 18:02:03,口罩販賣時段：0730開始到售完  星期日休息
5935011738,佳禾藥局,苗栗縣苗栗市青苗里建台街7號,120.821,24.55742,(037)373041,羅氏家用新冠病毒抗原自我檢測套組,78,2022/04/28 18:02:03,口罩7：30開始販賣，販賣時段：營業時間至售完為止
5935021430,苑裡藥局,苗栗縣苑裡鎮為公路３２－１號,120.6541,24.44247,(037)851331,羅氏家用新冠病毒抗原自我檢測套組,24,2022/04/28 18:02:03,快篩實名制，每天16:00開始販售，售完為止。
5935021458,沐安藥局,苗栗縣苑裡鎮客庄里信義路１－１０號１樓,120.653,24.43873,(037)868600,羅氏家用新冠病毒抗原自我檢測套組,8,2022/04/28 18:02:03,快篩早上8點發號碼牌。販售時間為早上10-12點、下午3-6點、晚上7-8點半。售完為止
5935042108,好康健保藥局,苗栗縣竹南鎮科專七路２１９號１樓,120.9025,24.70536,(037)680877,羅氏家用新冠病毒抗原自我檢測套組,4,2022/04/28 18:02:03,無
5935050164,辰安藥局,苗栗縣頭份市尖豐路３２號,120.8803,24.66364,(037)633632,羅氏家用新冠病毒抗原自我檢測套組,50,2022/04/28 18:02:03,無
5935051992,躍獅祐民藥局,苗栗縣頭份市信義路４５４號１樓,120.8958,24.69637,(037)669387,羅氏家用新冠病毒抗原自我檢測套組,78,2022/04/28 18:02:03,晚上7點開賣 憑號碼牌購買
5935071172,健安藥局,苗栗縣卓蘭鎮上新里上新七之１１號,120.8297,24.30834,(04)25899617,羅氏家用新冠病毒抗原自我檢測套組,11,2022/04/28 18:02:03,口罩販賣時段：營業時段早上7:30至售完
5935071216,萊恩藥局,苗栗縣卓蘭鎮上新里上新7之1號,120.83,24.30719,(04)25899369,羅氏家用新冠病毒抗原自我檢測套組,37,2022/04/28 18:02:03,口罩販賣時段：08:00-售完
5935071252,國良藥局,苗栗縣卓蘭鎮中山路１１１號１樓,120.8259,24.31214,(042)5899578,羅氏家用新冠病毒抗原自我檢測套組,1,2022/04/28 18:02:03,無
5935080055,臺健中西藥局,苗栗縣大湖鄉中正路１９號,120.869,24.42165,(037)990638,羅氏家用新冠病毒抗原自我檢測套組,234,2022/04/28 18:02:03,無
5935081169,景元藥局,苗栗縣大湖鄉中正路９７號,120.8664,24.42265,(037)996465,羅氏家用新冠病毒抗原自我檢測套組,234,2022/04/28 18:02:03,無
5935120027,裕祥藥局,苗栗縣頭屋鄉頭屋村尖豐路８５號,120.8522,24.57524,(037)253553,羅氏家用新冠病毒抗原自我檢測套組,69,2022/04/28 18:02:03,無
5936012677,誠品藥局,臺中市豐原區中山路３４９號,120.715,24.24902,(04)25120495,羅氏家用新冠病毒抗原自我檢測套組,1,2022/04/28 18:02:03,星期一至星期六早上8點30開始販售，現場排隊，售完為止。
5936021363,小太陽藥局,臺中市東勢區豐勢路４１２之１、４１６號１樓,120.8292,24.25525,(04)25773481,羅氏家用新冠病毒抗原自我檢測套組,21,2022/04/28 18:02:03,早上7:30開始發放號碼牌販售，週日公休
5936090144,宏仁藥局,臺中市潭子區潭陽里潭子街２段８號,120.707,24.21152,(04)25367266,羅氏家用新冠病毒抗原自我檢測套組,2,2022/04/28 18:02:03,上午9時開始販售，同時發號碼牌，星期日休息，請再電話洽詢。
5936101893,新信和藥局,臺中市大雅區民興街５０號,120.6482,24.22531,(04)25603058,羅氏家用新冠病毒抗原自我檢測套組,63,2022/04/28 18:02:03,無
5936151393,辰采藥局,臺中市烏日區學田路５８８號,120.6073,24.12307,(04)23372207,羅氏家用新冠病毒抗原自我檢測套組,11,2022/04/28 18:02:03,試劑販售9:00~售完；12:00~14:00不售試劑
5936190416,同安藥局,臺中市太平區新平路三段８７號,120.7202,24.15065,(04)23918391,羅氏家用新冠病毒抗原自我檢測套組,2,2022/04/28 18:02:03,週一至五0900-2100，1300-1600休息、週六0900-1300，週日休息。
5936190550,衛民藥局,臺中市太平區宜欣二路７２號,120.7165,24.14456,(04)22795581,羅氏家用新冠病毒抗原自我檢測套組,2,2022/04/28 18:02:03,早上八點開始賣口罩  快速
5936191851,佑昇藥局,臺中市太平區中平路１６號１樓,120.7207,24.13334,(04)22783697,羅氏家用新冠病毒抗原自我檢測套組,2,2022/04/28 18:02:03,無
5936192018,和康藥局,臺中市太平區樹孝路４６２號,120.7203,24.15716,(04)23917355,羅氏家用新冠病毒抗原自我檢測套組,78,2022/04/28 18:02:03,實名制快篩販售時間晚上七點
5936192134,樹德大藥局,臺中市太平區樹德路１０２號１樓,120.7115,24.15386,(04)23981782,羅氏家用新冠病毒抗原自我檢測套組,24,2022/04/28 18:02:03,口罩開賣 不需排隊 隨到隨領 樹德藥局關心您
593620B138,聯生中西健保藥局,臺中市大里區現岱路１５８巷１１號,120.6919,24.10295,(04)24834058,羅氏家用新冠病毒抗原自我檢測套組,78,2022/04/28 18:02:03,早上八點半領號碼牌下午四點到六點領口罩W6W日早七點
593620B307,仁一藥局,臺中市大里區仁化路４９７號,120.7005,24.09618,(04)24913610,羅氏家用新冠病毒抗原自我檢測套組,1,2022/04/28 18:02:03,每天早上9點30分開始販售~不分時間~售完為止~星期一到星期日都賣
5936211063,八醫健保藥局和平店,臺中市和平區東關路３段１３５號,120.8885,24.17379,(04)25941037,羅氏家用新冠病毒抗原自我檢測套組,150,2022/04/28 18:02:03,4／4 4／5 各公休一天
5937010917,尚豪藥局,彰化縣彰化市大埔路６９５號,120.5425,24.06841,(04)7113332,羅氏家用新冠病毒抗原自我檢測套組,1,2022/04/28 18:02:03,周一到周六早上八點到晚上十點販售
5937012751,福田藥局,彰化縣彰化市光復路２０號,120.5452,24.08102,(04)7296058,羅氏家用新冠病毒抗原自我檢測套組,1,2022/04/28 18:02:03,固定周一到周六，早上8:00營業， 8:00發放號碼牌，立即開始販售口罩
5937013285,大仁藥局,彰化縣彰化市忠孝里辭修路８０號１樓,120.5385,24.08752,(04)7282678,羅氏家用新冠病毒抗原自我檢測套組,2,2022/04/28 18:02:03,4／5全日休息.04／09.4／23下午晚上休息
5937013552,芳澤藥局,彰化縣彰化市中山路三段４３４號,120.5658,24.08861,(04)7380381,羅氏家用新冠病毒抗原自我檢測套組,5,2022/04/28 18:02:03,快篩實名制-週一至週五下午3點開始販售，星期六日休息
5937013605,大佳好藥局,彰化縣彰化市平和七街６號,120.5293,24.06697,(09)33520331,羅氏家用新冠病毒抗原自我檢測套組,11,2022/04/28 18:02:03,疫苗預約登記
5937020155,建興藥局,彰化縣鹿港鎮頂厝里鹿東路１５４號,120.4426,24.05654,(04)7786919,羅氏家用新冠病毒抗原自我檢測套組,4,2022/04/28 18:02:03,星期一至星期六早上八點＜星期日休息＞
5937021894,淳安藥局,彰化縣鹿港鎮民族路５３號,120.4367,24.05603,(04)7783989,羅氏家用新冠病毒抗原自我檢測套組,25,2022/04/28 18:02:03,無
5937031381,春生藥局新庄店,彰化縣和美鎮彰新路二段５２７、５２９號,120.533,24.10492,(04)7330458,羅氏家用新冠病毒抗原自我檢測套組,1,2022/04/28 18:02:03,5／31公休 每日下午1:30 開始販售口罩
5937031434,和美和田藥局,彰化縣和美鎮和線路５９號,120.4931,24.11421,(04)7560377,羅氏家用新冠病毒抗原自我檢測套組,11,2022/04/28 18:02:03,周一到周日，每日下午1:00發放號碼牌並開始販賣防疫口罩
5937031541,友誼藥局和美店,彰化縣和美鎮和東里仁化路１４７、１４９號,120.4964,24.11017,(04)7550866,羅氏家用新冠病毒抗原自我檢測套組,9,2022/04/28 18:02:03,早上9::00-11:00販賣口罩，週日不發售口罩。
5937031756,永元藥局,彰化縣和美鎮和線路９１號,120.4925,24.11452,(04)7550045,羅氏家用新冠病毒抗原自我檢測套組,78,2022/04/28 18:02:03,固定週一至週日中午11:30分起開始販賣口罩，每週四公休。
5937031783,和美啄木鳥藥局,彰化縣和美鎮德美路２７０號,120.502,24.11371,(04)7552924,羅氏家用新冠病毒抗原自我檢測套組,12,2022/04/28 18:02:03,無
5937041172,九和藥局,彰化縣北斗鎮西德里斗苑路一段２９０號,120.5211,23.87211,(04)8875039,羅氏家用新冠病毒抗原自我檢測套組,78,2022/04/28 18:02:03,無
5937041421,惠生大藥局,彰化縣北斗鎮西德里中華路２９１號,120.521,23.87288,(04)8874041,羅氏家用新冠病毒抗原自我檢測套組,1,2022/04/28 18:02:03,口罩販售時間 : 週一 ~ 週日，每日8點後至販售完畢
5937041501,台丞藥局,彰化縣北斗鎮光復路１９７號,120.5241,23.87407,(04)8873311,羅氏家用新冠病毒抗原自我檢測套組,1,2022/04/28 18:02:03,無
5937050279,廣信藥局,彰化縣員林市三信里中山路二段２０１號,120.5711,23.96517,(04)8337085,羅氏家用新冠病毒抗原自我檢測套組,21,2022/04/28 18:02:03,早上8:40開始販賣口罩，無發放號碼牌
5937050331,金鴻安大藥局,彰化縣員林市中正路３２３號,120.5733,23.95618,(04)8344210,羅氏家用新冠病毒抗原自我檢測套組,1,2022/04/28 18:02:03,早上7點至晚上10點，民眾可持健保卡買快篩
5937050377,廣生堂藥局,彰化縣員林市中山里中山路一段７４３、７４５號,120.5706,23.95915,(04)8320627,羅氏家用新冠病毒抗原自我檢測套組,1,2022/04/28 18:02:03,下午5點開始販賣口罩，不發號碼牌。
5937051981,康美藥局,彰化縣員林市南平里南平街２６號,120.5646,23.96301,(04)8395172,羅氏家用新冠病毒抗原自我檢測套組,9,2022/04/28 18:02:03,無
5937052031,天天藥局,彰化縣員林市鎮興里員東路一段５５號,120.5991,23.96355,(04)8385573,羅氏家用新冠病毒抗原自我檢測套組,8,2022/04/28 18:02:03,固定周一到周六上午8:30發放號碼牌，8:30開始販售口罩。
5937052059,華衛藥局,彰化縣員林市惠來里南昌路９６號,120.5719,23.95464,(04)8397503,羅氏家用新冠病毒抗原自我檢測套組,10,2022/04/28 18:02:03,無
5937052246,新義藥局,彰化縣員林市南平里新義街２８８號,120.5678,23.96254,(04)8396788,羅氏家用新冠病毒抗原自我檢測套組,1,2022/04/28 18:02:03,周一到周日上午9:00至19:30。周日照常販售。
5937052264,醫聯藥師藥局,彰化縣員林市三條里員東路二段４１０號１樓,120.5811,23.95898,(04)8360617,羅氏家用新冠病毒抗原自我檢測套組,27,2022/04/28 18:02:03,*固定星期一~日每日早上8:30分，開始販售。（全年無休）
5937052317,員郭藥局,彰化縣員林市三民街３８－１號,120.573,23.95862,(04)8356201,羅氏家用新冠病毒抗原自我檢測套組,16,2022/04/28 18:02:03,無
5937052399,裕良藥局大同店,彰化縣員林市大同路二段２０３－１號,120.5746,23.96891,(04)8344612,羅氏家用新冠病毒抗原自我檢測套組,67,2022/04/28 18:02:03,無
5937052451,統信藥局,彰化縣員林市正興街３７２號,120.5722,23.95997,(04)8367089,羅氏家用新冠病毒抗原自我檢測套組,3,2022/04/28 18:02:03,無
5937052497,家家藥局,彰化縣員林市惠來街８７號,120.5704,23.95526,(04)8367007,羅氏家用新冠病毒抗原自我檢測套組,39,2022/04/28 18:02:03,無
5937070011,明輝藥局,彰化縣田中鎮東路里新生街８７號,120.5871,23.86112,(04)8740433,羅氏家用新冠病毒抗原自我檢測套組,2,2022/04/28 18:02:03,111年起 營業時間為周一到周六早上8:00開始到晚上9:00
5937071474,田中藥局,彰化縣田中鎮新生街１５０巷２號,120.5862,23.8621,(04)8761988,羅氏家用新冠病毒抗原自我檢測套組,5,2022/04/28 18:02:03,快篩實名制，每天16:00開始販售，售完為止。
5937080179,台明藥局,彰化縣二林鎮東和里斗苑路五段２１３號,120.3678,23.90095,(04)8966176,羅氏家用新冠病毒抗原自我檢測套組,1,2022/04/28 18:02:03,週一到六上午8:10口罩開賣，不抽號碼；週日未固定公休
5937081390,永全藥局,彰化縣二林鎮二溪路一段１８號,120.3696,23.90134,(04)8958878,羅氏家用新冠病毒抗原自我檢測套組,20,2022/04/28 18:02:03,週一到六上午8點半口罩開賣，不抽號碼；週日休息；
5937081498,新杏林藥局,彰化縣二林鎮東和里斗苑路５段２６０號,120.3677,23.90106,(04)8953863,羅氏家用新冠病毒抗原自我檢測套組,16,2022/04/28 18:02:03,快篩販售時間每日下午三點半開始
5937081514,加佳藥局,彰化縣二林鎮東和里仁愛路６７８號１樓,120.3643,23.90212,(04)8963080,羅氏家用新冠病毒抗原自我檢測套組,10,2022/04/28 18:02:03,口罩販買時間週一至週五早上09:30-11:45 下午2:45-5:20 晚上6:30-8:45。週六早上9:30-11:45 下午晚上休息，周日全日休息!!
5937081596,二林藥局,彰化縣二林鎮斗苑路五段３９號,120.3709,23.89951,(04)8950010,羅氏家用新冠病毒抗原自我檢測套組,10,2022/04/28 18:02:03,快篩實名制，每天16:00開始販售，售完為止。
5937101146,伸港藥局,彰化縣伸港鄉新港村信義路１３５號,120.4859,24.14825,(04)7992663,羅氏家用新冠病毒抗原自我檢測套組,78,2022/04/28 18:02:03,04／29 開始實名制快篩更改為早上8點開始販售
5937101217,友誼藥局,彰化縣伸港鄉新港村中山路１５號,120.4864,24.14731,(047)980591,羅氏家用新冠病毒抗原自我檢測套組,66,2022/04/28 18:02:03,伸港店:早10AM~11AM  晚:19:00-20:00  週日:早上9:00-11:00 週六因為人力不足業務繁忙，故週六不發口罩!
5937101271,信義藥局,彰化縣伸港鄉新港村信義路７１號,120.4859,24.14681,(04)7982232,羅氏家用新冠病毒抗原自我檢測套組,1,2022/04/28 18:02:03,快篩實名制，每天16:00開始販售，售完為止。
5937121237,福慧藥局,彰化縣秀水鄉彰水路２段２０３號,120.4917,24.02402,(04)7689180,羅氏家用新冠病毒抗原自我檢測套組,1,2022/04/28 18:02:03,1.早上8；45開始營業，早上9:00開始販售口罩 2.每日中午12:00-15:00休息
5937121308,丁丁藥局秀水店,彰化縣秀水鄉彰水路一段２２號,120.5009,24.03537,(04)7686200,羅氏家用新冠病毒抗原自我檢測套組,4,2022/04/28 18:02:03,無
5937181279,佳恩藥局,彰化縣永靖鄉永西村瑚璉路３０２號,120.547,23.92421,(04)8235753,羅氏家用新冠病毒抗原自我檢測套組,13,2022/04/28 18:02:03,週一至週六早上9點販售口罩 週日公休
5937190107,張藥局,彰化縣社頭鄉社頭村清水岩路３６７號,120.5895,23.89967,(04)8734660,羅氏家用新冠病毒抗原自我檢測套組,1,2022/04/28 18:02:03,防疫期間營業至21:00，若解封視情況更改回21:30
5937191195,藥典大藥局,彰化縣社頭鄉清水岩路２３９號,120.5924,23.89976,(04)8732497,羅氏家用新冠病毒抗原自我檢測套組,1,2022/04/28 18:02:03,營業時間:早上8點至晚上9:30（週日公休）
5937211094,田尾藥局,彰化縣田尾鄉饒平村光復路２段６６９號,120.5313,23.89053,(04)8836725,羅氏家用新冠病毒抗原自我檢測套組,26,2022/04/28 18:02:03,無
5937211101,溪畔藥局,彰化縣田尾鄉溪畔村中山路２段３９７號,120.5371,23.90169,(04)8239016,羅氏家用新冠病毒抗原自我檢測套組,23,2022/04/28 18:02:03,星期1.2.3.5.6下午1.00-3.00服務時段星期4.日早上9.30-11.30~逾時恕不售理敬請配合!謝謝
5937221198,祐幼藥局,彰化縣埤頭鄉合興村彰水路3段496號,120.4594,23.89158,(04)8911910,羅氏家用新冠病毒抗原自我檢測套組,8,2022/04/28 18:02:03,每日8:30開始發放口罩，1200-1430， 1730-1800， 週日晚上休息
5937221241,堃泰中西藥局,彰化縣埤頭鄉斗苑西路２６７號,120.4591,23.89176,(04)8928798,羅氏家用新冠病毒抗原自我檢測套組,7,2022/04/28 18:02:03,無
5937241065,順順藥局,彰化縣大城鄉東城村東平路６３－１號,120.322,23.85443,(04)8946379,羅氏家用新冠病毒抗原自我檢測套組,1,2022/04/28 18:02:03,實名制口罩庫存售完後即不再販賣
5937251105,宏吉藥局,彰化縣竹塘鄉竹塘村仁愛街５０號,120.4271,23.86282,(04)8976709,羅氏家用新冠病毒抗原自我檢測套組,15,2022/04/28 18:02:03,周一到周六，7:50開始販賣防疫口罩（無發放號碼牌）
5938010108,宏嘉藥局,南投縣南投市崇文里彰南路一段１１１４號,120.6854,23.90663,(049)2228073,羅氏家用新冠病毒抗原自我檢測套組,9,2022/04/28 18:02:03,配合政府防疫政策.星期日不發口罩.星期一到六每天下午3點到6點發口罩
5938021521,大家好藥局,南投縣埔里鎮中山路２段２６２－１號,120.9686,23.96652,(049)2995876,羅氏家用新冠病毒抗原自我檢測套組,2,2022/04/28 18:02:03,3／26下午休息，4／3-4／5休息
5938021683,埔里啄木鳥藥局,南投縣埔里鎮中山路三段４６７號,120.9537,23.96959,(049)2914510,羅氏家用新冠病毒抗原自我檢測套組,3,2022/04/28 18:02:03,無
5938022064,大樹埔里藥局,南投縣埔里鎮中正路４３８號,120.9632,23.97263,(049)2980805,羅氏家用新冠病毒抗原自我檢測套組,1,2022/04/28 18:02:03,快篩實名制，每天16:00開始販售，售完為止。
5938022117,埔里福倫健保藥局,南投縣埔里鎮中山路二段３６７號,120.9662,23.96385,(049)2999118,羅氏家用新冠病毒抗原自我檢測套組,2,2022/04/28 18:02:03,無
5938022180,久泰藥局,南投縣埔里鎮南興街３２４、３２６號,120.9634,23.96481,(049)2980968,羅氏家用新冠病毒抗原自我檢測套組,4,2022/04/28 18:02:03,無
5938030280,易生藥局,南投縣草屯鎮明正里芬草路一段１５３號,120.6816,23.98459,(049)2323350,羅氏家用新冠病毒抗原自我檢測套組,4,2022/04/28 18:02:03,每日10:00發放號碼牌及現場販售，售完為止
5938032480,草屯藥局,南投縣草屯鎮碧山路１４５、１４７號,120.6834,23.9778,(049)2362992,羅氏家用新冠病毒抗原自我檢測套組,1,2022/04/28 18:02:03,快篩實名制，每天16:00開始販售，售完為止。
5938032515,草屯丁丁藥局,南投縣草屯鎮太平路二段１７９號,120.6831,23.97335,(049)2330058,羅氏家用新冠病毒抗原自我檢測套組,3,2022/04/28 18:02:03,無
5938040366,竹山藥局,南投縣竹山鎮中山里竹山路１５０之２號,120.6818,23.7539,(049)2644930,羅氏家用新冠病毒抗原自我檢測套組,1,2022/04/28 18:02:03,處方單調劑，口罩代售
5938041667,竹山啄木鳥藥局,南投縣竹山鎮集山路三段１０１１號,120.681,23.75509,(049)2655345,羅氏家用新冠病毒抗原自我檢測套組,15,2022/04/28 18:02:03,每日12:30-9:00販賣口罩（全年無休）
5938041729,早安藥局,南投縣竹山鎮雲林路４１號,120.6834,23.75608,(049)2651032,羅氏家用新冠病毒抗原自我檢測套組,12,2022/04/28 18:02:03,每日早上9:00-晚上9:00販賣口罩（全年無休每月最後六日休息）
5938041756,集山啄木鳥藥局,南投縣竹山鎮集山路３段４０５號,120.696,23.76179,(049)2659287,羅氏家用新冠病毒抗原自我檢測套組,1,2022/04/28 18:02:03,口罩代售時間無限制
5938041809,維淇藥師藥局,南投縣竹山鎮集山路三段８１６－１號,120.6863,23.75949,(049)2653689,羅氏家用新冠病毒抗原自我檢測套組,1,2022/04/28 18:02:03,早上8：30~晚上21：00，星期六下午晚上及星期日休息
5938041925,耀聖藥局,南投縣竹山鎮集山路三段８１６之５號,120.6862,23.7596,(049)2652267,羅氏家用新冠病毒抗原自我檢測套組,3,2022/04/28 18:02:03,無
5938050077,永明藥局,南投縣集集鎮田寮里龍泉巷６－１號,120.7513,23.83479,(049)2781456,羅氏家用新冠病毒抗原自我檢測套組,8,2022/04/28 18:02:03,無
5938050139,省安藥局,南投縣集集鎮民生路３１號,120.7881,23.8287,(049)2763442,羅氏家用新冠病毒抗原自我檢測套組,1,2022/04/28 18:02:03,實名制成人口罩已售完，其他週一至週六營業時間上午9點開始販售口罩（中途有休息）有營業即販售
5938061285,人德藥局,南投縣名間鄉南雅村員集路１３６號,120.7025,23.83565,(049)2739317,羅氏家用新冠病毒抗原自我檢測套組,3,2022/04/28 18:02:03,口罩代售時間上午11:00-12:00， 下午5:00-6:00， 星期六日及國定假日休息
5938070097,好康藥局,南投縣鹿谷鄉中正路二段６４號,120.7538,23.7458,(049)2753788,羅氏家用新冠病毒抗原自我檢測套組,234,2022/04/28 18:02:03,無
5938100018,佑全藥局,南投縣國姓鄉中興路１０３號,120.8572,24.04147,(049)2722998,羅氏家用新冠病毒抗原自我檢測套組,158,2022/04/28 18:02:03,每日約8:30發放號碼牌，9:00開始販售
5938100063,興安藥局,南投縣國姓鄉石門村國姓路２７８－１號,120.8568,24.04001,(049)2721133,羅氏家用新冠病毒抗原自我檢測套組,239,2022/04/28 18:02:03,正常8:30開始營業，（若消毒完成提早8:00開始販賣口罩）
5938130016,永康藥局,南投縣仁愛鄉大同村仁和路８４號,121.1324,24.02249,(049)2802730,羅氏家用新冠病毒抗原自我檢測套組,131,2022/04/28 18:02:03,醫療口罩領取星期一到星期五早上九點到十二點
5939011832,汶藥局,雲林縣斗六市大同路１０３號２樓,120.5451,23.70965,(05)5344728,羅氏家用新冠病毒抗原自我檢測套組,1,2022/04/28 18:02:03,4／5清明節休假一日
5939012526,世明中西藥局,雲林縣斗六市文化路３２４－１號,120.5532,23.71162,(05)5333109,羅氏家用新冠病毒抗原自我檢測套組,1,2022/04/28 18:02:03,口罩販售:於周一到周日營業時間9:00~售完為止
5939020091,全安藥局,雲林縣斗南鎮中天里中正路１２３號,120.4783,23.67655,(05)5965255,羅氏家用新冠病毒抗原自我檢測套組,2,2022/04/28 18:02:03,九點開始販售快篩 售完為止
5939020224,菩提大藥局,雲林縣斗南鎮延平路二段４１２號,120.4761,23.67559,(05)5951539,羅氏家用新冠病毒抗原自我檢測套組,2,2022/04/28 18:02:03,無
5939021463,安瑞藥局,雲林縣斗南鎮新興街９４號,120.48,23.67483,(05)5972099,羅氏家用新冠病毒抗原自我檢測套組,2,2022/04/28 18:02:03,因故無法販售口罩，已向健保署報備
