醫事機構代碼,醫事機構名稱,醫事機構地址,經度,緯度,醫事機構電話,廠牌項目,快篩試劑截至目前結餘存貨數量,來源資料時間,備註
2331260016,新北市貢寮區衛生所,新北市貢寮區朝陽街７０巷１０號、新北市貢寮區仁愛路１２８號,121.9095,25.02258,(02)24901431,羅氏家用新冠病毒抗原自我檢測套組,78,2022/05/03 19:57:02,星期一至星期日上午8點購買防疫口罩，售完為止.
2331290014,新北市烏來區衛生所,新北市烏來區新烏路５段１０９號,121.548,24.87197,(02)26617200,羅氏家用新冠病毒抗原自我檢測套組,78,2022/05/03 19:57:02,無
2334110013,宜蘭縣大同鄉衛生所,宜蘭縣大同鄉崙埤村朝陽４０號,121.6088,24.67785,(03)9801175,羅氏家用新冠病毒抗原自我檢測套組,32,2022/05/03 19:57:02,本所防疫快篩試劑販賣時間為週一到週五 10:50-11:50  （或售罄為止），10:40開始發放號碼牌，詳細事項請至本所網站查詢。
2335180019,苗栗縣泰安鄉衛生所,苗栗縣泰安鄉清安村２鄰７２號,120.9083,24.44722,(037)941054,羅氏家用新冠病毒抗原自我檢測套組,78,2022/05/03 19:57:02,口罩販賣時段：星期一~五：8:30~15：00。
2336210034,臺中市和平區梨山衛生所,臺中市和平區中正路１２號１樓、６８號１樓,121.2592,24.25678,(04)25989540,羅氏家用新冠病毒抗原自我檢測套組,78,2022/05/03 19:57:02,提供24小時急診待診服務，111年4月28日起，快篩試劑販售時段為周一至周五0900-12:00，六日及國定假日為0900-1100
2338070010,南投縣鹿谷鄉衛生所,南投縣鹿谷鄉中正路二段２０號,120.7542,23.74488,(049)2752002,羅氏家用新冠病毒抗原自我檢測套組,78,2022/05/03 19:57:02,快篩試劑販售時間 上班日（星期一至星期五）14:00~16:00
2338120015,南投縣信義鄉衛生所,南投縣信義鄉明德村玉山路４５號,120.8547,23.69653,(049)2791148,羅氏家用新冠病毒抗原自我檢測套組,78,2022/05/03 19:57:02,快篩試劑販售時間星期一至星期五上午09：00-11：00，現場排隊發售，國定假日不販賣。
2340170016,嘉義縣大埔鄉衛生所,嘉義縣大埔鄉大埔村５３－１號,120.5928,23.29397,(05)2521214,羅氏家用新冠病毒抗原自我檢測套組,78,2022/05/03 19:57:02,無
2342130010,高雄市田寮區衛生所,高雄市田寮區南安里崗北路３２號,120.3594,22.87301,(07)6361504,羅氏家用新冠病毒抗原自我檢測套組,157,2022/05/03 19:57:02,巡迴醫療:每星期一、四下午及每月第一個有上班的星期三下午巡迴醫療
2342180010,高雄市永安區衛生所,高雄市永安區永安路２６號,120.2254,22.81879,(07)6912015,羅氏家用新冠病毒抗原自我檢測套組,100,2022/05/03 19:57:02,本所防疫快篩試劑販賣時間為週一到週五上班日 9:00-11:00 （或售罄為止）
2342260013,高雄市桃源區衛生所,高雄市桃源區桃源里南進巷１８８－１號,120.7642,23.15845,(07)6861126,羅氏家用新冠病毒抗原自我檢測套組,97,2022/05/03 19:57:02,IDS提供24小時服務
2342270019,高雄市那瑪夏區衛生所,高雄市那瑪夏區瑪雅里６鄰平和巷２５２號,120.7024,23.24708,(07)6701142,羅氏家用新冠病毒抗原自我檢測套組,295,2022/05/03 19:57:02,春節期間正常門診
2343270013,屏東縣霧台鄉衛生所,屏東縣霧台鄉霧台村神山巷６８號,120.7261,22.74989,(08)7902232,羅氏家用新冠病毒抗原自我檢測套組,129,2022/05/03 19:57:02,無
2344011036,澎湖縣馬公市第三衛生所,澎湖縣馬公市西文里１１８之２號,119.5836,23.56813,(06)9211723,羅氏家用新冠病毒抗原自我檢測套組,34,2022/05/03 19:57:02,本所快篩試劑販售以離島衛生室（虎井、桶盤）為主，時間週一至週五08:30-17:00售完為止，星期六、日國定假日09:00-12:00。
2344030022,澎湖縣白沙鄉鳥嶼衛生所,澎湖縣白沙鄉鳥嶼村漁港新村３號,119.6599,23.66008,(06)9916092,羅氏家用新冠病毒抗原自我檢測套組,89,2022/05/03 19:57:02,非上班時間提供急診服務
2344030031,澎湖縣白沙鄉吉貝衛生所,澎湖縣白沙鄉吉貝村８－１３號,119.6138,23.74056,(06)9911430,羅氏家用新冠病毒抗原自我檢測套組,116,2022/05/03 19:57:02,無
2344050015,澎湖縣望安鄉衛生所,澎湖縣望安鄉西安村３６－７號,119.4972,23.36161,(06)9991036,羅氏家用新冠病毒抗原自我檢測套組,127,2022/05/03 19:57:02,夜間急診。口罩、快篩試劑販售時間為:每日08:00-12:00、13:30-17:30售完為止，如有餘數為離島未售出（東嶼坪、花嶼）。
2344050024,澎湖縣望安鄉將軍衛生所,澎湖縣望安鄉將軍村１２鄰將軍澳１之３號,119.5216,23.3615,(06)9902066,羅氏家用新冠病毒抗原自我檢測套組,212,2022/05/03 19:57:02,24小時急診
2344060011,澎湖縣七美鄉衛生所,澎湖縣七美鄉中和村埔內５４號,119.431,23.2041,(06)9971005,羅氏家用新冠病毒抗原自我檢測套組,44,2022/05/03 19:57:02,無
2345100014,花蓮縣富里鄉衛生所,花蓮縣富里鄉富里村中山路２０３號,121.2491,23.17847,(03)8831029,羅氏家用新冠病毒抗原自我檢測套組,156,2022/05/03 19:57:02,*內科:每週二下午東里玉蓮寺巡診 **牙科:每週二至卓溪醫療站***口罩販賣時間8:30起至11:00止
2345130012,花蓮縣卓溪鄉衛生所,花蓮縣卓溪鄉卓溪村中正路６５號,121.3033,23.33294,(03)8882592,羅氏家用新冠病毒抗原自我檢測套組,156,2022/05/03 19:57:02,販賣口罩服務時段每周一至周五早上8點45分至11點45分，星期一至星期四安排巡迴醫療點販售（售完即結束）
2346120010,台東縣延平鄉衛生所,臺東縣延平鄉桃源村昇平路１１號,121.0855,22.90217,(089)561358,羅氏家用新冠病毒抗原自我檢測套組,156,2022/05/03 19:57:02,星期一至星期五上午8:30-11:30下午13:30-16:30販售快篩試劑並發放號碼牌，遇國定假日休息
2346130016,台東縣海端鄉衛生所,臺東縣海端鄉海端村３鄰２９號,121.1767,23.10094,(089)931391,羅氏家用新冠病毒抗原自我檢測套組,110,2022/05/03 19:57:02,星期一至星期五口罩販售時間上午8點~12點（售完為止）
2391030016,連江縣莒光鄉西莒衛生所,連江縣莒光鄉青帆村１４－１號,119.9331,25.97157,(083)689122,羅氏家用新冠病毒抗原自我檢測套組,261,2022/05/03 19:57:02,防疫口罩星期一至五09:00-17:00、（六）09:00-12:00現場購買
2391030026,連江縣莒光鄉東莒衛生所,連江縣莒光鄉大坪村３０－１號,119.9731,25.96113,(083)689038,羅氏家用新冠病毒抗原自我檢測套組,260,2022/05/03 19:57:02,防疫口罩星期一至星期日上午10:00-12:00收取健保卡，下午3:30至本所領取口罩。
5901012598,婕登藥局,臺北市松山區八德路４段６９９號,121.5766,25.05021,(02)27482893,羅氏家用新冠病毒抗原自我檢測套組,78,2022/05/03 19:57:02,今天快篩已經發送完畢（電腦庫存不準）
5901013095,康采藥局,臺北市松山區南京東路５段２９１巷１７－２號,121.5663,25.05236,(02)27670271,羅氏家用新冠病毒抗原自我檢測套組,59,2022/05/03 19:57:02,快篩試劑每日16點販售，週日沒有販售
5901013120,誠康中西藥局,臺北市松山區南京東路５段５９巷３１弄４３號,121.5607,25.05346,(02)27619679,羅氏家用新冠病毒抗原自我檢測套組,3,2022/05/03 19:57:02,5／2因應物流配送~到貨公告後1小時後發號碼牌
5901013693,民生盛康藥局,臺北市松山區民生東路５段２０４號１樓,121.5648,25.05826,(02)27460758,羅氏家用新冠病毒抗原自我檢測套組,89,2022/05/03 19:57:02,【今日量已發完】每日早上9:00發號碼牌，11:00~20:00拿號碼牌回來領取，每人限1張號碼牌，逾時不候
5901020616,龍護大藥局,臺北市大安區大安路１段２２４巷７號１Ｆ,121.5454,25.03401,(02)23250686,羅氏家用新冠病毒抗原自我檢測套組,79,2022/05/03 19:57:02,無
5901020876,大興藥局,臺北市大安區通化街３９巷５０弄１５號１樓,121.5555,25.03056,(02)27053369,羅氏家用新冠病毒抗原自我檢測套組,78,2022/05/03 19:57:02,快篩試劑販售時間自08:30開始，現場排隊。（週日休息）
5901021408,生百藥局,臺北市大安區臨江街１２４號,121.5539,25.03024,(02)27371011,羅氏家用新冠病毒抗原自我檢測套組,78,2022/05/03 19:57:02,無
5901024221,安居藥局,臺北市大安區安居街１９號,121.5549,25.02085,(02)23773537,羅氏家用新冠病毒抗原自我檢測套組,70,2022/05/03 19:57:02,領快篩注意事項:週一到週五晚上7:30-9:00 週六早上8:30-12:00直接排隊購買 .週日不營業
5901024838,昶青藥局,臺北市大安區濟南路３段２２之１號,121.5346,25.04008,(02)27515678,羅氏家用新冠病毒抗原自我檢測套組,105,2022/05/03 19:57:02,每天下午13:00販售快篩實名制
5901024918,康祥藥局,臺北市大安區忠孝東路４段２１６巷２１號,121.5531,25.04025,(02)27817891,羅氏家用新冠病毒抗原自我檢測套組,78,2022/05/03 19:57:02,星期天11:00-19:00
5901025031,中力信義藥局,臺北市大安區信義路４段５１號（１樓）,121.545,25.03354,(02)23250266,羅氏家用新冠病毒抗原自我檢測套組,78,2022/05/03 19:57:02,下午一點到三點販售實名制快篩
5901100333,明美藥局,臺北市中山區長春路６９號,121.5266,25.05502,(02)25365419,羅氏家用新冠病毒抗原自我檢測套組,5,2022/05/03 19:57:02,口罩周一至周五，16:30-18:30販售
5901101509,永直藥局,臺北市中山區北安路５９５巷２弄６號,121.5483,25.08192,(02)85098059,羅氏家用新冠病毒抗原自我檢測套組,158,2022/05/03 19:57:02,周一至周六早上8點發號碼牌，下午2點到晚上8點販售，5／4不販售
5901102444,啟美藥師藥局,臺北市中山區錦州街２８２號,121.5352,25.06024,(02)25178032,羅氏家用新冠病毒抗原自我檢測套組,312,2022/05/03 19:57:02,快篩 販售時間 20點開賣到21點，星期六日公休
5901103629,十二願藥局,臺北市中山區林森北路３０９號,121.5256,25.05588,(02)25311223,羅氏家用新冠病毒抗原自我檢測套組,78,2022/05/03 19:57:02,快篩晚上8點開始發放.營業時間下午1點至凌晨3點
5901110311,永安藥局,臺北市內湖區文德路２１０巷３０弄４８號,121.5852,25.07723,(02)26586658,羅氏家用新冠病毒抗原自我檢測套組,1,2022/05/03 19:57:02,口罩販售時間早上10點開始發號碼牌  同時販售
5901150771,天母大和藥師藥局,臺北市士林區德行東路１８９－１號１樓,121.5317,25.10897,(02)28310142,羅氏家用新冠病毒抗原自我檢測套組,78,2022/05/03 19:57:02,快篩實名制 配合營業時間  賣完為止
5901152079,資生堂藥局,臺北市士林區承德路４段４０巷１７號１Ｆ,121.522,25.08107,(02)28857588,羅氏家用新冠病毒抗原自我檢測套組,78,2022/05/03 19:57:02,無
5901152453,家赫藥局,臺北市士林區忠義街８０號１樓,121.5317,25.10614,(02)28346453,羅氏家用新冠病毒抗原自我檢測套組,4,2022/05/03 19:57:02,5／3（19:00）有販售實名制快篩，會發號碼牌，雙號可購買（1人1卡）
5901152471,得安藥局,臺北市士林區文林路１４０號,121.5267,25.08878,(02)28836336,羅氏家用新冠病毒抗原自我檢測套組,78,2022/05/03 19:57:02,星期三五六下午3:30---10:00   星期二 四日下午5:00--10:00
5901152659,和樹藥局,臺北市士林區後港街４５巷１號１樓,121.5228,25.08444,(02)28821188,羅氏家用新冠病毒抗原自我檢測套組,78,2022/05/03 19:57:02,實名制快篩發放時間 依到貨時間發售
5901152971,石川藥師藥局,臺北市士林區忠義街７０號,121.5314,25.10594,(02)28385850,羅氏家用新冠病毒抗原自我檢測套組,78,2022/05/03 19:57:02,5月3日， 晚上 8:00 開始販售， 本日雙號可買
5901153861,佩佩藥局,臺北市士林區中山北路６段１８２號,121.5252,25.10759,(02)28382662,羅氏家用新冠病毒抗原自我檢測套組,78,2022/05/03 19:57:02,5／3已售完。08:30開始販售快篩，售完為止。
5901154028,向宇藥局,臺北市士林區德行東路２１７號１樓,121.5328,25.10935,(02)88661101,羅氏家用新冠病毒抗原自我檢測套組,78,2022/05/03 19:57:02,無
5901154091,社正藥局,臺北市士林區社正路１２號１樓,121.5093,25.08854,(02)28118704,羅氏家用新冠病毒抗原自我檢測套組,77,2022/05/03 19:57:02,無
5901160099,進春藥局,臺北市北投區明德路１５１號,121.5206,25.11086,(02)28216938,羅氏家用新冠病毒抗原自我檢測套組,142,2022/05/03 19:57:02,無休 上午九點開始販售，現場排隊。（依現場公告為主）
5901160802,美康藥局,臺北市北投區明德路９０號１樓,121.5196,25.1094,(02)28281176,羅氏家用新冠病毒抗原自我檢測套組,78,2022/05/03 19:57:02,無
5901162173,小明藥局,臺北市北投區中央南路１段６９號２樓,121.5014,25.13145,(02)28928950,羅氏家用新冠病毒抗原自我檢測套組,78,2022/05/03 19:57:02,快篩實名制購買時間:週一至週六早上8:00-9:00，9點後系統顯示尚有庫存，為隔日販售的量，請勿再來電詢問，謝謝!
5901163250,關渡松藥局,臺北市北投區知行路２４７號,121.4671,25.12074,(02)28584824,羅氏家用新冠病毒抗原自我檢測套組,160,2022/05/03 19:57:02,快篩：週一至週五正常配送、週六請13：00-17：00配送、周日店休。
5901163296,天禧大藥局,臺北市北投區實踐街３５號,121.5087,25.11521,(02)28213558,羅氏家用新冠病毒抗原自我檢測套組,2,2022/05/03 19:57:02,實名制快篩下午1:30現場販售
5901170139,福華藥局,臺北市信義區吳興街２８１巷３號１樓,121.5643,25.02656,(02)27208527,羅氏家用新冠病毒抗原自我檢測套組,78,2022/05/03 19:57:02,現階段下午1:30配合政府發售快篩試劑
5901170906,吳興藥局,臺北市信義區吳興街２７９號１樓,121.5642,25.02658,(02)27208328,羅氏家用新冠病毒抗原自我檢測套組,79,2022/05/03 19:57:02,實名制快篩販售時間，周一至周六13：00現場排隊購買
5901173818,博亞藥局,臺北市信義區莊敬路４６２號,121.5677,25.02672,(02)27580506,羅氏家用新冠病毒抗原自我檢測套組,117,2022/05/03 19:57:02,平日早上8:30、晚上8:00；假日早上8:30，發放號碼牌，持號碼牌購買!
5901174066,愛維喜藥局,臺北市信義區莊敬路２７８號１樓,121.5627,25.02882,(02)27586989,羅氏家用新冠病毒抗原自我檢測套組,156,2022/05/03 19:57:02,快篩周一至周五下午3:30開賣.3:10收健保卡現金500元1張.發號碼牌
5901183387,丞良藥局,臺北市中正區南昌路１段７８號地下１樓,121.5173,25.03099,(02)33938868,羅氏家用新冠病毒抗原自我檢測套組,78,2022/05/03 19:57:02,週一~週五 晚上9:00~9:30現場領取，若排隊人潮過多會提早開賣
5901184213,71恩典藥局,臺北市中正區信義路２段７１號,121.5264,25.03466,(02)23223371,羅氏家用新冠病毒抗原自我檢測套組,78,2022/05/03 19:57:02,快篩販售時間：◆週一到週五19:00 ◆週六17:00，十分鐘前發號碼牌
5901184697,中英大藥局,臺北市中正區永綏街６號１樓,121.5112,25.043,(02)23617551,羅氏家用新冠病毒抗原自我檢測套組,79,2022/05/03 19:57:02,無
5901190515,日昇藥局,臺北市萬華區廣州街１２４號,121.5016,25.03654,(02)23062975,羅氏家用新冠病毒抗原自我檢測套組,78,2022/05/03 19:57:02,實名制快篩 05-02 到貨（已開賣）
5901190686,信義藥局,臺北市萬華區青年路２８號,121.5052,25.02581,(02)23074599,羅氏家用新冠病毒抗原自我檢測套組,78,2022/05/03 19:57:02,下午一點領（快篩） 視排隊狀況發號碼牌
5901193070,榮勝藥局,臺北市萬華區萬大路２３３號,121.5006,25.02649,(02)23331121,羅氏家用新冠病毒抗原自我檢測套組,78,2022/05/03 19:57:02,每日快篩早上十一點開始販售 週日無提供販售
5901200123,瑞安藥局,臺北市文山區溪口街６９－１號１樓,121.5393,24.99512,(02)29312888,羅氏家用新冠病毒抗原自我檢測套組,80,2022/05/03 19:57:02,早上8:30開始營業.星期日休息.快篩劑晚上8:00販賣.
5901203204,躍獅新芳藥局,臺北市文山區興隆路３段１６號（實際營業地址：１樓）,121.5549,25.00062,(02)29308172,羅氏家用新冠病毒抗原自我檢測套組,79,2022/05/03 19:57:02,九點開始販售實名制快篩，售完為止
5902022794,定國藥局,高雄市鼓山區九如四路１１３５號,120.2791,22.65936,(07)5815858,羅氏家用新冠病毒抗原自我檢測套組,1,2022/05/03 19:57:02,無
5902022801,裕康中西大藥局,高雄市鼓山區裕誠路１５１９號,120.2951,22.66479,(07)5555352,羅氏家用新冠病毒抗原自我檢測套組,42,2022/05/03 19:57:02,藥局販售口罩時間，依藥局門口公告時間為主（售完為止）
5902030287,慈德藥局,高雄市左營區重愛路５３號,120.3186,22.68308,(07)3416212,羅氏家用新冠病毒抗原自我檢測套組,1,2022/05/03 19:57:02,快篩發放時間:週一至周六:上午9點至12點.週日下午2點半至5點；請自備剛好的錢.不用找錢.以利流程
5902031999,平安藥局,高雄市左營區中華一路５之１號,120.287,22.66961,(07)5833688,羅氏家用新冠病毒抗原自我檢測套組,48,2022/05/03 19:57:02,週一~週六上午:8:00~12:00，下午:4:00~9:00， 週日例假日晚上6:00~9:00
5902032174,光明健保藥局,高雄市左營區翠華路６０１巷８３號,120.2893,22.67277,(07)5812499,羅氏家用新冠病毒抗原自我檢測套組,86,2022/05/03 19:57:02,快篩實名制早上8點開始販售.周日休息
5902032441,健怡藥局,高雄市左營區翠峰路４０號,120.2897,22.67229,(07)5821891,羅氏家用新冠病毒抗原自我檢測套組,57,2022/05/03 19:57:02,快篩星期一~星期六早上8:30開始販售
5902032530,杏光藥局,高雄市左營區果峰街４７巷１號１樓,120.2869,22.6703,(07)5837060,羅氏家用新冠病毒抗原自我檢測套組,48,2022/05/03 19:57:02,上午營業時間為9 :00~12:00；晚上營業至21:30
5902050298,瑞鶴藥局,高雄市三民區寶德里義德路２５號,120.3352,22.64301,(07)3862757,羅氏家用新冠病毒抗原自我檢測套組,24,2022/05/03 19:57:02,下午2:00至4:30午休勿擾，每日09:30至21:30發售快篩。
5902050350,日星藥局,高雄市三民區寶龍里惠德街３８號,120.3241,22.64741,(07)3845188,羅氏家用新冠病毒抗原自我檢測套組,101,2022/05/03 19:57:02,快篩口罩時間:星期一至五08:40-12:00&16:00-21:00；星期六09:00-11:30，售完為止
5902050636,嘉益藥局,高雄市三民區重慶街３０號,120.302,22.64223,(07)3110157,羅氏家用新冠病毒抗原自我檢測套組,21,2022/05/03 19:57:02,快篩實名制早上11：00開始販售.
5902050798,友泰藥局,高雄市三民區中和街１６９號,120.2868,22.6388,(07)3125236,羅氏家用新冠病毒抗原自我檢測套組,142,2022/05/03 19:57:02,無
5902051642,安寧藥局,高雄市三民區嫩江街３９號,120.2981,22.64208,(07)3217585,羅氏家用新冠病毒抗原自我檢測套組,5,2022/05/03 19:57:02,無
5902054689,善全藥局,高雄市三民區義華路３９１號,120.3332,22.64339,(07)3960269,羅氏家用新冠病毒抗原自我檢測套組,26,2022/05/03 19:57:02,開始營業即販售，售完為止，其它看休息公告.
5902057126,民安藥局,高雄市三民區嫩江街７０號,120.2985,22.64282,(07)3121381,羅氏家用新冠病毒抗原自我檢測套組,7,2022/05/03 19:57:02,販賣快篩09:00~12:00_16:00~18:00_19:00~21:00（售完為止）
5902057484,永勝藥局,高雄市三民區褒忠街１１４號,120.334,22.64262,(07)3814643,羅氏家用新冠病毒抗原自我檢測套組,7,2022/05/03 19:57:02,新冠檢測組- 販售中----（售完為止）
5902057546,華南藥局,高雄市三民區中和街１２４號,120.2878,22.63941,(07)3127483,羅氏家用新冠病毒抗原自我檢測套組,38,2022/05/03 19:57:02,快篩代售時間9:00起，售完為止，11:30點-1:30點，5點-6點30分用餐時間不代售，週日不代售。
5902080474,弘宗藥局,高雄市苓雅區武智街２號,120.3356,22.62303,(07)7211088,羅氏家用新冠病毒抗原自我檢測套組,40,2022/05/03 19:57:02,8:00~22:00（營業時段）
5902080803,功安中西大藥局,高雄市苓雅區三多二路２９１號,120.3195,22.61858,(07)7215949,羅氏家用新冠病毒抗原自我檢測套組,10,2022/05/03 19:57:02,營業日早上08:00開始為販賣口罩時間，售完為止
5902081186,寶麒藥局,高雄市苓雅區三多一路１４４號,120.3315,22.62306,(07)7610355,羅氏家用新冠病毒抗原自我檢測套組,33,2022/05/03 19:57:02,停售口罩
5902081328,東信藥局,高雄市苓雅區三多一路１８９號,120.3313,22.62258,(07)7613309,羅氏家用新冠病毒抗原自我檢測套組,3,2022/05/03 19:57:02,早上8:30開始發送號碼牌販售口罩，售完為止，假日正常販售
5902084749,琉璃光藥師藥局,高雄市苓雅區四維一路２９２號之一樓,120.3244,22.6242,(07)7160930,羅氏家用新冠病毒抗原自我檢測套組,156,2022/05/03 19:57:02,早上9點開始販賣
5902085031,上好藥局,高雄市苓雅區四維一路六三號一樓,120.3294,22.6257,(07)7266863,羅氏家用新冠病毒抗原自我檢測套組,4,2022/05/03 19:57:02,快篩販售時間.每日上午10:00~下午13:00
5902085148,召祐健保藥局,高雄市苓雅區正義路９３號,120.3385,22.63037,(07)7493719,羅氏家用新冠病毒抗原自我檢測套組,2,2022/05/03 19:57:02,無
5902085184,惠春藥局,高雄市苓雅區武慶三路９６號,120.3319,22.62043,(07)7611358,羅氏家用新冠病毒抗原自我檢測套組,97,2022/05/03 19:57:02,「藥局販售口罩時間，依藥局門口公告時間為主（售完為止）」
5902085344,意祥藥局,高雄市苓雅區武廟路１４２之１號,120.3276,22.63125,(07)7224835,羅氏家用新冠病毒抗原自我檢測套組,2,2022/05/03 19:57:02,藥局販售口罩時間，依藥局門口公告時間為主（售完為止）
5902092205,百宏中西大藥局,高雄市前鎮區復興三路１９４號,120.3117,22.61311,(07)3386719,羅氏家用新冠病毒抗原自我檢測套組,1,2022/05/03 19:57:02,無
5903040036,得康藥局,臺中市清水區高美路１１７號,120.5753,24.27879,(04)26260622,羅氏家用新冠病毒抗原自我檢測套組,78,2022/05/03 19:57:02,5／3快篩售完.5／4下午14:40開始販售
5903150180,九德藥局,臺中市烏日區中山路一段４３８、４４０號１樓,120.6365,24.10748,(04)23385456,羅氏家用新冠病毒抗原自我檢測套組,1,2022/05/03 19:57:02,快篩實名制，每天16:00開始販售，售完為止。
5903190228,中山德侑藥局,臺中市太平區中山路３段２之２號１樓,120.7222,24.14942,(04)23920682,羅氏家用新冠病毒抗原自我檢測套組,1,2022/05/03 19:57:02,因政府配送時間不定故每日快篩販售時間視情況調整 可來電詢問
5903200372,國光丁丁藥局,臺中市大里區國光路２段５５１－１號１樓,120.6788,24.11241,(04)24069711,羅氏家用新冠病毒抗原自我檢測套組,3,2022/05/03 19:57:02,星期一至星期日早上9點依排隊順序直接領取
5903200443,佳霖藥局,臺中市大里區塗城路９６４號１樓,120.6933,24.09081,(04)24960895,羅氏家用新冠病毒抗原自我檢測套組,78,2022/05/03 19:57:02,健保卡快篩:（周日和周三停賣）.請備好健保卡和500元整.下午3點半開賣.現場排隊／售完為止
5903200701,大益藥局,臺中市大里區益民路二段３３５號１、２樓,120.6837,24.11311,(04)24811551,羅氏家用新冠病毒抗原自我檢測套組,1,2022/05/03 19:57:02,快篩實名制，每天16:00開始販售，售完為止。
5903230085,翔新藥局,臺中市東區東英１７街１６７－３號,120.7092,24.14785,(04)22131269,羅氏家用新冠病毒抗原自我檢測套組,125,2022/05/03 19:57:02,無
5903260761,杏一北區忠明藥局,臺中市北區忠明路４４２號１樓,120.67,24.16267,(04)22081273,羅氏家用新冠病毒抗原自我檢測套組,78,2022/05/03 19:57:02,111／04／28實名制快篩每周一至周六12:00~18:00販售。每周日、國定假日因人力不足因素暫停販售。
5903260958,健康達人藥局,臺中市北區北平路２段５６號１樓,120.6735,24.17153,(04)22994866,羅氏家用新冠病毒抗原自我檢測套組,78,2022/05/03 19:57:02,無
5903270801,榮友藥局,臺中市西屯區臺灣大道四段１７４２號,120.6024,24.18286,(04)23508392,羅氏家用新冠病毒抗原自我檢測套組,78,2022/05/03 19:57:02,0503販賣快篩試劑下午13:30開賣
5903270865,尚禾藥局,臺中市西屯區青海路一段６５號,120.6548,24.16438,(04)23147688,羅氏家用新冠病毒抗原自我檢測套組,117,2022/05/03 19:57:02,實名制快篩發放時間：第一時段中午12:30~14:00。第二時段20：30~22：30。第一時段若未發完，餘量將遞延至第二時段發放。
5903271004,西屯青育藥師藥局,臺中市西屯區西屯路二段２９５－３號１樓,120.6425,24.17735,(04)27077898,羅氏家用新冠病毒抗原自我檢測套組,4,2022/05/03 19:57:02,無
5903271031,美十樂中科藥局,臺中市西屯區西屯路三段１６６－６５號１樓,120.6129,24.19035,(04)24610219,羅氏家用新冠病毒抗原自我檢測套組,468,2022/05/03 19:57:02,醫事人員卡片損壞，暫時無法販賣快篩
5903271193,何安藥局,臺中市西屯區西屯路二段１０１號Ｂ棟１樓,120.6531,24.16616,(04)23161110,羅氏家用新冠病毒抗原自我檢測套組,1,2022/05/03 19:57:02,快篩實名制，每天16:00開始販售，售完為止。
5903271246,柏醫藥局,臺中市西屯區上安路５６號１樓,120.6412,24.17052,(04)24526391,羅氏家用新冠病毒抗原自我檢測套組,78,2022/05/03 19:57:02,因應到貨時間不定，統一晚上7點開放78組（5／3已售完、庫存顯示是星期日沒開但自動匯入庫存）
5903280763,全順藥局,臺中市南屯區永春東路３３９號１樓,120.6477,24.13447,(04)24730983,羅氏家用新冠病毒抗原自我檢測套組,78,2022/05/03 19:57:02,實名制快篩 販賣時間下午5點
5903290385,元復藥局,臺中市北屯區東山路１段２２５－７號,120.7155,24.17475,(04)24362075,羅氏家用新冠病毒抗原自我檢測套組,4,2022/05/03 19:57:02,上午7:20-7:40及8:20起發號碼牌。
5903290572,合健藥局,臺中市北屯區大連路一段５４－１號,120.6726,24.17565,(04)22951833,羅氏家用新冠病毒抗原自我檢測套組,78,2022/05/03 19:57:02,口罩星期一到星期六，販賣時間12:00~18:00.
5903291131,兩隻老虎藥局,臺中市北屯區崇德路２段１２號１樓,120.6855,24.16869,(04)22364635,羅氏家用新冠病毒抗原自我檢測套組,2,2022/05/03 19:57:02,營業時間早上九點到晚上九點半（快篩下午兩點開賣）
5905030092,大樹白河藥局,臺南市白河區中山路１５３號１樓,120.417,23.35255,(06)6830006,羅氏家用新冠病毒抗原自我檢測套組,2,2022/05/03 19:57:02,快篩實名制，每天16:00開始販售，售完為止。
5905200085,大樹新市藥局,臺南市新市區中正路４９、５１號１樓,120.2916,23.07223,(06)5892552,羅氏家用新冠病毒抗原自我檢測套組,1,2022/05/03 19:57:02,快篩實名制，每天16:00開始販售，售完為止。
5905320368,巴克禮中西藥局,臺南市東區中華東路三段３７７巷８號１樓,120.2215,22.97337,(06-)3361100,羅氏家用新冠病毒抗原自我檢測套組,97,2022/05/03 19:57:02,販售口罩時間0900-1100
5905330024,聖安健保藥局,臺南市南區健康路二段１７３號１樓,120.193,22.98142,(06)2916898,羅氏家用新冠病毒抗原自我檢測套組,78,2022/05/03 19:57:02,5／3號快篩已售完，週日店休
5905340075,麗欣健保藥局,臺南市中西區永華路一段１９４號１樓,120.1917,22.98835,(06)2209393,羅氏家用新冠病毒抗原自我檢測套組,78,2022/05/03 19:57:02,w1~w6早上11:00開始發放快篩
5905340271,南光藥局,臺南市中西區永福路２段７３號１、２樓,120.2007,22.99207,(06)2226539,羅氏家用新冠病毒抗原自我檢測套組,78,2022/05/03 19:57:02,快篩販賣：配送不穩定，貨到就開賣，沒有固定時段（剩餘78份為薛丁格的快篩）
5907010187,人人好藥局,高雄市鳳山區五甲三路１０巷７號１樓,120.3278,22.59336,(07)8151566,羅氏家用新冠病毒抗原自我檢測套組,157,2022/05/03 19:57:02,上午0830-1330下午1530-2100， 自2／11-2／29口罩販售周一三四五日，時間:9:00-12:00售完為止
5907010365,科健藥局,高雄市鳳山區八德路２４６－５號１樓,120.3568,22.63853,(07)7777868,羅氏家用新冠病毒抗原自我檢測套組,13,2022/05/03 19:57:02,下午3:30開始換購
5907011264,新高橋藥局青年店,高雄市鳳山區文衡里青年路二段２８９號１樓,120.3508,22.63964,(07)7676179,羅氏家用新冠病毒抗原自我檢測套組,1,2022/05/03 19:57:02,上午10:00開始販售快篩
5907011273,鳳山服安藥局,高雄市鳳山區忠義里中山西路３８０號１樓,120.3409,22.62906,(07)7406330,羅氏家用新冠病毒抗原自我檢測套組,77,2022/05/03 19:57:02,自3／1日~3／31日，營業日08:00~21:00為販賣口罩時間
5907030072,旗美藥局,高雄市旗山區東平里延平二路４１號,120.4933,22.882,(07)6629839,羅氏家用新冠病毒抗原自我檢測套組,67,2022/05/03 19:57:02,實名制快篩劑購買時間為下午14:00~20:00
5907030134,旗山啄木鳥藥局,高雄市旗山區中華路１０５０號,120.4828,22.87904,(07)6625728,羅氏家用新冠病毒抗原自我檢測套組,4,2022/05/03 19:57:02,發口罩時間:09:00-19:00
5907030152,旗山藥局,高雄市旗山區中華路２３號,120.4841,22.88027,(07)6621158,羅氏家用新冠病毒抗原自我檢測套組,48,2022/05/03 19:57:02,快篩實名制，每天16:00開始販售，售完為止。
5907080250,仁同藥局,高雄市仁武區八卦里永仁街７０６號１樓,120.3313,22.69072,(07)3736142,羅氏家用新冠病毒抗原自我檢測套組,78,2022/05/03 19:57:02,自5月01日~5月31日，營業日8:00起開始販售，當場刷卡領口罩
5907150177,佑安藥局,高雄市路竹區中和街１８２號,120.2575,22.85889,(07)6072215,羅氏家用新冠病毒抗原自我檢測套組,78,2022/05/03 19:57:02,星期一至六08:00開始販售；星期日無販售，售完為止
5907240014,博林健保藥局,高雄市內門區觀亭里中正路１６０巷５１號,120.4539,22.9232,(07)6671883,羅氏家用新冠病毒抗原自我檢測套組,158,2022/05/03 19:57:02,自2／11日~2／29日，營業日07:40~18:00為販賣口罩時間，售完為止
5907300417,森森藥師藥局,高雄市左營區緯六路２１５號１樓,120.2874,22.69707,(07)5853600,羅氏家用新冠病毒抗原自我檢測套組,85,2022/05/03 19:57:02,W1~W5 8~19點；星期六 8:30~12點；快篩售完為止
5907300515,詮裕藥局,高雄市左營區華夏路７０６號１樓,120.3022,22.6778,(07)3453942,羅氏家用新冠病毒抗原自我檢測套組,78,2022/05/03 19:57:02,星期一到星期六早上8點銷售到售完為止.星期日---無
5907300659,維康藥局高榮店,高雄市左營區榮總路１６３號、１６５號,120.3216,22.6809,(07)3494540,羅氏家用新冠病毒抗原自我檢測套組,78,2022/05/03 19:57:02,平常日0900-1700為快篩販賣時間賣完為止！假日1000-1800
5907300686,左營自由藥局,高雄市左營區自由二路３５０、３５０－１號,120.3091,22.66599,(07)5589991,羅氏家用新冠病毒抗原自我檢測套組,5,2022/05/03 19:57:02,快篩實名制，每天16:00開始販售，售完為止。
5907300748,翔生藥局合群店,高雄市左營區緯六路２５６號,120.2871,22.6976,(07)5880055,羅氏家用新冠病毒抗原自我檢測套組,4,2022/05/03 19:57:02,實名制快篩販售時間：星期一至星期五，售完為止
5907300800,元大藥師健保藥局,高雄市左營區榮德街３２７號,120.3211,22.68636,(07)3507531,羅氏家用新冠病毒抗原自我檢測套組,22,2022/05/03 19:57:02,無
5907300882,得孚社區藥局,高雄市左營區重立路５３３號１樓,120.3098,22.67955,(07)3410121,羅氏家用新冠病毒抗原自我檢測套組,102,2022/05/03 19:57:02,營業日上午09:30-11:30為販賣口罩時間.售完為止
5907300971,健勝藥局,高雄市左營區勝利路１２７－１號１樓,120.2896,22.6806,(07)5811169,羅氏家用新冠病毒抗原自我檢測套組,46,2022/05/03 19:57:02,無
5907300980,大路藥局,高雄市左營區左營大路５５－２號１樓,120.2877,22.6813,(07)5851001,羅氏家用新冠病毒抗原自我檢測套組,7,2022/05/03 19:57:02,快篩實名制，每天16:00開始販售，售完為止。
5907301076,熊安心藥局華夏店,高雄市左營區華夏路１２１２號１樓,120.3104,22.68483,(07)3430632,羅氏家用新冠病毒抗原自我檢測套組,78,2022/05/03 19:57:02,快篩試劑-販售時間14:00至售完為止
5907310137,青田藥局,高雄市楠梓區監理南街６８號,120.3188,22.72897,(07)3648257,羅氏家用新冠病毒抗原自我檢測套組,103,2022/05/03 19:57:02,銷售時間才販賣，別在看庫存了 ／ 周一至周五上午10:30-11:00 下午14:30-15:00 晚上19:00-20:00
5907310351,惠民楠梓藥局,高雄市楠梓區建楠路２１７號,120.3248,22.72689,(07)3521896,羅氏家用新冠病毒抗原自我檢測套組,78,2022/05/03 19:57:02,下午二點開始發放快篩試劑，發完為止；防疫要記得多備防疫包，增強免疫力。
5907320535,康誠藥局,高雄市三民區建工路６１６號,120.3228,22.64934,(07)3893889,羅氏家用新冠病毒抗原自我檢測套組,30,2022/05/03 19:57:02,星期一~星期日早上09：30~11：50。星期一~星期六下午15：30~17：50、晚上19：30~21：20
5907320679,安安藥局,高雄市三民區鼎和街３２號１樓,120.3186,22.66679,(07)3420010,羅氏家用新冠病毒抗原自我檢測套組,78,2022/05/03 19:57:02,防疫口罩：星期一~五上午9點開始代售，星期六上午9~13點
5907320740,忠仁藥局,高雄市三民區中都街３５號１樓,120.2867,22.63955,(07)3125305,羅氏家用新冠病毒抗原自我檢測套組,96,2022/05/03 19:57:02,無
5907320777,桉家藥師藥局,高雄市三民區明誠一路３９３號,120.3228,22.65998,(07)3929732,羅氏家用新冠病毒抗原自我檢測套組,26,2022/05/03 19:57:02,無
5907320919,心寬福藥局,高雄市三民區大順二路７１８號一樓,120.3193,22.65359,(07)3832366,羅氏家用新冠病毒抗原自我檢測套組,78,2022/05/03 19:57:02,週一到週五上午9:00-12:00、下午14:00-20:00，週六下午14:00-20:00販售口罩，週日公休。
5907320946,熊安心藥局,高雄市三民區陽明路４０８號,120.3429,22.64609,(07)3815212,羅氏家用新冠病毒抗原自我檢測套組,81,2022/05/03 19:57:02,週一 ~ 週六 AM8:00-PM10:00，快篩分兩梯次販售，14:00有63份，19:00有15份
5907321005,諾亞藥局,高雄市三民區鼎華路１４號１樓,120.3164,22.65139,(07)3929966,羅氏家用新冠病毒抗原自我檢測套組,154,2022/05/03 19:57:02,無
5907330219,美麗島台安藥局,高雄市新興區中山一路１１５號地下２樓（轉換層）,120.3015,22.63155,(07)2365490,羅氏家用新冠病毒抗原自我檢測套組,1,2022/05/03 19:57:02,快篩試劑到貨時間不穩定，可來電詢問（07-2365490）
5907340091,捷康藥妝藥局,高雄市前金區七賢二路３９６號一樓,120.288,22.63082,(07)2166099,羅氏家用新冠病毒抗原自我檢測套組,14,2022/05/03 19:57:02,周末不販售快篩 5／2開始實名制快篩販售時間：下午2點 58份、晚上7:30 20份，現場排隊人力不足沒有發放號碼牌請見諒
5907350220,仁愛藥師藥局,高雄市苓雅區中正一路２３０號,120.3296,22.62921,(07)7222300,羅氏家用新冠病毒抗原自我檢測套組,1,2022/05/03 19:57:02,快篩販售一到五10:30開始，紅字假日12:30開始
5907350328,安杏藥局,高雄市苓雅區四維二路９４－１７號,120.3197,22.62273,(07)7511739,羅氏家用新冠病毒抗原自我檢測套組,80,2022/05/03 19:57:02,快篩試劑代售時間自早上9:00點服務
5907350533,健群藥局,高雄市苓雅區安業路４０號,120.3231,22.62731,(07)7150097,羅氏家用新冠病毒抗原自我檢測套組,157,2022/05/03 19:57:02,無
5907350631,三多藥局,高雄市苓雅區三多二路２９２號１樓,120.3173,22.61838,(07)3365889,羅氏家用新冠病毒抗原自我檢測套組,1,2022/05/03 19:57:02,快篩實名制，每天16:00開始販售，售完為止。
5907350659,北京藥局林泉店,高雄市苓雅區林泉里３鄰林泉街３５號１樓,120.3192,22.62323,(07)7263030,羅氏家用新冠病毒抗原自我檢測套組,468,2022/05/03 19:57:02,無
5907360360,親親藥局,高雄市前鎮區天山路１０巷６號,120.3151,22.60991,(07)3391078,羅氏家用新冠病毒抗原自我檢測套組,80,2022/05/03 19:57:02,周日休假，停售!!!
5907360628,風鈴藥局,高雄市前鎮區管仲路３７號,120.3117,22.60649,(07)5367833,羅氏家用新冠病毒抗原自我檢測套組,138,2022/05/03 19:57:02,販售快篩：19:30-21:30 依照配送調整販售時間（周日公休）
5911031283,福安藥局,基隆市暖暖區暖暖街５５２號,121.7365,25.09258,(02)24588550,羅氏家用新冠病毒抗原自我檢測套組,67,2022/05/03 19:57:02,5／2~5／6 晚上20:00販售  實名制家用快篩試劑  本日為[羅氏家用快篩試劑五入組]
5911041332,光華藥局,基隆市仁愛區成功一路１２９號１樓,121.7364,25.12786,(02)24338703,羅氏家用新冠病毒抗原自我檢測套組,78,2022/05/03 19:57:02,快篩試劑販賣下午六點販售
5911041958,百福仁愛專業藥局,基隆市仁愛區仁四路５０號１樓,121.7413,25.12829,(02)24266699,羅氏家用新冠病毒抗原自我檢測套組,77,2022/05/03 19:57:02,4／30起，早上8:00販售快篩
5911050162,錦泰藥局,基隆市中山區中山二路４３號,121.7405,25.13786,(02)24228523,羅氏家用新冠病毒抗原自我檢測套組,1,2022/05/03 19:57:02,快篩販賣時間星期一至五晚上7點，星期六，星期日下午5點
5911051481,仁登藥局,基隆市中山區復興路１２２號,121.7262,25.14453,(02)24375789,羅氏家用新冠病毒抗原自我檢測套組,1,2022/05/03 19:57:02,無
5911071607,家安藥師藥局,基隆市信義區信二路２５７、２５９號１樓,121.7478,25.1301,(02)24223917,羅氏家用新冠病毒抗原自我檢測套組,78,2022/05/03 19:57:02,星期一 ~ 星期五14:00開始銷售。
5912012059,幼安藥局,新竹市東區三民里民族路１２８號,120.9775,24.80799,(03)5316337,羅氏家用新冠病毒抗原自我檢測套組,78,2022/05/03 19:57:02,快篩販賣時間 : 早上  點開始至晚上點售完為止
5912013412,牛津藥局,新竹市東區民族路６２號１樓,120.9756,24.8067,(03)5320780,羅氏家用新冠病毒抗原自我檢測套組,78,2022/05/03 19:57:02,無
5912013529,新莊藥局,新竹市東區光復路１段４７３號１樓,121.015,24.78421,(03)5634775,羅氏家用新冠病毒抗原自我檢測套組,79,2022/05/03 19:57:02,快篩販賣時間周日上午
5917011847,郭藥局,臺中市中區平等街一二四號,120.682,24.1426,(04)22200005,羅氏家用新冠病毒抗原自我檢測套組,6,2022/05/03 19:57:02,周一至周六每日上午11點至12點販賣快篩
5917030146,新永富藥局,臺中市西區吉龍里美村路一段６７０號,120.6615,24.13555,(04)23766127,羅氏家用新冠病毒抗原自我檢測套組,78,2022/05/03 19:57:02,每日 晚上21:00 販售..健保卡實名制快篩 請自備500元／份
5917030995,麗新健保大藥局,臺中市西區向上路一段１６２號,120.6612,24.1469,(04)23017100,羅氏家用新冠病毒抗原自我檢測套組,1,2022/05/03 19:57:02,週一至週日下午15:00至售完為止
5917050719,百鴻藥局,臺中市北區金龍里北屯路１３－１號,120.6914,24.15981,(04)22336330,羅氏家用新冠病毒抗原自我檢測套組,78,2022/05/03 19:57:02,固定周一至周五10.00--16.00 17.00--21.00開始販售口罩售完為止
5917072251,五六藥局,臺中市南屯區南屯路２段２４０號,120.6493,24.13696,(04)24757156,羅氏家用新冠病毒抗原自我檢測套組,78,2022/05/03 19:57:02,今日快篩 20 : 30 開始販售， 售完為止. （不發號碼牌）
5917072724,百芳大藥局,臺中市南屯區向上路二段４２１號,120.6377,24.1469,(04)23818307,羅氏家用新冠病毒抗原自我檢測套組,29,2022/05/03 19:57:02,周一到周六，晚上7:00開始販賣快篩，不發號碼牌。
5917080762,順泰大藥局,臺中市北屯區北屯村北屯路１１５號,120.6939,24.165,(04)22341477,羅氏家用新冠病毒抗原自我檢測套組,78,2022/05/03 19:57:02,周三及周日公休，其餘時間每日上午9:00開賣，不需發號碼牌
5917082659,信誼藥局,臺中市北屯區瀋陽路二段３１號１樓,120.6808,24.17398,(04)22478695,羅氏家用新冠病毒抗原自我檢測套組,78,2022/05/03 19:57:02,週一~週五全日上班時段，週六上午9:00-12:00販售口罩，周日公休。
5921020185,安心藥局,臺南市南區喜東里喜樹路１５１巷３３號,120.18,22.94099,(06)2622570,羅氏家用新冠病毒抗原自我檢測套組,78,2022/05/03 19:57:02,5月3日已售完  明日依到貨時間告示
5921040221,好鄰居藥局,臺南市北區西華里公園路１２８號２樓７室,120.2076,22.99889,(06)2219015,羅氏家用新冠病毒抗原自我檢測套組,78,2022/05/03 19:57:02,固定星期一至星期六8:30-21:15販賣口罩，星期天休息
5921040749,玖大藥局,臺南市北區勝利路３８３號,120.2187,23.00397,(06)2752048,羅氏家用新冠病毒抗原自我檢測套組,156,2022/05/03 19:57:02,快篩販售時間:星期一~五早上10:00-12:00
5921051582,丞功藥局,臺南市中西區成功路３１號,120.2095,22.99747,(06)2287641,羅氏家用新冠病毒抗原自我檢測套組,78,2022/05/03 19:57:02,星期一-六08:30-售完
5921060321,慈安藥局,臺南市安南區大安街５３號,120.1919,23.03148,(06)2551117,羅氏家用新冠病毒抗原自我檢測套組,78,2022/05/03 19:57:02,早上9:00-晚上11:00
5922010736,全民藥局,嘉義市東區新店里林森東路２８９ 號,120.4665,23.49007,(05)2777900,羅氏家用新冠病毒抗原自我檢測套組,78,2022/05/03 19:57:02,防疫口罩：週一至週六，早上9點，開始販售口罩。
5922010754,松柏藥局,嘉義市東區東平里民權路８７號,120.4618,23.48392,(05)2780909,羅氏家用新冠病毒抗原自我檢測套組,78,2022/05/03 19:57:02,防疫口罩及實名制快篩試劑於週一至週六，每日早上8:00開始販售，售完為止。
5922012178,聖心藥局,嘉義市東區大雅路二段５７７號,120.4676,23.47718,(05)2777189,羅氏家用新冠病毒抗原自我檢測套組,3,2022/05/03 19:57:02,每日下午3點領號碼牌
5922012874,德風藥局,嘉義市東區仁義里台林街１０８－４號１樓,120.4547,23.49514,(05)2716233,羅氏家用新冠病毒抗原自我檢測套組,78,2022/05/03 19:57:02,無
5922012945,大明藥局,嘉義市東區大雅路二段６８２號,120.4663,23.47719,(05)2760958,羅氏家用新冠病毒抗原自我檢測套組,19,2022/05/03 19:57:02,5／3下午14:00領取號碼牌15:00~17:00購買快篩（售完為止）
5922012972,百佑藥局,嘉義市東區公明路８２號１樓,120.4602,23.48088,(05)2757387,羅氏家用新冠病毒抗原自我檢測套組,78,2022/05/03 19:57:02,固定周一至周六08:30開始發放號碼牌並依序販售，售完為止
5922013102,後庄藥局,嘉義市東區吳鳳南路６４９號,120.4594,23.45511,(05)2391233,羅氏家用新冠病毒抗原自我檢測套組,6,2022/05/03 19:57:02,快篩實名制，每天16:00開始販售，售完為止。
5922013157,軍輝健康幸福藥局,嘉義市東區軍輝路１９２號,120.46,23.45571,(05)2395789,羅氏家用新冠病毒抗原自我檢測套組,18,2022/05/03 19:57:02,無
5922020509,全德藥局,嘉義市西區福民里興業西路２８９號,120.4392,23.46776,(05)2854263,羅氏家用新冠病毒抗原自我檢測套組,21,2022/05/03 19:57:02,營業時間請電話洽詢  販售：19 :30~20:30
5922020563,信康藥局,嘉義市西區翠岱里仁愛路２２６號,120.443,23.46984,(05)2161680,羅氏家用新冠病毒抗原自我檢測套組,78,2022/05/03 19:57:02,快篩星期一至星期五早上11:00開賣 星期六下午14:00開賣
5922020769,安麗藥師藥局,嘉義市西區車店里廣州街２０６號,120.4302,23.46519,(05)2352395,羅氏家用新冠病毒抗原自我檢測套組,182,2022/05/03 19:57:02,快篩試劑販售時間上午9點~11點，下午2點~5:00點（售完為止）；六.日休息。
5922020858,大統藥局,嘉義市西區慶安里北興街１３６號,120.4421,23.48389,(05)2330230,羅氏家用新冠病毒抗原自我檢測套組,5,2022/05/03 19:57:02,5／3日預約已滿.有預約的民眾請於12:00點後領取
5922020974,嚴昔志藥局,嘉義市西區新民路７８５號１樓,120.4396,23.4706,(05)2853991,羅氏家用新冠病毒抗原自我檢測套組,78,2022/05/03 19:57:02,無
5922028596,一安藥局,嘉義市西區福民里興業西路３１１號,120.4387,23.4677,(05)2859275,羅氏家用新冠病毒抗原自我檢測套組,3,2022/05/03 19:57:02,周一至周日早上9點至晚上10點半依發放號碼排依序售完
5931011250,錦龍藥局,新北市板橋區長安街１３８巷１弄１１４號,121.4743,25.0103,(02)29522290,羅氏家用新冠病毒抗原自我檢測套組,78,2022/05/03 19:57:02,週一至周日早上8:30~開始發售， 售完為止。
5931011947,長弘藥局,新北市板橋區龍泉街１１０號,121.4568,25.02454,(02)22558789,羅氏家用新冠病毒抗原自我檢測套組,78,2022/05/03 19:57:02,無
5931014439,旭全藥局,新北市板橋區金門街３３１號,121.4294,24.98582,(02)26860526,羅氏家用新冠病毒抗原自我檢測套組,7,2022/05/03 19:57:02,星期1~6上午9:30~10:30 星期天上午9:30~下午5:00
5931015687,正康健保藥局,新北市板橋區大觀路２段６５號１樓,121.4467,25.00246,(02)22756681,羅氏家用新冠病毒抗原自我檢測套組,78,2022/05/03 19:57:02,下午13:30依現場順序開始販售快篩，快篩配送絮亂庫存不準!!
5931015990,名安藥局,新北市板橋區龍興街５７號(１樓),121.4432,25.00115,(02)82751784,羅氏家用新冠病毒抗原自我檢測套組,78,2022/05/03 19:57:02,星 期日休息
5931016577,廣泰藥師藥局,新北市板橋區館前西路１５０號１樓,121.4556,25.00843,(02)89698381,羅氏家用新冠病毒抗原自我檢測套組,1,2022/05/03 19:57:02,無
5931016611,民川藥局,新北市板橋區四川路１段９７號１樓,121.4598,25.00544,(02)29520090,羅氏家用新冠病毒抗原自我檢測套組,78,2022/05/03 19:57:02,星期一~星期六（快篩下午3:00販售）
5931016808,正安健保藥局,新北市板橋區民族路２２４號（１樓）,121.4687,25.00733,(02)29526813,羅氏家用新冠病毒抗原自我檢測套組,78,2022/05/03 19:57:02,17時依現場順序開始販售.週六12點.電腦配送庫存不準..以現場數量為準
5931017832,躍獅莒光藥局,新北市板橋區莒光路５８號１樓,121.4709,25.02421,(02)22556743,羅氏家用新冠病毒抗原自我檢測套組,78,2022/05/03 19:57:02,5／3實名制快篩已售完，5／4下午2點50發號碼牌
5931018099,廣品藥局,新北市板橋區漢生西路８２號（１樓）,121.4628,25.01934,(02)22576880,羅氏家用新冠病毒抗原自我檢測套組,1,2022/05/03 19:57:02,實名制快篩 周一~周五下午16；00發放 週六.日 早上09；30發放 請勿打電話詢問 感謝配合
5931021532,龍門藥局,新北市三重區龍門路１８９號,121.4996,25.07322,(02)29756141,羅氏家用新冠病毒抗原自我檢測套組,78,2022/05/03 19:57:02,實名制快篩販售時間~星期一至星期六下午3點
5931023447,安泰藥局,新北市三重區正義北路３００－３號２樓,121.4953,25.06978,(02)89815379,羅氏家用新冠病毒抗原自我檢測套組,81,2022/05/03 19:57:02,5／2只有早上8:30--12:00營業下午.及晚上休息
5931024426,甜心健康生活藥局,新北市三重區福祉里集美街４５號１樓,121.488,25.05542,(02)29762223,羅氏家用新冠病毒抗原自我檢測套組,15,2022/05/03 19:57:02,無
5931024515,陳藥局,新北市三重區三民街７７號,121.4858,25.06293,(02)29848601,羅氏家用新冠病毒抗原自我檢測套組,103,2022/05/03 19:57:02,實名制快篩販售時間: 周一到五 晚上7:30~9:00，週六 下午4:00~5:30現場購買沒有發號碼牌，星期天公休，每日78人份
5931025192,榮康藥局,新北市三重區成功路８１號１樓,121.4886,25.05131,(02)29772723,羅氏家用新冠病毒抗原自我檢測套組,78,2022/05/03 19:57:02,星期一、四14:00發售。星期二、五20:00發售。星期三、六11:00發售。
5931032302,威康藥局,新北市永和區中正路１５３號,121.5163,24.9984,(02)29461128,羅氏家用新冠病毒抗原自我檢測套組,98,2022/05/03 19:57:02,無
5931033578,悅美保健藥局,新北市永和區保生路２２巷２１號１樓,121.5073,25.00839,(02)22323515,羅氏家用新冠病毒抗原自我檢測套組,78,2022/05/03 19:57:02,周一至周六 上午11點到晚上10點（周六下午一點開始）（二）快篩完售（三）下午1:30售
5931040215,華新藥局,新北市中和區華新街７３號,121.5082,24.98392,(02)29448345,羅氏家用新冠病毒抗原自我檢測套組,78,2022/05/03 19:57:02,無
5931043921,良安藥局,新北市中和區連城路４７７巷１號１樓,121.4833,24.99555,(02)22225798,羅氏家用新冠病毒抗原自我檢測套組,468,2022/05/03 19:57:02,週六日不開店，實名制快篩，晚上9:00開始販售
5931044642,貞心藥局,新北市中和區永貞路２８０之１號１樓,121.5133,25.00397,(02)29203865,羅氏家用新冠病毒抗原自我檢測套組,1,2022/05/03 19:57:02,領口罩時間為下午一點
5931060342,十安藥局,新北市新莊區中港路３１６號,121.4524,25.04544,(02)29922859,羅氏家用新冠病毒抗原自我檢測套組,3,2022/05/03 19:57:02,自111／04／01起不再販賣實名制口罩
5931060557,一安藥局,新北市新莊區立德里新泰路２６８號,121.446,25.04029,(02)29941618,羅氏家用新冠病毒抗原自我檢測套組,78,2022/05/03 19:57:02,實名制快篩發放時間為15:00  其他詳情請上FB查詢
5931067403,建嘉藥局,新北市新莊區中誠街４２號１樓,121.4513,25.04812,(02)29925261,羅氏家用新冠病毒抗原自我檢測套組,78,2022/05/03 19:57:02,無
5931068464,健安藥局,新北市新莊區光和里民安西路２０９號１樓,121.4261,25.0147,(02)22043765,羅氏家用新冠病毒抗原自我檢測套組,78,2022/05/03 19:57:02,無
5931069498,新杏藥局,新北市新莊區新泰路９９號１樓,121.449,25.03497,(02)22011012,羅氏家用新冠病毒抗原自我檢測套組,78,2022/05/03 19:57:02,若有配貨，將固定於週一至週日14:50開始發放號碼牌、15:00開始依序販售快篩，售完為止。
5931069603,中信藥師藥局,新北市新莊區中信街８０號１樓,121.448,25.05311,(02)29969811,羅氏家用新冠病毒抗原自我檢測套組,78,2022/05/03 19:57:02,AM 07:30 開始
5931069792,宏泰藥局,新北市新莊區自信街３７號１樓,121.4543,25.04863,(02)29964649,羅氏家用新冠病毒抗原自我檢測套組,80,2022/05/03 19:57:02,無
593106A637,薇妮藥妝藥局,新北市新莊區民安路９９號１樓,121.4245,25.02524,(02)82010817,羅氏家用新冠病毒抗原自我檢測套組,78,2022/05/03 19:57:02,5／3（二）無快篩
593106A726,良和健保藥局,新北市新莊區龍安路４９號１樓,121.4158,25.02151,(02)29048157,羅氏家用新冠病毒抗原自我檢測套組,77,2022/05/03 19:57:02,口罩：早上9點發號碼牌，星期六休息不代售口罩
593106B027,樂福藥局,新北市新莊區幸福路４８號１樓、幸福路６４巷２弄１６號１樓,121.4577,25.04953,(02)29923388,羅氏家用新冠病毒抗原自我檢測套組,5,2022/05/03 19:57:02,下午三點半開始購買快篩實名制
593106B036,家嘉藥局,新北市新莊區自立街１０３號（１樓）,121.4553,25.04549,(02)89926488,羅氏家用新冠病毒抗原自我檢測套組,7,2022/05/03 19:57:02,11:00發號碼牌 今日號碼牌已發放完畢 2:30開始販售 庫存餘量為未過卡
593106B116,來福中西健保藥局,新北市新莊區中港路５１２號１樓,121.4518,25.05182,(02)29961615,羅氏家用新冠病毒抗原自我檢測套組,78,2022/05/03 19:57:02,無
593106B205,藥師佛藥局,新北市新莊區中正路８８１之４號１樓,121.4175,25.02544,(02)29016625,羅氏家用新冠病毒抗原自我檢測套組,78,2022/05/03 19:57:02,周二公休一天！快篩開賣:晚上七點！最快五點才能排隊！會預留警察消防人員額度，所以民眾購買額度不會是78盒！
593106B223,吉田藥局,新北市新莊區西盛街３１３號１樓,121.4281,25.01516,(02)22065185,羅氏家用新冠病毒抗原自我檢測套組,20,2022/05/03 19:57:02,無
5931070080,耀鴻藥局,新北市樹林區中山路３段７６號,121.3936,24.97239,(02)26808989,羅氏家用新冠病毒抗原自我檢測套組,77,2022/05/03 19:57:02,每天都有發放口罩
5931072066,琉璃水藥師藥局,新北市樹林區龍興街２１號１樓,121.403,25.01614,(02)26764262,羅氏家用新冠病毒抗原自我檢測套組,78,2022/05/03 19:57:02,無
5931081494,康群藥局,新北市鶯歌區建國路２０２號１樓,121.3494,24.95357,(02)26796690,羅氏家用新冠病毒抗原自我檢測套組,156,2022/05/03 19:57:02,*星期五休診不發放口罩，其餘上班日上午九點開始發放*現場排隊
5931091696,祥祐藥局,新北市三峽區文化路１２５號１樓,121.3699,24.93598,(02)26738080,羅氏家用新冠病毒抗原自我檢測套組,2,2022/05/03 19:57:02,無
5931092040,一大藥局,新北市三峽區橫溪路２３號１樓,121.3964,24.93584,(02)86766677,羅氏家用新冠病毒抗原自我檢測套組,78,2022/05/03 19:57:02,無
5931092200,金美藥局,新北市三峽區大同路２３８號１樓,121.3663,24.92573,(02)86715859,羅氏家用新冠病毒抗原自我檢測套組,468,2022/05/03 19:57:02,無
5931112083,裕和藥局,新北市汐止區宜興街４號１樓,121.6211,25.04126,(02)26609119,羅氏家用新冠病毒抗原自我檢測套組,78,2022/05/03 19:57:02,晚上9.00領實名制快篩時間
5931112136,汐芷藥局,新北市汐止區福德一路２５５號,121.6335,25.06447,(02)26924087,羅氏家用新冠病毒抗原自我檢測套組,3,2022/05/03 19:57:02,每日8:30現場發放號碼牌，12:00~20:00前憑牌領取.逾時不候
5931112341,躍獅尚揚藥局,新北市汐止區忠孝東路３９９號１樓,121.6657,25.07096,(02)86483158,羅氏家用新冠病毒抗原自我檢測套組,5,2022/05/03 19:57:02,早上9點半開始快篩實名制販售，星期天沒有販售實名制快篩 5／3快篩號碼已發完
5931112690,國升藥局,新北市汐止區建成路５９巷１號１樓,121.6618,25.0732,(02)26419459,羅氏家用新冠病毒抗原自我檢測套組,4,2022/05/03 19:57:02,無
5931113142,林美藥局,新北市汐止區康寧街４６５號１樓,121.6318,25.06839,(02)26935696,羅氏家用新冠病毒抗原自我檢測套組,78,2022/05/03 19:57:02,每日14:00開始販售實名制快篩 禮拜天公休
5931113160,社后藥局,新北市汐止區康寧街４２４號１樓,121.6307,25.06801,(02)26956321,羅氏家用新冠病毒抗原自我檢測套組,2,2022/05/03 19:57:02,快篩實名制，每天16:00開始販售，售完為止。
5931113188,汐止藥局,新北市汐止區福德二路７０號１樓,121.6331,25.06651,(02)86932587,羅氏家用新冠病毒抗原自我檢測套組,1,2022/05/03 19:57:02,無
5931132165,佳佳藥局,新北市土城區中央路２段２２３－９號２樓,121.4407,24.97319,(02)82614558,羅氏家用新冠病毒抗原自我檢測套組,92,2022/05/03 19:57:02,5／3起實名制快篩販售時間為19:30，採現場排隊（特殊情形例外）
5931132245,萬昌健保藥局,新北市土城區中央路４段１６０號,121.417,24.95827,(02)22678057,羅氏家用新冠病毒抗原自我檢測套組,2,2022/05/03 19:57:02,3月2日起周一至周五15:00發號碼牌及販賣口罩  周六 10:00直接販售
5931132343,誠安藥局,新北市土城區中央路４段３６號１樓,121.4207,24.96088,(02)22677737,羅氏家用新冠病毒抗原自我檢測套組,308,2022/05/03 19:57:02,執業時段請電洽藥局
5931132389,凱一藥局,新北市土城區裕民路９２巷２１弄８號１樓,121.4501,24.98629,(02)22707679,羅氏家用新冠病毒抗原自我檢測套組,156,2022/05/03 19:57:02,服務時間10:00~21:00，每週二休息。實名制快篩皆於營業日的10:00開賣。
5931132807,健業藥局,新北市土城區中央路２段２２３－１０號,121.4407,24.97312,(02)22704798,羅氏家用新冠病毒抗原自我檢測套組,2,2022/05/03 19:57:02,無
5931133331,城安大藥局,新北市土城區金城路３段４０號,121.4656,24.98639,(02)22646561,羅氏家用新冠病毒抗原自我檢測套組,190,2022/05/03 19:57:02,快篩代售時間晚上8:30
5931133653,家泰藥局,新北市土城區青雲路１８１號１、２樓,121.4593,24.98285,(02)22749490,羅氏家用新冠病毒抗原自我檢測套組,79,2022/05/03 19:57:02,9:00發號碼牌（一人限1卡）14:00-21:00攜帶號碼牌及費用領快篩
5931150163,德泰藥局,新北市五股區成泰路１段９號,121.4336,25.06674,(02)29095927,羅氏家用新冠病毒抗原自我檢測套組,234,2022/05/03 19:57:02,無
5931151660,祐康藥師藥局,新北市五股區五福路３６號１樓,121.4339,25.08922,(02)82921335,羅氏家用新冠病毒抗原自我檢測套組,78,2022/05/03 19:57:02,口罩代售時間:一至六早上8:30開始販售， 星期日早上9:00
5931161282,善耕藥局,新北市泰山區明志路２段３６２號１樓,121.4256,25.04516,(02)29086656,羅氏家用新冠病毒抗原自我檢測套組,78,2022/05/03 19:57:02,5／1-5／5-晚上8:00發號碼牌 開始刷健保卡 販售實名制快篩
5931171340,家欣藥師藥局,新北市林口區文化二路１段５６７號１樓,121.3748,25.0777,(02)26025368,羅氏家用新冠病毒抗原自我檢測套組,78,2022/05/03 19:57:02,5／2（一）17:00開始販售實名制快篩，不發號碼牌，每日發放時間不同，請至粉專看
5931171724,林康藥局,新北市林口區文化二路１段２２２號１樓,121.3695,25.07226,(02)26088869,羅氏家用新冠病毒抗原自我檢測套組,78,2022/05/03 19:57:02,快篩於下午2點販售
5931181239,怡恩藥局,新北市深坑區埔新街４１號,121.6209,25.00282,(02)26620285,羅氏家用新冠病毒抗原自我檢測套組,73,2022/05/03 19:57:02,5／3（二） 18:30領戳章 20:00憑戳章購買
5931190514,碇康藥局,新北市石碇區潭邊里石崁２４－１號,121.658,24.99424,(02)26634229,羅氏家用新冠病毒抗原自我檢測套組,78,2022/05/03 19:57:02,無
5931250042,信芳藥局,新北市雙溪區中華路５０號,121.866,25.03761,(02)24931301,羅氏家用新冠病毒抗原自我檢測套組,2,2022/05/03 19:57:02,無
5932011503,文安藥局,桃園市桃園區中正路６９９號,121.3032,25.00685,(03)3558999,羅氏家用新冠病毒抗原自我檢測套組,78,2022/05/03 19:57:02,實名制快篩領取時間早上07:00~0800止
5932011870,永祥大藥局,桃園市桃園區永安路５２８號,121.2986,25.00181,(03)3337161,羅氏家用新冠病毒抗原自我檢測套組,5,2022/05/03 19:57:02,口罩販賣時段：週一至週六早上9點
5932014013,力行藥局,桃園市桃園區力行路９８號,121.3027,25.00206,(03)3391368,羅氏家用新冠病毒抗原自我檢測套組,78,2022/05/03 19:57:02,每日14點開賣，不發號碼牌售完78份為止，若14點前沒來排隊，肯定買不到就別打來問了現場爆忙，若15點後還有庫存78是隔天賣
5932014102,小飛象藥局,桃園市桃園區慈文路１９２號,121.3041,25.00907,(03)3552771,羅氏家用新冠病毒抗原自我檢測套組,96,2022/05/03 19:57:02,不發放號碼牌，請自己算人頭並評估身體狀況。5／3[21:30]開賣18份。另78份是明天[09:30]的，別再問了。
5932014399,澄心藥局,桃園市桃園區桃鶯路３０５號１樓,121.3193,24.98265,(03)3771468,羅氏家用新冠病毒抗原自我檢測套組,78,2022/05/03 19:57:02,營業時間:8:00-22:00
5932018593,品一藥局,桃園市桃園區建新街７６號,121.3118,24.98261,(03)3638510,羅氏家用新冠病毒抗原自我檢測套組,82,2022/05/03 19:57:02,快篩販賣時間：每天早上9：30販賣（星期天休息），會發號碼牌（今天已發完）
5932020360,日進藥局,桃園市中壢區中山東路二段１５６號,121.2394,24.95276,(03)4569132,羅氏家用新冠病毒抗原自我檢測套組,78,2022/05/03 19:57:02,營業時間:早上08:00至晚上09:30（週日下午休息）
5932021269,優良藥局,桃園市中壢區長春路２０號,121.2499,24.97907,(03)4612336,羅氏家用新冠病毒抗原自我檢測套組,1,2022/05/03 19:57:02,5／3快篩販售時間 18:00
5932021812,慧中健保藥局,桃園市中壢區成章二街１４１號１樓,121.2568,24.98025,(03)4556129,羅氏家用新冠病毒抗原自我檢測套組,78,2022/05/03 19:57:02,每日4:30開始領號碼牌販售快篩試劑
5932023012,鴻安中西藥局,桃園市中壢區新中北路二段１９１號１樓,121.2625,24.95597,(03)4520615,羅氏家用新冠病毒抗原自我檢測套組,78,2022/05/03 19:57:02,快篩1030-1130。週一到周日都有。週六停賣!!
5932030080,吉壽藥局,桃園市大溪區員林路三段４２號,121.2648,24.88175,(03)3802049,羅氏家用新冠病毒抗原自我檢測套組,78,2022/05/03 19:57:02,快篩試劑販賣時段：星期一~五晚上7:00起及星期六、日上午8:30起
5932030179,資生大藥局,桃園市大溪區康莊路１３２號,121.288,24.88146,(03)3882276,羅氏家用新冠病毒抗原自我檢測套組,78,2022/05/03 19:57:02,實名制快篩下午三點開賣
5932042679,得康美藥局,桃園市楊梅區環南路１２８號１樓,121.1466,24.90164,(03)4788128,羅氏家用新冠病毒抗原自我檢測套組,1,2022/05/03 19:57:02,快篩領取規則~早上:10:00-11:00發號碼牌 ／下午時段發快篩A:12:00-13:00 B:14:00-15:00 C:20:00-21:00
5932052933,天康南崁藥局,桃園市蘆竹區南崁路２４５號,121.2933,25.04894,(03)2122569,羅氏家用新冠病毒抗原自我檢測套組,2,2022/05/03 19:57:02,快篩販賣時段：週一至週日14:00起
5932052979,南崁藥局,桃園市蘆竹區中正路２５１、２５３、２５５號,121.2921,25.04695,(03)3522022,羅氏家用新冠病毒抗原自我檢測套組,1,2022/05/03 19:57:02,快篩實名制，每天16:00開始販售，售完為止。
5932062519,青埔辰安藥局,桃園市大園區致遠一路１號１樓,121.2111,25.00479,(03)2873274,羅氏家用新冠病毒抗原自我檢測套組,82,2022/05/03 19:57:02,無
5932071009,德佑藥局,桃園市龜山區大崗里新興街２９３號,121.3558,25.04531,(03)3283556,羅氏家用新冠病毒抗原自我檢測套組,85,2022/05/03 19:57:02,快篩試劑販賣時段為每日晚上07:30開始（星期日暫停販售）
5932077510,左外野藥局,桃園市龜山區文光街６號１樓,121.3802,25.05471,(03)3271503,羅氏家用新冠病毒抗原自我檢測套組,87,2022/05/03 19:57:02,快篩販售時間:19:30-20:30 （週五公休）*不發號碼牌 請直接排隊購買
5932077574,樂樂聯合藥局,桃園市龜山區萬壽路１段１０９號１、２樓,121.4091,25.01886,(02)82000560,羅氏家用新冠病毒抗原自我檢測套組,1,2022/05/03 19:57:02,實名制快篩於每日9點開始發放號碼牌，發完為止。 中午12點至14點半為藥局休息時間
5932083509,上方藥局,桃園市八德區廣褔路一八八號,121.279,24.96204,(03)3635902,羅氏家用新冠病毒抗原自我檢測套組,78,2022/05/03 19:57:02,口罩販賣時間下午3:00~5:00
5932083974,晨鴻藥師藥局,桃園市八德區桃鶯路７號１樓,121.3265,24.97179,(03)3764299,羅氏家用新冠病毒抗原自我檢測套組,54,2022/05/03 19:57:02,快篩為早上8:30跟晚上6:00領取號碼牌，因有送貨時間及短少的因素，所以快篩地圖數量參考就好，請勿再打電話詢問 謝謝
5932084668,奕成健保大藥局,桃園市八德區興豐路６７３號１樓,121.2958,24.93121,(03)3732113,羅氏家用新冠病毒抗原自我檢測套組,117,2022/05/03 19:57:02,早上10:30發放39份、晚上9:30發放39份  （六、日無放快篩）
5932084793,美康健保藥局,桃園市八德區桃鶯路９１號１、２樓,121.328,24.97036,(03)3613624,羅氏家用新冠病毒抗原自我檢測套組,78,2022/05/03 19:57:02,無
5932084828,阿爾富山藥局,桃園市八德區桃鶯路４號１樓,121.3261,24.97167,(03)3763350,羅氏家用新冠病毒抗原自我檢測套組,2,2022/05/03 19:57:02,8:00-22:00
5932124381,日昇藥局,桃園市觀音區成功路一段７８１號,121.119,25.05221,(03)4834212,羅氏家用新冠病毒抗原自我檢測套組,38,2022/05/03 19:57:02,下午4點及晚上9點各販售39份快篩試劑
5933011258,安東藥師藥局,新竹縣關西鎮中山路６２號,121.1766,24.79147,(03)5872385,羅氏家用新冠病毒抗原自我檢測套組,78,2022/05/03 19:57:02,口罩販賣時段：星期一至六08:00-21:00、星期日08:00-17:00
5933081536,昌昌藥局,新竹縣新豐鄉新市路１９３號,120.9846,24.90465,(03)5598077,羅氏家用新冠病毒抗原自我檢測套組,1,2022/05/03 19:57:02,5／3（二）號碼牌已發放完畢。下午2:00開始領快篩，下午3:00前領完，逾時視同放棄。
5935021261,永信藥師藥局,苗栗縣苑裡鎮和平路７２－１號,120.6549,24.44096,(037)857069,羅氏家用新冠病毒抗原自我檢測套組,75,2022/05/03 19:57:02,無
5935041781,惠家藥局,苗栗縣竹南鎮自強街３８號,120.8792,24.69138,(037)463635,羅氏家用新冠病毒抗原自我檢測套組,78,2022/05/03 19:57:02,口罩販賣時段：14:30-售完  星期日休息
5935041987,杏一竹南中正藥局,苗栗縣竹南鎮中正路２５７號１樓,120.873,24.68344,(037)480602,羅氏家用新冠病毒抗原自我檢測套組,78,2022/05/03 19:57:02,口罩販賣時段：13:00-售完
5936021363,小太陽藥局,臺中市東勢區豐勢路４１２之１、４１６號１樓,120.8292,24.25525,(04)25773481,羅氏家用新冠病毒抗原自我檢測套組,78,2022/05/03 19:57:02,早上7:30開始發號碼牌及販售（目前的數量是5／4星期三的）
5937013730,佳漾藥局,彰化縣彰化市延平路５８８號１樓,120.5374,24.06301,(04)7135518,羅氏家用新冠病毒抗原自我檢測套組,234,2022/05/03 19:57:02,5／3  快篩少量到貨目前已售完  等待下批到貨再另行公告
5937021330,順安藥局,彰化縣鹿港鎮泰興里復興路１２５號,120.4386,24.05279,(04)7765510,羅氏家用新冠病毒抗原自我檢測套組,78,2022/05/03 19:57:02,星期一至五與星期日:上班時間內皆可販售口罩    星期六停止販售口罩
5937021509,老信和藥局,彰化縣鹿港鎮頂番里鹿和路四段４０號,120.4811,24.08594,(04)7711098,羅氏家用新冠病毒抗原自我檢測套組,78,2022/05/03 19:57:02,周一至周五09:00~21:30  周六周日09:00~12:00
5937050279,廣信藥局,彰化縣員林市三信里中山路二段２０１號,120.5711,23.96517,(04)8337085,羅氏家用新冠病毒抗原自我檢測套組,14,2022/05/03 19:57:02,早上8:30開始販賣快篩試劑
5937050313,東禾藥局,彰化縣員林市仁美里和平東街６２－１號,120.5754,23.9623,(04)8350030,羅氏家用新冠病毒抗原自我檢測套組,27,2022/05/03 19:57:02,每天早上八點半開始販售，售完為止
5937050322,必安藥局,彰化縣員林市仁美里育英路１７４號,120.5741,23.96417,(04)8324986,羅氏家用新冠病毒抗原自我檢測套組,30,2022/05/03 19:57:02,無
5937050395,裕良大藥局,彰化縣員林市莒光路３號,120.5663,23.95163,(04)8360388,羅氏家用新冠病毒抗原自我檢測套組,18,2022/05/03 19:57:02,全年無休
5937050411,高藥局,彰化縣員林市東和里員水路二段５０５號,120.5773,23.95592,(04)8327808,羅氏家用新冠病毒抗原自我檢測套組,11,2022/05/03 19:57:02,每日早上8:50開始販售防疫口罩，星期日公休
5937051703,員林健康藥局,彰化縣員林市中正路２２４號１樓,120.5747,23.95417,(04)8396798,羅氏家用新冠病毒抗原自我檢測套組,91,2022/05/03 19:57:02,10月11日雙十連假有營業
5937051730,青田藥局,彰化縣員林市林森路一二七號,120.5778,23.95633,(04)8347776,羅氏家用新冠病毒抗原自我檢測套組,23,2022/05/03 19:57:02,無
5937051847,天一藥局,彰化縣員林市光明里中正路４４１號,120.5724,23.95817,(04)8384875,羅氏家用新冠病毒抗原自我檢測套組,20,2022/05/03 19:57:02,固定周一到周六，早上14:30開始販賣防疫口罩（現場排隊）。
5937051865,萬年藥局,彰化縣員林市員水路２段２０９號,120.5841,23.95512,(04)8366522,羅氏家用新冠病毒抗原自我檢測套組,14,2022/05/03 19:57:02,09:15 起販售口罩。盒裝口罩販售中....
5937051963,東山永安藥局,彰化縣員林市南東里山腳路４段３１號,120.5988,23.96424,(04)8311471,羅氏家用新冠病毒抗原自我檢測套組,23,2022/05/03 19:57:02,快篩試劑販賣，有貨時下午開賣.
5937051981,康美藥局,彰化縣員林市南平里南平街２６號,120.5646,23.96301,(04)8395172,羅氏家用新冠病毒抗原自我檢測套組,19,2022/05/03 19:57:02,無
5937052031,天天藥局,彰化縣員林市鎮興里員東路一段５５號,120.5991,23.96355,(04)8385573,羅氏家用新冠病毒抗原自我檢測套組,110,2022/05/03 19:57:02,固定周一到周六上午8:30發放號碼牌，8:30開始販售口罩。
5937052264,醫聯藥師藥局,彰化縣員林市三條里員東路二段４１０號１樓,120.5811,23.95898,(04)8360617,羅氏家用新冠病毒抗原自我檢測套組,28,2022/05/03 19:57:02,快篩實名制每天下午15:00開始販售，售完為止
5937052273,員林鼎澄藥局,彰化縣員林市仁愛里三民東街２５２號,120.58,23.95997,(04)8330918,羅氏家用新冠病毒抗原自我檢測套組,84,2022/05/03 19:57:02,實名制快篩，星期一-六每日下午2點開始依現場排隊販售
5937052317,員郭藥局,彰化縣員林市三民街３８－１號,120.573,23.95862,(04)8356201,羅氏家用新冠病毒抗原自我檢測套組,92,2022/05/03 19:57:02,無
5937052335,大樹三民藥局,彰化縣員林市三民東街３５６號,120.5825,23.96065,(04)8372837,羅氏家用新冠病毒抗原自我檢測套組,3,2022/05/03 19:57:02,快篩實名制，每天16:00開始販售，售完為止。
5937052451,統信藥局,彰化縣員林市正興街３７２號,120.5722,23.95997,(04)8367089,羅氏家用新冠病毒抗原自我檢測套組,73,2022/05/03 19:57:02,無
5937052479,莒光藥局,彰化縣員林市莒光路３１６號１樓,120.5669,23.95942,(04)8361388,羅氏家用新冠病毒抗原自我檢測套組,13,2022/05/03 19:57:02,快篩實名制，每天16:00開始販售，售完為止。
5937052504,佑全員林中正藥局,彰化縣員林市中正路１３５，１３７號１樓,120.5714,23.96324,(04)8368669,羅氏家用新冠病毒抗原自我檢測套組,44,2022/05/03 19:57:02,無
5937052540,莒光啄木鳥藥局,彰化縣員林市中山路一段４５４號１樓,120.5668,23.95171,(04)8399625,羅氏家用新冠病毒抗原自我檢測套組,10,2022/05/03 19:57:02,無
5937052559,知心健康藥局,彰化縣員林市三民東街１９６號１樓,120.5788,23.95965,(04)8396161,羅氏家用新冠病毒抗原自我檢測套組,24,2022/05/03 19:57:02,無
5937070164,安鑠藥局,彰化縣田中鎮中潭里和平路７６０號,120.5879,23.8685,(04)8748728,羅氏家用新冠病毒抗原自我檢測套組,27,2022/05/03 19:57:02,每日早上9點至11點發放號碼牌並開始販售貨（全年無休）
5937080179,台明藥局,彰化縣二林鎮東和里斗苑路五段２１３號,120.3678,23.90095,(04)8966176,羅氏家用新冠病毒抗原自我檢測套組,14,2022/05/03 19:57:02,週一到六上午8:10口罩開賣，不抽號碼；週日未固定公休
5937081390,永全藥局,彰化縣二林鎮二溪路一段１８號,120.3696,23.90134,(04)8958878,羅氏家用新冠病毒抗原自我檢測套組,24,2022/05/03 19:57:02,週一到六上午8點半開賣，不抽號碼；週日休息；
5937081514,加佳藥局,彰化縣二林鎮東和里仁愛路６７８號１樓,120.3643,23.90212,(04)8963080,羅氏家用新冠病毒抗原自我檢測套組,14,2022/05/03 19:57:02,快篩販賣時間週一至週五早上09:30-11:45 下午2:45-5:20 晚上6:30-8:45。週六早上9:30-11:45 下午晚上休息，周日全日休息!!
5937081541,康好藥局二林店,彰化縣二林鎮南光里大成路一段５６１號,120.3636,23.89337,(04)8966015,羅氏家用新冠病毒抗原自我檢測套組,2,2022/05/03 19:57:02,快篩實名制，早上09:00開始販售，售完為止。
5937111062,福興永安藥局,彰化縣福興鄉沿海路４段７３７號,120.4258,24.04239,(04)7745268,羅氏家用新冠病毒抗原自我檢測套組,78,2022/05/03 19:57:02,每天早上7點開始販售快篩試劑
5937151128,五行藥局,彰化縣大村鄉黃厝村１２鄰山腳路２－２６號,120.5898,23.982,(04)8527603,羅氏家用新冠病毒抗原自我檢測套組,42,2022/05/03 19:57:02,週一至週六早上09:45開始販賣口罩。
5937170034,淑惠藥局,彰化縣埔心鄉亙北村員鹿路一段２４４號,120.5574,23.95515,(04)8297798,羅氏家用新冠病毒抗原自我檢測套組,82,2022/05/03 19:57:02,星期一~星期六16:00-18:00（2小時販售快篩試劑），星期日：休
5937180030,生春大藥局,彰化縣永靖鄉東門路２３３號,120.547,23.92143,(04)8220929,羅氏家用新冠病毒抗原自我檢測套組,40,2022/05/03 19:57:02,週一至週六早上7點50分開始營業 週日公休
5937180094,天喜生大藥局,彰化縣永靖鄉永西村西門路４１號,120.545,23.9228,(04)8221821,羅氏家用新冠病毒抗原自我檢測套組,79,2022/05/03 19:57:02,每個星期天暫停發放
5937181260,永茗藥局,彰化縣永靖鄉永東村東門路１９８號,120.5477,23.92182,(04)8242721,羅氏家用新冠病毒抗原自我檢測套組,8,2022/05/03 19:57:02,每日代售時間早上8:00-19:00，星期日公休
5937181279,佳恩藥局,彰化縣永靖鄉永西村瑚璉路３０２號,120.547,23.92421,(04)8235753,羅氏家用新冠病毒抗原自我檢測套組,7,2022/05/03 19:57:02,快篩實名制 :電話預約制，當日早上9點開始預約（5／3已額滿）
5937190063,新保和藥局,彰化縣社頭鄉社頭村員集路２段２２４號,120.5878,23.89874,(04)8732330,羅氏家用新冠病毒抗原自我檢測套組,21,2022/05/03 19:57:02,上午8:30開始
5937191195,藥典大藥局,彰化縣社頭鄉清水岩路２３９號,120.5924,23.89976,(04)8732497,羅氏家用新冠病毒抗原自我檢測套組,2,2022/05/03 19:57:02,營業時間:早上8點至晚上9:30
5937191248,佳和藥局,彰化縣社頭鄉社頭村員集路２段３３３號,120.5868,23.90071,(04)8731331,羅氏家用新冠病毒抗原自我檢測套組,80,2022/05/03 19:57:02,無
5937191300,社頭藥局,彰化縣社頭鄉社斗路一段３７３號,120.5846,23.89651,(04)8720030,羅氏家用新冠病毒抗原自我檢測套組,16,2022/05/03 19:57:02,快篩實名制，每天16:00開始販售，售完為止。
5937221198,祐幼藥局,彰化縣埤頭鄉合興村彰水路3段496號,120.4594,23.89158,(04)8911910,羅氏家用新冠病毒抗原自我檢測套組,3,2022/05/03 19:57:02,無
5937251150,竹塘健保藥局,彰化縣竹塘鄉竹塘村文化街５０號,120.428,23.8608,(04)8976180,羅氏家用新冠病毒抗原自我檢測套組,24,2022/05/03 19:57:02,無
5938010546,福倫藥局,南投縣南投市南陽路３４５號,120.6835,23.91306,(049)2202918,羅氏家用新冠病毒抗原自我檢測套組,2,2022/05/03 19:57:02,每日上午10點開始發放號碼牌並販售
5938021521,大家好藥局,南投縣埔里鎮中山路２段２６２－１號,120.9686,23.96652,(049)2995876,羅氏家用新冠病毒抗原自我檢測套組,78,2022/05/03 19:57:02,3／26下午休息，4／3-4／5休息
5938022171,博今藥局,南投縣埔里鎮東潤路２０號,120.9942,23.93519,(049)2926689,羅氏家用新冠病毒抗原自我檢測套組,1,2022/05/03 19:57:02,防疫口罩每日上午9時30分開始販售
5938040044,仁山藥局,南投縣竹山鎮昭德街２３號,120.6862,23.75827,(049)2657720,羅氏家用新冠病毒抗原自我檢測套組,7,2022/05/03 19:57:02,口罩代售時間週一~週六自上午08:30-21:00，售完為止；
5938040151,快安藥局,南投縣竹山鎮延平里集山路三段１３號,120.7065,23.76677,(049)2643048,羅氏家用新冠病毒抗原自我檢測套組,78,2022/05/03 19:57:02,口罩代售時間週一~週六自08:00-21.00（週四.週六下午.週日公休但不定時營業
5938040295,氏林藥局,南投縣竹山鎮中山里雲林路７３號,120.6818,23.75463,(049)2645829,羅氏家用新冠病毒抗原自我檢測套組,14,2022/05/03 19:57:02,早上8:30開始營業，營業時間皆有販售.售完為止，周日公休
5938040437,宏明堂藥局,南投縣竹山鎮竹山里橫街８８號,120.6831,23.75616,(049)2642202,羅氏家用新冠病毒抗原自我檢測套組,29,2022/05/03 19:57:02,早上7:30開始營業至晚上9:00。（全年無休）
5938041569,竹山福倫藥局,南投縣竹山鎮竹山里集山路三段858號,120.6857,23.75881,(049)2658518,羅氏家用新冠病毒抗原自我檢測套組,6,2022/05/03 19:57:02,下午1點現場排隊販售
5938041809,維淇藥師藥局,南投縣竹山鎮集山路三段８１６－１號,120.6863,23.75949,(049)2653689,羅氏家用新冠病毒抗原自我檢測套組,40,2022/05/03 19:57:02,早上8：30~晚上21：00，星期六下午晚上及星期日休息
5938041845,博愛藥局,南投縣竹山鎮雲林路３５號,120.6836,23.75612,(049)2642748,羅氏家用新冠病毒抗原自我檢測套組,82,2022/05/03 19:57:02,0830AM開始販售，售完為止
5938041916,大明藥局,南投縣竹山鎮大明路４８２號,120.6798,23.759,(049)2652500,羅氏家用新冠病毒抗原自我檢測套組,25,2022/05/03 19:57:02,快篩實名制，每天16:00開始販售，售完為止。
5938110078,立特藥局,南投縣水里鄉中央村中正路６８號,120.8543,23.81587,(049)2775837,羅氏家用新冠病毒抗原自我檢測套組,1,2022/05/03 19:57:02,每天早上8點現場排隊持健保卡領號碼牌，下午3點至晚上9點半持號碼牌領快篩劑
5939012133,鎮東藥局,雲林縣斗六市中華路４６０號,120.5516,23.70846,(05)5332449,羅氏家用新冠病毒抗原自我檢測套組,30,2022/05/03 19:57:02,星期二. 五 下午及晚上休息  星期六全天休息 （國定假日 星期日 9:00開始 晚上7:30 休息 ）
5939021543,惠宏藥局,雲林縣斗南鎮延平路２段２６４號,120.4786,23.67841,(05)5953727,羅氏家用新冠病毒抗原自我檢測套組,2,2022/05/03 19:57:02,快篩販售時間為下午2:00
5939021570,他里霧藥局,雲林縣斗南鎮民權路１９號,120.479,23.67382,(05)5950560,羅氏家用新冠病毒抗原自我檢測套組,78,2022/05/03 19:57:02,因進貨系統問題 實際數量請（扣78份）／預計早上10點開始販賣
5939032724,虎尾藥局,雲林縣虎尾鎮林森路二段１１７、１１９號,120.4298,23.70595,(05)6336330,羅氏家用新冠病毒抗原自我檢測套組,468,2022/05/03 19:57:02,新開業，健保系統線路建置中，尚無法使用健保系統販售實名制快篩試劑。
5939040164,一元藥局,雲林縣西螺鎮福興路１７５號,120.4605,23.80032,(05)5879987,羅氏家用新冠病毒抗原自我檢測套組,78,2022/05/03 19:57:02,販賣口罩時間:0800~售完為止
5939090146,明泰藥局,雲林縣莿桐鄉莿桐村中山路１０６號,120.5002,23.75753,(05)5842824,羅氏家用新冠病毒抗原自我檢測套組,78,2022/05/03 19:57:02,販賣口罩時間08:30至完售
5939150012,博順藥局,雲林縣褒忠鄉中正路３２５之３號,120.3081,23.69338,(05)6971048,羅氏家用新冠病毒抗原自我檢測套組,15,2022/05/03 19:57:02,因故無法發口罩，已向健保局告知。
5939151135,三民藥局,雲林縣褒忠鄉三民路１５號,120.3109,23.69352,(05)6975515,羅氏家用新冠病毒抗原自我檢測套組,3,2022/05/03 19:57:02,時間：08:00至完售
5939171093,和平藥局,雲林縣元長鄉下寮村東興路３３號,120.334,23.61849,(05)7862551,羅氏家用新冠病毒抗原自我檢測套組,3,2022/05/03 19:57:02,販賣口罩時間：0800開賣，賣完為止
5939200011,優生藥局,雲林縣水林鄉水林路９９巷２號,120.247,23.57205,(05)7856307,羅氏家用新冠病毒抗原自我檢測套組,36,2022/05/03 19:57:02,販賣快篩試劑時間:5月1日早上8點有販售
5940021086,進發藥局,嘉義縣布袋鎮興中里後寮路７２巷２７號,120.1586,23.37867,(05)3470388,羅氏家用新冠病毒抗原自我檢測套組,21,2022/05/03 19:57:02,防疫口罩銷售時間:星期一14:00起星期二~六07:45起售完為止
5940040072,三和藥局,嘉義縣民雄鄉中樂村中樂路５３號,120.4302,23.55603,(05)2262488,羅氏家用新冠病毒抗原自我檢測套組,48,2022/05/03 19:57:02,販賣時間 上午10:00-12:00 ， 下午14:00-16:00 ， 星期日10:00-12:00 ，以現場為主售完就停止
5940040232,鈞安藥局,嘉義縣民雄鄉山中村１８７之５號,120.4103,23.51833,(05)2218622,羅氏家用新冠病毒抗原自我檢測套組,1,2022/05/03 19:57:02,上午7:00-晚上9:30，六日不定期休息
5940040321,上安藥局,嘉義縣民雄鄉西安路４６－２３號,120.4259,23.55737,(05)2261216,羅氏家用新冠病毒抗原自我檢測套組,27,2022/05/03 19:57:02,W1-W6上午八點-售罄（週日1600開始販售）
5940041435,嘉方藥局,嘉義縣民雄鄉中樂村昇平路５８號,120.4303,23.55781,(05)2066747,羅氏家用新冠病毒抗原自我檢測套組,55,2022/05/03 19:57:02,早上08:00開始販賣，賣完為止
5940041668,民雄照安藥局,嘉義縣民雄鄉中樂路２１號１樓,120.431,23.55621,(05)2060368,羅氏家用新冠病毒抗原自我檢測套組,7,2022/05/03 19:57:02,周一至周日8:00開始販售口罩，現場排隊，售完為止
5940041695,春森藥局,嘉義縣民雄鄉東榮村９鄰和平路３７號,120.4318,23.55674,(05)2266957,羅氏家用新冠病毒抗原自我檢測套組,8,2022/05/03 19:57:02,08:00~售罄
5940041720,民雄久久藥局,嘉義縣民雄鄉西安村安和路２號之１,120.4277,23.55599,(05)2263294,羅氏家用新冠病毒抗原自我檢測套組,30,2022/05/03 19:57:02,快篩領取:配送到貨開始販售，至售完為止
5940041739,民雄藥局,嘉義縣民雄鄉東榮村００５鄰建國路一段１１７號,120.4333,23.55681,(05)2264566,羅氏家用新冠病毒抗原自我檢測套組,29,2022/05/03 19:57:02,快篩實名制，每天16:00開始販售，售完為止。
5940041748,大祐藥局,嘉義縣民雄鄉西安村西安路２１－１號１樓,120.4272,23.5564,(05)2067077,羅氏家用新冠病毒抗原自我檢測套組,60,2022/05/03 19:57:02,週日下午晚上休息
5940041784,福興瑞安藥局,嘉義縣民雄鄉東榮村東榮路１０號,120.4332,23.55743,(05)2265396,羅氏家用新冠病毒抗原自我檢測套組,62,2022/05/03 19:57:02,因物流配送時間不確定.每日實名制快篩販售時間請見Facebook紛絲專頁或goolemaps貼文公告
5940120137,德安藥局,嘉義縣水上鄉南和村後寮２６之６號,120.362,23.41007,(05)2688835,羅氏家用新冠病毒抗原自我檢測套組,70,2022/05/03 19:57:02,星期日公休
5940120191,大嘉藥局,嘉義縣水上鄉正義路１巷１６號,120.4006,23.43044,(05)2689031,羅氏家用新冠病毒抗原自我檢測套組,86,2022/05/03 19:57:02,08:00~售罄
5940131283,一心藥局,嘉義縣中埔鄉富收村頂中下街３１、３１－１號１樓,120.4885,23.45077,(05)2303553,羅氏家用新冠病毒抗原自我檢測套組,2,2022/05/03 19:57:02,無
5941030114,協宏藥局,臺南市白河區竹門里９８之３號,120.4466,23.37697,(06)6852961,羅氏家用新冠病毒抗原自我檢測套組,85,2022/05/03 19:57:02,快篩  08 : 30-20:00
5941100013,嘉民藥局,臺南市後壁區嘉民里上茄苳１４６號,120.3776,23.38772,(06)6882322,羅氏家用新冠病毒抗原自我檢測套組,2,2022/05/03 19:57:02,早上7:00-11:30下午2:30-8:30星期六至16:30*星期日公休
5941270163,太子藥局,臺南市仁德區太子里太子路３３８號,120.2577,22.99146,(06)2729906,羅氏家用新冠病毒抗原自我檢測套組,6,2022/05/03 19:57:02,5／3快篩已售完
5942010214,謝藥局,高雄市鳳山區南江街１２６號,120.3386,22.60139,(07)7226685,羅氏家用新冠病毒抗原自我檢測套組,1,2022/05/03 19:57:02,自2／11日~2／29日，營業日07:10~21:20為販賣口罩時間，售完為止
5942010349,長英藥局,高雄市鳳山區八德路二段２６７號,120.3519,22.64479,(07)7805002,羅氏家用新冠病毒抗原自我檢測套組,12,2022/05/03 19:57:02,4／29起-營業日15:00~17:00為快篩販賣時間，售完為止。
5942011480,頂好藥師藥局,高雄市鳳山區光華東路１５號,120.3565,22.61923,(07)7430834,羅氏家用新冠病毒抗原自我檢測套組,5,2022/05/03 19:57:02,自2／11日~2／29日，營業日10:00~21:00為販賣口罩時間，售完為止
5942011524,中華藥局,高雄市鳳山區中山路１４２號,120.3572,22.62448,(07)7472853,羅氏家用新冠病毒抗原自我檢測套組,1,2022/05/03 19:57:02,每日需等政府配送.時間不定.配送到立即販售.售完為止
5942013699,新怡安藥局,高雄市鳳山區海洋里新富路５１２號,120.3474,22.61403,(07)7633565,羅氏家用新冠病毒抗原自我檢測套組,3,2022/05/03 19:57:02,快篩如果送貨正常一般都早上九點販售  如果供貨時間異常就下午兩點
5942013902,順發藥局,高雄市鳳山區新強里新富路２３９號,120.3389,22.61296,(07)7630666,羅氏家用新冠病毒抗原自我檢測套組,23,2022/05/03 19:57:02,實名制快篩販售時間-早上8:30~11:30、午晚15:00~20:30，星期六午晚及星期日不販售。
5942013920,康博藥局,高雄市鳳山區新樂里南京路１５３－１２號,120.3452,22.60952,(07)7671755,羅氏家用新冠病毒抗原自我檢測套組,7,2022/05/03 19:57:02,6／3端午節不營業 每日營業時間:9:00--12:30   1500---2130 周日休息
5942020265,建元藥局,高雄市岡山區大仁北路１０４號,120.3018,22.80071,(07)6216672,羅氏家用新冠病毒抗原自我檢測套組,78,2022/05/03 19:57:02,販售時間早上八點售完為止 （如餘78份，屬隔日早上的數量）
5942030092,天明藥局,高雄市旗山區大同路至誠巷１５號,120.4818,22.88361,(07)6621311,羅氏家用新冠病毒抗原自我檢測套組,36,2022/05/03 19:57:02,營業日8:00~發號碼牌 8:30領至下午9:00為販賣口罩時間，售完為止8:00
5942030225,吉本藥局,高雄市旗山區旗南里中洲路４７４－１號,120.465,22.83976,(07)6663226,羅氏家用新冠病毒抗原自我檢測套組,3,2022/05/03 19:57:02,營業日0800~2200，14:00開始發號碼牌14:30起為配售口罩時間.售完為止；周六公休無配售口罩；
5942031366,辰安藥局,高雄市旗山區延平一路５４５號,120.4833,22.88713,(07)6623545,羅氏家用新冠病毒抗原自我檢測套組,17,2022/05/03 19:57:02,3／13日起，營業日09:00起為販賣口罩時間，售完為止
5942100071,皇佳藥局,高雄市鳥松區仁美里高碼二路１２號,120.3893,22.65769,(07)7312918,羅氏家用新冠病毒抗原自我檢測套組,156,2022/05/03 19:57:02,實名制快篩，晚上八點開始販售，現場排隊購買，售完為止，週日無販售
5942190039,立達藥局,高雄市彌陀區中正西路２５９－２號,120.2453,22.785,(07)6179277,羅氏家用新冠病毒抗原自我檢測套組,53,2022/05/03 19:57:02,★快篩如於上午到貨，則於中午12點整開賣，如午後到貨，則於隔日中午12點開賣★慢籤免費領藥★
5942220023,維康藥局,高雄市甲仙區西安里中正路２２號,120.5885,23.08291,(07)6752585,羅氏家用新冠病毒抗原自我檢測套組,1,2022/05/03 19:57:02,自2／11日~2／29日，營業日07:00起為販賣口罩時間，售完為止
5943012570,和信藥局,屏東縣屏東市棒球路８９號,120.4807,22.65578,(08)7515918,羅氏家用新冠病毒抗原自我檢測套組,87,2022/05/03 19:57:02,5／319:00開始 銷售快篩每日九點更新當日訊息 營業時間8-12 15-18 19-21
5943013880,一二藥局,屏東縣屏東市廣東路１０９４號,120.484,22.68769,(08)7324688,羅氏家用新冠病毒抗原自我檢測套組,78,2022/05/03 19:57:02,防疫快篩售完...明日AM10:00開始
5943125205,萬巒健保藥局,屏東縣萬巒鄉褒忠路７７號,120.5705,22.57219,(08)7815919,羅氏家用新冠病毒抗原自我檢測套組,4,2022/05/03 19:57:02,自2／11日~2／29日，營業日09:00發號碼牌，14:30~21:00為販賣口罩時間，售完為止。
5945021086,安康鳳林藥局,花蓮縣鳳林鎮仁愛街１０號１樓,121.4503,23.74937,(03)8762227,羅氏家用新冠病毒抗原自我檢測套組,1,2022/05/03 19:57:02,快篩發放時間，依現場公告為主，售完為止。
5945051575,宜康藥局,花蓮縣吉安鄉中華路二段１３４號,121.585,23.97395,(03)8512980,羅氏家用新冠病毒抗原自我檢測套組,196,2022/05/03 19:57:02,5／2（一）全天休診
5945051673,上善藥局,花蓮縣吉安鄉吉安路二段３９號,121.5617,23.97128,(03)8535618,羅氏家用新冠病毒抗原自我檢測套組,1,2022/05/03 19:57:02,4／30~5／2休息（快篩領取時間:上午9~11）
5945051682,享寧藥局,花蓮縣吉安鄉中正路一段２號１樓,121.594,23.96871,(03)8526532,羅氏家用新冠病毒抗原自我檢測套組,78,2022/05/03 19:57:02,W1-5為8:30-12及2pm-9pm、W6為8:30-12。口罩販賣時間:營業時間早上九點開始
5945051735,杏一吉安建國藥局,花蓮縣吉安鄉建國路１段１４１、１４３號１樓,121.5911,23.98589,(03)8575611,羅氏家用新冠病毒抗原自我檢測套組,78,2022/05/03 19:57:02,（5／3 雙號 今已全數售完）-5／4號單號78份快篩中午12點開賣
5945091088,立健藥局,花蓮縣瑞穗鄉中華路９２號,121.38,23.498,(03)8870184,羅氏家用新冠病毒抗原自我檢測套組,78,2022/05/03 19:57:02,服務時間：07:30-22:00
5946080552,伯安健康藥局,臺東縣長濱鄉長濱村１０鄰長濱路１０５號,121.4515,23.31496,(089)832519,羅氏家用新冠病毒抗原自我檢測套組,119,2022/05/03 19:57:02,無
5946101118,伯安藥局,臺東縣池上鄉新生路１１６號,121.2187,23.12315,(089)863585,羅氏家用新冠病毒抗原自我檢測套組,169,2022/05/03 19:57:02,早0800-1200，午1400-1800，晚1800-2000
