醫事機構代碼,醫事機構名稱,醫事機構地址,經度,緯度,醫事機構電話,廠牌項目,快篩試劑截至目前結餘存貨數量,來源資料時間,備註
2340170016,嘉義縣大埔鄉衛生所,嘉義縣大埔鄉大埔村５３－１號,120.5928,23.29397,(05)2521214,羅氏家用新冠病毒抗原自我檢測套組,78,2022/05/06 15:12:02,無
2342130010,高雄市田寮區衛生所,高雄市田寮區南安里崗北路３２號,120.3594,22.87301,(07)6361504,羅氏家用新冠病毒抗原自我檢測套組,77,2022/05/06 15:12:02,巡迴醫療:每星期一、四下午及每月第一個有上班的星期三下午巡迴醫療
2342250017,高雄市茂林區衛生所,高雄市茂林區茂林里茂林巷８－４號,120.6641,22.88641,(07)6801046,羅氏家用新冠病毒抗原自我檢測套組,60,2022/05/06 15:12:02,夜間急診，請先撥電話07-6801046
2342260013,高雄市桃源區衛生所,高雄市桃源區桃源里南進巷１８８－１號,120.7642,23.15845,(07)6861126,羅氏家用新冠病毒抗原自我檢測套組,90,2022/05/06 15:12:02,IDS提供24小時服務
2342270019,高雄市那瑪夏區衛生所,高雄市那瑪夏區瑪雅里６鄰平和巷２５２號,120.7024,23.24708,(07)6701142,羅氏家用新冠病毒抗原自我檢測套組,275,2022/05/06 15:12:02,春節期間正常門診
2344011036,澎湖縣馬公市第三衛生所,澎湖縣馬公市西文里１１８之２號,119.5836,23.56813,(06)9211723,羅氏家用新冠病毒抗原自我檢測套組,24,2022/05/06 15:12:02,本所快篩試劑只提供離島衛生室（虎井、桶盤）販售，時間週一至週五08:30-17:00售完為止，星期六、日國定假日09:00-12:00。
2344030022,澎湖縣白沙鄉鳥嶼衛生所,澎湖縣白沙鄉鳥嶼村漁港新村３號,119.6599,23.66008,(06)9916092,羅氏家用新冠病毒抗原自我檢測套組,86,2022/05/06 15:12:02,非上班時間提供急診服務
2344030031,澎湖縣白沙鄉吉貝衛生所,澎湖縣白沙鄉吉貝村８－１３號,119.6138,23.74056,(06)9911430,羅氏家用新冠病毒抗原自我檢測套組,56,2022/05/06 15:12:02,無
2344050015,澎湖縣望安鄉衛生所,澎湖縣望安鄉西安村３６－７號,119.4972,23.36161,(06)9991036,羅氏家用新冠病毒抗原自我檢測套組,139,2022/05/06 15:12:02,夜間急診。口罩、快篩試劑販售時間為:每日08:00-12:00、13:30-17:30售完為止，如有餘數為離島未售出（東嶼坪、花嶼）。
2344050024,澎湖縣望安鄉將軍衛生所,澎湖縣望安鄉將軍村１２鄰將軍澳１之３號,119.5216,23.3615,(06)9902066,羅氏家用新冠病毒抗原自我檢測套組,154,2022/05/06 15:12:02,24小時急診
2344060011,澎湖縣七美鄉衛生所,澎湖縣七美鄉中和村埔內５４號,119.431,23.2041,(06)9971005,羅氏家用新冠病毒抗原自我檢測套組,62,2022/05/06 15:12:02,無
2391030016,連江縣莒光鄉西莒衛生所,連江縣莒光鄉青帆村１４－１號,119.9331,25.97157,(083)689122,羅氏家用新冠病毒抗原自我檢測套組,326,2022/05/06 15:12:02,防疫口罩星期一至五09:00-17:00、（六）09:00-12:00現場購買
2391030026,連江縣莒光鄉東莒衛生所,連江縣莒光鄉大坪村３０－１號,119.9731,25.96113,(083)689038,羅氏家用新冠病毒抗原自我檢測套組,460,2022/05/06 15:12:02,防疫口罩星期一至星期日上午10:00-12:00收取健保卡，下午3:30至本所領取口罩。
5901012570,予志藥局,臺北市松山區富錦街５２１號,121.5649,25.06119,(02)27623522,羅氏家用新冠病毒抗原自我檢測套組,78,2022/05/06 15:12:02,實名制快篩星期一到三下午2點、星期四到六晚上8點、星期日停售
5901012598,婕登藥局,臺北市松山區八德路４段６９９號,121.5766,25.05021,(02)27482893,羅氏家用新冠病毒抗原自我檢測套組,5,2022/05/06 15:12:02,今天快篩已經發送完畢（電腦庫存不準）
5901012632,晨安藥局,臺北市松山區八德路３段１５５巷２０弄２號,121.5553,25.04914,(02)25798460,羅氏家用新冠病毒抗原自我檢測套組,47,2022/05/06 15:12:02,快篩實名制販售時間:平日下午3點-假日下午1點；現場販售，不抽號碼牌。
5901012749,躍獅松和藥局,臺北市松山區八德路四段６６６－１號,121.5761,25.04979,(02)27492569,羅氏家用新冠病毒抗原自我檢測套組,78,2022/05/06 15:12:02,實名制快篩販售時段，每日下午4點販售，售完為止
5901013095,康采藥局,臺北市松山區南京東路５段２９１巷１７－２號,121.5663,25.05236,(02)27670271,羅氏家用新冠病毒抗原自我檢測套組,24,2022/05/06 15:12:02,（已完售，庫存不準）快篩試劑每日16點販售，週日沒有販售
5901013200,專品南京藥局,臺北市松山區南京東路４段７３號,121.5532,25.05185,(02)25147685,羅氏家用新冠病毒抗原自我檢測套組,55,2022/05/06 15:12:02,無
5901013399,一安正昇藥局,臺北市松山區南京東路５段３０９號,121.5667,25.05155,(02)27680993,羅氏家用新冠病毒抗原自我檢測套組,7,2022/05/06 15:12:02,快篩發放時間  下午14:30
5901013442,松山八德藥局,臺北市松山區八德路２段４００號,121.5466,25.04804,(02)27782773,羅氏家用新冠病毒抗原自我檢測套組,78,2022/05/06 15:12:02,快篩實名制，每天16:00開始販售，售完為止。
5901013693,民生盛康藥局,臺北市松山區民生東路５段２０４號１樓,121.5648,25.05826,(02)27460758,羅氏家用新冠病毒抗原自我檢測套組,139,2022/05/06 15:12:02,【每日70分】每日早上9:00發號碼牌，14:00~20:00拿號碼牌回來領取，每人限1張號碼牌，逾時不候
5901013700,杏一台北台安藥局,臺北市松山區八德路２段３９９號１樓,121.5465,25.04833,(02)87728295,羅氏家用新冠病毒抗原自我檢測套組,54,2022/05/06 15:12:02,快篩實名制販售時間為每天下午15:00，開賣前10分鐘發放號碼牌，售完為止
5901013737,全欣藥局,臺北市松山區復興北路７３號２樓,121.5442,25.05104,(02)87729066,羅氏家用新冠病毒抗原自我檢測套組,9,2022/05/06 15:12:02,9:00am開始販售30人份15:00販售30人份:18:00販售17人份；週六:9:00販售39人份；週日:15:00販售39人份....排隊人數滿會先發號碼
5901020465,杏友藥局,臺北市大安區復興南路２段１５１巷２５號,121.5446,25.02847,(02)27079451,羅氏家用新冠病毒抗原自我檢測套組,53,2022/05/06 15:12:02,週一-週六 下午3:00開始發放快篩，發完為止
5901020689,四維藥局,臺北市大安區復興南路２段１５１巷４３號１樓,121.5454,25.02846,(02)27094222,羅氏家用新冠病毒抗原自我檢測套組,6,2022/05/06 15:12:02,假日可先打電話聯絡
5901020787,吉成藥局,臺北市大安區泰順街７號,121.5316,25.02557,(02)23636475,羅氏家用新冠病毒抗原自我檢測套組,47,2022/05/06 15:12:02,每日下午三點發放號碼牌，同時間開始販賣實名制快篩，四點結束，週日無發放
5901023411,長虹藥局,臺北市大安區忠孝東路４段２１６巷 ６３號,121.5531,25.0382,(02)27210232,羅氏家用新冠病毒抗原自我檢測套組,1,2022/05/06 15:12:02,2:30pm 發實名制快篩（現場排隊領號碼牌，依序購買，過號請重新排隊）
5901024098,杏一瑞安藥局,臺北市大安區瑞安街２０８巷１１弄１號,121.5406,25.02866,(02)27096710,羅氏家用新冠病毒抗原自我檢測套組,22,2022/05/06 15:12:02,3點發快篩，前5分鐘發牌
5901024114,好安心藥局,臺北市大安區和平東路２段９８之２號,121.5415,25.02493,(02)23772166,羅氏家用新冠病毒抗原自我檢測套組,25,2022/05/06 15:12:02,快篩發放: 週一至週六 15:30現場開始販售，不發號碼牌。
5901024347,博大藥局,臺北市大安區安和路２段６５號,121.5526,25.03063,(02)27027858,羅氏家用新冠病毒抗原自我檢測套組,6,2022/05/06 15:12:02,若有配給．下午兩點開始販售。
5901024472,忠孝康承健保藥局,臺北市大安區復興南路１段１０７巷４號,121.5444,25.04357,(02)87733378,羅氏家用新冠病毒抗原自我檢測套組,60,2022/05/06 15:12:02,周一公休
5901024516,博昱師大藥局,臺北市大安區羅斯福路３段１８９號,121.5281,25.02109,(02)23696966,羅氏家用新冠病毒抗原自我檢測套組,1,2022/05/06 15:12:02,實名制快篩販售時間為下午14:00~15:30
5901024678,大安健康人生藥局,臺北市大安區信義路４段３４號,121.5447,25.03316,(02)27025553,羅氏家用新冠病毒抗原自我檢測套組,56,2022/05/06 15:12:02,快篩發放時間:下午3點開始發放號碼牌，並依序入場購買，請協助自備紙鈔
5901024687,博昱大藥局,臺北市大安區樂業街１４８號、１５０號,121.5529,25.01998,(02)23776199,羅氏家用新冠病毒抗原自我檢測套組,78,2022/05/06 15:12:02,快篩發放為周一至周五1600開始發放
5901024703,吾家藥局,臺北市大安區信義路４段２６５巷６之１號,121.5542,25.03372,(02)27066425,羅氏家用新冠病毒抗原自我檢測套組,38,2022/05/06 15:12:02,實名制快篩於每日下午三點到四點開放 只限此時段販售 建議您於2點多到現場等候
5901024918,康祥藥局,臺北市大安區忠孝東路４段２１６巷２１號,121.5531,25.04025,(02)27817891,羅氏家用新冠病毒抗原自我檢測套組,78,2022/05/06 15:12:02,星期天11:00-19:00
5901025059,博醫仁愛藥局,臺北市大安區仁愛路４段８巷２號１樓,121.5443,25.0375,(02)27019107,羅氏家用新冠病毒抗原自我檢測套組,1,2022/05/06 15:12:02,每天11:30發號碼牌，12:00~15:00憑號碼牌與健保卡購買實名制快篩
5901025077,敦南春天藥局,臺北市大安區敦化南路２段８１巷６３號１樓,121.5513,25.03002,(02)27553266,羅氏家用新冠病毒抗原自我檢測套組,6,2022/05/06 15:12:02,快篩待售時間:週一至週日15:00現場排隊購買，售完為止。（物流配送不及則例外，以門市公告為主）
5901090341,正中藥局,臺北市大同區民族西路２１３號,121.5142,25.06874,(02)25976937,羅氏家用新冠病毒抗原自我檢測套組,31,2022/05/06 15:12:02,無
5901091688,宏泰藥師藥局,臺北市大同區酒泉街１３１號,121.5145,25.07213,(02)25957025,羅氏家用新冠病毒抗原自我檢測套組,1,2022/05/06 15:12:02,週一至週五9:30-22:00。週日14:00-22:00※快篩發放號碼牌時間為14:30，發完為止。
5901091884,躍獅雙蓮藥局,臺北市大同區涼州街４號,121.5147,25.06078,(02)25537551,羅氏家用新冠病毒抗原自我檢測套組,123,2022/05/06 15:12:02,實名制快篩：平日週一～五 下午３點開賣 （六、日停售）
5901092112,酒泉春天藥局,臺北市大同區酒泉街９４號、９４號２樓,121.5146,25.07193,(02)25977932,羅氏家用新冠病毒抗原自我檢測套組,34,2022/05/06 15:12:02,無
5901092130,大同民生藥局,臺北市大同區民生西路１２８號１樓、２樓及１３０號１樓、２樓,121.5191,25.05734,(02)25558886,羅氏家用新冠病毒抗原自我檢測套組,78,2022/05/06 15:12:02,快篩實名制，每天16:00開始販售，售完為止。
5901100440,優豐藥局,臺北市中山區民生東路１段３２號,121.5242,25.05794,(02)25602565,羅氏家用新冠病毒抗原自我檢測套組,46,2022/05/06 15:12:02,下午3點現場作業不分發號碼牌
5901101509,永直藥局,臺北市中山區北安路５９５巷２弄６號,121.5483,25.08192,(02)85098059,羅氏家用新冠病毒抗原自我檢測套組,258,2022/05/06 15:12:02,今日號碼牌（5／6）已發完，周一至周六早上8點發號碼牌，下午2點到晚上8點販售（拿號碼牌來買）
5901102444,啟美藥師藥局,臺北市中山區錦州街２８２號,121.5352,25.06024,(02)25178032,羅氏家用新冠病毒抗原自我檢測套組,78,2022/05/06 15:12:02,快篩 販售時間 20點開賣到21點，星期六日公休
5901102597,德惠藥局,臺北市中山區德惠街１２２號,121.53,25.06652,(02)25971131,羅氏家用新冠病毒抗原自我檢測套組,78,2022/05/06 15:12:02,每日下午3點30分開始販售快篩實名制
5901102677,興康源藥局,臺北市中山區中山北路１段１４０巷８號,121.5214,25.05143,(02)25311248,羅氏家用新冠病毒抗原自我檢測套組,26,2022/05/06 15:12:02,無
5901102855,錦西春天生活藥局,臺北市中山區錦西街１０號,121.5216,25.06024,(02)25312658,羅氏家用新冠病毒抗原自我檢測套組,45,2022/05/06 15:12:02,快篩14:40領號碼牌 15:00開始販售
5901103414,元宏藥局,臺北市中山區北安路４５８巷４１弄４９號,121.5465,25.0794,(02)25339728,羅氏家用新冠病毒抗原自我檢測套組,1,2022/05/06 15:12:02,快篩試劑若有送達，則於下午2:30販售，不提供號碼牌，現場排隊。
5901103423,農安藥局,臺北市中山區農安街１８之１號,121.5248,25.06483,(02)25959293,羅氏家用新冠病毒抗原自我檢測套組,1,2022/05/06 15:12:02,快篩2點發號碼牌 3點後來拿
5901103629,十二願藥局,臺北市中山區林森北路３０９號,121.5256,25.05588,(02)25311223,羅氏家用新冠病毒抗原自我檢測套組,71,2022/05/06 15:12:02,快篩晚上8點開始發放.營業時間下午1點至凌晨3點
5901103656,大樹龍江藥局,臺北市中山區龍江路２４２號,121.5406,25.05889,(02)25035666,羅氏家用新冠病毒抗原自我檢測套組,78,2022/05/06 15:12:02,國定假日仍執行調劑業務
5901103674,康廷藥局,臺北市中山區北安路６１１號（實際營業地址：１層）,121.5488,25.08253,(02)25335890,羅氏家用新冠病毒抗原自我檢測套組,34,2022/05/06 15:12:02,國定假日執行調劑業務
5901103683,東東藥局,臺北市中山區長春路２５７之２號１樓,121.5408,25.05477,(02)25031730,羅氏家用新冠病毒抗原自我檢測套組,16,2022/05/06 15:12:02,快篩發放時間:星期一至六 .15點開始銷售至16點前結束
5901103807,專品龍江藥局,臺北市中山區龍江路３１１號１樓,121.5409,25.06127,(02)25178870,羅氏家用新冠病毒抗原自我檢測套組,65,2022/05/06 15:12:02,實名制快篩下午三點開始發號碼牌販售
5901110393,明湖藥局,臺北市內湖區東湖路７巷２７號１Ｆ,121.6125,25.0697,(02)26313515,羅氏家用新冠病毒抗原自我檢測套組,3,2022/05/06 15:12:02,快篩實名制，下午2點半販售。
5901112995,昇龍藥局,臺北市內湖區東湖路１５１號,121.6174,25.0681,(02)26316783,羅氏家用新冠病毒抗原自我檢測套組,2,2022/05/06 15:12:02,營業時間為早上8點到晚上10點；實名制快篩於每日下午一點前領取，​但若排隊人數已超過數量，將視情況提早發放。
5901113018,桔子藥局,臺北市內湖區內湖路２段３３３號,121.5917,25.08319,(02)27930052,羅氏家用新冠病毒抗原自我檢測套組,94,2022/05/06 15:12:02,早0900-1200，午1400-1700，晚1900-2100
5901113143,躍獅寶湖藥局,臺北市內湖區民權東路６段１２３巷２８號,121.5928,25.0701,(02)87928335,羅氏家用新冠病毒抗原自我檢測套組,49,2022/05/06 15:12:02,實名制快篩: 因應物流配送 5／5  5／6 改下午三點開始販售  詳細細節請注意店內公告
5901113723,杏一港墘藥局,臺北市內湖區港墘路８３號（１樓）,121.5781,25.08078,(02)87978746,羅氏家用新冠病毒抗原自我檢測套組,34,2022/05/06 15:12:02,無
5901121823,儀安健保藥局,臺北市南港區同德路７４號,121.5853,25.0457,(02)27859893,羅氏家用新冠病毒抗原自我檢測套組,32,2022/05/06 15:12:02,實名制快篩下午三點開賣，無發放號碼牌（只有週日為晚上六點）
5901122115,上丞藥師藥局,臺北市南港區成福路１０號１樓,121.5859,25.04574,(02)26535589,羅氏家用新冠病毒抗原自我檢測套組,55,2022/05/06 15:12:02,實名制快篩下午三點開賣，無發放號碼牌
5901122124,杏安藥局,臺北市南港區昆陽街１４０巷１６號１樓,121.5938,25.04969,(02)27864119,羅氏家用新冠病毒抗原自我檢測套組,61,2022/05/06 15:12:02,實名制快篩周一~周六下午3點-4點現場販售，不發放號碼牌；周日不販售
5901150342,士林三安藥局,臺北市士林區大南路１１號,121.526,25.08898,(02)28812631,羅氏家用新冠病毒抗原自我檢測套組,1,2022/05/06 15:12:02,無
5901150548,田倉藥局,臺北市士林區士東路１２４號,121.5302,25.11219,(02)88662188,羅氏家用新冠病毒抗原自我檢測套組,78,2022/05/06 15:12:02,每日19:00（傍晚7點）開始販售.
5901152453,家赫藥局,臺北市士林區忠義街８０號１樓,121.5317,25.10614,(02)28346453,羅氏家用新冠病毒抗原自我檢測套組,16,2022/05/06 15:12:02,每日下午2:40開始發號碼牌販售實名制快篩
5901152471,得安藥局,臺北市士林區文林路１４０號,121.5267,25.08878,(02)28836336,羅氏家用新冠病毒抗原自我檢測套組,78,2022/05/06 15:12:02,星期三五六下午3:30---10:00   星期二 四日下午5:00--10:00
5901152793,信光藥局,臺北市士林區文昌路６８號,121.5214,25.09619,(02)28366277,羅氏家用新冠病毒抗原自我檢測套組,1,2022/05/06 15:12:02,下午三點發放快篩
5901152971,石川藥師藥局,臺北市士林區忠義街７０號,121.5314,25.10594,(02)28385850,羅氏家用新冠病毒抗原自我檢測套組,55,2022/05/06 15:12:02,下午 03:00  ==   開始販售.  （請自行判斷時間），避免領不到
5901153432,大南春天生活藥局,臺北市士林區大南路３１７、３１９號,121.518,25.08888,(02)28882196,羅氏家用新冠病毒抗原自我檢測套組,3,2022/05/06 15:12:02,本藥局可領慢箋 快篩是下午3點開始販售 售完為止（物流無配送&配送不及例外）
5901153585,德行春天生活藥局,臺北市士林區德行東路７６號,121.5275,25.1073,(02)28380306,羅氏家用新冠病毒抗原自我檢測套組,6,2022/05/06 15:12:02,下午2點40持健保卡領號碼牌販售快篩到晚上10點售完為止
5901153674,愛佳藥局,臺北市士林區承德路４段２２２之１號,121.5215,25.0885,(02)28811199,羅氏家用新冠病毒抗原自我檢測套組,156,2022/05/06 15:12:02,實名制快篩平日一~五下午5:00販售，假日（六、日）不販售
5901153683,安奕藥局,臺北市士林區葫蘆街３０巷１２號,121.5099,25.08034,(02)28133289,羅氏家用新冠病毒抗原自我檢測套組,3,2022/05/06 15:12:02,週日休。快篩劑開賣時間，依現場公告。
5901153941,士東藥局,臺北市士林區士東路９１巷３號,121.5291,25.11256,(02)28760588,羅氏家用新冠病毒抗原自我檢測套組,78,2022/05/06 15:12:02,快篩實名制，每天16:00開始販售，售完為止。
5901153996,文昌春天藥局,臺北市士林區文昌路４４號（１樓）,121.5216,25.09562,(02)28838539,羅氏家用新冠病毒抗原自我檢測套組,47,2022/05/06 15:12:02,無
5901154000,文昌大藥局,臺北市士林區文昌路７２號１樓,121.5213,25.09634,(02)28376196,羅氏家用新冠病毒抗原自我檢測套組,33,2022/05/06 15:12:02,1.周一至周日下午15:00販售實名制快篩，請自備零錢 2.每日提供18份，讓醫護警消憑證購買，請pm14:30前來
5901154028,向宇藥局,臺北市士林區德行東路２１７號１樓,121.5328,25.10935,(02)88661101,羅氏家用新冠病毒抗原自我檢測套組,79,2022/05/06 15:12:02,無
5901154135,誠泰中西藥局,臺北市士林區永平街１３號１樓,121.5051,25.08996,(02)88112352,羅氏家用新冠病毒抗原自我檢測套組,76,2022/05/06 15:12:02,周一到周六晚上7:00開始販賣，  周日休息
5901160428,九福藥局,臺北市北投區公館路２３６號,121.5081,25.12612,(02)28953009,羅氏家用新冠病毒抗原自我檢測套組,17,2022/05/06 15:12:02,★週日店休未營業. 快篩下午1點發號碼牌
5901161890,良興藥局,臺北市北投區中和街２８６號,121.5004,25.14047,(02)28933360,羅氏家用新冠病毒抗原自我檢測套組,53,2022/05/06 15:12:02,18點30分點開始營業
5901162833,維康藥局,臺北市北投區石牌路２段１９１．１９３號,121.5184,25.11874,(02)28206343,羅氏家用新冠病毒抗原自我檢測套組,44,2022/05/06 15:12:02,快篩發放時間為每日下午3點排隊，現場購賣
5901163376,北投春天藥局,臺北市北投區中央南路１段７６號,121.5011,25.13135,(02)28916668,羅氏家用新冠病毒抗原自我檢測套組,59,2022/05/06 15:12:02,每日14:40發號碼牌 15:00販售 依物流到貨時間滾動調整
5901163394,致遠春天藥局,臺北市北投區致遠一路１段１３２號１、２樓,121.5149,25.11051,(02)28253258,羅氏家用新冠病毒抗原自我檢測套組,20,2022/05/06 15:12:02,15:30開始發放號碼牌15:30開始販售口罩
5901163509,吉利春天生活藥局,臺北市北投區吉利街１２０號,121.5068,25.11851,(02)28253256,羅氏家用新冠病毒抗原自我檢測套組,35,2022/05/06 15:12:02,無
5901163527,理得藥局,臺北市北投區石牌路１段１５０號,121.5131,25.11426,(02)28289680,羅氏家用新冠病毒抗原自我檢測套組,1,2022/05/06 15:12:02,每日13:30發放號碼牌 14:00開賣，售完為止。
5901170139,福華藥局,臺北市信義區吳興街２８１巷３號１樓,121.5643,25.02656,(02)27208527,羅氏家用新冠病毒抗原自我檢測套組,78,2022/05/06 15:12:02,現階段下午1:30配合政府發售快篩試劑
5901170915,杏仁藥局,臺北市信義區大道路１３５號,121.5834,25.03901,(02)27262541,羅氏家用新冠病毒抗原自我檢測套組,19,2022/05/06 15:12:02,實名制快篩:週一至週五下午3點販售，週六週日無販售
5901172240,德康大藥局,臺北市信義區松山路５４１巷２１號,121.579,25.03794,(02)27272502,羅氏家用新冠病毒抗原自我檢測套組,44,2022/05/06 15:12:02,每日下午3點販售
5901173238,正和藥局,臺北市信義區吳興街２２５巷６號,121.5634,25.02782,(02)23455186,羅氏家用新冠病毒抗原自我檢測套組,1,2022/05/06 15:12:02,下午2點半發放快篩
5901173710,專品光復藥局,臺北市信義區光復南路４６７之１號,121.5577,25.03384,(02)27586682,羅氏家用新冠病毒抗原自我檢測套組,50,2022/05/06 15:12:02,禮拜一到六下午三點販售口罩
5901173738,尚頤中西藥局,臺北市信義區虎林街１４５號,121.5767,25.03959,(02)27253818,羅氏家用新冠病毒抗原自我檢測套組,79,2022/05/06 15:12:02,無
5901173783,北一健康人生藥局,臺北市信義區吳興街２５５號,121.5637,25.02715,(02)27583945,羅氏家用新冠病毒抗原自我檢測套組,43,2022/05/06 15:12:02,下午3點開始販售實名制快篩
5901173818,博亞藥局,臺北市信義區莊敬路４６２號,121.5677,25.02672,(02)27580506,羅氏家用新冠病毒抗原自我檢測套組,40,2022/05/06 15:12:02,平日早上8:30、晚上8:00；假日早上8:30，發放號碼牌，持號碼牌購買!
5901173925,杏一光復藥局,臺北市信義區光復南路４４９之１號,121.5578,25.03488,(02)87804626,羅氏家用新冠病毒抗原自我檢測套組,54,2022/05/06 15:12:02,快篩實名制視每日貨況下午三點開始販售
5901174002,吳興春天藥局,臺北市信義區吳興街１３７號１樓,121.5618,25.02947,(02)27585618,羅氏家用新冠病毒抗原自我檢測套組,17,2022/05/06 15:12:02,下午2:40發號碼牌
5901174057,詠晴中西藥局,臺北市信義區松山路４８４之４號（１樓含夾層）,121.5778,25.0389,(02)27266890,羅氏家用新冠病毒抗原自我檢測套組,2,2022/05/06 15:12:02,實名制快篩 - 16:30領號碼牌.當天取貨即可.避免群聚風險
5901174066,愛維喜藥局,臺北市信義區莊敬路２７８號１樓,121.5627,25.02882,(02)27586989,羅氏家用新冠病毒抗原自我檢測套組,16,2022/05/06 15:12:02,快篩周一至周五下午3:30開賣.約3:00收健保卡現金500元1張.發號碼牌
5901174084,市政藥局,臺北市信義區忠孝東路５段１６９號１樓、１７１號１樓,121.5688,25.0412,(02)27560050,羅氏家用新冠病毒抗原自我檢測套組,78,2022/05/06 15:12:02,快篩實名制，每天16:00開始販售，售完為止。
5901180304,祥全藥局,臺北市中正區信義路２段７９巷１５－８號１Ｆ,121.527,25.03545,(02)23939339,羅氏家用新冠病毒抗原自我檢測套組,16,2022/05/06 15:12:02,星期一至六下午3點開始賣快篩試劑
5901184080,活力健康藥妝藥局,臺北市中正區中華路２段３１５巷１號,121.5062,25.02795,(02)23392625,羅氏家用新冠病毒抗原自我檢測套組,7,2022/05/06 15:12:02,快篩14:00-15:00， 建議提早排隊
5901184179,保德中華藥局,臺北市中正區中華路２段１５９號,121.5042,25.03101,(02)23027720,羅氏家用新冠病毒抗原自我檢測套組,41,2022/05/06 15:12:02,快篩下午三點開始發號碼牌及販售，限當日購買
5901184213,71恩典藥局,臺北市中正區信義路２段７１號,121.5264,25.03466,(02)23223371,羅氏家用新冠病毒抗原自我檢測套組,82,2022/05/06 15:12:02,快篩販售時間：◆週一到週五19:00 ◆週六17:00，十分鐘前發號碼牌
5901184366,宏越藥局,臺北市中正區中華路２段３１３巷４號,121.5061,25.02813,(02)23050880,羅氏家用新冠病毒抗原自我檢測套組,7,2022/05/06 15:12:02,代售實名制快篩時間 每日下午14:30開始  售完即停止  可關注FB公告當日是否代售
5901184491,躍獅南門藥局,臺北市中正區中華路２段３９巷１０號,121.5074,25.03484,(02)23141111,羅氏家用新冠病毒抗原自我檢測套組,78,2022/05/06 15:12:02,口罩販售時段：成人早上9點及晚上7點各200個
5901184553,珍忻藥局,臺北市中正區南昌路１段６５號,121.5174,25.03107,(02)23965115,羅氏家用新冠病毒抗原自我檢測套組,11,2022/05/06 15:12:02,健保快篩發放:13:20及18:20分兩梯次發號碼牌
5901184633,躍獅東門藥局,臺北市中正區金山南路１段１０８之１號（１樓）,121.5273,25.03538,(02)23920339,羅氏家用新冠病毒抗原自我檢測套組,34,2022/05/06 15:12:02,5／6銷售時間已結束。5／7下午兩點開始販售，不提早發放號碼牌
5901184660,南昌春天藥局,臺北市中正區南昌路１段１５７號１樓,121.5188,25.02927,(02)23972886,羅氏家用新冠病毒抗原自我檢測套組,59,2022/05/06 15:12:02,若有配發到政府實名制快篩試劑，將於每日下午2:40發號碼牌、下午3:00開始販售。
5901190668,聯慶大藥局,臺北市萬華區萬大路３０６號１樓,121.5003,25.02495,(02)23039850,羅氏家用新冠病毒抗原自我檢測套組,1,2022/05/06 15:12:02,無
5901192180,康之友藥局,臺北市萬華區青年路２０號,121.5055,25.02592,(02)23011598,羅氏家用新冠病毒抗原自我檢測套組,1,2022/05/06 15:12:02,下午兩點發號碼牌
5901192822,專品藥局,臺北市萬華區長沙街２段７１－１號,121.5051,25.04062,(02)23718892,羅氏家用新冠病毒抗原自我檢測套組,60,2022/05/06 15:12:02,快篩實名制下午3點發放
5901193221,正盛藥局,臺北市萬華區中華路２段４３４－１號,121.5064,25.02708,(02)23050386,羅氏家用新冠病毒抗原自我檢測套組,60,2022/05/06 15:12:02,1.快篩一~六20點，周日不賣 2.目前排隊人潮多，建議7點左右提前候位 3.詳情請看門口公告或板橋正康總店臉書
5901193301,富安藥局,臺北市萬華區萬大路４２６號,121.4981,25.02096,(02)23377878,羅氏家用新冠病毒抗原自我檢測套組,78,2022/05/06 15:12:02,快篩實名制：一人一卡，現場排隊，售完為止。【5／3早上暫停販售，販售時間待更新！】
5901193338,艾米力藥師藥局,臺北市萬華區西藏路１０７－２號１樓,121.5035,25.02955,(02)23036583,羅氏家用新冠病毒抗原自我檢測套組,73,2022/05/06 15:12:02,實名制快篩：周一~周五 晚上7:00販售；周末（六日）早上9:00販售
5901201568,康宜庭生活藥局,臺北市文山區興隆路４段６４號,121.5613,24.98514,(02)29385363,羅氏家用新冠病毒抗原自我檢測套組,8,2022/05/06 15:12:02,實名快篩14:00開賣 現場排隊
5901202841,欣安景美藥局,臺北市文山區景文街７７號,121.5414,24.99126,(02)29316008,羅氏家用新冠病毒抗原自我檢測套組,28,2022/05/06 15:12:02,今日快篩劑PM:14:00販賣售完為止
5901202949,萬隆大藥局,臺北市文山區羅斯福路５段２１８巷１５號,121.538,25.00203,(02)29334580,羅氏家用新冠病毒抗原自我檢測套組,89,2022/05/06 15:12:02,9：00~23：00
5901202958,杏一萬安藥局,臺北市文山區萬安街１５號,121.5706,25.00139,(02)22302126,羅氏家用新冠病毒抗原自我檢測套組,1,2022/05/06 15:12:02,營業時間0900-2200
5901203080,杏一木柵藥局,臺北市文山區木柵路３段９８號,121.5674,24.98861,(02)29371839,羅氏家用新冠病毒抗原自我檢測套組,65,2022/05/06 15:12:02,無
5901203295,專品政大藥局,臺北市文山區指南路２段８號,121.5742,24.98784,(02)22343010,羅氏家用新冠病毒抗原自我檢測套組,57,2022/05/06 15:12:02,無
5901203446,景華盛康藥局,臺北市文山區景華街６９號１樓,121.545,24.99524,(02)29310188,羅氏家用新冠病毒抗原自我檢測套組,55,2022/05/06 15:12:02,快篩販售時間:下午3點開賣，現場發送號碼牌
5901203464,大愛幸福藥局,臺北市文山區木新路２段２２１號１樓,121.5675,24.98344,(02)29379977,羅氏家用新冠病毒抗原自我檢測套組,13,2022/05/06 15:12:02,無
5901203482,健康家藥局,臺北市文山區興隆路２段１３３號１樓,121.5481,25.00011,(02)29330858,羅氏家用新冠病毒抗原自我檢測套組,3,2022/05/06 15:12:02,實名制快篩下午一點開始販售，5／1店休
5902020012,永松藥局,高雄市鼓山區鼓山三路１３０－１５號,120.2802,22.66454,(07)5810657,羅氏家用新冠病毒抗原自我檢測套組,29,2022/05/06 15:12:02,無
5902040014,成吉藥局,高雄市楠梓區楠梓東街７４號,120.3301,22.72966,(07)3513339,羅氏家用新冠病毒抗原自我檢測套組,71,2022/05/06 15:12:02,下午6點開始販賣實名制快篩，售完為止!!!星期日店休
5902040087,世詠藥局,高雄市楠梓區楠都東街１３８號,120.3262,22.72532,(07)3539869,羅氏家用新冠病毒抗原自我檢測套組,24,2022/05/06 15:12:02,快篩周一~周五早上15:00-21:30周六.日下午15:00-21:30，售完為止
5902042661,元春中西藥師藥局,高雄市楠梓區後昌路８３７巷３７號,120.294,22.71109,(07)3605656,羅氏家用新冠病毒抗原自我檢測套組,78,2022/05/06 15:12:02,下午16.00開始為快篩領取時間，售完為止
5902050636,嘉益藥局,高雄市三民區重慶街３０號,120.302,22.64223,(07)3110157,羅氏家用新冠病毒抗原自我檢測套組,22,2022/05/06 15:12:02,快篩實名制下午15：00開始販售.
5902056638,柏仁藥局,高雄市三民區覺民路５０４號,120.3317,22.64092,(07)3976016,羅氏家用新冠病毒抗原自我檢測套組,6,2022/05/06 15:12:02,實名制快篩下午3點開賣，現場排隊，售完為止
5902061899,元盛藥局,高雄市新興區六合路１５３號,120.3149,22.63186,(07)2228183,羅氏家用新冠病毒抗原自我檢測套組,53,2022/05/06 15:12:02,快篩到貨時間不定.請下午三點後電詢. 週日公休
5902080545,柏松藥局,高雄市苓雅區輔仁路１７５號,120.3332,22.63065,(07)7119786,羅氏家用新冠病毒抗原自我檢測套組,68,2022/05/06 15:12:02,實名制快篩試劑.5／4.起.16:00開賣......售完為止!!
5902090827,博平藥局,高雄市前鎮區草衙二路３７７號,120.3224,22.57808,(07)8311814,羅氏家用新冠病毒抗原自我檢測套組,1,2022/05/06 15:12:02,下午2點開始販售快篩.售完為止
5902091128,北京藥局,高雄市前鎮區公正路３１號,120.3322,22.60291,(07)7113100,羅氏家用新冠病毒抗原自我檢測套組,32,2022/05/06 15:12:02,發放方式，下午15；00現場過卡
5903010556,升禾和大藥局,臺中市豐原區育英路２６號１樓,120.7163,24.24346,(04)25293099,羅氏家用新冠病毒抗原自我檢測套組,78,2022/05/06 15:12:02,快篩試劑1800領取.採現場排隊.售完為止
5903050274,鹿寮藥局,臺中市沙鹿區中山路４６１、４６１－１號１、２樓,120.5615,24.24387,(04)26630677,羅氏家用新冠病毒抗原自我檢測套組,78,2022/05/06 15:12:02,快篩實名制，每天16:00開始販售，售完為止。
5903070098,祐恩藥局,臺中市后里區甲后路一段４７８號１樓,120.6819,24.3157,(04)25587518,羅氏家用新冠病毒抗原自我檢測套組,11,2022/05/06 15:12:02,實名制快篩試劑每日15:00開始販售。週日休息。
5903090072,元康健保藥局,臺中市潭子區圓通南路１９６號１樓,120.7043,24.20725,(04)25353893,羅氏家用新冠病毒抗原自我檢測套組,6,2022/05/06 15:12:02,下午3點現場分號碼後  依序賣口罩
5903100206,民生藥局,臺中市大雅區民生路一段２２１號１樓,120.6512,24.22789,(04)25662229,羅氏家用新冠病毒抗原自我檢測套組,78,2022/05/06 15:12:02,快篩實名制，每天16:00開始販售，售完為止。
5903150153,溪南藥局,臺中市烏日區溪南路一段５６５號１樓,120.6431,24.07523,(04)23353666,羅氏家用新冠病毒抗原自我檢測套組,78,2022/05/06 15:12:02,快篩實名制，每天16:00開始販售，售完為止。
5903160042,大肚新庄藥局,臺中市大肚區遊園路２段２２１－３號１樓,120.5808,24.17376,(04)26912119,羅氏家用新冠病毒抗原自我檢測套組,42,2022/05/06 15:12:02,每天下午3點開始排隊販賣，賣完為止
5903160097,安昌藥局,臺中市大肚區遊園路二段１７６號１樓,120.5808,24.17289,(04)26913890,羅氏家用新冠病毒抗原自我檢測套組,78,2022/05/06 15:12:02,每天晚上19:00點開始現場排隊販賣快篩試劑.
5903180142,峰正藥局,臺中市霧峰區中正路８３０號１樓,120.6987,24.06244,(04)23303353,羅氏家用新冠病毒抗原自我檢測套組,78,2022/05/06 15:12:02,快篩實名制，每天16:00開始販售，售完為止。
5903190362,太平中山藥局,臺中市太平區中山路４段１１號,120.7139,24.14931,(04)23959200,羅氏家用新冠病毒抗原自我檢測套組,78,2022/05/06 15:12:02,快篩實名制，每天16:00開始販售，售完為止。
5903190666,川越藥局,臺中市太平區新興二街１３６號１樓,120.7056,24.15992,(04)23935719,羅氏家用新冠病毒抗原自我檢測套組,10,2022/05/06 15:12:02,販售時間於臉書及IG 公布
5903190675,德芳太平藥局,臺中市太平區中興路１３３巷１－１號１樓,120.7146,24.12617,(04)23511588,羅氏家用新冠病毒抗原自我檢測套組,121,2022/05/06 15:12:02,快篩販售時間:下午3點~6點
5903200229,信元藥局,臺中市大里區益民路２段３７２號１樓,120.684,24.11545,(04)24876051,羅氏家用新冠病毒抗原自我檢測套組,49,2022/05/06 15:12:02,下午5點發號碼牌並依序販賣
5903200596,大樹大里藥局,臺中市大里區中興路二段１０１號,120.6885,24.10305,(04)24861133,羅氏家用新冠病毒抗原自我檢測套組,78,2022/05/06 15:12:02,快篩實名制，每天16:00開始販售，售完為止。
5903200658,德芳成功藥局,臺中市大里區成功路５３５－３號１樓,120.7033,24.0913,(04)24920298,羅氏家用新冠病毒抗原自我檢測套組,22,2022/05/06 15:12:02,快篩販售時間:下午3點~6點
5903200685,塗城藥局,臺中市大里區中興路一段１８７、１８９、１９１號１樓,120.6933,24.09008,(04)24967234,羅氏家用新冠病毒抗原自我檢測套組,78,2022/05/06 15:12:02,快篩實名制，每天16:00開始販售，售完為止。
5903200701,大益藥局,臺中市大里區益民路二段３３５號１、２樓,120.6837,24.11311,(04)24811551,羅氏家用新冠病毒抗原自我檢測套組,78,2022/05/06 15:12:02,快篩實名制，每天16:00開始販售，售完為止。
5903220061,宏信大藥局,臺中市中區自由路２段４５號１樓,120.6815,24.13959,(04)22222021,羅氏家用新冠病毒抗原自我檢測套組,20,2022/05/06 15:12:02,周1~周5 早上9點至晚上7點周6周日早上10點到晚上9點
5903230192,康是美藥局東英店,臺中市東區十甲路４５０號１樓,120.7097,24.14406,(04)22139034,羅氏家用新冠病毒抗原自我檢測套組,48,2022/05/06 15:12:02,無
5903240143,利民藥局,臺中市西區四維街２３號１樓,120.6758,24.13714,(04)22292931,羅氏家用新冠病毒抗原自我檢測套組,7,2022/05/06 15:12:02,平日營業時間10-20，周六10-15，周日休。實名制快篩下午2點半現場排隊販售至售完或營業結束。
5903240483,名華藥局,臺中市西區中華路一段７號１樓,120.6732,24.14209,(04)22231187,羅氏家用新冠病毒抗原自我檢測套組,52,2022/05/06 15:12:02,實名制快篩，5／6 PM3:00開售
5903250381,大樹美村藥局,臺中市南區美村南路１２４號,120.667,24.11499,(04)22621113,羅氏家用新冠病毒抗原自我檢測套組,78,2022/05/06 15:12:02,口罩販售時間：14:00 - 16:00
5903250505,心安藥局,臺中市南區國光路２４１號１樓,120.6794,24.12676,(04)22858773,羅氏家用新冠病毒抗原自我檢測套組,142,2022/05/06 15:12:02,每天下午三點排隊開賣，一人一卡，週日公休下次是5／6號.5／5已售完.
5903250550,旭康藥局,臺中市南區台中路３８０號１樓,120.6841,24.12652,(04)22857372,羅氏家用新冠病毒抗原自我檢測套組,27,2022/05/06 15:12:02,實名制快篩每天下午3點販售
5903250578,樂碩藥局,臺中市南區建國南路一段２５９號１樓,120.6583,24.12491,(04)22601288,羅氏家用新冠病毒抗原自我檢測套組,59,2022/05/06 15:12:02,快篩週一到週六15:00、週日16:30開始販售，售完為止
5903250630,澄光工學藥局,臺中市南區工學路１５９號１樓,120.6592,24.11688,(04)22620606,羅氏家用新冠病毒抗原自我檢測套組,44,2022/05/06 15:12:02,5／6（五）快篩販售時間為下午3點，現場排隊，沒有發號碼牌。
5903260707,新藥林藥局,臺中市北區健行路４４５－５號１樓,120.6803,24.15896,(04)22053458,羅氏家用新冠病毒抗原自我檢測套組,42,2022/05/06 15:12:02,5／7 5／8店休，不發快篩.快篩:星期一~星期五 下午3點開始，星期六下午一點，星期三.日公休，現場排隊
5903260734,立得藥局,臺中市北區忠太西路１１號１樓,120.6678,24.15997,(04)22080013,羅氏家用新冠病毒抗原自我檢測套組,35,2022/05/06 15:12:02,固定周一到周六，早上9:00開始販賣防疫口罩
5903260743,黎明安德藥局,臺中市北區中清路１段８５２號１樓,120.6718,24.17295,(04)22956098,羅氏家用新冠病毒抗原自我檢測套組,15,2022/05/06 15:12:02,禮拜四公休、禮拜日下午2點開始營業，一到六下午3點開始販賣快篩，禮拜日下午5點開始販賣快篩
5903260912,莒光藥局,臺中市北區錦南街１２號１樓,120.6886,24.15399,(04)22336663,羅氏家用新冠病毒抗原自我檢測套組,1,2022/05/06 15:12:02,每日下午3點開賣 78份售完為止 星期日另外公告 臉書搜尋莒光藥局
5903260985,森川健保藥局,臺中市北區五權路２５１號１樓,120.6764,24.15074,(09)78157008,羅氏家用新冠病毒抗原自我檢測套組,76,2022/05/06 15:12:02,快篩試劑每日下午三點開賣，售完為止
5903261008,台中大樹藥局,臺中市北區漢口路三段２６１號,120.6726,24.16703,(04)22981113,羅氏家用新冠病毒抗原自我檢測套組,78,2022/05/06 15:12:02,快篩實名制，每天16:00開始販售，售完為止。
5903270310,弘福藥師藥局,臺中市西屯區西屯路３段１６６－２１號１樓,120.6159,24.18918,(04)24611916,羅氏家用新冠病毒抗原自我檢測套組,74,2022/05/06 15:12:02,每日15:00發放號碼牌，發完即開始販售（全年無休）
5903270516,中科何藥局,臺中市西屯區福康路４０號,120.6173,24.18421,(04)24612570,羅氏家用新冠病毒抗原自我檢測套組,56,2022/05/06 15:12:02,防疫快篩每日15:00開始販售。（全年無休）
5903270721,舒健藥局,臺中市西屯區西屯路二段２５５號２樓,120.6459,24.17179,(04)27077858,羅氏家用新冠病毒抗原自我檢測套組,78,2022/05/06 15:12:02,公費快篩試劑於周一至周六晚上7點現場排隊購買，週日公休。
5903270749,大墩藥局,臺中市西屯區大墩１９街６８號１樓,120.6518,24.15734,(04)23209602,羅氏家用新冠病毒抗原自我檢測套組,31,2022/05/06 15:12:02,每天下午三點開賣，請提早來排隊（視排隊狀況會提早發售）
5903270865,尚禾藥局,臺中市西屯區青海路一段６５號,120.6548,24.16438,(04)23147688,羅氏家用新冠病毒抗原自我檢測套組,39,2022/05/06 15:12:02,實名制快篩發放：時段一中午12:30~14:00。時段二20：30~22：30。時段一若未發完，餘量將遞延至時段二發放。周日停售。
5903270918,全成西屯藥局,臺中市西屯區黎明路三段２２１、２２３號1樓,120.6373,24.17723,(04)24512290,羅氏家用新冠病毒抗原自我檢測套組,17,2022/05/06 15:12:02,星期一至星期六15點開始販售實名制快篩
5903271022,西屯藥局,臺中市西屯區西屯路三段１５０－４５號１樓,120.621,24.18716,(04)24621822,羅氏家用新冠病毒抗原自我檢測套組,78,2022/05/06 15:12:02,快篩實名制，每天16:00開始販售，售完為止。
5903271031,美十樂中科藥局,臺中市西屯區西屯路三段１６６－６５號１樓,120.6129,24.19035,(04)24610219,羅氏家用新冠病毒抗原自我檢測套組,468,2022/05/06 15:12:02,醫事人員卡片損壞，暫時無法販賣快篩
5903271068,西墩藥局,臺中市西屯區黎明路三段２７５、２７７號１樓,120.6373,24.17812,(04)24510770,羅氏家用新冠病毒抗原自我檢測套組,78,2022/05/06 15:12:02,快篩實名制，每天16:00開始販售，售完為止。
5903271193,何安藥局,臺中市西屯區西屯路二段１０１號Ｂ棟１樓,120.6531,24.16616,(04)23161110,羅氏家用新冠病毒抗原自我檢測套組,78,2022/05/06 15:12:02,快篩實名制，每天16:00開始販售，售完為止。
5903271246,柏醫藥局,臺中市西屯區上安路５６號１樓,120.6412,24.17052,(04)24526391,羅氏家用新冠病毒抗原自我檢測套組,78,2022/05/06 15:12:02,因應到貨時間不定，統一晚上7點開放78組（5／6已到貨 14:43）
5903271291,西屯長安藥局,臺中市西屯區成都路３６８號１樓,120.6641,24.17322,(04)22981221,羅氏家用新冠病毒抗原自我檢測套組,78,2022/05/06 15:12:02,快篩實名制，每天16:00開始販售，售完為止。
5903280245,大墩何藥局,臺中市南屯區大敦南路４３１號１．２樓,120.6476,24.13497,(04)24710655,羅氏家用新冠病毒抗原自我檢測套組,78,2022/05/06 15:12:02,防疫用快篩試劑下午4點開始販售，售完為止
5903280398,元生連鎖保健藥局,臺中市南屯區大墩路９２２號１樓,120.651,24.15713,(04)23273267,羅氏家用新冠病毒抗原自我檢測套組,59,2022/05/06 15:12:02,無
5903280521,百康健保藥局,臺中市南屯區黎明路二段３６３號,120.6353,24.15033,(04)22547776,羅氏家用新冠病毒抗原自我檢測套組,4,2022/05/06 15:12:02,營業每日上午8:30到晚上22:30!實名制快篩販售下午三點開始
5903280585,康得藥局,臺中市南屯區向上路三段４５號,120.6354,24.14623,(04)23820981,羅氏家用新冠病毒抗原自我檢測套組,32,2022/05/06 15:12:02,5／6（五）下午3點開始販售實名制快篩試劑.
5903280656,熊大心藥局,臺中市南屯區河南路四段３７６號,120.6369,24.15208,(04)22516252,羅氏家用新冠病毒抗原自我檢測套組,76,2022/05/06 15:12:02,app庫存錯誤。周一至周六，15:00-16:00售實名制快篩
5903290063,承恩藥局,臺中市北屯區北屯路４４１－１號１樓,120.7008,24.17977,(04)22467857,羅氏家用新冠病毒抗原自我檢測套組,28,2022/05/06 15:12:02,實名制快篩販售時間為早上11點開始（12:00-15:00中午休息） ； 星期六休息
5903290607,敦化小林健保藥局,臺中市北屯區敦化路１段６６８號,120.6643,24.18593,(04)24261881,羅氏家用新冠病毒抗原自我檢測套組,2,2022/05/06 15:12:02,每日早上8:00領號碼牌，16:30再回藥局領口罩（全年無休）
5903290750,長幼藥局,臺中市北屯區崇德路二路二段１５７號１樓,120.6853,24.17329,(04)22426767,羅氏家用新冠病毒抗原自我檢測套組,21,2022/05/06 15:12:02,採現場排隊無號碼牌，快篩地圖與庫存餘量會有誤差，敬請見諒
5903290876,北屯軍功藥局,臺中市北屯區軍功路一段７５２號,120.7193,24.17513,(04)24375111,羅氏家用新冠病毒抗原自我檢測套組,78,2022/05/06 15:12:02,快篩實名制，每天16:00開始販售，售完為止。
5903290894,豐禾藥局,臺中市北屯區同榮路１６３號,120.6618,24.19589,(04)24260588,羅氏家用新冠病毒抗原自我檢測套組,78,2022/05/06 15:12:02,快篩試劑於每日下午5點販售，星期日停售
5903290901,帥帥藥局,臺中市北屯區東山路一段３００－２號,120.7204,24.1759,(04)24378188,羅氏家用新冠病毒抗原自我檢測套組,96,2022/05/06 15:12:02,星期一二晚上18:30-20:30，星期三至五下午15:00-17:00販賣快篩試劑，售完為止。六.日無販售。
5903290965,崇德藥局,臺中市北屯區崇德路二段３１號,120.685,24.16962,(04)22361331,羅氏家用新冠病毒抗原自我檢測套組,78,2022/05/06 15:12:02,快篩實名制，每天16:00開始販售，售完為止。
5903291006,五和健保藥局,臺中市北屯區崇德路二段４６０號１樓,120.6863,24.18001,(04)22415533,羅氏家用新冠病毒抗原自我檢測套組,6,2022/05/06 15:12:02,週六公休 。周一至周五 14:30 發號碼牌 14:40販售； 週日 8:30發號碼牌 隨後販售
5903291060,大樹北屯藥局,臺中市北屯區松竹路二段４１１號１樓,120.6895,24.18192,(04)22422262,羅氏家用新冠病毒抗原自我檢測套組,78,2022/05/06 15:12:02,快篩實名制，每天16:00開始販售，售完為止。
5903291140,興安藥局,臺中市北屯區興安路二段５２號１、２樓,120.6949,24.1762,(04)22460369,羅氏家用新冠病毒抗原自我檢測套組,78,2022/05/06 15:12:02,快篩實名制，每天16:00開始販售，售完為止。
5903291220,佑全台中四平藥局,臺中市北屯區四平路３６０號１樓,120.682,24.19324,(04)24212792,羅氏家用新冠病毒抗原自我檢測套組,63,2022/05/06 15:12:02,無
5903291257,新一代何藥局,臺中市北屯區環中東路二段２６６、２６８號１樓,120.7207,24.17576,(04)24364366,羅氏家用新冠病毒抗原自我檢測套組,78,2022/05/06 15:12:02,因應配送時間不一 ，販賣時間改為下午四點
5905010143,啄木鳥藥師藥局,臺南市新營區新南里民治路２４２號,120.3041,23.30767,(06)6590248,羅氏家用新冠病毒抗原自我檢測套組,77,2022/05/06 15:12:02,每天下午4:00開始販售，售完為止
5905010250,大樹新營藥局,臺南市新營區民權路７４、７６、７８號１樓,120.3127,23.30615,(06)6328300,羅氏家用新冠病毒抗原自我檢測套組,78,2022/05/06 15:12:02,快篩實名制，每天16:00開始販售，售完為止。
5905020023,大樹鹽水藥局,臺南市鹽水區朝琴路１２６－３號１樓,120.271,23.32228,(06)6520432,羅氏家用新冠病毒抗原自我檢測套組,78,2022/05/06 15:12:02,快篩實名制，每天16:00開始販售，售完為止。
5905030092,大樹白河藥局,臺南市白河區中山路１５３號１樓,120.417,23.35255,(06)6830006,羅氏家用新冠病毒抗原自我檢測套組,78,2022/05/06 15:12:02,快篩實名制，每天16:00開始販售，售完為止。
5905050165,德昌藥局佳里店,臺南市佳里區光復路２３３號,120.1746,23.16095,(06)7232388,羅氏家用新冠病毒抗原自我檢測套組,22,2022/05/06 15:12:02,固定周一至周六14:30開始販售口罩，售完為止
5905060161,和德藥局新化店,臺南市新化區清水里中山路４２０號１樓,120.3047,23.0359,(06)5802518,羅氏家用新冠病毒抗原自我檢測套組,38,2022/05/06 15:12:02,快篩販售時間:星期一~星期日 一人限2 張卡下午3點~售完
5905060198,大樹新化藥局,臺南市新化區中正路５３１號１樓,120.3072,23.03764,(06)5901331,羅氏家用新冠病毒抗原自我檢測套組,78,2022/05/06 15:12:02,快篩實名制，每天16:00開始販售，售完為止。
5905070121,大樹善化藥局,臺南市善化區民權路５４、５６、５８號１樓,120.3034,23.1322,(06)5830550,羅氏家用新冠病毒抗原自我檢測套組,78,2022/05/06 15:12:02,快篩實名制，每天16:00開始販售，售完為止。
5905070201,善化啄木鳥藥局,臺南市善化區中山路１８１號１、２樓,120.3006,23.13256,(06)5853585,羅氏家用新冠病毒抗原自我檢測套組,78,2022/05/06 15:12:02,快篩實名制，15:30-售完
5905200058,欣和德藥局,臺南市新市區中正路２００號,120.2916,23.07516,(06)5895658,羅氏家用新冠病毒抗原自我檢測套組,2,2022/05/06 15:12:02,快篩實名制每日14:15發號碼牌；14:30開始販售，售完為止
5905200085,大樹新市藥局,臺南市新市區中正路４９、５１號１樓,120.2916,23.07223,(06)5892552,羅氏家用新冠病毒抗原自我檢測套組,78,2022/05/06 15:12:02,快篩實名制，每天16:00開始販售，售完為止。
5905270112,昱欣藥局,臺南市仁德區中正路２段１１８１號１樓,120.252,22.96969,(06)2798970,羅氏家用新冠病毒抗原自我檢測套組,36,2022/05/06 15:12:02,實名制快篩周一~六下午3-6點販售（或售完為止）
5905270176,大樹仁德藥局,臺南市仁德區中正路二段１１５２號１樓,120.2519,22.97062,(06)2797466,羅氏家用新冠病毒抗原自我檢測套組,78,2022/05/06 15:12:02,快篩實名制，每天16:00開始販售，售完為止。
5905280163,歸仁丁丁藥局,臺南市歸仁區中山路三段７３號１樓,120.2861,22.96753,(06)2300767,羅氏家用新冠病毒抗原自我檢測套組,39,2022/05/06 15:12:02,快篩實名制「每天早上9點發放號碼牌」開始販售，如未到貨可關注丁丁藥局歸仁店FB，到貨通知（憑號碼牌購買）
5905290034,大樹關廟藥局,臺南市關廟區中央路２６３號１樓,120.3272,22.96109,(06)5965889,羅氏家用新冠病毒抗原自我檢測套組,78,2022/05/06 15:12:02,快篩實名制，每天16:00開始販售，售完為止。
5905310657,昂德藥局,臺南市永康區復華里復國一路１５２號１樓,120.2467,23.01241,(06)3121220,羅氏家用新冠病毒抗原自我檢測套組,24,2022/05/06 15:12:02,每月第2 第4 星期日公休  快篩 下午3點 售完為止
5905310817,永大啄木鳥藥局,臺南市永康區永大路二段３９７號１樓,120.2632,23.01227,(06)2071575,羅氏家用新冠病毒抗原自我檢測套組,57,2022/05/06 15:12:02,快篩販售星期一~星期日15:00~售完
5905311127,台南永康藥局,臺南市永康區中山南路８１６、８１６─１、２、３號１樓,120.2471,23.02099,(06)2020201,羅氏家用新冠病毒抗原自我檢測套組,78,2022/05/06 15:12:02,快篩實名制，每天16:00開始販售，售完為止。
5905320466,佑全中華藥局,臺南市東區中華東路三段２１５號,120.2253,22.97603,(06)2906386,羅氏家用新冠病毒抗原自我檢測套組,1,2022/05/06 15:12:02,星期一-六08:00-21:00
5905320564,杏一台南崇德藥局,臺南市東區崇德路６７４號,120.2274,22.96762,(06)2671939,羅氏家用新冠病毒抗原自我檢測套組,60,2022/05/06 15:12:02,健保快篩發送時間:周一至周日:下午:15:00
5905320742,榮記藥健康藥局,臺南市東區成大里育樂街１５６－４號底層,120.2147,22.99538,(06)2760588,羅氏家用新冠病毒抗原自我檢測套組,40,2022/05/06 15:12:02,因物流每天配送快篩抵達藥局的時間不定，原則上以下午三點開放刷實名制快篩試劑，售完為止。
5905320797,大樹自由藥局,臺南市東區自由路三段３８２號１樓,120.2373,22.98241,(06)2890800,羅氏家用新冠病毒抗原自我檢測套組,78,2022/05/06 15:12:02,快篩實名制，每天16:00開始販售，售完為止。
5905320804,大樹大同藥局,臺南市東區大同路二段２２７、２２９號１樓,120.2143,22.97567,(06)2158700,羅氏家用新冠病毒抗原自我檢測套組,78,2022/05/06 15:12:02,快篩實名制，每天16:00開始販售，售完為止。
5905320868,大樹東寧藥局,臺南市東區東寧路４３６號１樓,120.2291,22.9895,(06)2360006,羅氏家用新冠病毒抗原自我檢測套組,78,2022/05/06 15:12:02,快篩實名制，每天16:00開始販售，售完為止。
5905330284,大樹佳華藥局,臺南市南區金華路二段１２９號１樓,120.1911,22.98035,(06)2641238,羅氏家用新冠病毒抗原自我檢測套組,78,2022/05/06 15:12:02,快篩實名制，每天16:00開始販售，售完為止。
5905350133,大昌藥局,臺南市北區北安路１段１３２號１樓,120.2127,23.01481,(06)2519121,羅氏家用新冠病毒抗原自我檢測套組,3,2022/05/06 15:12:02,下午3點開賣快篩
5905350366,千多藥局,臺南市北區金華路五段１號,120.1962,23.0016,(06)2228641,羅氏家用新冠病毒抗原自我檢測套組,78,2022/05/06 15:12:02,晚上6點開始銷售實名制快篩試劑，賣完為止
5905370304,大樹安南藥局,臺南市安南區安和路四段５５７號１樓,120.2185,23.06181,(06)3563370,羅氏家用新冠病毒抗原自我檢測套組,78,2022/05/06 15:12:02,快篩實名制，每天16:00開始販售，售完為止。
5905370448,宜康安和藥局,臺南市安南區安和路一段６８號１樓,120.2151,23.0273,(06)2521250,羅氏家用新冠病毒抗原自我檢測套組,59,2022/05/06 15:12:02,實名制快篩:16:00~17:00販售
5907010187,人人好藥局,高雄市鳳山區五甲三路１０巷７號１樓,120.3278,22.59336,(07)8151566,羅氏家用新冠病毒抗原自我檢測套組,202,2022/05/06 15:12:02,上午0830-1330下午1530-2100， 自2／11-2／29口罩販售周一三四五日，時間:9:00-12:00售完為止
5907010212,北京藥局中崙店,高雄市鳳山區中崙四路１６號１樓,120.3519,22.59971,(07)7550655,羅氏家用新冠病毒抗原自我檢測套組,58,2022/05/06 15:12:02,營業時間上午08:00~下午11:00，下午3點開始販售快篩，售完為止。
5907010409,好郝藥局,高雄市鳳山區武松里經武路１７８號１樓,120.3642,22.63619,(07)7468840,羅氏家用新冠病毒抗原自我檢測套組,103,2022/05/06 15:12:02,營業日15:00開始販售快篩，售完為止
5907010427,好郝藥局鳳林店,高雄市鳳山區誠智里鳳林路２９０號,120.3779,22.62216,(07)7869188,羅氏家用新冠病毒抗原自我檢測套組,101,2022/05/06 15:12:02,健保快篩周一到周日下午三點開始現場販售，售完為止
5907010927,元元鳳山藥局,高雄市鳳山區一甲里五甲二路３４８之１號１樓,120.3377,22.59955,(07)7529595,羅氏家用新冠病毒抗原自我檢測套組,125,2022/05/06 15:12:02,現場排隊，自備500元不找零!一至五下午3-6點。星期六下午2-5點。星期日公休
5907010945,光田藥局,高雄市鳳山區鎮東里光遠路９５號１樓,120.3656,22.62412,(07)7460773,羅氏家用新冠病毒抗原自我檢測套組,53,2022/05/06 15:12:02,國定假日及周日固定店休 （實名制快篩 販售時間15:00-17:00 售完為止! ）
5907011095,鳳山五甲藥局,高雄市鳳山區正義里五甲二路１３９號１樓,120.3409,22.6014,(07)7269899,羅氏家用新冠病毒抗原自我檢測套組,78,2022/05/06 15:12:02,快篩實名制，每天16:00開始販售，售完為止。
5907011148,大樹國泰藥局,高雄市鳳山區興仁里五甲一路２９２號,120.3539,22.61698,(07)7407234,羅氏家用新冠病毒抗原自我檢測套組,78,2022/05/06 15:12:02,快篩實名制，每天16:00開始販售，售完為止。
5907011175,鳳西藥局,高雄市鳳山區忠義里中山西路２３８號１樓,120.3471,22.62831,(07)7902717,羅氏家用新冠病毒抗原自我檢測套組,78,2022/05/06 15:12:02,快篩實名制，每天16:00開始販售，售完為止。
5907011228,鳳山青年藥局,高雄市鳳山區文德里青年路二段３９９號１樓,120.3513,22.64292,(07)7678383,羅氏家用新冠病毒抗原自我檢測套組,77,2022/05/06 15:12:02,口罩販售時間：14:00 - 16:00
5907011371,大樹五甲藥局,高雄市鳳山區福祥里五甲三路２４號１－２樓．２６號１－２樓,120.3278,22.59317,(07)8224926,羅氏家用新冠病毒抗原自我檢測套組,78,2022/05/06 15:12:02,快篩實名制，每天16:00開始販售，售完為止。
5907020085,大德藥局,高雄市岡山區大德一路９８號,120.3025,22.79689,(07)6221456,羅氏家用新冠病毒抗原自我檢測套組,78,2022/05/06 15:12:02,快篩實名制，每天16:00開始販售，售完為止。
5907020094,大樹岡山藥局,高雄市岡山區岡山路１３６號,120.2967,22.78913,(07)6219477,羅氏家用新冠病毒抗原自我檢測套組,78,2022/05/06 15:12:02,快篩實名制，每天16:00開始販售，售完為止。
5907030090,睛好活力藥局,高雄市旗山區湄洲里中山路１２７號,120.482,22.88873,(07)6625119,羅氏家用新冠病毒抗原自我檢測套組,2,2022/05/06 15:12:02,無
5907030152,旗山藥局,高雄市旗山區中華路２３號,120.4841,22.88027,(07)6621158,羅氏家用新冠病毒抗原自我檢測套組,78,2022/05/06 15:12:02,快篩實名制，每天16:00開始販售，售完為止。
5907050010,新朋友藥師連鎖藥局,高雄市林園區東林東路４４號,120.3971,22.50389,(07)6460588,羅氏家用新冠病毒抗原自我檢測套組,50,2022/05/06 15:12:02,快篩於每日下午3:30，開始發放
5907050109,林園藥局,高雄市林園區仁愛路１３號１樓,120.3928,22.50418,(07)6425855,羅氏家用新冠病毒抗原自我檢測套組,78,2022/05/06 15:12:02,快篩實名制，每天16:00開始販售，售完為止。
5907060230,華思中西藥局,高雄市大寮區永芳里進學路１２２號１樓,120.3933,22.60468,(07)7835567,羅氏家用新冠病毒抗原自我檢測套組,78,2022/05/06 15:12:02,星期一~星期六 下午四點販售實名制快篩到售完為止   星期天店休
5907080232,大樹仁武藥局,高雄市仁武區赤山里仁雄路８０－９號,120.3469,22.67811,(07)3744777,羅氏家用新冠病毒抗原自我檢測套組,78,2022/05/06 15:12:02,快篩實名制，每天16:00開始販售，售完為止。
5907080269,興德昌藥局,高雄市仁武區文武里中華路２３２號,120.3516,22.69985,(07)3757005,羅氏家用新冠病毒抗原自我檢測套組,7,2022/05/06 15:12:02,固定週一至週日14:30~16:00開始發放號碼牌並依序販售快篩.售完為止
5907090167,大樹大社藥局,高雄市大社區中山路３０８號１樓,120.3503,22.73145,(07)3531682,羅氏家用新冠病毒抗原自我檢測套組,78,2022/05/06 15:12:02,快篩實名制，每天16:00開始販售，售完為止。
5907100088,本館藥局,高雄市鳥松區大華里本館路１９０號１樓,120.3361,22.65556,(07)3707655,羅氏家用新冠病毒抗原自我檢測套組,17,2022/05/06 15:12:02,營業時間每日09:00-22:00  實名制快篩販賣時間15:00-20:00
5907110048,和德藥局橋頭店,高雄市橋頭區橋南路１１６－１號,120.3125,22.75441,(07)6113580,羅氏家用新冠病毒抗原自我檢測套組,45,2022/05/06 15:12:02,快篩下午15:00開賣  售完為止
5907140108,德昌藥局阿蓮店,高雄市阿蓮區阿蓮里中正路４５６號,120.3321,22.88075,(07)6318868,羅氏家用新冠病毒抗原自我檢測套組,1,2022/05/06 15:12:02,固定周一至周日14:30-16:00販售快篩，售完為止
5907150202,永昌藥局,高雄市路竹區延平路８１號,120.2579,22.85786,(07)6964321,羅氏家用新冠病毒抗原自我檢測套組,99,2022/05/06 15:12:02,周一至周六上午10:00~12:30；下午15:30-18:00開始依序販售快篩試劑，售完為止。星期日休息。
5907160039,華安藥局,高雄市湖內區中山路一段４５１－１９號,120.2459,22.88472,(07)6938208,羅氏家用新冠病毒抗原自我檢測套組,41,2022/05/06 15:12:02,營業日15:00-21:00為販賣實名制快篩時間，售完為止。現場排隊 沒發號碼牌。（打電來問 時間還是下午3點）
5907160093,保生藥局,高雄市湖內區葉厝里保生路３４０．３４２號,120.2195,22.90733,(07)6990800,羅氏家用新冠病毒抗原自我檢測套組,79,2022/05/06 15:12:02,快篩實名制，每天16:00開始販售，售完為止。
5907200047,永恒健康生活藥局,高雄市梓官區智蚵里通安路１７６號１樓,120.252,22.7307,(07)6102755,羅氏家用新冠病毒抗原自我檢測套組,7,2022/05/06 15:12:02,營業時間週一到週日早上8:30至晚上9:30  實名制快篩 每天下午3:00 開始
5907280036,七賢藥局,高雄市鹽埕區七賢三路１６２號１樓,120.2829,22.62712,(07)5330616,羅氏家用新冠病毒抗原自我檢測套組,78,2022/05/06 15:12:02,快篩實名制，每天16:00開始販售，售完為止。
5907290112,新高橋藥局華榮店,高雄市鼓山區華榮路２８７號１樓,120.2967,22.66616,(07)5534727,羅氏家用新冠病毒抗原自我檢測套組,35,2022/05/06 15:12:02,下午2:30開始販售口罩
5907290158,美館久億藥局,高雄市鼓山區美術東二路２４５、２４７號,120.2883,22.66526,(07)5227762,羅氏家用新冠病毒抗原自我檢測套組,1,2022/05/06 15:12:02,星期一至星期天快篩發放，以物流實際到貨時間開始發放，請持續注意快篩地圖
5907290309,鼓山藥局,高雄市鼓山區華榮路１０號,120.2973,22.66156,(07)5520017,羅氏家用新冠病毒抗原自我檢測套組,78,2022/05/06 15:12:02,快篩實名制，每天16:00開始販售，售完為止。
5907290345,新高橋藥局裕明店,高雄市鼓山區裕誠路１６６８號１樓,120.294,22.66065,(07)5224680,羅氏家用新冠病毒抗原自我檢測套組,27,2022/05/06 15:12:02,無
5907300168,金元藥局,高雄市左營區重愛路２２０號,120.3156,22.68562,(07)3458378,羅氏家用新冠病毒抗原自我檢測套組,1,2022/05/06 15:12:02,快篩試劑郵差配送，約10點至11點左右會送到藥局，即開始販售，星期四，六營業時間至中午12點
5907300239,左野藥局,高雄市左營區崇德路２２２號,120.3052,22.675,(07)3486883,羅氏家用新冠病毒抗原自我檢測套組,28,2022/05/06 15:12:02,每日9時開始營業．實名制快篩販售時間15:00-20:00售完為止! 14:50發號碼牌
5907300631,大樹孟子藥局,高雄市左營區孟子路２２６、２２８號,120.3112,22.67415,(07)3461772,羅氏家用新冠病毒抗原自我檢測套組,78,2022/05/06 15:12:02,快篩實名制，每天16:00開始販售，售完為止。
5907300926,高鐵藥局,高雄市左營區華夏路１３２２．１３２６號,120.312,22.68587,(07)3452797,羅氏家用新冠病毒抗原自我檢測套組,78,2022/05/06 15:12:02,快篩實名制，每天16:00開始販售，售完為止。
5907300944,左營藥局,高雄市左營區華夏路３２５號,120.2972,22.67167,(07)5501017,羅氏家用新冠病毒抗原自我檢測套組,78,2022/05/06 15:12:02,快篩實名制，每天16:00開始販售，售完為止。
5907300980,大路藥局,高雄市左營區左營大路５５－２號１樓,120.2877,22.6813,(07)5851001,羅氏家用新冠病毒抗原自我檢測套組,78,2022/05/06 15:12:02,快篩實名制，每天16:00開始販售，售完為止。
5907301021,杏一左營自由藥局,高雄市左營區自由二路３９７號,120.3084,22.66541,(07)5509511,羅氏家用新冠病毒抗原自我檢測套組,121,2022/05/06 15:12:02,周一-周六販賣時間:15點；週日無提供快篩實聯制服務
5907310262,大樹楠梓藥局,高雄市楠梓區軍校路９０８號,120.2919,22.71246,(07)3632322,羅氏家用新冠病毒抗原自我檢測套組,78,2022/05/06 15:12:02,快篩實名制，每天16:00開始販售，售完為止。
5907310271,漢宏健保藥局,高雄市楠梓區加宏路９７號,120.2966,22.71804,(07)3626086,羅氏家用新冠病毒抗原自我檢測套組,52,2022/05/06 15:12:02,營業時間販賣口罩.售完為止
5907310404,藍田藥局,高雄市楠梓區藍田路１號,120.2953,22.72643,(07)3601236,羅氏家用新冠病毒抗原自我檢測套組,78,2022/05/06 15:12:02,快篩實名制，每天16:00開始販售，售完為止。
5907320428,東京藥局,高雄市三民區建工路６８５號,120.3173,22.6478,(07)3874567,羅氏家用新冠病毒抗原自我檢測套組,29,2022/05/06 15:12:02,實名制快篩販售時間: 每日15:00-晚上20:00
5907320848,仕康健保藥妝藥局,高雄市三民區建興路２２２號,120.325,22.6447,(07)3845050,羅氏家用新冠病毒抗原自我檢測套組,54,2022/05/06 15:12:02,下午3點販售，現場排隊
5907320893,大樹天祥藥局,高雄市三民區天祥一路１６７號,120.3191,22.66737,(07)3429902,羅氏家用新冠病毒抗原自我檢測套組,78,2022/05/06 15:12:02,快篩實名制，每天16:00開始販售，售完為止。
5907321069,桂林活力藥局九如店,高雄市三民區懷安街１１２號１樓,120.3176,22.64095,(07)3981009,羅氏家用新冠病毒抗原自我檢測套組,78,2022/05/06 15:12:02,每天15:30發號碼牌，於18:00前兌換完畢，逾期棄權，剩餘則繼續發放
5907321078,振源藥局,高雄市三民區熱河一街３５５號１樓,120.3061,22.64365,(07)3112541,羅氏家用新冠病毒抗原自我檢測套組,62,2022/05/06 15:12:02,4／30起15:00開始販售快篩，六日皆有營業
5907321103,自由藥局,高雄市三民區自由一路７８號,120.3089,22.64422,(07)3223113,羅氏家用新冠病毒抗原自我檢測套組,78,2022/05/06 15:12:02,快篩實名制，每天16:00開始販售，售完為止。
5907321121,九如順天藥局,高雄市三民區大連街９巷１８號,120.3045,22.64073,(07)3220706,羅氏家用新冠病毒抗原自我檢測套組,84,2022/05/06 15:12:02,實名制快篩為下午1點-6點開放領取，領完為止
5907350113,英祥藥局,高雄市苓雅區英祥街１９號,120.3257,22.61678,(07)7522786,羅氏家用新冠病毒抗原自我檢測套組,1,2022/05/06 15:12:02,無
5907350177,佳康藥局,高雄市苓雅區建國一路３３４號,120.3247,22.63293,(07)2266685,羅氏家用新冠病毒抗原自我檢測套組,16,2022/05/06 15:12:02,快篩代售時間:一至四8:30-21:00、五六8:30-16:30
5907350346,武廟幸福藥局,高雄市苓雅區武廟路３５號,120.3316,22.62999,(07)7170085,羅氏家用新冠病毒抗原自我檢測套組,2,2022/05/06 15:12:02,1: 自111／5／1起：快篩販售時間為13:40開始。2: 販售方式依現場公告為主，售完為止。
5907350506,大樹苓雅藥局,高雄市苓雅區中華四路１５３號,120.3001,22.61783,(07)5353111,羅氏家用新冠病毒抗原自我檢測套組,78,2022/05/06 15:12:02,快篩實名制，每天16:00開始販售，售完為止。
5907350551,大樹武廟藥局,高雄市苓雅區武廟路４３、４５號１樓,120.3314,22.63005,(07)7222268,羅氏家用新冠病毒抗原自我檢測套組,78,2022/05/06 15:12:02,快篩實名制，每天16:00開始販售，售完為止。
5907360413,益源藥局,高雄市前鎮區草衙二路４１８號,120.3226,22.57903,(07)8412120,羅氏家用新冠病毒抗原自我檢測套組,58,2022/05/06 15:12:02,無
5907360548,芳鄰藥局,高雄市前鎮區中華五路９９３號１樓,120.3059,22.60262,(07)5361134,羅氏家用新冠病毒抗原自我檢測套組,52,2022/05/06 15:12:02,快篩實名制販售時間：週一～週五下午３點～５點，週六早上８點～１０點，週日不販售
5907360584,聖名健保藥局,高雄市前鎮區復興三路２４６號１樓,120.312,22.61558,(07)3319431,羅氏家用新冠病毒抗原自我檢測套組,1,2022/05/06 15:12:02,無
5907360673,前鎮大樹藥局,高雄市前鎮區瑞隆路４７２號１樓,120.3291,22.60547,(07)7137171,羅氏家用新冠病毒抗原自我檢測套組,78,2022/05/06 15:12:02,快篩實名制，每天16:00開始販售，售完為止。
5907380264,大樹孔鳳藥局,高雄市小港區孔鳳路５１９、５２１號,120.3587,22.5828,(07)7918521,羅氏家用新冠病毒抗原自我檢測套組,78,2022/05/06 15:12:02,快篩實名制，每天16:00開始販售，售完為止。
5907380424,大樹小港藥局,高雄市小港區康莊路７５號１樓,120.3559,22.56853,(07)8068328,羅氏家用新冠病毒抗原自我檢測套組,78,2022/05/06 15:12:02,快篩實名制，每天16:00開始販售，售完為止。
5911010168,承泰藥局,基隆市中正區新豐街４４２號,121.786,25.13568,(02)24601316,羅氏家用新冠病毒抗原自我檢測套組,33,2022/05/06 15:12:02,實名制快篩販售時間於下午3點開始領取
5911011325,永好藥局,基隆市中正區北寧路３１５號１樓,121.7951,25.13981,(02)24697639,羅氏家用新冠病毒抗原自我檢測套組,26,2022/05/06 15:12:02,快篩星期一*三*五是單號 二*四雙號 下午14:30販售 星期六星期日休息
5911011594,禾新藥局,基隆市中正區新豐街２０５巷７號,121.7895,25.138,(02)24698940,羅氏家用新冠病毒抗原自我檢測套組,37,2022/05/06 15:12:02,快篩實名制販售時間:下午3點開始
5911011638,中正藥局,基隆市中正區新豐街３８５號１、２樓,121.7856,25.13537,(02)24690660,羅氏家用新冠病毒抗原自我檢測套組,78,2022/05/06 15:12:02,快篩實名制，每天16:00開始販售，售完為止。
5911021438,正心藥局,基隆市七堵區南興路１０號１樓,121.7149,25.09755,(02)24563378,羅氏家用新冠病毒抗原自我檢測套組,79,2022/05/06 15:12:02,每日限量78盒， 星期一~六下午13:30發號碼牌，14:00開始販賣，星期日上午9:00發號碼牌，9:30開始販賣，12:00停止領取
5911031238,碇內東亞藥師藥局,基隆市暖暖區源遠路３１９號１樓,121.7574,25.09941,(02)24590033,羅氏家用新冠病毒抗原自我檢測套組,73,2022/05/06 15:12:02,周一至周六下午三點發放快篩試劑
5911041305,婕登藥局,基隆市仁愛區愛三路５３號１、２樓,121.7425,25.12841,(02)24222582,羅氏家用新冠病毒抗原自我檢測套組,58,2022/05/06 15:12:02,成人口罩：每天下午三點開始發放號碼牌
5911041403,佑昌藥局,基隆市仁愛區南榮路１７號,121.7423,25.12697,(02)24293309,羅氏家用新冠病毒抗原自我檢測套組,14,2022/05/06 15:12:02,無
5911041690,佑聖藥局,基隆市仁愛區仁二路１８８號,121.7451,25.12864,(02)24201762,羅氏家用新冠病毒抗原自我檢測套組,42,2022/05/06 15:12:02,即日起口罩販售時間由下午兩點開始，周日公休
5911041958,百福仁愛專業藥局,基隆市仁愛區仁四路５０號１樓,121.7413,25.12829,(02)24266699,羅氏家用新冠病毒抗原自我檢測套組,1,2022/05/06 15:12:02,4／30起，早上8:00販售快篩
5911050153,隆泰藥局,基隆市中山區西定路１２號,121.7355,25.13184,(02)24225889,羅氏家用新冠病毒抗原自我檢測套組,46,2022/05/06 15:12:02,無
5911060015,福泰藥局,基隆市安樂區麥金路４３３號,121.7194,25.12511,(02)24311631,羅氏家用新冠病毒抗原自我檢測套組,7,2022/05/06 15:12:02,下午2點發號碼牌  3點領快篩試劑
5911061272,立登藥局,基隆市安樂區麥金路１９７號１樓,121.7216,25.12079,(02)24334477,羅氏家用新冠病毒抗原自我檢測套組,57,2022/05/06 15:12:02,藥局快篩劑代售15:00開始販售 現場排隊
5911071590,基隆藥局,基隆市信義區東信路１６６、１６８號１、２樓,121.7646,25.12821,(02)24680955,羅氏家用新冠病毒抗原自我檢測套組,78,2022/05/06 15:12:02,快篩實名制，每天16:00開始販售，售完為止。
5912012120,仁美藥局,新竹市東區振興里振興路５２號,120.9625,24.79493,(03)5625398,羅氏家用新冠病毒抗原自我檢測套組,78,2022/05/06 15:12:02,快篩試劑~晚上六點販售~（周日店休）不發號碼牌!沒有自費快篩，請不要問我要幾點排隊，我只是小藥師不是台灣神童!
5912012737,婷婷藥局,新竹市東區明湖路965號,120.9669,24.77371,(03)5290999,羅氏家用新冠病毒抗原自我檢測套組,1,2022/05/06 15:12:02,5／6星期五下午14點賣快篩
5912013494,田美藥局,新竹市東區田美三街３５之１號１樓,120.9767,24.81572,(03)5350233,羅氏家用新冠病毒抗原自我檢測套組,78,2022/05/06 15:12:02,快篩實名制，每天16:00開始販售，售完為止。
5912013501,倫洲藥局,新竹市東區食品路９７號１樓,120.9779,24.79801,(03)5744088,羅氏家用新冠病毒抗原自我檢測套組,78,2022/05/06 15:12:02,快篩開賣時間星期一到五為下午兩點，星期六早上八點半，星期日休息
5912013565,合康連鎖藥局關新店,新竹市東區關新北路１６１號１樓,121.0204,24.78614,(03)5679666,羅氏家用新冠病毒抗原自我檢測套組,78,2022/05/06 15:12:02,快篩販售時間:17:00
5912013672,關東藥局,新竹市東區光復路１段３３２、３３４號１至２樓,121.0187,24.78289,(03)5777077,羅氏家用新冠病毒抗原自我檢測套組,78,2022/05/06 15:12:02,快篩實名制，每天16:00開始販售，售完為止。
5912042098,欣欣藥局,新竹市北區西大路736巷1號,120.9591,24.81011,(03)5351205,羅氏家用新冠病毒抗原自我檢測套組,52,2022/05/06 15:12:02,快篩代售周一~周六下午3點開始販售，售完為止  藥局營業時間上午8:00-12:00 ；下午15:00-18:00 ；晚上18:30-21:30
5912042422,幼能健保藥局,新竹市北區竹光路１０８號１樓,120.9592,24.8133,(03)5339750,羅氏家用新冠病毒抗原自我檢測套組,45,2022/05/06 15:12:02,快篩實際販售時間 下午3點
5912042940,新竹北門藥局,新竹市北區中正路３６０、３６２號１樓,120.9629,24.81414,(03)5333234,羅氏家用新冠病毒抗原自我檢測套組,78,2022/05/06 15:12:02,無
5912042977,吉康藥局,新竹市北區東大路３段５０３號１樓,120.9384,24.83976,(03)5369916,羅氏家用新冠病毒抗原自我檢測套組,18,2022/05/06 15:12:02,週一~週六下午3點賣快篩，週日中午12點賣。現場排隊，無預訂預留。大家都很累請互相體諒。
5917011934,一安堂藥局,臺中市中區臺灣大道一段２０號１樓,120.6847,24.13819,(04)22259616,羅氏家用新冠病毒抗原自我檢測套組,1,2022/05/06 15:12:02,14:00開始領取實名制快篩劑
5917030995,麗新健保大藥局,臺中市西區向上路一段１６２號,120.6612,24.1469,(04)23017100,羅氏家用新冠病毒抗原自我檢測套組,13,2022/05/06 15:12:02,週一至週日下午15:00至售完為止
5917032382,中港大藥局,臺中市西區臺灣大道２段１３２號,120.6714,24.14995,(04)22080708,羅氏家用新冠病毒抗原自我檢測套組,24,2022/05/06 15:12:02,無
5917032640,幸福大藥局,臺中市西區向上路一段１９４號１樓,120.6605,24.14684,(04)23026149,羅氏家用新冠病毒抗原自我檢測套組,45,2022/05/06 15:12:02,每日下午3:00開始販售實名制快篩，售完為止（5／7改為上午8點））
5917032800,壹藥局,臺中市西區美村路１段７７５號１樓,120.6618,24.13306,(04)23721998,羅氏家用新冠病毒抗原自我檢測套組,1,2022/05/06 15:12:02,星期一到星期日每天下午二點開始販售快篩試劑售完為止謝謝
5917050933,英才藥局,臺中市北區英才路２２９號,120.674,24.15558,(04)22012325,羅氏家用新冠病毒抗原自我檢測套組,28,2022/05/06 15:12:02,上午9~10:30及下午5~6:30依序發售口罩，週日公休。
5917053649,博森藥局,臺中市北區健行路４９３號,120.6778,24.15905,(04)22068589,羅氏家用新冠病毒抗原自我檢測套組,14,2022/05/06 15:12:02,固定週一到週六，下午2:00到下午4:00以現場排隊方式販售防疫家用快篩。
5917072644,全成藥局,臺中市南屯區大墩６街２２３號,120.6464,24.14254,(04)24712897,羅氏家用新冠病毒抗原自我檢測套組,47,2022/05/06 15:12:02,實名制快篩每日15:00開始販售-售完為止（庫存以現場為主）
5917083012,佳家社區藥局,臺中市北屯區松義街１６８號,120.6984,24.18446,(04)22411678,羅氏家用新冠病毒抗原自我檢測套組,18,2022/05/06 15:12:02,｛快篩下午三點販售， 星期六恢復早上8點販售｝ 藥局營業時間8:30~22:00，週日下午公休.
5917083254,建祐藥局,臺中市北屯區太原路三段２６１號,120.6932,24.16505,(04)22389809,羅氏家用新冠病毒抗原自我檢測套組,37,2022/05/06 15:12:02,今日尚未收到貨；星期日休
5921012085,台安藥局,臺南市東區大同路一段１６３號,120.2113,22.98503,(06)2150011,羅氏家用新冠病毒抗原自我檢測套組,41,2022/05/06 15:12:02,快篩下午四點開始銷售
5921030298,銘豐藥局,臺南市中西區西賢一街４５號１樓,120.1776,23.00011,(06)2592517,羅氏家用新冠病毒抗原自我檢測套組,60,2022/05/06 15:12:02,星期一-日09:00-22:00.快篩實名制每日下午3點開始販售，發號碼牌.
5921040623,惠光藥局,臺南市北區文亢里文賢路２３６號,120.1938,23.0042,(06)2586316,羅氏家用新冠病毒抗原自我檢測套組,78,2022/05/06 15:12:02,快篩代售:5／6，下午4:00販售，星期日公休
5921051582,丞功藥局,臺南市中西區成功路３１號,120.2095,22.99747,(06)2287641,羅氏家用新冠病毒抗原自我檢測套組,1,2022/05/06 15:12:02,星期一-六08:00-售完
5921060321,慈安藥局,臺南市安南區大安街５３號,120.1919,23.03148,(06)2551117,羅氏家用新冠病毒抗原自我檢測套組,80,2022/05/06 15:12:02,下午2:00
5921061720,康悅健藥師藥局,臺南市安南區安和路５段１４９-２號,120.2179,23.0659,(06)3556382,羅氏家用新冠病毒抗原自我檢測套組,1,2022/05/06 15:12:02,快篩-星期一-五13:00-售完   星期六-日15:00-售完
5922012178,聖心藥局,嘉義市東區大雅路二段５７７號,120.4676,23.47718,(05)2777189,羅氏家用新冠病毒抗原自我檢測套組,30,2022/05/06 15:12:02,每日下午3點領號碼牌
5922012945,大明藥局,嘉義市東區大雅路二段６８２號,120.4663,23.47719,(05)2760958,羅氏家用新冠病毒抗原自我檢測套組,4,2022/05/06 15:12:02,5／6 號碼卡已發完（星期一至六：11點發號碼牌12-14點開始販售）
5922013068,佑全嘉義吳鳳南藥局,嘉義市東區吳鳳南路５８５、５８７號,120.459,23.45639,(05)2399311,羅氏家用新冠病毒抗原自我檢測套組,14,2022/05/06 15:12:02,領取快篩14:00
5922013111,富善藥局,嘉義市東區新生路２３４號,120.4609,23.48419,(05)2759559,羅氏家用新冠病毒抗原自我檢測套組,20,2022/05/06 15:12:02,5／13、14休假，實名制快篩早上9:10-12:00下午3:10-5:00
5922013184,軍輝啄木鳥藥局,嘉義市東區軍輝路２２２號,120.4588,23.455,(05)2395963,羅氏家用新冠病毒抗原自我檢測套組,78,2022/05/06 15:12:02,週一~日下午4:00開始
5922013193,民權藥局,嘉義市東區民權路１５５號１樓、１５７號１樓,120.4604,23.48374,(05)2775322,羅氏家用新冠病毒抗原自我檢測套組,78,2022/05/06 15:12:02,快篩實名制，每天16:00開始販售，售完為止。
5922020509,全德藥局,嘉義市西區福民里興業西路２８９號,120.4392,23.46776,(05)2854263,羅氏家用新冠病毒抗原自我檢測套組,64,2022/05/06 15:12:02,營業時間請電話洽詢  販售：19 :30~20:30
5922020858,大統藥局,嘉義市西區慶安里北興街１３６號,120.4421,23.48389,(05)2330230,羅氏家用新冠病毒抗原自我檢測套組,21,2022/05/06 15:12:02,5月6日預約登記已滿.有預約的民眾請於上午9:00點後領取
5922020894,平良藥局,嘉義市西區致遠里興業西路８４號１樓,120.4443,23.46856,(05)2235220,羅氏家用新冠病毒抗原自我檢測套組,6,2022/05/06 15:12:02,下午3點開賣快篩
5922020992,昭安藥局,嘉義市西區民生南路４７９號１樓,120.4437,23.45821,(05)2842240,羅氏家用新冠病毒抗原自我檢測套組,2,2022/05/06 15:12:02,無
5922021006,竹圍藥局,嘉義市西區友愛路２７０、２７２號,120.4339,23.4837,(05)2811233,羅氏家用新冠病毒抗原自我檢測套組,78,2022/05/06 15:12:02,快篩實名制，每天16:00開始販售，售完為止。
5931010011,埔墘藥局,新北市板橋區中山路２段２２７號,121.477,25.01741,(02)29646705,羅氏家用新冠病毒抗原自我檢測套組,3,2022/05/06 15:12:02,實名制快篩每天14:30發放號碼牌
5931010235,友祥藥局,新北市板橋區裕民街１０７號,121.4599,25.02773,(02)22544666,羅氏家用新冠病毒抗原自我檢測套組,1,2022/05/06 15:12:02,無
5931010397,正成藥師藥局,新北市板橋區三民路２段１５４巷７號,121.4787,25.01515,(02)29512760,羅氏家用新冠病毒抗原自我檢測套組,78,2022/05/06 15:12:02,無
5931011947,長弘藥局,新北市板橋區龍泉街１１０號,121.4568,25.02454,(02)22558789,羅氏家用新冠病毒抗原自我檢測套組,36,2022/05/06 15:12:02,勿打電話 快篩地圖不準 下午五點開始販售 若排隊人數超過庫存人數會提前販賣
5931013692,合泰藥局,新北市板橋區忠孝路１９號１樓,121.4604,25.002,(02)29572437,羅氏家用新冠病毒抗原自我檢測套組,23,2022/05/06 15:12:02,無
5931013781,佳和藥局,新北市板橋區文化路１段３８７巷５號１樓,121.4667,25.02193,(02)22589598,羅氏家用新冠病毒抗原自我檢測套組,2,2022/05/06 15:12:02,快篩週一 至五均分早上8:30 和下午3:00販售- 週六早上售完為止. 週日休
5931014046,欣安藥局,新北市板橋區懷德街１０９號１樓,121.4786,25.03147,(02)82570296,羅氏家用新冠病毒抗原自我檢測套組,1,2022/05/06 15:12:02,目前快篩送貨時間不定，發放時間依現場公告為主。
5931014555,廣益藥局,新北市板橋區自由路２１號,121.4654,25.02296,(02)22545726,羅氏家用新冠病毒抗原自我檢測套組,78,2022/05/06 15:12:02,下午3點50發號碼牌，4點開始賣
5931014635,健全藥局,新北市板橋區實踐路１２５號１樓,121.4642,25.00488,(02)89533330,羅氏家用新冠病毒抗原自我檢測套組,43,2022/05/06 15:12:02,無
5931015187,皇慶藥局,新北市板橋區南門街８１、８３號１、２樓及館前西路１１２巷７號,121.4568,25.0077,(02)29655351,羅氏家用新冠病毒抗原自我檢測套組,58,2022/05/06 15:12:02,實名防疫快篩號碼牌發放時間自15:00
5931015301,利安中西藥局,新北市板橋區板新路１４３號,121.4702,25.01544,(02)29644745,羅氏家用新冠病毒抗原自我檢測套組,47,2022/05/06 15:12:02,快篩每日下午三點開賣
5931015687,正康健保藥局,新北市板橋區大觀路２段６５號１樓,121.4467,25.00246,(02)22756681,羅氏家用新冠病毒抗原自我檢測套組,78,2022/05/06 15:12:02,下午13:30依現場順序開始販售快篩，快篩配送絮亂庫存不準!!
5931015749,品品藥局,新北市板橋區中山路２段４０２號〈１樓〉,121.4827,25.02073,(02)29647917,羅氏家用新冠病毒抗原自我檢測套組,78,2022/05/06 15:12:02,星期六9:30-15:30.連假上班9:30-15:30（半天）快篩每日下午4點發.
5931016273,湯明藥局,新北市板橋區中山路２段３１９號１樓,121.479,25.01866,(02)29571980,羅氏家用新冠病毒抗原自我檢測套組,45,2022/05/06 15:12:02,週一到週五 下午四點  六日時間未定 排隊不發號碼
5931016577,廣泰藥師藥局,新北市板橋區館前西路１５０號１樓,121.4556,25.00843,(02)89698381,羅氏家用新冠病毒抗原自我檢測套組,39,2022/05/06 15:12:02,無
5931016611,民川藥局,新北市板橋區四川路１段９７號１樓,121.4598,25.00544,(02)29520090,羅氏家用新冠病毒抗原自我檢測套組,11,2022/05/06 15:12:02,星期一~星期六（快篩上午9:00販售38份下午3:00販售40份）
5931017010,醫安藥局,新北市板橋區南雅南路１段１１號１樓及２樓,121.4565,25.00706,(02)29692588,羅氏家用新冠病毒抗原自我檢測套組,47,2022/05/06 15:12:02,全年無休，下午3點開始販售，依現場排隊為主
5931017047,永欣藥師藥局,新北市板橋區龍興街４６號１樓,121.4433,25.00094,(02)29687120,羅氏家用新冠病毒抗原自我檢測套組,39,2022/05/06 15:12:02,無
5931017056,迦佰麗藥局,新北市板橋區南雅南路２段１１－２４號（１樓）,121.454,25.00184,(02)29648498,羅氏家用新冠病毒抗原自我檢測套組,47,2022/05/06 15:12:02,營業時間10:00-22:30 實名制快篩每日15:00開賣（星期日休息）
5931017289,板橋大樹藥局,新北市板橋區忠孝路２８號（１樓）,121.4603,25.00176,(02)29555551,羅氏家用新冠病毒抗原自我檢測套組,78,2022/05/06 15:12:02,快篩實名制，每天16:00開始販售，售完為止。
5931017403,光澤醫美藥局,新北市板橋區四川路１段２１號（１樓）,121.4595,25.00689,(02)29551215,羅氏家用新冠病毒抗原自我檢測套組,59,2022/05/06 15:12:02,無
5931017618,新埔健保藥局,新北市板橋區自由路２號１樓,121.4654,25.02222,(02)22558878,羅氏家用新冠病毒抗原自我檢測套組,39,2022/05/06 15:12:02,無
5931017752,泓泰藥局,新北市板橋區館前西路１４０號２樓,121.4563,25.0081,(02)29686559,羅氏家用新冠病毒抗原自我檢測套組,31,2022/05/06 15:12:02,無
5931017789,明翠藥局,新北市板橋區四維路１４６、１４８號１、２樓,121.4651,25.02555,(02)22550201,羅氏家用新冠病毒抗原自我檢測套組,78,2022/05/06 15:12:02,快篩實名制，每天16:00開始販售，售完為止。
5931017805,利安藥師藥局,新北市板橋區南雅西路２段１１７號１樓、１１９號１樓,121.4524,25.01085,(02)29666951,羅氏家用新冠病毒抗原自我檢測套組,43,2022/05/06 15:12:02,快篩每日下午三點依現場順序販售，售完為止
5931017832,躍獅莒光藥局,新北市板橋區莒光路５８號１樓,121.4709,25.02421,(02)22556743,羅氏家用新冠病毒抗原自我檢測套組,33,2022/05/06 15:12:02,實名制快篩5／5已發完   5／6下午2:50發號碼牌（78份）
5931017994,後埔藥局,新北市板橋區華興街９號（１樓）,121.459,25.00457,(02)89510306,羅氏家用新冠病毒抗原自我檢測套組,17,2022/05/06 15:12:02,5／6  下午2點發放號碼牌*確保作業流暢請自備500元*每天 78 份晚上10 點以前領取完畢（過卡時間差異剩餘數量僅供參考）
5931018053,廣福健保藥局,新北市板橋區三民路１段７６號（１樓）,121.4793,25.02207,(02)29544288,羅氏家用新冠病毒抗原自我檢測套組,74,2022/05/06 15:12:02,實名制快篩每日下午16:00開始販售
5931020044,唯安藥局,新北市三重區五華街１３０號,121.4916,25.08358,(02)29875750,羅氏家用新冠病毒抗原自我檢測套組,33,2022/05/06 15:12:02,無
5931021532,龍門藥局,新北市三重區龍門路１８９號,121.4996,25.07322,(02)29756141,羅氏家用新冠病毒抗原自我檢測套組,78,2022/05/06 15:12:02,實名制快篩販售時間~星期一至星期六下午3點
5931023447,安泰藥局,新北市三重區正義北路３００－３號２樓,121.4953,25.06978,(02)89815379,羅氏家用新冠病毒抗原自我檢測套組,156,2022/05/06 15:12:02,5／2只有早上8:30--12:00營業下午.及晚上休息
5931023858,開元藥局,新北市三重區正義北路３２４號２樓,121.4949,25.07039,(02)29873976,羅氏家用新冠病毒抗原自我檢測套組,59,2022/05/06 15:12:02,無
5931024088,美滿藥局,新北市三重區中華路１６號,121.4834,25.0606,(02)89824272,羅氏家用新冠病毒抗原自我檢測套組,46,2022/05/06 15:12:02,滾動式調整
5931024631,德榮藥局,新北市三重區中華路９１號１樓,121.4836,25.06302,(02)29717291,羅氏家用新冠病毒抗原自我檢測套組,78,2022/05/06 15:12:02,政府快篩販售時間星期一至星期六晚間19:00整現場販售..謝謝
5931024971,欽勝藥局,新北市三重區重陽路４段６號２樓,121.4906,25.06894,(02)29857389,羅氏家用新冠病毒抗原自我檢測套組,46,2022/05/06 15:12:02,販售快篩需現場排隊，無預約無號碼牌，販售時間依到貨時間為主。
5931025647,幸康藥局,新北市三重區正義北路２０５號２樓,121.4962,25.0684,(02)29816105,羅氏家用新冠病毒抗原自我檢測套組,9,2022/05/06 15:12:02,國定假日，如元旦，端午，中秋不執行調劑業務。政府快篩實名制於週一~週六的14:30開始販售。
5931025914,仁美藥局,新北市三重區慈愛街５１號１、２樓,121.4861,25.07908,(02)22805150,羅氏家用新冠病毒抗原自我檢測套組,78,2022/05/06 15:12:02,快篩實名制，每天16:00開始販售，售完為止。
5931025932,永吉藥局,新北市三重區車路頭街９１號１樓,121.4844,25.07422,(02)22860432,羅氏家用新冠病毒抗原自我檢測套組,78,2022/05/06 15:12:02,快篩實名制，每天16:00開始販售，售完為止。
5931026028,宏欣藥局,新北市三重區仁愛街５１７號２樓,121.4878,25.08227,(02)29811234,羅氏家用新冠病毒抗原自我檢測套組,57,2022/05/06 15:12:02,一~五16:00，日09:30
5931026064,五華春天生活藥局,新北市三重區五華街７３號１、２樓,121.4925,25.08291,(02)29876838,羅氏家用新冠病毒抗原自我檢測套組,54,2022/05/06 15:12:02,快篩代售時間：週一至週日15：00，現場排隊購買，售完為止。（物流配送不及則例外，以門市公告為主）
5931026082,大有藥局,新北市三重區中正北路２１３號１、２樓及２１５號１、２樓,121.4763,25.07013,(02)29885771,羅氏家用新冠病毒抗原自我檢測套組,78,2022/05/06 15:12:02,快篩實名制，每天16:00開始販售，售完為止。
5931026091,重新藥局,新北市三重區重新路４段１２號１樓,121.4888,25.05775,(02)29742700,羅氏家用新冠病毒抗原自我檢測套組,78,2022/05/06 15:12:02,快篩實名制，每天16:00開始販售，售完為止。
5931032811,華特健康藥局,新北市永和區永貞路３６２號１樓,121.5102,25.00667,(02)29264391,羅氏家用新冠病毒抗原自我檢測套組,5,2022/05/06 15:12:02,快篩販賣時間13:00-15:00
5931033087,康宏安藥局,新北市永和區保福路２段７８號１樓,121.5106,25.01331,(02)29288118,羅氏家用新冠病毒抗原自我檢測套組,53,2022/05/06 15:12:02,無
5931033194,廣惠藥局,新北市永和區中正路６４９號２樓,121.5152,25.01007,(02)29290675,羅氏家用新冠病毒抗原自我檢測套組,40,2022/05/06 15:12:02,今日快篩販售時間 15:00-售完為止
5931033201,級立健保藥局,新北市永和區保平路１３９號１樓,121.5102,25.00608,(02)29299995,羅氏家用新冠病毒抗原自我檢測套組,13,2022/05/06 15:12:02,快篩代售時間為下午15:00，週日不銷售
5931033774,台化藥局,新北市永和區勵行街１１９號１樓,121.5175,25.01202,(02)22318585,羅氏家用新冠病毒抗原自我檢測套組,1,2022/05/06 15:12:02,無
5931033809,新禾藥局,新北市永和區中和路５３７號１樓,121.5114,25.00318,(02)29208877,羅氏家用新冠病毒抗原自我檢測套組,78,2022/05/06 15:12:02,無
5931033890,康杏安藥局,新北市永和區保平路９９號１樓,121.5114,25.00686,(02)29298968,羅氏家用新冠病毒抗原自我檢測套組,47,2022/05/06 15:12:02,快篩14:55發號碼牌，15:00開始販售，共78份
5931034146,亮點藥局,新北市永和區竹林路７１號１樓,121.5186,25.01355,(02)89253895,羅氏家用新冠病毒抗原自我檢測套組,92,2022/05/06 15:12:02,快篩發放時段 下午16:30-18:00
5931043565,一安藥妝藥局,新北市中和區中和路９號１.２樓,121.4998,25.00221,(02)22483778,羅氏家用新冠病毒抗原自我檢測套組,56,2022/05/06 15:12:02,下午3點開始發號碼牌販售快篩
5931043798,永成藥局,新北市中和區景平路１５６號１樓,121.5176,24.99222,(02)29407619,羅氏家用新冠病毒抗原自我檢測套組,115,2022/05/06 15:12:02,實名制快篩，下午三點領取號碼並開始販售（每日78份）
5931043921,良安藥局,新北市中和區連城路４７７巷１號１樓,121.4833,24.99555,(02)22225798,羅氏家用新冠病毒抗原自我檢測套組,42,2022/05/06 15:12:02,週六日不開店，實名制快篩，晚上9:00開始販售
5931044204,康廷安藥局,新北市中和區大勇街１６號１樓,121.5173,24.99277,(02)86683599,羅氏家用新冠病毒抗原自我檢測套組,45,2022/05/06 15:12:02,快篩14:50~14:55發號碼牌.15:00開始販售
5931045041,大誠藥局,新北市中和區民享街８７號１樓,121.4744,25.00162,(02)22258394,羅氏家用新冠病毒抗原自我檢測套組,58,2022/05/06 15:12:02,實名制快篩 每日下午03:30開始販售，現場排隊
5931045130,四維藥局,新北市中和區四維街３７巷２號１樓,121.5124,24.98679,(02)86681345,羅氏家用新冠病毒抗原自我檢測套組,78,2022/05/06 15:12:02,快篩實名制，每天16:00開始販售，售完為止。
5931045309,杏一中和雙和藥局,新北市中和區圓通路２９５之３號１樓,121.4946,24.99191,(02)22436116,羅氏家用新冠病毒抗原自我檢測套組,55,2022/05/06 15:12:02,5／1 下午2:30發號碼牌 3:00開始販賣 售完為止
5931045363,順儷景安藥局,新北市中和區景安路１９６號１樓,121.5042,24.99153,(02)22433515,羅氏家用新冠病毒抗原自我檢測套組,12,2022/05/06 15:12:02,健保卡實名制快篩於下午3點開始販售，現場排隊不發號碼牌及預訂
5931045443,台昕藥局,新北市中和區復興路２５５號（１樓）,121.5032,24.9902,(02)22406080,羅氏家用新冠病毒抗原自我檢測套組,38,2022/05/06 15:12:02,無
5931045470,富康活力永禎藥局,新北市中和區永貞路２５４號１樓,121.5141,25.00377,(02)29215999,羅氏家用新冠病毒抗原自我檢測套組,63,2022/05/06 15:12:02,無
5931051558,信龍大藥局,新北市新店區安康路２段５６號,121.515,24.96385,(02)22115533,羅氏家用新冠病毒抗原自我檢測套組,53,2022/05/06 15:12:02,實名制快篩15:00發放號碼牌，並同步販售，每人限持1卡購買1份，請備妥零鈔
5931052215,三民藥局,新北市新店區三民路７８號１樓－１,121.5348,24.97257,(02)89146301,羅氏家用新冠病毒抗原自我檢測套組,1,2022/05/06 15:12:02,實名制快篩試劑下午2點開始現場販售並同步發號碼牌周日休息
5931052608,佑成藥局,新北市新店區民權路１０１號１樓,121.537,24.98281,(02)86673537,羅氏家用新冠病毒抗原自我檢測套組,78,2022/05/06 15:12:02,下午四點發快篩
5931052724,合康大藥局,新北市新店區中正路２６３－２號１樓,121.5384,24.97367,(02)29109888,羅氏家用新冠病毒抗原自我檢測套組,7,2022/05/06 15:12:02,快篩14:00開始（有事先發號碼牌）網上還有數量是拿到號碼牌還沒來領的，拜託別再問了
5931052920,碧潭大藥局,新北市新店區碧潭路４１號１樓,121.5342,24.95642,(02)22112271,羅氏家用新冠病毒抗原自我檢測套組,1,2022/05/06 15:12:02,快篩販售時間:下午3點起，現場開始販售  PS.依政府到貨時間 滾動式調整
5931053178,長照藥局,新北市新店區如意街１６號１樓,121.4944,24.94838,(02)22153325,羅氏家用新冠病毒抗原自我檢測套組,16,2022/05/06 15:12:02,請注意丫5／06篩劑2:00開賣
5931053203,巧新藥局,新北市新店區北宜路１段８４號１樓,121.5386,24.9556,(02)29183565,羅氏家用新冠病毒抗原自我檢測套組,63,2022/05/06 15:12:02,15:00 依序領取快篩，不發號碼牌，勿打電話詢問
5931060342,十安藥局,新北市新莊區中港路３１６號,121.4524,25.04544,(02)29922859,羅氏家用新冠病毒抗原自我檢測套組,51,2022/05/06 15:12:02,自111／04／01起不再販賣實名制口罩
5931060557,一安藥局,新北市新莊區立德里新泰路２６８號,121.446,25.04029,(02)29941618,羅氏家用新冠病毒抗原自我檢測套組,39,2022/05/06 15:12:02,實名制快篩發放時間為15:00  其他詳情請上FB查詢
5931060619,蘇藥局,新北市新莊區中平路６巷３７號,121.446,25.04284,(02)29917818,羅氏家用新冠病毒抗原自我檢測套組,31,2022/05/06 15:12:02,販售快篩時間  固定每日下午3點發放!!!售完為止
5931067136,蒲陽藥局,新北市新莊區中港路５１４號,121.4518,25.05187,(02)29930069,羅氏家用新冠病毒抗原自我檢測套組,57,2022/05/06 15:12:02,無
5931067403,建嘉藥局,新北市新莊區中誠街４２號１樓,121.4513,25.04812,(02)29925261,羅氏家用新冠病毒抗原自我檢測套組,78,2022/05/06 15:12:02,無
5931067565,豐年藥局,新北市新莊區中正路３７７巷１６號,121.4462,25.03395,(02)22071182,羅氏家用新冠病毒抗原自我檢測套組,56,2022/05/06 15:12:02,無
5931068759,森活藥局,新北市新莊區民安路２２０－１號,121.426,25.02259,(02)22027927,羅氏家用新冠病毒抗原自我檢測套組,51,2022/05/06 15:12:02,實名快篩15點開賣
5931068819,東京大藥局,新北市新莊區民安路１７６號１樓,121.4251,25.02392,(02)22063806,羅氏家用新冠病毒抗原自我檢測套組,31,2022/05/06 15:12:02,口罩代售時間為9:30開始現場排隊販售
5931068991,新莊健業藥局,新北市新莊區昌平街３７號１樓至２樓,121.4547,25.05221,(02)22798808,羅氏家用新冠病毒抗原自我檢測套組,58,2022/05/06 15:12:02,快篩實名制每天下午三點開始販售（不發號碼牌）
5931069498,新杏藥局,新北市新莊區新泰路９９號１樓,121.449,25.03497,(02)22011012,羅氏家用新冠病毒抗原自我檢測套組,54,2022/05/06 15:12:02,若有配貨，將固定於週一至週日14:50開始發放號碼牌、15:00開始依序販售快篩，售完為止。
5931069505,陽光連鎖藥局,新北市新莊區中信街４０號１樓,121.4498,25.05089,(02)22774300,羅氏家用新冠病毒抗原自我檢測套組,43,2022/05/06 15:12:02,周一到週六下午三點賣快篩
5931069603,中信藥師藥局,新北市新莊區中信街８０號１樓,121.448,25.05311,(02)29969811,羅氏家用新冠病毒抗原自我檢測套組,78,2022/05/06 15:12:02,AM 07:30 開始
5931069792,宏泰藥局,新北市新莊區自信街３７號１樓,121.4543,25.04863,(02)29964649,羅氏家用新冠病毒抗原自我檢測套組,105,2022/05/06 15:12:02,無
593106A039,大仁藥局,新北市新莊區公園一路３２號１樓,121.4435,25.03531,(02)22776023,羅氏家用新冠病毒抗原自我檢測套組,78,2022/05/06 15:12:02,快篩販售時間:週一至週五 （16：30-17：30）， 週六（20：30-21：30）、週日公休
593106A566,一心春天藥局,新北市新莊區中和街１３號１樓、地下室,121.4481,25.04342,(02)89929482,羅氏家用新冠病毒抗原自我檢測套組,25,2022/05/06 15:12:02,快篩代售時間:週一至週日15:00現場排隊購買，售完為止。（物流配送不及則例外，以門市公告為主）
593106A977,丹鳳藥局,新北市新莊區中正路７４５、７４７號（１樓）,121.4227,25.0288,(02)29065755,羅氏家用新冠病毒抗原自我檢測套組,77,2022/05/06 15:12:02,快篩實名制，每天16:00開始販售，售完為止。
593106B036,家嘉藥局,新北市新莊區自立街１０３號（１樓）,121.4553,25.04549,(02)89926488,羅氏家用新冠病毒抗原自我檢測套組,26,2022/05/06 15:12:02,號碼牌預計於快篩到貨後開始發放 依現場公告為主
593106B090,依都勇藥局,新北市新莊區自信街６３號（１樓）,121.4554,25.04829,(02)29901516,羅氏家用新冠病毒抗原自我檢測套組,1,2022/05/06 15:12:02,無
593106B232,新康健保藥局,新北市新莊區自立街１７２號１樓,121.4557,25.04537,(02)29962558,羅氏家用新冠病毒抗原自我檢測套組,8,2022/05/06 15:12:02,無
593106B321,大樹幸福藥局,新北市新莊區幸福路６７２號１樓,121.4509,25.0493,(02)29981066,羅氏家用新冠病毒抗原自我檢測套組,78,2022/05/06 15:12:02,快篩實名制，每天16:00開始販售，售完為止。
5931070366,聖和藥局,新北市樹林區太元街５０號,121.4183,24.97967,(02)86866609,羅氏家用新冠病毒抗原自我檢測套組,78,2022/05/06 15:12:02,中午12:30分開始發放快篩
5931071970,保康藥局,新北市樹林區保安街１段３６４號,121.4176,24.99856,(02)86875503,羅氏家用新冠病毒抗原自我檢測套組,30,2022/05/06 15:12:02,無
5931072584,佳園藥局,新北市樹林區佳園路一段４１巷２０號１樓,121.3941,24.97095,(02)26685056,羅氏家用新冠病毒抗原自我檢測套組,3,2022/05/06 15:12:02,快篩實名制早上9點10分販售，發號碼牌，帶500元／健保卡
5931081289,唯新示範藥局,新北市鶯歌區建國路１６１號１樓,121.3503,24.95345,(02)86775363,羅氏家用新冠病毒抗原自我檢測套組,54,2022/05/06 15:12:02,實名制快篩購買時段下午2:50-4:00
5931081378,鶯歌宏達藥局,新北市鶯歌區國慶街１３８號１樓,121.3508,24.95347,(02)26709693,羅氏家用新冠病毒抗原自我檢測套組,52,2022/05/06 15:12:02,下午三點開始販售實名制快篩~不要打電話來問~藥師有其他工作要做
5931081510,鶯歌藥局,新北市鶯歌區鶯桃路２段１１號１樓,121.3258,24.97205,(02)86778778,羅氏家用新冠病毒抗原自我檢測套組,78,2022/05/06 15:12:02,口罩販售時間：14:00 - 16:00
5931081547,信義健保藥局,新北市鶯歌區信義街６３號１樓,121.3534,24.95571,(02)86775563,羅氏家用新冠病毒抗原自我檢測套組,38,2022/05/06 15:12:02,5／6 早9:30 快篩限量40組發放
5931091810,誠美藥局,新北市三峽區復興路１０６號１樓,121.3727,24.9378,(02)26718131,羅氏家用新冠病毒抗原自我檢測套組,27,2022/05/06 15:12:02,星期1~6早上9點現場排隊購買口罩，4／4~4／5不販售防疫口罩
5931091865,大新藥局,新北市三峽區大義路２５９號１樓,121.3774,24.94638,(02)86713204,羅氏家用新冠病毒抗原自我檢測套組,39,2022/05/06 15:12:02,實名制快篩下午2:50開始發號碼牌 3:00販售
5931091892,三峽藥局,新北市三峽區介壽路１段２７號１樓,121.3757,24.93321,(02)26738868,羅氏家用新冠病毒抗原自我檢測套組,78,2022/05/06 15:12:02,快篩實名制，每天16:00開始販售，售完為止。
5931100154,尚運藥局,新北市淡水區學府路５１巷１弄２０號,121.4473,25.16892,(02)26225149,羅氏家用新冠病毒抗原自我檢測套組,261,2022/05/06 15:12:02,無
5931101919,優德仕藥局,新北市淡水區新市一路３段１０３號,121.4464,25.18314,(02)26236573,羅氏家用新冠病毒抗原自我檢測套組,53,2022/05/06 15:12:02,快篩代售時間 15:00~售完
5931101937,文川藥局,新北市淡水區中山北路１段９３號１樓,121.4423,25.17631,(02)86319033,羅氏家用新冠病毒抗原自我檢測套組,43,2022/05/06 15:12:02,星期一-六下午14:50開始販售快篩試劑:星期日早上8:30開始販售
5931102103,四季寶健保藥局,新北市淡水區新市一路３段１１７－１號（含夾層）,121.4468,25.18314,(02)26283199,羅氏家用新冠病毒抗原自我檢測套組,78,2022/05/06 15:12:02,無
5931102229,貝比爾藥局,新北市淡水區中山北路１段１７１號１樓,121.4435,25.17787,(02)26261577,羅氏家用新冠病毒抗原自我檢測套組,32,2022/05/06 15:12:02,實名制快篩14:50發號碼牌 15:00開始販售
5931102407,躍獅淡水長照藥局,新北市淡水區學府路７７號１樓,121.4484,25.17003,(02)26295603,羅氏家用新冠病毒抗原自我檢測套組,46,2022/05/06 15:12:02,無
5931102452,池慶藥局,新北市淡水區中山北路２段５號１樓,121.4443,25.18344,(02)26238852,羅氏家用新冠病毒抗原自我檢測套組,41,2022/05/06 15:12:02,快篩販售14:50到16:00
5931102461,淡水藥局,新北市淡水區中山路１２７號（１、２樓）,121.4414,25.17107,(02)86313663,羅氏家用新冠病毒抗原自我檢測套組,78,2022/05/06 15:12:02,快篩實名制，每天16:00開始販售，售完為止。
5931112083,裕和藥局,新北市汐止區宜興街４號１樓,121.6211,25.04126,(02)26609119,羅氏家用新冠病毒抗原自我檢測套組,133,2022/05/06 15:12:02,晚上9.00領實名制快篩時間
5931112789,富康東科藥局,新北市汐止區新台五路１段９６號Ｃ棟１樓Ｃ１５號,121.6483,25.06047,(02)26969222,羅氏家用新冠病毒抗原自我檢測套組,1,2022/05/06 15:12:02,每日九點至下午六點開放購買口罩，周六周日公休
5931113071,蒲公英藥局,新北市汐止區連興街１２６號（１樓）,121.6538,25.06188,(02)26907770,羅氏家用新冠病毒抗原自我檢測套組,78,2022/05/06 15:12:02,實名制快篩銷售時間:下午17:00-19:00（無發放號碼牌）
5931113115,躍獅大同藥局,新北市汐止區新興路７號１樓,121.6565,25.06493,(02)26418399,羅氏家用新冠病毒抗原自我檢測套組,140,2022/05/06 15:12:02,每日15:30販售實名制快篩
5931113160,社后藥局,新北市汐止區康寧街４２４號１樓,121.6307,25.06801,(02)26956321,羅氏家用新冠病毒抗原自我檢測套組,78,2022/05/06 15:12:02,快篩實名制，每天16:00開始販售，售完為止。
5931121466,瑞芳藥局,新北市瑞芳區明燈路３段５９之１及５９之２號,121.8057,25.10812,(02)24966588,羅氏家用新冠病毒抗原自我檢測套組,78,2022/05/06 15:12:02,快篩實名制，每天16:00開始販售，售完為止。
5931131908,璨鴻藥局,新北市土城區延和路１９１號,121.4692,24.99035,(02)82622588,羅氏家用新冠病毒抗原自我檢測套組,63,2022/05/06 15:12:02,快篩發放時間星期一至五
5931132245,萬昌健保藥局,新北市土城區中央路４段１６０號,121.417,24.95827,(02)22678057,羅氏家用新冠病毒抗原自我檢測套組,78,2022/05/06 15:12:02,3月2日起周一至周五15:00發號碼牌及販賣口罩  周六 10:00直接販售
5931132263,立新藥局,新北市土城區光明街５號１樓,121.4421,24.97475,(02)82626111,羅氏家用新冠病毒抗原自我檢測套組,117,2022/05/06 15:12:02,快篩試劑下午3點開始銷售
5931132307,廣昇健保藥師藥局,新北市土城區明德路１段５３號,121.4653,24.98476,(02)22638300,羅氏家用新冠病毒抗原自我檢測套組,72,2022/05/06 15:12:02,無
5931132343,誠安藥局,新北市土城區中央路４段３６號１樓,121.4207,24.96088,(02)22677737,羅氏家用新冠病毒抗原自我檢測套組,156,2022/05/06 15:12:02,快篩代售時段：平日晚上8點，售完為止
5931132807,健業藥局,新北市土城區中央路２段２２３－１０號,121.4407,24.97312,(02)22704798,羅氏家用新冠病毒抗原自我檢測套組,78,2022/05/06 15:12:02,無
5931132950,美康藥妝藥局,新北市土城區延吉街２５４號１樓,121.4664,24.98465,(02)22616868,羅氏家用新冠病毒抗原自我檢測套組,130,2022/05/06 15:12:02,實名制快篩前一天若有到貨，則隔日三點販售
5931133331,城安大藥局,新北市土城區金城路３段４０號,121.4656,24.98639,(02)22646561,羅氏家用新冠病毒抗原自我檢測套組,6,2022/05/06 15:12:02,快篩代售時間晚上8:30
5931133395,順儷金城藥局,新北市土城區金城路３段１４７號１樓,121.4685,24.98831,(02)22621590,羅氏家用新冠病毒抗原自我檢測套組,55,2022/05/06 15:12:02,無
5931133500,菩提藥局,新北市土城區延和路１１４號１樓,121.4673,24.98988,(02)22624866,羅氏家用新冠病毒抗原自我檢測套組,78,2022/05/06 15:12:02,無
5931141726,松展多利日式連鎖藥粧藥局,新北市蘆洲區民族路１６１號,121.4793,25.08817,(02)22882586,羅氏家用新冠病毒抗原自我檢測套組,22,2022/05/06 15:12:02,防疫物資每日下午02:00開始販售
5931142509,萊康連鎖藥局,新北市蘆洲區中正路１２６號１樓,121.4694,25.08493,(02)82867383,羅氏家用新冠病毒抗原自我檢測套組,27,2022/05/06 15:12:02,下午三點開賣!!如有異動!!以現場公告為主!!
5931143257,德康藥局,新北市蘆洲區長榮路１３２號１樓,121.4616,25.08454,(02)82851022,羅氏家用新冠病毒抗原自我檢測套組,24,2022/05/06 15:12:02,實名制快篩周一到六14:50發號碼牌 15:00開賣 限現場排隊 一人一卡
5931143275,集賢藥局,新北市蘆洲區信義路２２２巷６１號１、２樓,121.4813,25.08535,(02)22882400,羅氏家用新冠病毒抗原自我檢測套組,78,2022/05/06 15:12:02,快篩實名制，每天16:00開始販售，售完為止。
5931143284,宥安藥局,新北市蘆洲區長榮路３８１號２樓,121.4592,25.08947,(02)22823556,羅氏家用新冠病毒抗原自我檢測套組,59,2022/05/06 15:12:02,5月6日配貨未到當日請勿排隊領號碼牌 ，星期日全日休息；快篩依到貨狀況，機動調整販賣時間。
5931143300,大樹蘆洲藥局,新北市蘆洲區民族路２６５號１樓,121.4762,25.09063,(02)22810747,羅氏家用新冠病毒抗原自我檢測套組,78,2022/05/06 15:12:02,無
5931151277,永任藥局,新北市五股區水碓路９號１樓,121.4336,25.07236,(02)22911093,羅氏家用新冠病毒抗原自我檢測套組,56,2022/05/06 15:12:02,實名制快篩販售時間下午3:00開賣
5931151302,宏安藥局,新北市五股區成泰路２段１３６號,121.4382,25.08369,(02)22915932,羅氏家用新冠病毒抗原自我檢測套組,127,2022/05/06 15:12:02,口罩販售時間:每日08:15~23:00售完為止 星期日如果前一日還有庫存，當日照常販售
5931151713,五股藥局,新北市五股區成泰路１段２３５之２號（１樓）,121.4363,25.07968,(02)22951150,羅氏家用新冠病毒抗原自我檢測套組,78,2022/05/06 15:12:02,快篩實名制，每天16:00開始販售，售完為止。
5931171528,長康藥局,新北市林口區中山路１６６號１樓,121.3902,25.07894,(02)26012661,羅氏家用新冠病毒抗原自我檢測套組,1,2022/05/06 15:12:02,周日公休
5931171582,綠園藥局,新北市林口區仁愛路２段１０５號１樓,121.3843,25.07507,(02)86012258,羅氏家用新冠病毒抗原自我檢測套組,3,2022/05/06 15:12:02,上午8:30-12:00、下午2:30-18:00、晚上18:00-21:30
5931171680,一家好藥局,新北市林口區中山路５００號,121.3794,25.08303,(02)26028270,羅氏家用新冠病毒抗原自我檢測套組,70,2022/05/06 15:12:02,無
5931171706,榮新藥局,新北市林口區忠孝路３８３號１樓,121.3695,25.0713,(02)26089789,羅氏家用新冠病毒抗原自我檢測套組,67,2022/05/06 15:12:02,快篩發放時間  14:50發放號碼牌下午15:00開賣（直至賣完）
5931171813,力行藥局,新北市林口區文化３路１段４２３、４２５號１、２樓,121.3653,25.07438,(02)26080711,羅氏家用新冠病毒抗原自我檢測套組,2,2022/05/06 15:12:02,快篩實名制，每天16:00開始販售，售完為止。
5931171822,榮昌藥局,新北市林口區仁愛路１段４１０號１樓,121.3867,25.07683,(02)26011312,羅氏家用新冠病毒抗原自我檢測套組,4,2022/05/06 15:12:02,實名制快篩15:00開賣唷！
5931171831,沐霖藥局,新北市林口區文化三路２段２８６號１樓,121.3775,25.08304,(02)26032086,羅氏家用新冠病毒抗原自我檢測套組,78,2022/05/06 15:12:02,無
5931171868,林口藥局,新北市林口區文化三路２段６９號１樓,121.374,25.08006,(02)26001899,羅氏家用新冠病毒抗原自我檢測套組,56,2022/05/06 15:12:02,快篩販售時間：下午02:40發號碼牌，03:00開始販售
5931231190,龍米藥師藥局,新北市八里區龍形一街５號１樓,121.4506,25.13045,(02)26185812,羅氏家用新冠病毒抗原自我檢測套組,58,2022/05/06 15:12:02,無
5931250015,松南藥局,新北市雙溪區中華路２９號,121.8658,25.03728,(02)24931085,羅氏家用新冠病毒抗原自我檢測套組,9,2022/05/06 15:12:02,週一至週五營業至晚上21點.週六至20點週日至12點
5932011058,富仕康藥局,桃園市桃園區中華路１１８號地下１樓,121.3082,24.99023,(03)3391318,羅氏家用新冠病毒抗原自我檢測套組,48,2022/05/06 15:12:02,口罩販賣時段：週一至週日15:30起
5932011638,明光藥局,桃園市桃園區中山東路１１７之１號,121.317,24.9968,(03)3380427,羅氏家用新冠病毒抗原自我檢測套組,28,2022/05/06 15:12:02,口罩販賣時段：0900-1200--1400-1800
5932011870,永祥大藥局,桃園市桃園區永安路５２８號,121.2986,25.00181,(03)3337161,羅氏家用新冠病毒抗原自我檢測套組,4,2022/05/06 15:12:02,口罩販賣時段：週一至週六早上9點
5932012813,桃園大興藥局,桃園市桃園區大興西路二段７６巷３號,121.2984,25.01183,(03)3013222,羅氏家用新冠病毒抗原自我檢測套組,78,2022/05/06 15:12:02,快篩實名制，每天16:00開始販售，售完為止。
5932012902,天濟堂藥局,桃園市桃園區桃鶯路３８８之８號,121.3231,24.97623,(03)3614983,羅氏家用新冠病毒抗原自我檢測套組,33,2022/05/06 15:12:02,快篩下午三點開賣 每月最後一個週日固定公休
5932013392,桃園中正藥局,桃園市桃園區中正路３７３號,121.3079,24.99955,(03)3381600,羅氏家用新冠病毒抗原自我檢測套組,13,2022/05/06 15:12:02,快篩實名制，每天16:00開始販售，售完為止。
5932013687,桃園春日藥局,桃園市桃園區春日路８７８號,121.3096,25.01561,(03)3580101,羅氏家用新冠病毒抗原自我檢測套組,79,2022/05/06 15:12:02,快篩實名制，每天16:00開始販售，售完為止。
5932013749,桃園寶山藥局,桃園市桃園區寶山街７２號,121.3175,25.01291,(03)3250562,羅氏家用新冠病毒抗原自我檢測套組,78,2022/05/06 15:12:02,快篩實名制，每天16:00開始販售，售完為止。
5932013990,福澤大業藥局,桃園市桃園區大業路１段４２２號１樓,121.3118,25.01473,(03)3563865,羅氏家用新冠病毒抗原自我檢測套組,70,2022/05/06 15:12:02,家用快篩販賣時段15:30至售完為止
5932014004,同德辰安藥局,桃園市桃園區同德十街２５號,121.294,25.01835,(03)3012028,羅氏家用新冠病毒抗原自我檢測套組,78,2022/05/06 15:12:02,實名制快篩試劑於下午4點開始販售，現場排隊，沒有發放號碼牌。
5932014031,大廟藥局,桃園市桃園區中山路１５８號１樓,121.3091,24.99342,(03)3337006,羅氏家用新冠病毒抗原自我檢測套組,63,2022/05/06 15:12:02,無
5932014040,奇美大藥局,桃園市桃園區中正五街１８５號,121.3014,25.00513,(03)3587727,羅氏家用新冠病毒抗原自我檢測套組,46,2022/05/06 15:12:02,營業時間:9:00-22:00
5932014059,桃園南平藥局,桃園市桃園區南平路３０２－１號１樓,121.2989,25.01855,(03)3165222,羅氏家用新冠病毒抗原自我檢測套組,78,2022/05/06 15:12:02,快篩實名制，每天16:00開始販售，售完為止。
5932014102,小飛象藥局,桃園市桃園區慈文路１９２號,121.3041,25.00907,(03)3552771,羅氏家用新冠病毒抗原自我檢測套組,78,2022/05/06 15:12:02,5／6 [21:30] 開賣78份，別再問了。不發放號碼牌，請自行計算人數。即日起本所有調劑確診者之視訊處方，請自保。
5932014111,鴻發藥師藥局,桃園市桃園區大有路５４３號,121.3171,25.0149,(03)3582468,羅氏家用新冠病毒抗原自我檢測套組,78,2022/05/06 15:12:02,實聯快篩:早上09:30發放號碼牌，限當日下午2~4點憑牌購買，逾時不候請見諒
5932014157,愛兒康藥局,桃園市桃園區龍安街１４７號１樓,121.2794,24.99127,(03)3789142,羅氏家用新冠病毒抗原自我檢測套組,53,2022/05/06 15:12:02,實名制快篩 15:00販售
5932014273,藝文藥局,桃園市桃園區大興西路１段１６５號,121.3049,25.01414,(03)3261789,羅氏家用新冠病毒抗原自我檢測套組,78,2022/05/06 15:12:02,快篩實名制，每天16:00開始販售，售完為止。
5932014326,闔新藥局,桃園市桃園區中正路５７６號１樓,121.3054,25.00388,(03)3317279,羅氏家用新冠病毒抗原自我檢測套組,1,2022/05/06 15:12:02,營業時間:9:00-21:00，實名制快篩領取時間14:30開始，現場排隊
5932014344,豐藝藥局,桃園市桃園區泰昌三街２３號１樓,121.2943,24.98954,(03)2200977,羅氏家用新冠病毒抗原自我檢測套組,44,2022/05/06 15:12:02,實名制快篩下午3點販售，依序排隊購買，售完為止。
5932014415,多多藥局,桃園市桃園區南平路１８３號１樓,121.3022,25.01946,(03)3162133,羅氏家用新冠病毒抗原自我檢測套組,50,2022/05/06 15:12:02,實名制快篩販售時段［下午3:00~3:30］
5932014424,桃園中山藥局,桃園市桃園區中山路７０７號,121.2914,24.99079,(03)2207168,羅氏家用新冠病毒抗原自我檢測套組,78,2022/05/06 15:12:02,快篩實名制，每天16:00開始販售，售完為止。
5932014460,桃鶯藥局,桃園市桃園區桃鶯路１０２號,121.318,24.98516,(03)3675100,羅氏家用新冠病毒抗原自我檢測套組,78,2022/05/06 15:12:02,快篩實名制，每天16:00開始販售，售完為止。
5932017069,佳赫藥局,桃園市桃園區龍壽街４８號,121.2694,24.97902,(03)3701037,羅氏家用新冠病毒抗原自我檢測套組,66,2022/05/06 15:12:02,快篩販售時間:15:00-20:00
5932018593,品一藥局,桃園市桃園區建新街７６號,121.3118,24.98261,(03)3638510,羅氏家用新冠病毒抗原自我檢測套組,5,2022/05/06 15:12:02,快篩販賣時間：週一至週五早上9：30；週六下午1：00（星期天休息），會發號碼牌（今天已發完）
5932019143,弘光藥師藥局,桃園市桃園區國際路一段１１３５號,121.2891,24.98774,(03)2170167,羅氏家用新冠病毒抗原自我檢測套組,53,2022/05/06 15:12:02,快篩劑15點開賣.不發號碼牌.請依序排隊.星期日不販售快篩
5932019929,元氣藥局,桃園市桃園區民光東路一Ｏ九號,121.3183,25.0079,(03)3332201,羅氏家用新冠病毒抗原自我檢測套組,78,2022/05/06 15:12:02,現場排隊喔!，快篩試劑銷售時間:星期一三四六15:30，星期二五19:00，星期日無，12:00~15:00；18:00~18:30為休息時間
5932021036,廣怡藥局,桃園市中壢區華勛街２５６號,121.2603,24.94865,(03)4366885,羅氏家用新冠病毒抗原自我檢測套組,1,2022/05/06 15:12:02,口罩販賣時段：開賣時間周一~周六13:30~17:30 、  周日8:30~11:30
5932021812,慧中健保藥局,桃園市中壢區成章二街１４１號１樓,121.2568,24.98025,(03)4556129,羅氏家用新冠病毒抗原自我檢測套組,1,2022/05/06 15:12:02,每日4:30開始領號碼牌販售快篩試劑
5932022631,中壢中正藥局,桃園市中壢區中正路３６３、３６５號,121.2163,24.95532,(03)4014100,羅氏家用新冠病毒抗原自我檢測套組,78,2022/05/06 15:12:02,快篩實名制，每天16:00開始販售，售完為止。
5932022971,得群藥局,桃園市中壢區自強六路４２號,121.2479,24.97409,(03)4535953,羅氏家用新冠病毒抗原自我檢測套組,53,2022/05/06 15:12:02,快篩篩劑發放時間為早上8:00 發放號碼牌
5932023058,福澤健行藥局,桃園市中壢區健行路１３９號,121.2275,24.94943,(03)4681988,羅氏家用新冠病毒抗原自我檢測套組,78,2022/05/06 15:12:02,家用快篩販賣時段15:30至售完為止
5932023094,中壢民權藥局,桃園市中壢區民權路３２６、３２８號,121.2054,25.0001,(03)4014961,羅氏家用新冠病毒抗原自我檢測套組,1,2022/05/06 15:12:02,實聯制快篩每天78份週一至週六下午1350拿取號碼牌1400開始販售.依序入場販售.過號視同放棄
5932023110,長偕社區藥局,桃園市中壢區環中東路１６０號,121.2573,24.96472,(03)4631995,羅氏家用新冠病毒抗原自我檢測套組,40,2022/05/06 15:12:02,快篩販賣時段：周一到周六， 下午三點~售完
5932023567,內壢成章藥局,桃園市中壢區忠孝路１９８號,121.2553,24.97719,(03)4524123,羅氏家用新冠病毒抗原自我檢測套組,78,2022/05/06 15:12:02,快篩實名制，每天16:00開始販售，售完為止。
5932023647,樂謙藥師藥局,桃園市中壢區龍東路１３４號,121.2522,24.92929,(03)4662775,羅氏家用新冠病毒抗原自我檢測套組,109,2022/05/06 15:12:02,實名快篩每日下午2點、晚上6點 各發39份
5932023683,祥合藥局,桃園市中壢區中北路二段４３１號,121.2321,24.95431,(03)2841880,羅氏家用新冠病毒抗原自我檢測套組,60,2022/05/06 15:12:02,口罩販賣時段:16:00
5932023807,東興藥局,桃園市中壢區中北路２段３９號,121.224,24.95033,(03)4282611,羅氏家用新冠病毒抗原自我檢測套組,78,2022/05/06 15:12:02,快篩實名制，每天16:00開始販售，售完為止。
5932023898,美康中壢藥局,桃園市中壢區龍岡路二段１１７號、後興路二段５５１巷３號、４號,121.2295,24.94529,(03)4590668,羅氏家用新冠病毒抗原自我檢測套組,34,2022/05/06 15:12:02,實名制快篩15:00發放
5932023914,內壢忠孝藥局,桃園市中壢區忠孝路３６號,121.2566,24.97338,(03)4636641,羅氏家用新冠病毒抗原自我檢測套組,78,2022/05/06 15:12:02,快篩實名制，每天16:00開始販售，售完為止。
5932023932,龍東藥局,桃園市中壢區龍東路２０５號,121.2523,24.92966,(03)4383088,羅氏家用新冠病毒抗原自我檢測套組,78,2022/05/06 15:12:02,快篩實名制，每天16:00開始販售，售完為止。
5932024126,民生藥師藥局,桃園市中壢區興仁路２段２８９號１樓,121.2649,24.96438,(03)3555008,羅氏家用新冠病毒抗原自我檢測套組,56,2022/05/06 15:12:02,每日下午3點開始販售實名制快篩
5932024171,青園藥局,桃園市中壢區領航南路４段１９８號１樓,121.2239,25.01755,(03)2876386,羅氏家用新冠病毒抗原自我檢測套組,28,2022/05/06 15:12:02,營業時間上午0830至晚上2100
5932024279,中壢環東藥局,桃園市中壢區中山東路２段１９３號,121.2404,24.95171,(03)4562345,羅氏家用新冠病毒抗原自我檢測套組,78,2022/05/06 15:12:02,快篩實名制，每天16:00開始販售，售完為止。
593202A833,君安藥局,桃園市中壢區中北路二段３９０號,121.2318,24.95388,(03)4685484,羅氏家用新冠病毒抗原自我檢測套組,107,2022/05/06 15:12:02,快篩試劑販售時間，週一至週五晚上7點，週六週日早上9點，視現場狀況而定，前15至45分鐘發號碼牌，發完為止
593202A931,佳佑藥局,桃園市中壢區環中東路二四一號,121.2573,24.96345,(03)4356190,羅氏家用新冠病毒抗原自我檢測套組,11,2022/05/06 15:12:02,口罩販賣時段：09:00以後發號碼牌，售完為止
593202B394,永豐藥局,桃園市中壢區民族路五段四六Ｏ號,121.167,24.95824,(03)4205339,羅氏家用新冠病毒抗原自我檢測套組,59,2022/05/06 15:12:02,快篩販賣時段：下午3:00開賣 請直接排隊購買
5932030080,吉壽藥局,桃園市大溪區員林路三段４２號,121.2648,24.88175,(03)3802049,羅氏家用新冠病毒抗原自我檢測套組,78,2022/05/06 15:12:02,快篩試劑販賣時段：星期一~五晚上7:00起及星期六、日上午8:30起。由於近日進貨庫存異常，另78份為隔日販售！請諒解。
5932030179,資生大藥局,桃園市大溪區康莊路１３２號,121.288,24.88146,(03)3882276,羅氏家用新冠病毒抗原自我檢測套組,55,2022/05/06 15:12:02,實名制快篩下午三點開賣
5932031747,欣康藥局,桃園市大溪區員林路２段３９０－６號,121.2677,24.88412,(03)3076310,羅氏家用新冠病毒抗原自我檢測套組,78,2022/05/06 15:12:02,快篩販賣時段：15:30
5932031881,大溪藥局,桃園市大溪區康莊路１６０號,121.2886,24.8808,(03)3873873,羅氏家用新冠病毒抗原自我檢測套組,78,2022/05/06 15:12:02,快篩實名制，每天16:00開始販售，售完為止。
5932031890,福生藥局,桃園市大溪區民權東路１０３號１樓,121.2919,24.88209,(03)3873533,羅氏家用新冠病毒抗原自我檢測套組,78,2022/05/06 15:12:02,早上八點開始發放快篩試劑
5932040246,龍泰藥局,桃園市楊梅區民族路五段１４７巷２號,121.1736,24.9586,(03)4901525,羅氏家用新冠病毒抗原自我檢測套組,15,2022/05/06 15:12:02,快篩販售時間:早上7:30領號碼牌下午2點至4點領快篩（當日有效）
5932040308,弘大藥局,桃園市楊梅區大華街十三號,121.1452,24.9076,(03)4751858,羅氏家用新冠病毒抗原自我檢測套組,7,2022/05/06 15:12:02,實名制快篩 14:00發放號碼牌後開始販售至16:00為止，禮拜天無販售實名制快篩。
5932043130,宜康美藥局,桃園市楊梅區環東路４５２號,121.1571,24.91005,(03)4883805,羅氏家用新冠病毒抗原自我檢測套組,58,2022/05/06 15:12:02,快篩販賣時段：早上09:30~10:30（20份）下午15:30~16:30（38份）晚上19:30~20:30（20份）
5932043336,楊梅藥局,桃園市楊梅區大成路１４８、１５０號,121.1458,24.91148,(03)4880776,羅氏家用新冠病毒抗原自我檢測套組,78,2022/05/06 15:12:02,快篩實名制，每天16:00開始販售，售完為止。
5932051472,康而美聖安藥師藥局,桃園市蘆竹區南山路一段二之一號,121.2916,25.04879,(03)3228753,羅氏家用新冠病毒抗原自我檢測套組,4,2022/05/06 15:12:02,暫停止販售
5932052200,樺生藥師藥局,桃園市蘆竹區南崁路９６號,121.2957,25.04585,(03)3121821,羅氏家用新冠病毒抗原自我檢測套組,24,2022/05/06 15:12:02,快篩試劑販賣時段：15:00-17:00（周一至周六）
5932052228,大竹藥師藥局,桃園市蘆竹區南竹路五段二五九號,121.2594,25.02454,(03)3232508,羅氏家用新冠病毒抗原自我檢測套組,5,2022/05/06 15:12:02,快篩販賣時段：14:30起可購買至售完為止
5932052755,大葉藥局,桃園市蘆竹區中山路１３２號１樓,121.2978,25.05699,(03)3125347,羅氏家用新冠病毒抗原自我檢測套組,56,2022/05/06 15:12:02,口罩販賣時段：以現場公告為主
5932052808,柏霖藥局,桃園市蘆竹區中正路３５９號２樓,121.291,25.04902,(03)2120284,羅氏家用新冠病毒抗原自我檢測套組,36,2022/05/06 15:12:02,快篩試劑販賣時間:18:00開始.售完為止
5932052835,悅兒藥局,桃園市蘆竹區忠孝西路１８６號,121.2892,25.04011,(03)3126967,羅氏家用新冠病毒抗原自我檢測套組,78,2022/05/06 15:12:02,快篩販賣時段：週一到週日 14:30 開賣
5932052853,奇安藥局,桃園市蘆竹區南昌路２６９號,121.2921,25.03999,(03)2120207,羅氏家用新冠病毒抗原自我檢測套組,1,2022/05/06 15:12:02,無
5932052979,南崁藥局,桃園市蘆竹區中正路２５１、２５３、２５５號,121.2921,25.04695,(03)3522022,羅氏家用新冠病毒抗原自我檢測套組,157,2022/05/06 15:12:02,快篩實名制，每天16:00開始販售，售完為止。
5932053047,桃園大竹藥局,桃園市蘆竹區大竹路３６５號,121.2652,25.01997,(03)3235959,羅氏家用新冠病毒抗原自我檢測套組,78,2022/05/06 15:12:02,快篩實名制，每天16:00開始販售，售完為止。
5932060177,勝峰藥師藥局,桃園市大園區菓林里３鄰菓林路５１號１樓,121.2585,25.07499,(03)3835588,羅氏家用新冠病毒抗原自我檢測套組,78,2022/05/06 15:12:02,16:00
5932062457,新資生大園大藥局,桃園市大園區新生路９５、９７號一樓,121.2,25.06486,(03)3853608,羅氏家用新冠病毒抗原自我檢測套組,1,2022/05/06 15:12:02,口罩代購時間自14：00；現場號碼牌發放時間自14：00
5932062484,園正藥局,桃園市大園區中正東路７５號,121.2003,25.06315,(03)3865250,羅氏家用新冠病毒抗原自我檢測套組,78,2022/05/06 15:12:02,快篩實名制，每天16:00開始販售，售完為止。
5932076791,誠安生活藥局,桃園市龜山區文化七路７９之２號,121.3635,25.05166,(03)3271997,羅氏家用新冠病毒抗原自我檢測套組,118,2022/05/06 15:12:02,實名制快篩試劑每日下午三點啟售。5／1周日不販售
5932076844,帕米爾藥局,桃園市龜山區萬壽路二段９９１號,121.3369,24.99464,(03)3295522,羅氏家用新冠病毒抗原自我檢測套組,29,2022/05/06 15:12:02,星期一~六:家用快篩試劑販賣時段：14:30~售完。不發號碼牌，請直接排隊購買。
5932077056,桃園龜山藥局,桃園市龜山區萬壽路二段８９６號,121.3394,24.99586,(03)3203312,羅氏家用新冠病毒抗原自我檢測套組,78,2022/05/06 15:12:02,快篩實名制，每天16:00開始販售，售完為止。
5932077154,博爾康生活藥局,桃園市龜山區大同路２５０號１樓,121.3446,24.98989,(03)3506588,羅氏家用新冠病毒抗原自我檢測套組,57,2022/05/06 15:12:02,快篩實名制每日15:00販售。不發號碼牌，請直接排隊購買。
5932077270,明昌藥局,桃園市龜山區中興里萬壽路二段１１９１－６號,121.3318,24.99291,(03)3501205,羅氏家用新冠病毒抗原自我檢測套組,2,2022/05/06 15:12:02,無
5932077592,南崁南祥藥局,桃園市龜山區南祥路４６號,121.2975,25.04633,(03)2227733,羅氏家用新冠病毒抗原自我檢測套組,78,2022/05/06 15:12:02,快篩實名制，每天16:00開始販售，售完為止。
5932077627,文興藥局,桃園市龜山區復興一路１０２號１、２、３樓,121.368,25.0592,(03)3285330,羅氏家用新冠病毒抗原自我檢測套組,78,2022/05/06 15:12:02,快篩實名制，每天16:00開始販售，售完為止。
5932080455,日鴻藥局,桃園市八德區義勇街１７５號,121.3065,24.96335,(03)3763304,羅氏家用新冠病毒抗原自我檢測套組,56,2022/05/06 15:12:02,口罩販賣時段：早上9:00 發號碼牌下午4:00~6:00領取
5932083509,上方藥局,桃園市八德區廣褔路一八八號,121.279,24.96204,(03)3635902,羅氏家用新冠病毒抗原自我檢測套組,57,2022/05/06 15:12:02,販賣快篩:於午間12:30~1:30發號碼牌，開賣時間下午3:00~4:30，賣完為止
5932083670,保健藥局,桃園市八德區介壽路一段８３３號２樓,121.3,24.96168,(03)3669486,羅氏家用新冠病毒抗原自我檢測套組,287,2022/05/06 15:12:02,無
5932083974,晨鴻藥師藥局,桃園市八德區桃鶯路７號１樓,121.3265,24.97179,(03)3764299,羅氏家用新冠病毒抗原自我檢測套組,81,2022/05/06 15:12:02,快篩為早上8:30跟晚上6:00領取號碼牌，因有送貨時間及短少的因素，所以快篩地圖數量參考就好，請勿再打電話詢問 謝謝
5932084211,東林藥局,桃園市八德區和義街１３號１樓,121.3074,24.95938,(03)3761129,羅氏家用新冠病毒抗原自我檢測套組,40,2022/05/06 15:12:02,快篩販賣時段：本周暫定下午3:00（周日不販售）
5932084257,成發藥局,桃園市八德區和平路２５０號,121.3053,24.95733,(03)3751696,羅氏家用新冠病毒抗原自我檢測套組,48,2022/05/06 15:12:02,快篩時間：下午三點
5932084793,美康健保藥局,桃園市八德區桃鶯路９１號１、２樓,121.328,24.97036,(03)3613624,羅氏家用新冠病毒抗原自我檢測套組,78,2022/05/06 15:12:02,無
5932084828,阿爾富山藥局,桃園市八德區桃鶯路４號１樓,121.3261,24.97167,(03)3763350,羅氏家用新冠病毒抗原自我檢測套組,75,2022/05/06 15:12:02,本藥局實名制快篩於每日晚間7點以實際到貨數量發放，唯保留可視現場排隊人數額滿情況.酌情提前發號碼牌並受理購買!
5932084864,阿寶藥局,桃園市八德區東勇一路６號,121.3064,24.96452,(03)3750060,羅氏家用新冠病毒抗原自我檢測套組,48,2022/05/06 15:12:02,實名制快篩詳細公告請參閱阿寶藥局官方臉書
5932099383,龍星藥局,桃園市龍潭區中正路二八四號二樓,121.2175,24.86201,(03)4707390,羅氏家用新冠病毒抗原自我檢測套組,78,2022/05/06 15:12:02,無
5932099927,大心聯合藥局,桃園市龍潭區中興路３９０號,121.2313,24.87337,(03)4897998,羅氏家用新冠病毒抗原自我檢測套組,78,2022/05/06 15:12:02,快篩實名制：週一至週日下午15:30開始販售
5932099936,康是美藥局龍潭店,桃園市龍潭區中正路１８０、１８２號,121.2168,24.86538,(03)4991093,羅氏家用新冠病毒抗原自我檢測套組,6,2022/05/06 15:12:02,無
5932099963,龍潭北龍藥局,桃園市龍潭區北龍路２７５號,121.2174,24.8681,(03)4893123,羅氏家用新冠病毒抗原自我檢測套組,78,2022/05/06 15:12:02,快篩實名制，每天16:00開始販售，售完為止。
5932100185,德聯藥師藥局,桃園市平鎮區龍南路３１號,121.2452,24.92473,(03)4603613,羅氏家用新冠病毒抗原自我檢測套組,1,2022/05/06 15:12:02,快篩 5月6日 下午2點開始賣
5932100210,福澤中豐藥局,桃園市平鎮區中豐路３４５號,121.2116,24.91034,(03)4283805,羅氏家用新冠病毒抗原自我檢測套組,2,2022/05/06 15:12:02,家用快篩販賣時段15:30至售完為止
5932100354,世新藥局,桃園市平鎮區廣泰路７５之２號,121.2052,24.94629,(03)4941234,羅氏家用新冠病毒抗原自我檢測套組,1,2022/05/06 15:12:02,實名制快篩13:30販售
5932100685,閤家康聯合藥局,桃園市平鎮區中豐路山頂段２５６號,121.2108,24.89805,(03)4194550,羅氏家用新冠病毒抗原自我檢測套組,38,2022/05/06 15:12:02,快篩販賣時段:15:00
5932100809,福澤民族藥局,桃園市平鎮區民族路二段１３９號１樓,121.2048,24.95706,(03)4014747,羅氏家用新冠病毒抗原自我檢測套組,73,2022/05/06 15:12:02,家用快篩販賣時段15:30至售完為止
5932100916,唯康藥局,桃園市平鎮區中豐路南勢二段１４４號,121.2106,24.91564,(03)4396011,羅氏家用新冠病毒抗原自我檢測套組,30,2022/05/06 15:12:02,快篩分兩梯次販售，14：30（48份）和19：00（30份）
5932101146,景賀藥局,桃園市平鎮區金陵路三段６６號之６,121.2272,24.92883,(03)4570991,羅氏家用新冠病毒抗原自我檢測套組,55,2022/05/06 15:12:02,下午三點開始販售實名制快篩
5932101226,平鎮中豐藥局,桃園市平鎮區中豐路山頂段１６４號,121.2109,24.90035,(03)4690939,羅氏家用新冠病毒抗原自我檢測套組,78,2022/05/06 15:12:02,快篩實名制，每天16:00開始販售，售完為止。
5932120114,廣福藥局,桃園市觀音區新坡里新生路４１號,121.1358,25.01381,(03)4984488,羅氏家用新冠病毒抗原自我檢測套組,41,2022/05/06 15:12:02,實名制快篩下午3點開始販售
5933010064,明德藥局,新竹縣關西鎮中山路１８號,121.1778,24.79152,(03)5874335,羅氏家用新冠病毒抗原自我檢測套組,3,2022/05/06 15:12:02,無
5933011258,安東藥師藥局,新竹縣關西鎮中山路６２號,121.1766,24.79147,(03)5872385,羅氏家用新冠病毒抗原自我檢測套組,78,2022/05/06 15:12:02,口罩販賣時段：星期一至六08:00-21:00、星期日08:00-17:00
5933011267,關西藥局,新竹縣關西鎮中山路６８號,121.1764,24.79148,(03)5171121,羅氏家用新冠病毒抗原自我檢測套組,77,2022/05/06 15:12:02,快篩實名制，每天16:00開始販售，售完為止。
5933031885,東林藥局,新竹縣竹東鎮東林路８０號,121.0913,24.73683,(03)5961321,羅氏家用新冠病毒抗原自我檢測套組,78,2022/05/06 15:12:02,快篩實名制，每天16:00開始販售，售完為止。
5933053041,中一藥局,新竹縣竹北市文興路一段２４２號１樓,121.0287,24.81018,(03)6670827,羅氏家用新冠病毒抗原自我檢測套組,78,2022/05/06 15:12:02,更新:快篩販售時間下午16:00
5933053336,幼幼健保藥局,新竹縣竹北市中興里嘉興路２０２號１樓,121.028,24.8174,(03)5507762,羅氏家用新冠病毒抗原自我檢測套組,39,2022/05/06 15:12:02,快篩15:00
5933053550,六家藥局,新竹縣竹北市六家一路一段１６３號,121.0289,24.80958,(03)6578456,羅氏家用新冠病毒抗原自我檢測套組,78,2022/05/06 15:12:02,快篩實名制，每天16:00開始販售，售完為止。
5933053596,中華藥局,新竹縣竹北市中華路２２６號１、２樓,121.0028,24.83118,(03)5513031,羅氏家用新冠病毒抗原自我檢測套組,78,2022/05/06 15:12:02,快篩實名制，每天16:00開始販售，售完為止。
5933061570,湖口藥局,新竹縣湖口鄉民族路４５號,121.0472,24.90602,(03)5991842,羅氏家用新冠病毒抗原自我檢測套組,23,2022/05/06 15:12:02,實名制快篩販賣時段：星期一~六14:30開賣
5934010193,文化藥師藥局,宜蘭縣宜蘭市復興路１段１３１號,121.7501,24.74834,(03)9332415,羅氏家用新冠病毒抗原自我檢測套組,54,2022/05/06 15:12:02,下午3:00~5:00
5934012473,宜蘭藥局,宜蘭縣宜蘭市泰山路３６號,121.7485,24.75524,(03)9365168,羅氏家用新冠病毒抗原自我檢測套組,78,2022/05/06 15:12:02,快篩實名制，每天16:00開始販售，售完為止。
5934022175,公正藥局,宜蘭縣羅東鎮興東路１３７、１３９號,121.769,24.6802,(03)9560543,羅氏家用新冠病毒抗原自我檢測套組,79,2022/05/06 15:12:02,快篩實名制，每天16:00開始販售，售完為止。
5934041170,永仁藥局,宜蘭縣頭城鎮吉祥路８８巷２５號１樓,121.8208,24.8571,(03)9789788,羅氏家用新冠病毒抗原自我檢測套組,2,2022/05/06 15:12:02,口罩發放 星期一至六早上07:30
5934051274,樂多藥局,宜蘭縣礁溪鄉中山路２段７２號１樓,121.7721,24.82459,(03)9368600,羅氏家用新冠病毒抗原自我檢測套組,24,2022/05/06 15:12:02,健保實名制快篩試紙-下午3點販售-售完為止
5934081067,威仁藥局,宜蘭縣冬山鄉冬山路２１９號,121.7907,24.63453,(03)9595351,羅氏家用新冠病毒抗原自我檢測套組,2,2022/05/06 15:12:02,無
5935011738,佳禾藥局,苗栗縣苗栗市青苗里建台街7號,120.821,24.55742,(037)373041,羅氏家用新冠病毒抗原自我檢測套組,158,2022/05/06 15:12:02,快篩試劑7：30發號碼牌8：00開始販賣，販賣時段：營業時間至售完為止
5935011783,芳鄰國際連鎖藥局,苗栗縣苗栗市中山路５６７號,120.8201,24.55826,(037)330580,羅氏家用新冠病毒抗原自我檢測套組,28,2022/05/06 15:12:02,快篩販賣時段：14:00開始發放號碼牌 16:00-18:00領取快篩
5935012413,苗栗藥局,苗栗縣苗栗市光復路５５號,120.8165,24.5532,(037)360789,羅氏家用新冠病毒抗原自我檢測套組,78,2022/05/06 15:12:02,快篩實名制，每天16:00開始販售，售完為止。
5935021421,苑裡啄木鳥藥局,苗栗縣苑裡鎮世界路一段２５號,120.6561,24.44071,(037)854589,羅氏家用新冠病毒抗原自我檢測套組,1,2022/05/06 15:12:02,無
5935021430,苑裡藥局,苗栗縣苑裡鎮為公路３２－１號,120.6541,24.44247,(037)851331,羅氏家用新冠病毒抗原自我檢測套組,78,2022/05/06 15:12:02,快篩實名制，每天16:00開始販售，售完為止。
5935030171,立安藥局,苗栗縣通霄鎮信義路１０７號,120.6804,24.48877,(037)760100,羅氏家用新冠病毒抗原自我檢測套組,2,2022/05/06 15:12:02,快篩實名制 週一到週六下午15:00開始販售  售完為止
5935030180,通霄藥局,苗栗縣通霄鎮中山路１３１號,120.678,24.48903,(037)755155,羅氏家用新冠病毒抗原自我檢測套組,75,2022/05/06 15:12:02,快篩實名制，每天16:00開始販售，售完為止。
5935041914,合康連鎖藥局,苗栗縣竹南鎮博愛街２７０號,120.8725,24.68724,(037)474987,羅氏家用新冠病毒抗原自我檢測套組,78,2022/05/06 15:12:02,販售快篩時間為下午17:00開始販售
5935041996,新欣藥局,苗栗縣竹南鎮龍山路一段１６０號１樓,120.8665,24.692,(037)471503,羅氏家用新冠病毒抗原自我檢測套組,40,2022/05/06 15:12:02,無
5935042108,好康健保藥局,苗栗縣竹南鎮科專七路２１９號１樓,120.9025,24.70536,(037)680877,羅氏家用新冠病毒抗原自我檢測套組,58,2022/05/06 15:12:02,快篩販售時間：下午3：00
5935051947,森品藥局,苗栗縣頭份市建國路２段１５０、１５２、１５６號,120.9032,24.69653,(037)672378,羅氏家用新冠病毒抗原自我檢測套組,59,2022/05/06 15:12:02,營業時間：9:00-22:30
5935051965,頭份瑞士藥局,苗栗縣頭份市建國路二段１００號,120.9046,24.69693,(037)683841,羅氏家用新冠病毒抗原自我檢測套組,56,2022/05/06 15:12:02,無
5935060053,鴻輝大藥局,苗栗縣後龍鎮北龍里中華路６４－１號,120.7879,24.61557,(037)721952,羅氏家用新冠病毒抗原自我檢測套組,1,2022/05/06 15:12:02,AM07:50~PM10:00
5935061452,後龍藥局,苗栗縣後龍鎮中山路２０９號１樓,120.7931,24.6127,(037)723660,羅氏家用新冠病毒抗原自我檢測套組,78,2022/05/06 15:12:02,快篩實名制，每天16:00開始販售，售完為止。
5935071172,健安藥局,苗栗縣卓蘭鎮上新里上新七之１１號,120.8297,24.30834,(04)25899617,羅氏家用新冠病毒抗原自我檢測套組,49,2022/05/06 15:12:02,每日 15:00開賣快篩試劑
5935090015,永信藥局,苗栗縣公館鄉館中村榮光街１６號,120.8271,24.50226,(037)223597,羅氏家用新冠病毒抗原自我檢測套組,1,2022/05/06 15:12:02,每日下午3點開始販售快篩
5936051389,康裕藥局,臺中市沙鹿區中山路２８０號１樓,120.5603,24.23822,(04)26633758,羅氏家用新冠病毒抗原自我檢測套組,23,2022/05/06 15:12:02,每日下午3:00開賣
5936090224,海源大藥局,臺中市潭子區潭秀里中山路２段４８７號,120.705,24.216,(04)25312187,羅氏家用新冠病毒抗原自我檢測套組,51,2022/05/06 15:12:02,快篩試劑下午3點開始販賣。
5936102998,妙昌藥局學府店,臺中市大雅區學府路２９９號,120.6491,24.22479,(04)25689841,羅氏家用新冠病毒抗原自我檢測套組,24,2022/05/06 15:12:02,無
5936150341,原全成藥局,臺中市烏日區中山路一段３８７號１樓,120.6388,24.10773,(04)23361818,羅氏家用新冠病毒抗原自我檢測套組,78,2022/05/06 15:12:02,每日＜下午４點＞!!＜下午４點＞!!＜下午４點＞!!開始發號碼牌販售，售完為止！！
5936171386,國際大藥局,臺中市龍井區藝術街６號,120.5954,24.18751,(04)26522118,羅氏家用新冠病毒抗原自我檢測套組,30,2022/05/06 15:12:02,無
5936180152,祥暘藥局,臺中市霧峰區中正路１１６２號,120.6996,24.07068,(04)23391346,羅氏家用新冠病毒抗原自我檢測套組,78,2022/05/06 15:12:02,快篩實名制，每天16:00開始販售，售完為止。
5936192134,樹德大藥局,臺中市太平區樹德路１０２號１樓,120.7115,24.15386,(04)23981782,羅氏家用新冠病毒抗原自我檢測套組,61,2022/05/06 15:12:02,下午3點開始領號碼牌，分流領取，請勿依賴網站庫存
5936192312,安麗兒藥局太平店,臺中市太平區太平路１９０號,120.7204,24.12088,(04)22798819,羅氏家用新冠病毒抗原自我檢測套組,5,2022/05/06 15:12:02,快篩販售時間下午3點（15:00）開始.售完為止
5936200032,優美藥師藥局,臺中市大里區新仁路３段２２７號,120.6848,24.11618,(04)24872277,羅氏家用新冠病毒抗原自我檢測套組,57,2022/05/06 15:12:02,下午3點開始販售快篩試劑
5936200257,裕祥藥局,臺中市大里區西榮里中興路二段３３２之７號,120.6899,24.11054,(04)24836389,羅氏家用新冠病毒抗原自我檢測套組,46,2022/05/06 15:12:02,快篩實名制：每日下午3點開始，現場排隊，售完為止。
5936209287,德芳大藥局,臺中市大里區益民路二段３０４號１、２樓,120.684,24.11183,(04)24815932,羅氏家用新冠病毒抗原自我檢測套組,2,2022/05/06 15:12:02,快篩販售時間:下午3點~6點
593620B138,聯生中西健保藥局,臺中市大里區現岱路１５８巷１１號,120.6919,24.10295,(04)24834058,羅氏家用新冠病毒抗原自我檢測套組,53,2022/05/06 15:12:02,早上八點半領號碼牌下午四點到六點領口罩W6W日早七點
593620B307,仁一藥局,臺中市大里區仁化路４９７號,120.7005,24.09618,(04)24913610,羅氏家用新冠病毒抗原自我檢測套組,18,2022/05/06 15:12:02,星期1~星期日每天下午2點50分開始排隊~3點開始賣~
5937010462,杏全藥局,彰化縣彰化市忠權里彰美路一段１８５號,120.5377,24.08868,(04)7240547,羅氏家用新冠病毒抗原自我檢測套組,15,2022/05/06 15:12:02,快篩販售：下午3點
5937013436,大埔藥局,彰化縣彰化市大埔路４０６、４０８、４１０、４１２號,120.5439,24.06298,(04)7117511,羅氏家用新冠病毒抗原自我檢測套組,78,2022/05/06 15:12:02,快篩實名制，每天16:00開始販售，售完為止。
5937013552,芳澤藥局,彰化縣彰化市中山路三段４３４號,120.5658,24.08861,(04)7380381,羅氏家用新冠病毒抗原自我檢測套組,56,2022/05/06 15:12:02,快篩實名制-週一至週五下午3點開始販售，星期六日休息
5937013570,彰化藥局,彰化縣彰化市永安街２７８、２８０號,120.5438,24.08977,(04)7287877,羅氏家用新冠病毒抗原自我檢測套組,78,2022/05/06 15:12:02,快篩實名制，每天16:00開始販售，售完為止。
5937013703,友誼藥局自強店,彰化縣彰化市自強路４６號,120.5393,24.08961,(04)7233471,羅氏家用新冠病毒抗原自我檢測套組,132,2022/05/06 15:12:02,5／6快篩販售時間15:00~16:00以現場量為主，免費領取各大醫院連續處方簽，診所、衛生所處方簽，歡迎諮詢友誼藥局
5937013730,佳漾藥局,彰化縣彰化市延平路５８８號１樓,120.5374,24.06301,(04)7135518,羅氏家用新冠病毒抗原自我檢測套組,78,2022/05/06 15:12:02,實名制快篩販售時間為下午5點，週六，週日及國定假日藥局休息．
5937013767,民族藥局,彰化縣彰化市民族路２１２號１樓,120.5393,24.071,(04)7261221,羅氏家用新冠病毒抗原自我檢測套組,78,2022/05/06 15:12:02,快篩實名制，每天16:00開始販售，售完為止。
5937021849,大樹鹿港藥局,彰化縣鹿港鎮中正路１９３號,120.4405,24.05491,(04)7772226,羅氏家用新冠病毒抗原自我檢測套組,78,2022/05/06 15:12:02,快篩實名制，每天16:00開始販售，售完為止。
5937031783,和美啄木鳥藥局,彰化縣和美鎮德美路２７０號,120.502,24.11371,(04)7552924,羅氏家用新冠病毒抗原自我檢測套組,1,2022/05/06 15:12:02,領藥到啄木鳥~今日5／6下午2點開始販賣實名制快篩
5937041369,北斗福倫藥局,彰化縣北斗鎮西德里斗苑路１段４２５、４２７號,120.5177,23.87305,(04)8886618,羅氏家用新冠病毒抗原自我檢測套組,34,2022/05/06 15:12:02,星期一~星期日每天下午3:00開始販售.人多同時間於2:50發號碼牌.取牌後保留10分鐘
5937041421,惠生大藥局,彰化縣北斗鎮西德里中華路２９１號,120.521,23.87288,(04)8874041,羅氏家用新冠病毒抗原自我檢測套組,4,2022/05/06 15:12:02,販售時間 : 週一 ~ 週日，每日下午1:50~2點後至販售完畢
5937051981,康美藥局,彰化縣員林市南平里南平街２６號,120.5646,23.96301,(04)8395172,羅氏家用新冠病毒抗原自我檢測套組,14,2022/05/06 15:12:02,無
5937052264,醫聯藥師藥局,彰化縣員林市三條里員東路二段４１０號１樓,120.5811,23.95898,(04)8360617,羅氏家用新冠病毒抗原自我檢測套組,6,2022/05/06 15:12:02,無
5937052335,大樹三民藥局,彰化縣員林市三民東街３５６號,120.5825,23.96065,(04)8372837,羅氏家用新冠病毒抗原自我檢測套組,78,2022/05/06 15:12:02,快篩實名制，每天16:00開始販售，售完為止。
5937052479,莒光藥局,彰化縣員林市莒光路３１６號１樓,120.5669,23.95942,(04)8361388,羅氏家用新冠病毒抗原自我檢測套組,78,2022/05/06 15:12:02,快篩實名制，每天16:00開始販售，售完為止。
5937052488,大樹員林藥局,彰化縣員林市大同路二段２０７號,120.5745,23.96891,(04)8331353,羅氏家用新冠病毒抗原自我檢測套組,78,2022/05/06 15:12:02,快篩實名制，每天16:00開始販售，售完為止。
5937052504,佑全員林中正藥局,彰化縣員林市中正路１３５，１３７號１樓,120.5714,23.96324,(04)8368669,羅氏家用新冠病毒抗原自我檢測套組,3,2022/05/06 15:12:02,無
5937061674,溪湖華恩保健藥局,彰化縣溪湖鎮青雅路３９號,120.483,23.96594,(04)8817575,羅氏家用新冠病毒抗原自我檢測套組,5,2022/05/06 15:12:02,實名制快篩，平日下午3:00及周六早上9:00販售。
5937061718,東環藥局,彰化縣溪湖鎮湖東街８１巷７０－３、７０－４、７０－５號,120.4833,23.95861,(04)8820001,羅氏家用新冠病毒抗原自我檢測套組,78,2022/05/06 15:12:02,快篩實名制，每天16:00開始販售，售完為止。
5937061727,溪湖藥局,彰化縣溪湖鎮西環路３６５、３７１號１樓,120.4771,23.96099,(04)8818617,羅氏家用新冠病毒抗原自我檢測套組,3,2022/05/06 15:12:02,無
5937061736,平和藥局,彰化縣溪湖鎮彰水路三段２７７、２７９號１樓,120.4801,23.95959,(04)8816880,羅氏家用新冠病毒抗原自我檢測套組,78,2022/05/06 15:12:02,快篩實名制，每天16:00開始販售，售完為止。
5937121317,彰水藥局,彰化縣秀水鄉彰水路二段４２５、４２７、４２９號１樓,120.4943,24.02791,(04)7685880,羅氏家用新冠病毒抗原自我檢測套組,78,2022/05/06 15:12:02,快篩實名制，每天16:00開始販售，售完為止。
5937151137,萬來藥局,彰化縣大村鄉福興村山腳路８０－９號,120.5856,23.98996,(04)8535565,羅氏家用新冠病毒抗原自我檢測套組,54,2022/05/06 15:12:02,下午3點販售政府快篩，星期六，母親節休息。
5937170034,淑惠藥局,彰化縣埔心鄉亙北村員鹿路一段２４４號,120.5574,23.95515,(04)8297798,羅氏家用新冠病毒抗原自我檢測套組,78,2022/05/06 15:12:02,星期一~星期六16:00-18:00（2小時販售快篩試劑），星期日：休
5937181279,佳恩藥局,彰化縣永靖鄉永西村瑚璉路３０２號,120.547,23.92421,(04)8235753,羅氏家用新冠病毒抗原自我檢測套組,48,2022/05/06 15:12:02,快篩實名制 :電話預約制，當日早上9點開始預約（已額滿）
5937181304,永靖藥局,彰化縣永靖鄉瑚璉路１１６號,120.5505,23.92624,(04)8230220,羅氏家用新冠病毒抗原自我檢測套組,78,2022/05/06 15:12:02,快篩實名制，每天16:00開始販售，售完為止。
5937191300,社頭藥局,彰化縣社頭鄉社斗路一段３７３號,120.5846,23.89651,(04)8720030,羅氏家用新冠病毒抗原自我檢測套組,78,2022/05/06 15:12:02,快篩實名制，每天16:00開始販售，售完為止。
5937201061,長春藥局,彰化縣二水鄉文化村光文路１０３號,120.6167,23.81189,(04)8795289,羅氏家用新冠病毒抗原自我檢測套組,19,2022/05/06 15:12:02,早上8:00發放號碼牌，13:00開始販售至17:00止
5937241065,順順藥局,彰化縣大城鄉東城村東平路６３－１號,120.322,23.85443,(04)8946379,羅氏家用新冠病毒抗原自我檢測套組,36,2022/05/06 15:12:02,無
5938010108,宏嘉藥局,南投縣南投市崇文里彰南路一段１１１４號,120.6854,23.90663,(049)2228073,羅氏家用新冠病毒抗原自我檢測套組,40,2022/05/06 15:12:02,配合政府防疫政策.快篩試劑每日下午3點開始販售.售完為止
5938010420,弘昌藥局,南投縣南投市三興里南崗一路８５號,120.6834,23.90096,(049)2228902,羅氏家用新冠病毒抗原自我檢測套組,22,2022/05/06 15:12:02,週一至週六早防疫家用快篩試劑 早上發號碼.下午3點至4點領快篩.超過4點視同放棄.
5938010546,福倫藥局,南投縣南投市南陽路３４５號,120.6835,23.91306,(049)2202918,羅氏家用新冠病毒抗原自我檢測套組,48,2022/05/06 15:12:02,每日下午3點開始發放號碼牌並販售
5938011810,南投丁丁藥局,南投縣南投市三和里三和二路１０號,120.69,23.90461,(049)2245977,羅氏家用新冠病毒抗原自我檢測套組,14,2022/05/06 15:12:02,健保快篩早上8點開賣
5938021683,埔里啄木鳥藥局,南投縣埔里鎮中山路三段４６７號,120.9537,23.96959,(049)2914510,羅氏家用新冠病毒抗原自我檢測套組,18,2022/05/06 15:12:02,實名制快篩 當天下午3點開賣＜請排隊購買＞
5938022064,大樹埔里藥局,南投縣埔里鎮中正路４３８號,120.9632,23.97263,(049)2980805,羅氏家用新冠病毒抗原自我檢測套組,78,2022/05/06 15:12:02,快篩實名制，每天16:00開始販售，售完為止。
5939010399,東京大藥局,雲林縣斗六市文化路７９號,120.5486,23.71107,(05)5348073,羅氏家用新冠病毒抗原自我檢測套組,77,2022/05/06 15:12:02,快篩試劑每天下午4點販賣（售完為止）
5939011850,明真西藥局,雲林縣斗六市自由路１號,120.5447,23.70513,(05)5321605,羅氏家用新冠病毒抗原自我檢測套組,7,2022/05/06 15:12:02,口罩販售:早上0800-1200中午1200-1400休息下午1400到2100賣完為止
5939012400,陽光藥局,雲林縣斗六市永安路６９號,120.548,23.70923,(05)5362097,羅氏家用新冠病毒抗原自我檢測套組,67,2022/05/06 15:12:02,快篩16:00開賣~現場排隊，請勿電話詢問
5939012526,世明中西藥局,雲林縣斗六市文化路３２４－１號,120.5532,23.71162,(05)5333109,羅氏家用新冠病毒抗原自我檢測套組,29,2022/05/06 15:12:02,口罩販售:於周一到周日營業時間9:00~售完為止，快篩試劑販售:於周一到周六營業時間14:00開賣~售完為止
5939012599,斗六藥局,雲林縣斗六市雲林路二段１１３號,120.534,23.70477,(05)5372300,羅氏家用新冠病毒抗原自我檢測套組,78,2022/05/06 15:12:02,快篩實名制，每天16:00開始販售，售完為止。
5939041849,西螺藥局,雲林縣西螺鎮光復西路１２３、１２５號,120.4612,23.79675,(05)5872112,羅氏家用新冠病毒抗原自我檢測套組,78,2022/05/06 15:12:02,快篩實名制，每天16:00開始販售，售完為止。
5939061949,大樹北港藥局,雲林縣北港鎮華勝路９９號,120.2986,23.57559,(05)7830783,羅氏家用新冠病毒抗原自我檢測套組,78,2022/05/06 15:12:02,快篩實名制，每天16:00開始販售，售完為止。
5939071294,元林中西藥局,雲林縣古坑鄉西平村西平路９－２號１樓,120.5606,23.64679,(05)5828229,羅氏家用新冠病毒抗原自我檢測套組,7,2022/05/06 15:12:02,販賣口罩時間：08:00
5939131384,台安藥局,雲林縣麥寮鄉麥豐村新興路１６號,120.2525,23.74694,(05)6933311,羅氏家用新冠病毒抗原自我檢測套組,2,2022/05/06 15:12:02,週日公休。
5939131482,麥津藥局,雲林縣麥寮鄉中山路３１３、３１５號,120.2527,23.74947,(05)6932258,羅氏家用新冠病毒抗原自我檢測套組,78,2022/05/06 15:12:02,快篩實名制，每天16:00開始販售，售完為止。
5939171093,和平藥局,雲林縣元長鄉下寮村東興路３３號,120.334,23.61849,(05)7862551,羅氏家用新冠病毒抗原自我檢測套組,11,2022/05/06 15:12:02,販賣口罩時間：0800開賣，賣完為止
5940031359,家寶藥局,嘉義縣大林鎮平林里中興路２６４號,120.4613,23.60269,(05)2649000,羅氏家用新冠病毒抗原自我檢測套組,25,2022/05/06 15:12:02,08:00~售罄
5940031386,大樹大林藥局,嘉義縣大林鎮祥和路１９２號,120.4527,23.60447,(05)2641800,羅氏家用新冠病毒抗原自我檢測套組,78,2022/05/06 15:12:02,快篩實名制，每天16:00開始販售，售完為止。
5940041748,大祐藥局,嘉義縣民雄鄉西安村西安路２１－１號１樓,120.4272,23.5564,(05)2067077,羅氏家用新冠病毒抗原自我檢測套組,17,2022/05/06 15:12:02,週日下午晚上休息
5940121394,水上藥局,嘉義縣水上鄉水頭村中興路２６６號,120.4029,23.43014,(05)2601121,羅氏家用新冠病毒抗原自我檢測套組,78,2022/05/06 15:12:02,快篩實名制，每天16:00開始販售，售完為止。
5940131283,一心藥局,嘉義縣中埔鄉富收村頂中下街３１、３１－１號１樓,120.4885,23.45077,(05)2303553,羅氏家用新冠病毒抗原自我檢測套組,7,2022/05/06 15:12:02,無
5940141314,竹崎啄木鳥藥師藥局,嘉義縣竹崎鄉竹崎村中華路９２號,120.5481,23.52055,(05)2617786,羅氏家用新冠病毒抗原自我檢測套組,3,2022/05/06 15:12:02,09:00~售罄
5941281488,德昌藥師藥局,臺南市歸仁區中山路一段５１６、５１８號,120.2951,22.96743,(06)3303533,羅氏家用新冠病毒抗原自我檢測套組,1,2022/05/06 15:12:02,14:30~售完
5942010349,長英藥局,高雄市鳳山區八德路二段２６７號,120.3519,22.64479,(07)7805002,羅氏家用新冠病毒抗原自我檢測套組,58,2022/05/06 15:12:02,4／29起-營業日15:00~17:00為快篩販賣時間，售完為止。
5942010812,一仁藥局,高雄市鳳山區自由路２００號,120.3495,22.62562,(07)7425004,羅氏家用新冠病毒抗原自我檢測套組,63,2022/05/06 15:12:02,實名快篩15:00 -20:00（售完為止）
5942020130,建成藥局,高雄市岡山區台上里大仁路９７號,120.3016,22.8053,(07)6210458,羅氏家用新冠病毒抗原自我檢測套組,53,2022/05/06 15:12:02,營業日.販賣快篩劑.時間15:00-18:00.或至售完為止
5942081393,明曜藥局,高雄市仁武區灣內村仁雄路６－６號,120.3576,22.6831,(07)3736846,羅氏家用新冠病毒抗原自我檢測套組,2,2022/05/06 15:12:02,自2／11日~2／29日，營業日13:30為發號碼牌及過卡販賣口罩時間，售完為止
5942140084,惠聖中西藥局,高雄市阿蓮區清蓮里中山路１４號,120.3291,22.88057,(07)6312582,羅氏家用新冠病毒抗原自我檢測套組,78,2022/05/06 15:12:02,自4／28日起，實名制快篩週一~五下午5:00起，週六日上午8:00起銷售，售完為止
5943010432,億泰藥局,屏東縣屏東市勝利里自由路５８２號,120.4857,22.68355,(08)7324005,羅氏家用新冠病毒抗原自我檢測套組,25,2022/05/06 15:12:02,無
5943010496,惠恩藥局,屏東縣屏東市空翔里勝利路２０２號,120.4798,22.67914,(08)7664830,羅氏家用新冠病毒抗原自我檢測套組,55,2022/05/06 15:12:02,防疫快篩:5／2起15:00開始販售，售完為止
5943014234,屏大藥局,屏東縣屏東市民生路５７－２１號,120.5038,22.66399,(08)7220369,羅氏家用新冠病毒抗原自我檢測套組,78,2022/05/06 15:12:02,快篩實名制，每天16:00開始販售，售完為止。
5943014305,信慷藥局,屏東縣屏東市民富街６１號,120.4969,22.68635,(08)7361727,羅氏家用新冠病毒抗原自我檢測套組,1,2022/05/06 15:12:02,無
5943014332,千甲台安藥局,屏東縣屏東市武廟里逢甲路９２號,120.4867,22.67045,(08)7330663,羅氏家用新冠病毒抗原自我檢測套組,72,2022/05/06 15:12:02,因政府物流不穩定 每日塊篩販售時間公告於LINE社群https:／／reurl.cc／M0b5VX
5943014341,和平藥局,屏東縣屏東市和平路３５號,120.4785,22.66651,(08)7556696,羅氏家用新冠病毒抗原自我檢測套組,78,2022/05/06 15:12:02,快篩實名制，每天16:00開始販售，售完為止。
5943021695,立康藥局,屏東縣潮州鎮介壽路７７號１樓,120.5365,22.54417,(08)7800995,羅氏家用新冠病毒抗原自我檢測套組,74,2022/05/06 15:12:02,快篩實名制下午3:30開始販售，售完為止
5943031851,大眾藥局,屏東縣東港鎮朝隆路７６號,120.4463,22.46862,(08)8354752,羅氏家用新冠病毒抗原自我檢測套組,13,2022/05/06 15:12:02,實名制快篩下午三點開始販售
5943031897,欣大眾藥局,屏東縣東港鎮中正路一段９２號,120.4569,22.47272,(08)8351177,羅氏家用新冠病毒抗原自我檢測套組,45,2022/05/06 15:12:02,無
5943041320,南門大藥局,屏東縣恆春鎮中正路８４號,120.7446,22.00343,(08)8894335,羅氏家用新冠病毒抗原自我檢測套組,78,2022/05/06 15:12:02,營業日16:00-21:00 販賣實名制快篩（賣完為止），星期日不販售
5943050169,新萬安藥局,屏東縣萬丹鄉萬安村萬丹路一段１１３號,120.4894,22.58628,(08)7772035,羅氏家用新冠病毒抗原自我檢測套組,8,2022/05/06 15:12:02,實名制快篩販售時間中午 12:30  至售完
5943071088,立登藥局,屏東縣麟洛鄉中山路２５６之１號,120.5247,22.65251,(08)7213590,羅氏家用新冠病毒抗原自我檢測套組,27,2022/05/06 15:12:02,5月7，8號公休
5943091151,祥安藥局,屏東縣里港鄉玉田村玉田路６３－２號,120.4905,22.77635,(08)7757652,羅氏家用新冠病毒抗原自我檢測套組,1,2022/05/06 15:12:02,中午1點快篩開始販售
5943091197,葉藥局里港店,屏東縣里港鄉春林村永春路１７－５號１樓,120.4961,22.77736,(08)7750318,羅氏家用新冠病毒抗原自我檢測套組,46,2022/05/06 15:12:02,今天下午三點領快篩
5943110044,宏順藥局,屏東縣高樹鄉長榮村南昌路２－２號,120.5963,22.81845,(08)7962136,羅氏家用新冠病毒抗原自我檢測套組,24,2022/05/06 15:12:02,營業日下午3點開始販售家用快篩，售完為止。
5943111158,武康健保藥局,屏東縣高樹鄉高樹村南興路９７號,120.6015,22.82347,(08)7965826,羅氏家用新冠病毒抗原自我檢測套組,56,2022/05/06 15:12:02,快篩試劑實名制販售時間：平日下午3:00開始，週六日上午11:00開始---售完為止
5943131561,南寧藥局,屏東縣內埔鄉南寧路２３號,120.5655,22.61723,(08)7690330,羅氏家用新冠病毒抗原自我檢測套組,78,2022/05/06 15:12:02,快篩實名制，每天16:00開始販售，售完為止。
5943170095,長安中西藥局,屏東縣新園鄉中洲村南興路１９４號,120.4586,22.48776,(08)8336986,羅氏家用新冠病毒抗原自我檢測套組,1,2022/05/06 15:12:02,自2／11~2／29日，販賣口罩時間9:00起，售完為止。
5944011433,東文藥局,澎湖縣馬公市東文里文山路６６號,119.5846,23.56228,(06)9221433,羅氏家用新冠病毒抗原自我檢測套組,78,2022/05/06 15:12:02,快篩販售:週一~週五下午3:30 週六休息
5944020558,全民藥局,澎湖縣湖西鄉湖西村１５０－３號,119.6603,23.5844,(06)9920403,羅氏家用新冠病毒抗原自我檢測套組,39,2022/05/06 15:12:02,中午12:00-13:30休息
5945010047,邱藥局,花蓮縣花蓮市忠孝街４８號,121.6066,23.97397,(03)8324573,羅氏家用新冠病毒抗原自我檢測套組,1,2022/05/06 15:12:02,販售時間：週一至週五15點起／週日無販售
5945012069,華康藥局,花蓮縣花蓮市建國路１９６號,121.601,23.98409,(03)8328366,羅氏家用新冠病毒抗原自我檢測套組,48,2022/05/06 15:12:02,快篩販售時間1500售完為止，每日1300-1400休息
5945012112,金英寶藥局,花蓮縣花蓮市國富十街９８號１樓,121.5968,23.99108,(03)8569596,羅氏家用新冠病毒抗原自我檢測套組,43,2022/05/06 15:12:02,無
5945012229,富康大藥局,花蓮縣花蓮市中美路７３－２號一樓,121.6234,23.98877,(03)8227396,羅氏家用新冠病毒抗原自我檢測套組,41,2022/05/06 15:12:02,快篩實名制販售時間下午3:00~4:00，下午2:45發號碼牌
5945021086,安康鳳林藥局,花蓮縣鳳林鎮仁愛街１０號１樓,121.4503,23.74937,(03)8762227,羅氏家用新冠病毒抗原自我檢測套組,11,2022/05/06 15:12:02,快篩發放時間，依現場公告為主，售完為止。
5945050069,富一藥局,花蓮縣吉安鄉宜昌村中華路２段２０１號,121.5809,23.97329,(03)8531432,羅氏家用新冠病毒抗原自我檢測套組,29,2022/05/06 15:12:02,口罩販售時間為上午8:30售完為止
5945051520,洄瀾藥局,花蓮縣吉安鄉中山路三段２７９號,121.5708,23.97767,(03)8525217,羅氏家用新冠病毒抗原自我檢測套組,46,2022/05/06 15:12:02,5／6日快篩下午3:30開始販售
5945051646,花蓮建國藥局,花蓮縣吉安鄉建國路１段１３７－１號,121.5915,23.98574,(03)8461699,羅氏家用新冠病毒抗原自我檢測套組,78,2022/05/06 15:12:02,快篩實名制，每天16:00開始販售，售完為止。
5946010229,晃成藥局,臺東縣臺東市更生路４９４號,121.1411,22.76355,(089)336981,羅氏家用新冠病毒抗原自我檢測套組,65,2022/05/06 15:12:02,快篩3:00發號碼牌3:15開始
5946080552,伯安健康藥局,臺東縣長濱鄉長濱村１０鄰長濱路１０５號,121.4515,23.31496,(089)832519,羅氏家用新冠病毒抗原自我檢測套組,107,2022/05/06 15:12:02,無
5946101118,伯安藥局,臺東縣池上鄉新生路１１６號,121.2187,23.12315,(089)863585,羅氏家用新冠病毒抗原自我檢測套組,201,2022/05/06 15:12:02,早0800-1200，午1400-1800，晚1800-2000
5990010695,百泰藥局,金門縣金城鎮西海路１段１號,118.2864,24.41566,(082)312832,羅氏家用新冠病毒抗原自我檢測套組,156,2022/05/06 15:12:02,快篩實名制，每天16:00開始販售，售完為止。
