醫事機構代碼,醫事機構名稱,醫事機構地址,經度,緯度,醫事機構電話,廠牌項目,快篩試劑截至目前結餘存貨數量,來源資料時間,備註
2331260016,新北市貢寮區衛生所,新北市貢寮區朝陽街７０巷１０號、新北市貢寮區仁愛路１２８號,121.9095,25.02258,(02)24901431,羅氏家用新冠病毒抗原自我檢測套組,34,2022/05/11 10:40:02,快篩試劑販售時間為周一至周五早上9點開始販售，每日販售一箱，數量有限售完為止。
2333120015,新竹縣峨眉鄉衛生所,新竹縣峨眉鄉峨眉村峨眉街２鄰５號,121.0214,24.68842,(03)5800314,羅氏家用新冠病毒抗原自我檢測套組,78,2022/05/11 10:40:02,自5月6日起平常上班日販賣快篩試劑12時至13時止，星期六為8時30分至9時30分，目前皆以現場排隊人員順序，每日最多78組
2335180019,苗栗縣泰安鄉衛生所,苗栗縣泰安鄉清安村２鄰７２號,120.9083,24.44722,(037)941054,羅氏家用新冠病毒抗原自我檢測套組,6,2022/05/11 10:40:02,口罩販賣時段：星期一~五：8:30~15：00。
2336210034,臺中市和平區梨山衛生所,臺中市和平區中正路１２號１樓、６８號１樓,121.2592,24.25678,(04)25989540,羅氏家用新冠病毒抗原自我檢測套組,7,2022/05/11 10:40:02,提供24小時急診待診服務，快篩試劑販售時段為周一至五0900-12:00，六日及國定假日為0900-1100
2338070010,南投縣鹿谷鄉衛生所,南投縣鹿谷鄉中正路二段２０號,120.7542,23.74488,(049)2752002,羅氏家用新冠病毒抗原自我檢測套組,78,2022/05/11 10:40:02,快篩試劑販售時間 上班日（星期一至星期五）14:00~16:00
2338120015,南投縣信義鄉衛生所,南投縣信義鄉明德村玉山路４５號,120.8547,23.69653,(049)2791148,羅氏家用新冠病毒抗原自我檢測套組,1,2022/05/11 10:40:02,快篩試劑販售時間星期一至星期五上午09：00-11：00，現場排隊發售，國定假日不販賣。
2340170016,嘉義縣大埔鄉衛生所,嘉義縣大埔鄉大埔村５３－１號,120.5928,23.29397,(05)2521214,羅氏家用新冠病毒抗原自我檢測套組,63,2022/05/11 10:40:02,無
2340180012,嘉義縣阿里山鄉衛生所,嘉義縣阿里山鄉樂野村３鄰９７－２號,120.7019,23.4666,(05)2561573,羅氏家用新冠病毒抗原自我檢測套組,20,2022/05/11 10:40:02,無
2341240017,臺南市楠西區衛生所,臺南市楠西區楠西里中正路２２６號,120.4859,23.17477,(06)5751006,羅氏家用新冠病毒抗原自我檢測套組,74,2022/05/11 10:40:02,門診看診時間為W1和每月第二週W5早上8:30-11:30及W4下午1:30-4:30；家用快篩試劑販售時間為W1-5早上10:30-12:00
2342130010,高雄市田寮區衛生所,高雄市田寮區南安里崗北路３２號,120.3594,22.87301,(07)6361504,羅氏家用新冠病毒抗原自我檢測套組,82,2022/05/11 10:40:02,巡迴醫療:每星期一、四下午及每月第一個有上班的星期三下午巡迴醫療
2342250017,高雄市茂林區衛生所,高雄市茂林區茂林里茂林巷８－４號,120.6641,22.88641,(07)6801046,羅氏家用新冠病毒抗原自我檢測套組,3,2022/05/11 10:40:02,夜間急診，請先撥電話07-6801046
2342260013,高雄市桃源區衛生所,高雄市桃源區桃源里南進巷１８８－１號,120.7642,23.15845,(07)6861126,羅氏家用新冠病毒抗原自我檢測套組,32,2022/05/11 10:40:02,IDS提供24小時服務
2342270019,高雄市那瑪夏區衛生所,高雄市那瑪夏區瑪雅里６鄰平和巷２５２號,120.7024,23.24708,(07)6701142,羅氏家用新冠病毒抗原自我檢測套組,3,2022/05/11 10:40:02,春節期間正常門診
2343230019,屏東縣車城鄉衛生所,屏東縣車城鄉福安村福安路２之３０號,120.7125,22.06986,(08)8821300,羅氏家用新冠病毒抗原自我檢測套組,11,2022/05/11 10:40:02,販賣快篩試劑時間:週一~週五10:00售完為止
2343280019,屏東縣瑪家鄉衛生所,屏東縣瑪家鄉北葉村風景巷８６號,120.6496,22.70801,(08)7991164,羅氏家用新冠病毒抗原自我檢測套組,1,2022/05/11 10:40:02,口罩販售時間:星期一至星期五8:30-12:00 13:00-16:30
2343290015,屏東縣泰武鄉衛生所,屏東縣泰武鄉佳平村１７９號,120.6327,22.59212,(08)7832059,羅氏家用新冠病毒抗原自我檢測套組,1,2022/05/11 10:40:02,4／2-4／5門診照常
2343330014,屏東縣牡丹鄉衛生所,屏東縣牡丹鄉石門村１９號,120.7469,22.10105,(08)8831013,羅氏家用新冠病毒抗原自我檢測套組,15,2022/05/11 10:40:02,早上9:00 實名制快篩販售（售完為止）
2344011036,澎湖縣馬公市第三衛生所,澎湖縣馬公市西文里１１８之２號,119.5836,23.56813,(06)9211723,羅氏家用新冠病毒抗原自我檢測套組,66,2022/05/11 10:40:02,本所快篩試劑只提供離島衛生室（虎井、桶盤）販售，時間週一至週五08:30-17:00售完為止，星期六、日國定假日09:00-12:00。
2344030022,澎湖縣白沙鄉鳥嶼衛生所,澎湖縣白沙鄉鳥嶼村漁港新村３號,119.6599,23.66008,(06)9916092,羅氏家用新冠病毒抗原自我檢測套組,175,2022/05/11 10:40:02,非上班時間提供急診服務
2344030031,澎湖縣白沙鄉吉貝衛生所,澎湖縣白沙鄉吉貝村８－１３號,119.6138,23.74056,(06)9911430,羅氏家用新冠病毒抗原自我檢測套組,267,2022/05/11 10:40:02,無
2344050015,澎湖縣望安鄉衛生所,澎湖縣望安鄉西安村３６－７號,119.4972,23.36161,(06)9991036,羅氏家用新冠病毒抗原自我檢測套組,8,2022/05/11 10:40:02,夜間急診。快篩試劑販售時間為:每日08:00-12:00、13:30-17:30售完為止，如有餘數為離島未售出（東嶼坪、花嶼）。
2344050024,澎湖縣望安鄉將軍衛生所,澎湖縣望安鄉將軍村１２鄰將軍澳１之３號,119.5216,23.3615,(06)9902066,羅氏家用新冠病毒抗原自我檢測套組,34,2022/05/11 10:40:02,24小時急診
2345080017,衛生福利部花蓮醫院豐濱原住民分院,花蓮縣豐濱鄉豐濱村光豐路４１號,121.5215,23.60195,(03)8358141,羅氏家用新冠病毒抗原自我檢測套組,45,2022/05/11 10:40:02,*本院口罩每天販售，時間自上午8點至晚上9點  *本院週一至週五上下午皆有門診，星期六隔週提供門診，及24小時急診。
2345100014,花蓮縣富里鄉衛生所,花蓮縣富里鄉富里村中山路２０３號,121.2491,23.17847,(03)8831029,羅氏家用新冠病毒抗原自我檢測套組,25,2022/05/11 10:40:02,*內科:每週二下午東里玉蓮寺巡診 **牙科:每週二至卓溪醫療站***口罩販賣時間8:30起至11:00止
2345120016,花蓮縣萬榮鄉衛生所,花蓮縣萬榮鄉萬榮村１鄰１６號,121.4092,23.71558,(03)8751651,羅氏家用新冠病毒抗原自我檢測套組,156,2022/05/11 10:40:02,快篩試劑代售時間：週一至週五下午2點至下午4點，販售為止。
2345130012,花蓮縣卓溪鄉衛生所,花蓮縣卓溪鄉卓溪村中正路６５號,121.3033,23.33294,(03)8882592,羅氏家用新冠病毒抗原自我檢測套組,62,2022/05/11 10:40:02,快篩試劑代售時間：週一至週五上午8：30-11：00（售完即結束）
2346040017,台東縣卑南鄉衛生所,臺東縣卑南鄉太平村和平路１３２號,121.0881,22.78207,(089)382042,羅氏家用新冠病毒抗原自我檢測套組,3,2022/05/11 10:40:02,無
2346070015,臺東縣東河鄉衛生所,臺東縣東河鄉東河村南東河路１０鄰３００號,121.3031,22.96846,(089)896289,羅氏家用新冠病毒抗原自我檢測套組,81,2022/05/11 10:40:02,快篩試劑販售時間:◆平日（星期一三四五）上午9-11時販售，星期二下午13-15時販售售完為止。
2346110014,台東縣綠島鄉衛生所,臺東縣綠島鄉中寮村１－１號,121.4696,22.67319,(089)672511,羅氏家用新冠病毒抗原自我檢測套組,158,2022/05/11 10:40:02,家用快篩實名制，販售時段為上午08:30至12:00，下午13:30至16:30（周一至周五），售完為止。）
2346140012,台東縣達仁鄉衛生所,臺東縣達仁鄉安朔村復興路１２２號,120.8836,22.29488,(089)702209,羅氏家用新冠病毒抗原自我檢測套組,105,2022/05/11 10:40:02,12／31 元旦連假
2346160014,台東縣蘭嶼鄉衛生所,臺東縣蘭嶼鄉紅頭村３６號,121.5546,22.02493,(089)732575,羅氏家用新冠病毒抗原自我檢測套組,61,2022/05/11 10:40:02,販售口罩時間 星期一至星期五 8:00~12:00 13:30~17:30
2390050032,金門縣烈嶼鄉衛生所,金門縣烈嶼鄉西口村西方６－５號,118.2395,24.43519,(082)362078,羅氏家用新冠病毒抗原自我檢測套組,78,2022/05/11 10:40:02,快篩試劑販售時間:周一至周五下午1點至3點
2391020010,連江縣北竿鄉衛生所,連江縣北竿鄉塘岐村２８１－６號,119.9991,26.22617,(083)655592,羅氏家用新冠病毒抗原自我檢測套組,36,2022/05/11 10:40:02,新冠快篩試劑販售於週一至周六每日上午08:30-12:00開放購買。
2391030016,連江縣莒光鄉西莒衛生所,連江縣莒光鄉青帆村１４－１號,119.9331,25.97157,(083)689122,羅氏家用新冠病毒抗原自我檢測套組,210,2022/05/11 10:40:02,防疫口罩星期一至五09:00-17:00、（六）09:00-12:00現場購買
2391030026,連江縣莒光鄉東莒衛生所,連江縣莒光鄉大坪村３０－１號,119.9731,25.96113,(083)689038,羅氏家用新冠病毒抗原自我檢測套組,437,2022/05/11 10:40:02,防疫口罩星期一至星期日上午10:00-12:00收取健保卡，下午3:30至本所領取口罩。
2391040012,連江縣東引鄉衛生所,連江縣東引鄉中柳村１２３號,120.4904,26.36701,(083)677206,羅氏家用新冠病毒抗原自我檢測套組,20,2022/05/11 10:40:02,防疫口罩每日08:30-09:30現場購買
5901010094,明一藥局,臺北市松山區南京東路５段５９巷２８弄２５號１樓,121.5582,25.0527,(02)27691654,羅氏家用新冠病毒抗原自我檢測套組,22,2022/05/11 10:40:02,AM10: ~~PM9:00
5901010165,傑安藥局,臺北市松山區八德路２段４３７巷７弄８號１樓,121.5473,25.04914,(02)27524155,羅氏家用新冠病毒抗原自我檢測套組,32,2022/05/11 10:40:02,9:30開始發號碼牌
5901010174,仁弘藥局,臺北市松山區民生東路３段１１３巷２５弄６號１樓,121.5466,25.05948,(02)27136764,羅氏家用新冠病毒抗原自我檢測套組,55,2022/05/11 10:40:02,5／11  10點30分開始發售   不發號碼牌
5901010192,益華藥局,臺北市松山區民生東路５段１３８巷６號,121.5615,25.05827,(02)27624898,羅氏家用新冠病毒抗原自我檢測套組,34,2022/05/11 10:40:02,無
5901010272,德靈藥局,臺北市松山區富錦街５４８號,121.5667,25.06178,(02)27646998,羅氏家用新冠病毒抗原自我檢測套組,25,2022/05/11 10:40:02,週日休 .
5901011699,建東大藥局,臺北市松山區三民路９７號１樓,121.5634,25.05723,(02)27676237,羅氏家用新冠病毒抗原自我檢測套組,2,2022/05/11 10:40:02,早上9點發號碼牌.留健保卡..周日公修（請遵守遊戲規則.否則去別家買）
5901012570,予志藥局,臺北市松山區富錦街５２１號,121.5649,25.06119,(02)27623522,羅氏家用新冠病毒抗原自我檢測套組,1,2022/05/11 10:40:02,實名制快篩星期一到三下午2點、星期四到六晚上8點、星期日停售
5901012598,婕登藥局,臺北市松山區八德路４段６９９號,121.5766,25.05021,(02)27482893,羅氏家用新冠病毒抗原自我檢測套組,77,2022/05/11 10:40:02,今天快篩已經發送完畢（電腦庫存不準）
5901012749,躍獅松和藥局,臺北市松山區八德路四段６６６－１號,121.5761,25.04979,(02)27492569,羅氏家用新冠病毒抗原自我檢測套組,78,2022/05/11 10:40:02,實名制快篩販售時段，每日下午4點販售，售完為止
5901013095,康采藥局,臺北市松山區南京東路５段２９１巷１７－２號,121.5663,25.05236,(02)27670271,羅氏家用新冠病毒抗原自我檢測套組,13,2022/05/11 10:40:02,（已完售，庫存不準）快篩試劑每日16點販售，週日沒有販售
5901013175,台北長庚維康藥局,臺北市松山區敦化北路１９９巷２弄５號１樓,121.55,25.05563,(02)27199386,羅氏家用新冠病毒抗原自我檢測套組,4,2022/05/11 10:40:02,無
5901013308,立赫敦北藥局,臺北市松山區敦化北路２２２巷２０號,121.5477,25.05945,(02)27199277,羅氏家用新冠病毒抗原自我檢測套組,11,2022/05/11 10:40:02,5／11（三）早上9:30發放號碼牌販售
5901013371,玖田藥局,臺北市松山區八德路４段６５５號,121.5755,25.05018,(02)27666578,羅氏家用新冠病毒抗原自我檢測套組,1,2022/05/11 10:40:02,實名制快篩：09:40開始，售完為止！
5901013399,一安正昇藥局,臺北市松山區南京東路５段３０９號,121.5667,25.05155,(02)27680993,羅氏家用新冠病毒抗原自我檢測套組,1,2022/05/11 10:40:02,快篩發放時間  下午14:30
5901013442,松山八德藥局,臺北市松山區八德路２段４００號,121.5466,25.04804,(02)27782773,羅氏家用新冠病毒抗原自我檢測套組,78,2022/05/11 10:40:02,快篩實名制，每天16:00開始販售，售完為止。
5901013595,巧心藥局,臺北市松山區八德路３段１２巷５７弄３９之３號１樓,121.5521,25.04567,(02)25703728,羅氏家用新冠病毒抗原自我檢測套組,127,2022/05/11 10:40:02,快篩試劑14:00販售，售完為止．
5901013693,民生盛康藥局,臺北市松山區民生東路５段２０４號１樓,121.5648,25.05826,(02)27460758,羅氏家用新冠病毒抗原自我檢測套組,124,2022/05/11 10:40:02,【每日70分】星期一~六9:00發號碼牌，11:00~20:00拿號碼牌回來領取，每人限1張號碼牌，逾時不候
5901013737,全欣藥局,臺北市松山區復興北路７３號２樓,121.5442,25.05104,(02)87729066,羅氏家用新冠病毒抗原自我檢測套組,48,2022/05/11 10:40:02,9:00am開始販售30人份15:00販售30人份:18:00販售17人份；週六:9:00販售39人份；週日:15:00販售39人份....排隊人數滿會先發號碼
5901020303,宏恩藥局,臺北市大安區大安路１段１８１號,121.5461,25.03619,(02)27000956,羅氏家用新冠病毒抗原自我檢測套組,77,2022/05/11 10:40:02,實名制快篩每周一~六，10:00發放號碼牌， 後於12:00~21:00自由擇時，持號碼牌領取快篩並收費
5901020385,延吉大藥局,臺北市大安區延吉街１５３號１樓,121.5548,25.04066,(02)27819227,羅氏家用新冠病毒抗原自我檢測套組,78,2022/05/11 10:40:02,無
5901020616,龍護大藥局,臺北市大安區大安路１段２２４巷７號１Ｆ,121.5454,25.03401,(02)23250686,羅氏家用新冠病毒抗原自我檢測套組,24,2022/05/11 10:40:02,無
5901020661,泰佑藥局,臺北市大安區安和路２段７２號１Ｆ,121.5517,25.03011,(02)27056841,羅氏家用新冠病毒抗原自我檢測套組,9,2022/05/11 10:40:02,每日早上九點半
5901020901,辰安藥局,臺北市大安區大安路１段３１巷２８號,121.5472,25.04385,(02)27119536,羅氏家用新冠病毒抗原自我檢測套組,10,2022/05/11 10:40:02,早上9:40分開始販賣快篩，賣完為止
5901023073,世中欣藥局,臺北市大安區永康街２巷８號,121.5294,25.03315,(02)23938947,羅氏家用新冠病毒抗原自我檢測套組,49,2022/05/11 10:40:02,健保快篩：周一至周五， 早上10點開始販售。週六下午2點販售。週日停售.。
5901023304,麗樺藥師藥局,臺北市大安區麗水街３號,121.529,25.03225,(02)23952628,羅氏家用新冠病毒抗原自我檢測套組,25,2022/05/11 10:40:02,無
5901023519,惠盈藥局,臺北市大安區辛亥路２段１７１巷３１號,121.5412,25.02297,(02)87321366,羅氏家用新冠病毒抗原自我檢測套組,78,2022/05/11 10:40:02,快篩上午11:00開始，週日沒賣
5901023902,惠良藥局,臺北市大安區和平東路３段９３－１號,121.5507,25.02461,(02)27387872,羅氏家用新冠病毒抗原自我檢測套組,14,2022/05/11 10:40:02,平日早上10點開賣實名快篩  週日11點開賣（週日最晚到中午12點 賣完快篩即休息）
5901024098,杏一瑞安藥局,臺北市大安區瑞安街２０８巷１１弄１號,121.5406,25.02866,(02)27096710,羅氏家用新冠病毒抗原自我檢測套組,78,2022/05/11 10:40:02,3點發快篩，前5分鐘發牌
5901024114,好安心藥局,臺北市大安區和平東路２段９８之２號,121.5415,25.02493,(02)23772166,羅氏家用新冠病毒抗原自我檢測套組,69,2022/05/11 10:40:02,快篩發放: 週一至週六 15:30現場開始販售（人滿提早發售），不發號碼牌。
5901024669,百岳藥局,臺北市大安區和平東路２段３１１巷１１號,121.5452,25.02514,(02)27551037,羅氏家用新冠病毒抗原自我檢測套組,141,2022/05/11 10:40:02,快篩試劑販售時間:周一至周五10:30~12:00止
5901024721,麗泰藥局,臺北市大安區復興南路２段１５１巷４號,121.544,25.02832,(02)27079595,羅氏家用新冠病毒抗原自我檢測套組,25,2022/05/11 10:40:02,每天到貨時間不定，到貨後即公告開賣
5901024918,康祥藥局,臺北市大安區忠孝東路４段２１６巷２１號,121.5531,25.04025,(02)27817891,羅氏家用新冠病毒抗原自我檢測套組,4,2022/05/11 10:40:02,星期天11:00-19:00
5901024954,佑全大安敦南藥局,臺北市大安區敦化南路２段６３巷４６號,121.5512,25.03089,(02)23257579,羅氏家用新冠病毒抗原自我檢測套組,102,2022/05/11 10:40:02,早上10點發放號碼牌，同時開始販賣實名制快篩
5901025040,弘昌藥局,臺北市大安區通化街１３９號１樓,121.554,25.02901,(02)27321616,羅氏家用新冠病毒抗原自我檢測套組,22,2022/05/11 10:40:02,無
5901025059,博醫仁愛藥局,臺北市大安區仁愛路４段８巷２號１樓,121.5443,25.0375,(02)27019107,羅氏家用新冠病毒抗原自我檢測套組,62,2022/05/11 10:40:02,每天11:30發號碼牌，12:00~15:00憑號碼牌與健保卡購買實名制快篩
5901025068,鎮安中西安和藥局,臺北市大安區安和路１段１２３號１樓,121.5527,25.03488,(02)27015201,羅氏家用新冠病毒抗原自我檢測套組,8,2022/05/11 10:40:02,無
5901090074,慈仁藥局,臺北市大同區歸綏街２６１號１樓,121.5101,25.05832,(02)25572733,羅氏家用新冠病毒抗原自我檢測套組,47,2022/05/11 10:40:02,平日營業至晚上6點，星期六營業至下午2點，星期日公休
5901090216,裕仁藥局,臺北市大同區迪化街２段２７０號－１,121.5115,25.07068,(02)25910064,羅氏家用新冠病毒抗原自我檢測套組,34,2022/05/11 10:40:02,無
5901090341,正中藥局,臺北市大同區民族西路２１３號,121.5142,25.06874,(02)25976937,羅氏家用新冠病毒抗原自我檢測套組,75,2022/05/11 10:40:02,無
5901090369,保慶藥局,臺北市大同區保安街２１號,121.5129,25.05926,(02)25538988,羅氏家用新冠病毒抗原自我檢測套組,64,2022/05/11 10:40:02,因到貨時間不定，視到貨時間販售
5901091544,得意藥師藥局,臺北市大同區延平北路２段２２９號,121.5115,25.06029,(02)25534294,羅氏家用新冠病毒抗原自我檢測套組,7,2022/05/11 10:40:02,無
5901092130,大同民生藥局,臺北市大同區民生西路１２８號１樓、２樓及１３０號１樓、２樓,121.5191,25.05734,(02)25558886,羅氏家用新冠病毒抗原自我檢測套組,78,2022/05/11 10:40:02,快篩實名制，每天16:00開始販售，售完為止。
5901100155,大信藥局,臺北市中山區林森北路１５９巷６號,121.5255,25.0517,(02)25719080,羅氏家用新冠病毒抗原自我檢測套組,1,2022/05/11 10:40:02,無
5901100342,順泰藥局,臺北市中山區錦州街２６６號,121.5348,25.06025,(02)25038916,羅氏家用新冠病毒抗原自我檢測套組,67,2022/05/11 10:40:02,無
5901100422,滿順藥局,臺北市中山區伊通街５４號１樓,121.5347,25.05145,(02)25075283,羅氏家用新冠病毒抗原自我檢測套組,2,2022/05/11 10:40:02,快篩服務時間 AM 8:30 起 售完為止
5901100664,阿里藥局,臺北市中山區錦州街２５１號,121.5342,25.06039,(02)25020638,羅氏家用新冠病毒抗原自我檢測套組,17,2022/05/11 10:40:02,無
5901101072,長青藥局,臺北市中山區興安街５５號１樓,121.5419,25.05621,(02)25053160,羅氏家用新冠病毒抗原自我檢測套組,19,2022/05/11 10:40:02,無
5901101536,展佑藥局,臺北市中山區長春路１４６－１號,121.5317,25.05473,(02)25232803,羅氏家用新冠病毒抗原自我檢測套組,78,2022/05/11 10:40:02,實名制快篩試劑上午11:30開始販售，週日休息!
5901101607,蓁榛健康生活藥局,臺北市中山區合江街１００－２號１樓,121.5391,25.05845,(02)25099333,羅氏家用新冠病毒抗原自我檢測套組,6,2022/05/11 10:40:02,實名制快篩配售時間依到貨時間而定，請參考蓁榛健康生活藥局合江店臉書公告
5901101910,嘉恩藥局,臺北市中山區錦州街３２１號,121.5385,25.06033,(02)25181418,羅氏家用新冠病毒抗原自我檢測套組,78,2022/05/11 10:40:02,週一至週六下午一點販售快篩試劑
5901101929,樂活苑藥局,臺北市中山區北安路５４６號１樓,121.548,25.08014,(02)25323296,羅氏家用新冠病毒抗原自我檢測套組,120,2022/05/11 10:40:02,實名制快篩代售時間為18:00~19:00.現場排隊，不發號碼牌.
5901101992,大愛藥師藥局,臺北市中山區吉林路２５５號１樓,121.5304,25.06165,(02)25424723,羅氏家用新冠病毒抗原自我檢測套組,6,2022/05/11 10:40:02,週一~週五13:55發放號碼牌14:00發放快篩，週六、週日休息
5901102060,專心藥局,臺北市中山區伊通街１１２－２號,121.5347,25.05426,(02)25155847,羅氏家用新冠病毒抗原自我檢測套組,18,2022/05/11 10:40:02,無
5901102408,康林藥局,臺北市中山區興安街１０５號,121.5438,25.05617,(02)25171867,羅氏家用新冠病毒抗原自我檢測套組,1,2022/05/11 10:40:02,快篩販售時間：星期一到六早上9點，星期日下午2點
5901102686,富宥康藥局,臺北市中山區北安路６０８巷５弄２２號,121.5496,25.08263,(02)25325277,羅氏家用新冠病毒抗原自我檢測套組,16,2022/05/11 10:40:02,無
5901102837,正傑健保藥局,臺北市中山區長安東路２段１８１號,121.5426,25.04839,(02)27310181,羅氏家用新冠病毒抗原自我檢測套組,78,2022/05/11 10:40:02,下午四點開始販售
5901103423,農安藥局,臺北市中山區農安街１８之１號,121.5248,25.06483,(02)25959293,羅氏家用新冠病毒抗原自我檢測套組,78,2022/05/11 10:40:02,快篩2點發號碼牌 3點後來拿
5901103530,農安盛康藥局,臺北市中山區農安街２６７號,121.5358,25.06477,(02)25038205,羅氏家用新冠病毒抗原自我檢測套組,31,2022/05/11 10:40:02,無
5901103656,大樹龍江藥局,臺北市中山區龍江路２４２號,121.5406,25.05889,(02)25035666,羅氏家用新冠病毒抗原自我檢測套組,78,2022/05/11 10:40:02,快篩實名制，每天16:00開始販售，售完為止。
5901103736,杏一龍錦藥局,臺北市中山區龍江路２７９號１樓,121.5408,25.05973,(02)25174618,羅氏家用新冠病毒抗原自我檢測套組,11,2022/05/11 10:40:02,快篩提供時段週一到週六 9:00-12:00 週日不提供發放!!! 不發號碼牌 每日販售78人次 售完為止＞＜
5901103745,吉林藥局,臺北市中山區吉林路３７１號（１樓）,121.5305,25.06511,(02)25865990,羅氏家用新冠病毒抗原自我檢測套組,78,2022/05/11 10:40:02,快篩實名制，每天16:00開始販售，售完為止。
5901103772,興耀生活藥局,臺北市中山區林森北路４０５號（１樓）,121.5257,25.05943,(02)25818210,羅氏家用新冠病毒抗原自我檢測套組,7,2022/05/11 10:40:02,國定假日仍執行調劑業務
5901110133,泰成藥局,臺北市內湖區內湖路３段１３５號１樓,121.5899,25.08685,(02)27921231,羅氏家用新冠病毒抗原自我檢測套組,71,2022/05/11 10:40:02,口罩販售:上午9:00開始發號碼牌，9點同步販售.
5901110393,明湖藥局,臺北市內湖區東湖路７巷２７號１Ｆ,121.6125,25.0697,(02)26313515,羅氏家用新冠病毒抗原自我檢測套組,7,2022/05/11 10:40:02,快篩實名制，早上九點販售。
5901111934,至康藥局,臺北市內湖區內湖路１段７３７巷１９弄１號,121.5785,25.07925,(02)26580022,羅氏家用新冠病毒抗原自我檢測套組,6,2022/05/11 10:40:02,上午9:30開始販售，售完為止
5901112351,康信藥局,臺北市內湖區民權東路６段２９６巷２９號,121.6062,25.07203,(02)26342088,羅氏家用新冠病毒抗原自我檢測套組,3,2022/05/11 10:40:02,無
5901112600,匯安藥局,臺北市內湖區內湖路１段７０３之１號,121.5774,25.07964,(02)26579255,羅氏家用新冠病毒抗原自我檢測套組,19,2022/05/11 10:40:02,星期一到六上午9:00販售快篩
5901112682,富康東湖藥局,臺北市內湖區東湖路１１９巷４９弄１６號,121.617,25.06988,(02)26323222,羅氏家用新冠病毒抗原自我檢測套組,75,2022/05/11 10:40:02,視快篩實際到貨時間販售；LINE社群搜尋「富康藥局東湖店」會有第一線消息
5901112780,樂康藥妝藥局,臺北市內湖區文德路１１７號,121.5841,25.0787,(02)26562110,羅氏家用新冠病毒抗原自我檢測套組,3,2022/05/11 10:40:02,無
5901113018,桔子藥局,臺北市內湖區內湖路２段３３３號,121.5917,25.08319,(02)27930052,羅氏家用新冠病毒抗原自我檢測套組,78,2022/05/11 10:40:02,早0900-1200，午1400-1700，晚1900-2100
5901113027,晟安藥局,臺北市內湖區金龍路１３５號,121.5902,25.08593,(02)87919320,羅氏家用新冠病毒抗原自我檢測套組,20,2022/05/11 10:40:02,快篩一~六早上10；00開始販售，星期日不營業
5901113312,江南大藥局,臺北市內湖區文德路２２巷９弄５６號,121.5791,25.07656,(02)26595430,羅氏家用新冠病毒抗原自我檢測套組,7,2022/05/11 10:40:02,週一到週六上午9點賣快篩，週日不販售
5901113385,躍獅康成藥局,臺北市內湖區成功路４段６１巷１１號,121.5928,25.0814,(02)87922031,羅氏家用新冠病毒抗原自我檢測套組,78,2022/05/11 10:40:02,如有收到政府配送，實名制快篩13:40發號碼牌，14:00開賣。實名制口罩已無販售。
5901113652,加一藥師藥局,臺北市內湖區星雲街２４號１樓,121.5908,25.07804,(02)87912653,羅氏家用新冠病毒抗原自我檢測套組,130,2022/05/11 10:40:02,無
5901113661,內湖藥局,臺北市內湖區康寧路１段１１６號１樓,121.5934,25.07948,(02)27940545,羅氏家用新冠病毒抗原自我檢測套組,78,2022/05/11 10:40:02,快篩實名制，每天16:00開始販售，售完為止。
5901113705,富康活力湖光藥局,臺北市內湖區康寧路１段２５號１樓,121.5914,25.08062,(02)87927999,羅氏家用新冠病毒抗原自我檢測套組,1,2022/05/11 10:40:02,視快篩實際到貨時間販售（通常是下午2:00）**Line社群搜尋[[富康活力湖光藥局]]，會有第一線消息唷**
5901121869,南港藥局,臺北市南港區南港路一段１６６號,121.6119,25.05536,(02)27829137,羅氏家用新冠病毒抗原自我檢測套組,78,2022/05/11 10:40:02,快篩販售時間晚上6:00~晚上8:00（每天78份，售完即止）（周日休息）
5901121912,成恩藥局,臺北市南港區成福路２３號,121.5867,25.04473,(02)27856602,羅氏家用新冠病毒抗原自我檢測套組,46,2022/05/11 10:40:02,快篩販賣時間：平日 周一到周五 下午3:00~5:00，現場排隊不發放號碼牌
5901121930,小藥師健保藥局,臺北市南港區福德街３２０之１號,121.588,25.03948,(02)27867002,羅氏家用新冠病毒抗原自我檢測套組,27,2022/05/11 10:40:02,快篩販售時間，每天早上10點開始販售，售完為止
5901122062,躍獅忠孝藥局,臺北市南港區成福路１６號,121.586,25.04561,(02)27862829,羅氏家用新冠病毒抗原自我檢測套組,13,2022/05/11 10:40:02,下午3:30開始販售快篩，不發放號碼牌
5901150128,新興藥局,臺北市士林區德行西路１１７號,121.5206,25.10398,(02)28362643,羅氏家用新冠病毒抗原自我檢測套組,13,2022/05/11 10:40:02,無
5901150253,文祥藥局,臺北市士林區光華路２６巷２弄２號,121.542,25.13749,(02)28623487,羅氏家用新冠病毒抗原自我檢測套組,4,2022/05/11 10:40:02,周一至周日早上8點30分開始售實名制快篩
5901150271,建芳藥局,臺北市士林區德行東路１４８號,121.5296,25.10804,(02)28357172,羅氏家用新冠病毒抗原自我檢測套組,48,2022/05/11 10:40:02,無
5901150771,天母大和藥師藥局,臺北市士林區德行東路１８９－１號１樓,121.5317,25.10897,(02)28310142,羅氏家用新冠病毒抗原自我檢測套組,2,2022/05/11 10:40:02,快篩實名制 配合營業時間  賣完為止
5901150815,陽明藥局,臺北市士林區菁山路１０號１樓,121.5469,25.13797,(02)28612863,羅氏家用新冠病毒抗原自我檢測套組,43,2022/05/11 10:40:02,早上9點30到12點健保卡排隊.（作業時間2小時）下午1點到晚上6點領回口罩及健保卡
5901152079,資生堂藥局,臺北市士林區承德路４段４０巷１７號１Ｆ,121.522,25.08107,(02)28857588,羅氏家用新冠病毒抗原自我檢測套組,78,2022/05/11 10:40:02,今日快篩已售完
5901152659,和樹藥局,臺北市士林區後港街４５巷１號１樓,121.5228,25.08444,(02)28821188,羅氏家用新冠病毒抗原自我檢測套組,78,2022/05/11 10:40:02,週日公休，周一早上9:30
5901152748,柏雅大藥局,臺北市士林區德行西路６４號,121.5227,25.10506,(02)88664398,羅氏家用新冠病毒抗原自我檢測套組,53,2022/05/11 10:40:02,每天早上10:30開始販售快篩試劑，星期日公休不販售。
5901153245,大東健保藥局,臺北市士林區大東路８６－４號,121.5257,25.09131,(02)28834672,羅氏家用新冠病毒抗原自我檢測套組,70,2022/05/11 10:40:02,實名制快篩販售以現場門口公告為主
5901153263,健揚藥局,臺北市士林區延平北路５段２５１號,121.5097,25.08483,(02)28163698,羅氏家用新冠病毒抗原自我檢測套組,6,2022/05/11 10:40:02,每日下午13:30開始販售
5901153487,和謙藥局,臺北市士林區社中街３６２號,121.5041,25.09242,(02)28165678,羅氏家用新冠病毒抗原自我檢測套組,6,2022/05/11 10:40:02,快篩試劑於每日10:00開賣
5901153610,家安健保藥局,臺北市士林區德行東路１０９巷１１９號,121.5288,25.11156,(02)28322182,羅氏家用新冠病毒抗原自我檢測套組,2,2022/05/11 10:40:02,因目前當日販售快篩當日配送，目前銷售時間改為下午4:00 造成不便 敬請見諒
5901153665,康佑藥局,臺北市士林區延平北路５段１７６號,121.5103,25.08299,(02)28119981,羅氏家用新冠病毒抗原自我檢測套組,2,2022/05/11 10:40:02,實名制快篩9點開始
5901153674,愛佳藥局,臺北市士林區承德路４段２２２之１號,121.5215,25.0885,(02)28811199,羅氏家用新冠病毒抗原自我檢測套組,78,2022/05/11 10:40:02,實名制快篩平日一~五下午5:00販售，假日（六、日）不販售
5901153683,安奕藥局,臺北市士林區葫蘆街３０巷１２號,121.5099,25.08034,(02)28133289,羅氏家用新冠病毒抗原自我檢測套組,34,2022/05/11 10:40:02,週日休。快篩劑開賣時間，早上10:00。
5901154000,文昌大藥局,臺北市士林區文昌路７２號１樓,121.5213,25.09634,(02)28376196,羅氏家用新冠病毒抗原自我檢測套組,72,2022/05/11 10:40:02,1.5／11-5／17 14:00販售實名制快篩  2.每日提供18份 醫護警消郵差憑證購買 限10:00開放 3.自費快篩已到貨
5901154019,忠義台安藥局,臺北市士林區忠義街７２號１樓,121.5315,25.106,(02)28380685,羅氏家用新冠病毒抗原自我檢測套組,77,2022/05/11 10:40:02,下午2點開始販售快篩試劑
5901154028,向宇藥局,臺北市士林區德行東路２１７號１樓,121.5328,25.10935,(02)88661101,羅氏家用新冠病毒抗原自我檢測套組,9,2022/05/11 10:40:02,無
5901154082,德行盛康藥局,臺北市士林區德行東路２０６之１號１樓,121.532,25.1089,(02)28348756,羅氏家用新冠病毒抗原自我檢測套組,11,2022/05/11 10:40:02,無
5901160053,天蓮藥局,臺北市北投區石牌路１段１６６巷１１５號,121.5155,25.11192,(02)28211824,羅氏家用新冠病毒抗原自我檢測套組,3,2022/05/11 10:40:02,週日人員不足會上午8:00點販售快篩
5901160142,德昇藥局,臺北市北投區裕民二路２０號,121.517,25.11604,(02)28217565,羅氏家用新冠病毒抗原自我檢測套組,1,2022/05/11 10:40:02,週一至週五下午 2:30分 實名制快篩現場排隊發售
5901160222,新祥藥局,臺北市北投區知行路２０８號－１,121.4668,25.11935,(02)28582551,羅氏家用新冠病毒抗原自我檢測套組,78,2022/05/11 10:40:02,實名制快篩下午1:30分發放號碼牌，隨後依照號碼牌發售，周日休息
5901160517,弘安藥局,臺北市北投區懷德街３３號１樓,121.5193,25.11219,(02)28206390,羅氏家用新冠病毒抗原自我檢測套組,77,2022/05/11 10:40:02,快篩每日下午2:00開賣，現場購買售完為止
5901160562,名山藥局,臺北市北投區東陽街４７５號１樓,121.5199,25.11231,(02)28226101,羅氏家用新冠病毒抗原自我檢測套組,4,2022/05/11 10:40:02,快篩試劑早上08:30販賣，先拿號碼牌，早上10；00前過卡，逾時放棄
5901162833,維康藥局,臺北市北投區石牌路２段１９１．１９３號,121.5184,25.11874,(02)28206343,羅氏家用新冠病毒抗原自我檢測套組,6,2022/05/11 10:40:02,快篩發放時間為每日下午3點排隊，現場購賣
5901163214,鴻恩藥局,臺北市北投區中央南路１段１２９號,121.5012,25.13015,(02)28926410,羅氏家用新冠病毒抗原自我檢測套組,31,2022/05/11 10:40:02,快篩試劑代售時間自08:30 ，現場排隊
5901163536,天富大藥局,臺北市北投區石牌路２段１７１號（實際使用：１樓）,121.518,25.11848,(02)28225812,羅氏家用新冠病毒抗原自我檢測套組,15,2022/05/11 10:40:02,週一至週六下午2-3點直接販售；週日暫停販售
5901163554,良哲藥局,臺北市北投區明德路１５７－４號（實際使用：１樓）,121.5209,25.11129,(02)28285516,羅氏家用新冠病毒抗原自我檢測套組,172,2022/05/11 10:40:02,實名制快篩販售時間：早上 9:00~9:30／下午 2:30~3:00（週六人力不足不販售／週日休息）
5901163563,躍獅光明藥局,臺北市北投區光明路５１號、５３號（實際使用：１樓）,121.4998,25.13286,(02)28915993,羅氏家用新冠病毒抗原自我檢測套組,44,2022/05/11 10:40:02,*今日份快篩已售完*1.早上9:30發號碼牌2.等快篩到貨才開始賣3.有號碼牌者請在晚上8點前領取，逾期作廢
5901163572,永欣中西藥局,臺北市北投區中和街５０１號,121.4947,25.1452,(02)28910307,羅氏家用新冠病毒抗原自我檢測套組,32,2022/05/11 10:40:02,週一至週六 早上9:30發號碼牌 10點販售 周日公休（庫存不準 號碼牌發完即售完）謝謝
5901163581,陳藥師藥局,臺北市北投區光明路２巷１３－２號（實際使用：１樓）,121.4997,25.13132,(02)28921971,羅氏家用新冠病毒抗原自我檢測套組,78,2022/05/11 10:40:02,無
5901170139,福華藥局,臺北市信義區吳興街２８１巷３號１樓,121.5643,25.02656,(02)27208527,羅氏家用新冠病毒抗原自我檢測套組,78,2022/05/11 10:40:02,現階段下午1:30配合政府發售快篩試劑
5901170184,臺陽藥局,臺北市信義區大道路６１號,121.5823,25.04136,(02)27283403,羅氏家用新冠病毒抗原自我檢測套組,27,2022/05/11 10:40:02,快篩試劑早上9:30現場販售，週日沒有販售
5901170264,杏康藥局,臺北市信義區忠孝東路５段３７２巷２７弄６８－２號１Ｆ,121.5753,25.03976,(02)23457422,羅氏家用新冠病毒抗原自我檢測套組,8,2022/05/11 10:40:02,早上9:30開始販售
5901170335,慧生藥局,臺北市信義區松山路３１０號,121.5777,25.04256,(02)27647138,羅氏家用新冠病毒抗原自我檢測套組,10,2022/05/11 10:40:02,無
5901170406,鼎泰藥局,臺北市信義區基隆路１段１５５號１樓,121.5653,25.04222,(02)27620617,羅氏家用新冠病毒抗原自我檢測套組,2,2022/05/11 10:40:02,周一至周五 9：30-21：30 （9:30 開始發快篩） 5／1 有營業
5901170433,松山大藥局,臺北市信義區永吉路４３６號,121.5781,25.04526,(932)156305,羅氏家用新冠病毒抗原自我檢測套組,39,2022/05/11 10:40:02,購防疫快篩早上10:00_發售.週日下午1點起.售完即止
5901170648,立信藥局,臺北市信義區松山路４０３號,121.578,25.04144,(02)27687754,羅氏家用新冠病毒抗原自我檢測套組,3,2022/05/11 10:40:02,快篩試劑販賣時間:晚上七點至九點
5901170915,杏仁藥局,臺北市信義區大道路１３５號,121.5834,25.03901,(02)27262541,羅氏家用新冠病毒抗原自我檢測套組,14,2022/05/11 10:40:02,實名制快篩:週一至週五下午3點販售，週六週日無販售
5901172179,新和平藥局,臺北市信義區虎林街１９８號１樓,121.5769,25.03844,(02)23460951,羅氏家用新冠病毒抗原自我檢測套組,39,2022/05/11 10:40:02,每星期一至星期六早上10點起   發放實名制快篩試劑 .星期日休息
5901172213,華泰藥局,臺北市信義區虎林街８２巷５號,121.5769,25.04335,(02)27601992,羅氏家用新冠病毒抗原自我檢測套組,13,2022/05/11 10:40:02,快篩 ／ 早上 8:30  開始販售 . 售完為止 .
5901172240,德康大藥局,臺北市信義區松山路５４１巷２１號,121.579,25.03794,(02)27272502,羅氏家用新冠病毒抗原自我檢測套組,4,2022/05/11 10:40:02,今日無快篩
5901172268,皇佳大藥局,臺北市信義區松山路５４１巷１９號,121.5789,25.03793,(02)27269868,羅氏家用新冠病毒抗原自我檢測套組,38,2022/05/11 10:40:02,早上10:00 持健保卡領取實名制快篩，每人限領一份，請自備500元
5901172651,康杏藥局,臺北市信義區福德街３０６號１樓,121.5874,25.03931,(02)27591510,羅氏家用新冠病毒抗原自我檢測套組,11,2022/05/11 10:40:02,無
5901172740,信桉藥局,臺北市信義區莊敬路２３６號,121.5621,25.0296,(02)87860005,羅氏家用新冠病毒抗原自我檢測套組,78,2022/05/11 10:40:02,快篩販售 W1-5 11:00-20:00，W6 11:00-15:00
5901172839,九州藥局,臺北市信義區和平東路３段２３９號,121.5543,25.02294,(02)87323331,羅氏家用新冠病毒抗原自我檢測套組,33,2022/05/11 10:40:02,實名制快篩5月9日早上10:00開賣
5901173238,正和藥局,臺北市信義區吳興街２２５巷６號,121.5634,25.02782,(02)23455186,羅氏家用新冠病毒抗原自我檢測套組,77,2022/05/11 10:40:02,下午2點半發放快篩，週日無發放
5901173390,馨馨藥局,臺北市信義區虎林街８２巷１９號,121.5764,25.04336,(02)27491208,羅氏家用新冠病毒抗原自我檢測套組,65,2022/05/11 10:40:02,無
5901173407,康怡健保藥局,臺北市信義區吳興街４６７巷２弄１２號,121.5695,25.02381,(02)27206193,羅氏家用新冠病毒抗原自我檢測套組,95,2022/05/11 10:40:02,快篩早上9點開賣，賣完為止
5901173603,松德盛康藥局,臺北市信義區松德路４０號,121.5767,25.03896,(02)87891622,羅氏家用新冠病毒抗原自我檢測套組,8,2022/05/11 10:40:02,無
5901173738,尚頤中西藥局,臺北市信義區虎林街１４５號,121.5767,25.03959,(02)27253818,羅氏家用新冠病毒抗原自我檢測套組,46,2022/05/11 10:40:02,無
5901173818,博亞藥局,臺北市信義區莊敬路４６２號,121.5677,25.02672,(02)27580506,羅氏家用新冠病毒抗原自我檢測套組,39,2022/05/11 10:40:02,平日早上8:30、晚上8:00；假日早上8:30，發放號碼牌，持號碼牌購買!
5901173863,立赫北醫藥局,臺北市信義區吳興街１１８巷２６弄１７號,121.5599,25.03007,(02)27320100,羅氏家用新冠病毒抗原自我檢測套組,19,2022/05/11 10:40:02,5／11上午10:00開始販售實名制快篩試劑
5901173881,壹間藥師藥局,臺北市信義區虎林街１２０巷１４８號,121.5742,25.04213,(02)27672833,羅氏家用新冠病毒抗原自我檢測套組,49,2022/05/11 10:40:02,5／11（三）10:30實名制快篩開始販售
5901173934,躍獅光復藥局,臺北市信義區光復南路４１７之８號,121.5577,25.03682,(02)87862307,羅氏家用新冠病毒抗原自我檢測套組,19,2022/05/11 10:40:02,下午1點開始販售
5901173943,躍獅興雅藥局,臺北市信義區松德路１２８號,121.5745,25.03734,(02)87808429,羅氏家用新冠病毒抗原自我檢測套組,78,2022/05/11 10:40:02,14:00發號碼牌且同步開賣快篩，販賣至15:00或售完為止，週日無販售。
5901173961,北一忠孝藥局,臺北市信義區忠孝東路５段５２４巷１弄１６號１樓,121.5802,25.04133,(02)23464588,羅氏家用新冠病毒抗原自我檢測套組,8,2022/05/11 10:40:02,實名制快篩一~六販早上10點販售，周日不販售
5901174057,詠晴中西藥局,臺北市信義區松山路４８４之４號（１樓含夾層）,121.5778,25.0389,(02)27266890,羅氏家用新冠病毒抗原自我檢測套組,9,2022/05/11 10:40:02,實名制快篩 - 16:30領號碼牌.當天取貨即可.避免群聚風險
5901174066,愛維喜藥局,臺北市信義區莊敬路２７８號１樓,121.5627,25.02882,(02)27586989,羅氏家用新冠病毒抗原自我檢測套組,77,2022/05/11 10:40:02,快篩周一至五15:30.周六8:30開賣.約30分前收健保卡現金500元1張.發號碼牌
5901174075,信義盛康藥局,臺北市信義區永吉路２８６號（１樓）,121.5744,25.04538,(02)23460521,羅氏家用新冠病毒抗原自我檢測套組,14,2022/05/11 10:40:02,無
5901180322,南昌大藥局,臺北市中正區南昌路１段８６號１樓,121.5174,25.03086,(02)23510322,羅氏家用新冠病毒抗原自我檢測套組,34,2022/05/11 10:40:02,早上10點發號碼牌，下午2點前來購買，逾期作廢。
5901182086,國杏藥師示範藥局,臺北市中正區延平南路１７１巷３號,121.5079,25.03487,(02)23811322,羅氏家用新冠病毒抗原自我檢測套組,25,2022/05/11 10:40:02,無
5901183645,大愛生活藥局,臺北市中正區汀州路２段２３２號,121.5243,25.02189,(02)23661155,羅氏家用新冠病毒抗原自我檢測套組,57,2022/05/11 10:40:02,下午14:30開始發放快篩（不發號碼牌直接買）~~不要太早開始排隊啊啊啊啊
5901184071,進達健保藥局,臺北市中正區中華路２段４５３號,121.5096,25.0249,(02)23039829,羅氏家用新冠病毒抗原自我檢測套組,11,2022/05/11 10:40:02,星期日公休 5／9起快篩代售時間為上午10點 下午3-4點清消不營業
5901184080,活力健康藥妝藥局,臺北市中正區中華路２段３１５巷１號,121.5062,25.02795,(02)23392625,羅氏家用新冠病毒抗原自我檢測套組,54,2022/05/11 10:40:02,快篩14:00-15:00， 建議提早排隊
5901184179,保德中華藥局,臺北市中正區中華路２段１５９號,121.5042,25.03101,(02)23027720,羅氏家用新冠病毒抗原自我檢測套組,78,2022/05/11 10:40:02,快篩下午三點開始發號碼牌及販售，限當日購買
5901184473,中力藥局,臺北市中正區襄陽路１３之５號、１５號,121.5155,25.04349,(02)23313768,羅氏家用新冠病毒抗原自我檢測套組,7,2022/05/11 10:40:02,實名制快篩 販售時間：09:30~售完為止
5901184679,汀州藥局,臺北市中正區汀州路１段１８７、１８９、１９１號（１樓）,121.5112,25.02704,(02)23090705,羅氏家用新冠病毒抗原自我檢測套組,78,2022/05/11 10:40:02,快篩實名制，每天16:00開始販售，售完為止。
5901190024,長泰藥局,臺北市萬華區西園路２段２８０號,121.4942,25.02753,(02)23012869,羅氏家用新冠病毒抗原自我檢測套組,1,2022/05/11 10:40:02,快篩販賣時段，依貨運配送時間而訂
5901190079,建和藥局,臺北市萬華區青年路１６８巷４４號,121.5016,25.01987,(02)23010838,羅氏家用新冠病毒抗原自我檢測套組,9,2022/05/11 10:40:02,春節期間看診時段請電洽
5901190668,聯慶大藥局,臺北市萬華區萬大路３０６號１樓,121.5003,25.02495,(02)23039850,羅氏家用新冠病毒抗原自我檢測套組,2,2022/05/11 10:40:02,無
5901192448,健誠大藥局,臺北市萬華區環河南路２段１８５號,121.4919,25.03246,(02)23042223,羅氏家用新冠病毒抗原自我檢測套組,1,2022/05/11 10:40:02,實名制快篩販售：周一至周五早上9點開始，周六、周日早上10點開始
5901192975,萬華藥局,臺北市萬華區萬大路２４８號實際營業地址１樓、２樓,121.5003,25.02626,(02)23012221,羅氏家用新冠病毒抗原自我檢測套組,78,2022/05/11 10:40:02,快篩實名制，每天16:00開始販售，售完為止。
5901193070,榮勝藥局,臺北市萬華區萬大路２３３號,121.5006,25.02649,(02)23331121,羅氏家用新冠病毒抗原自我檢測套組,78,2022/05/11 10:40:02,每日快篩早上十一點開始販售
5901193123,千誠北護藥局,臺北市萬華區內江街１１４號,121.5034,25.04152,(02)23123530,羅氏家用新冠病毒抗原自我檢測套組,40,2022/05/11 10:40:02,快篩一開門就發號碼牌，故網路庫存不準。
5901193221,正盛藥局,臺北市萬華區中華路２段４３４－１號,121.5064,25.02708,(02)23050386,羅氏家用新冠病毒抗原自我檢測套組,70,2022/05/11 10:40:02,【5／9自費快篩+血氧機到貨!!】1.一~六20點，周日不賣 2.排隊人潮多，建議7點左右提前候位 3.詳情看公告或板橋正康臉書
5901193329,西園宏越藥局,臺北市萬華區西園路２段２１３號,121.4942,25.02714,(02)23097336,羅氏家用新冠病毒抗原自我檢測套組,17,2022/05/11 10:40:02,實名制快篩下午4點~5點販售
5901193338,艾米力藥師藥局,臺北市萬華區西藏路１０７－２號１樓,121.5035,25.02955,(02)23036583,羅氏家用新冠病毒抗原自我檢測套組,77,2022/05/11 10:40:02,實名制快篩：周一~周五【晚上】7:00販售；周末（六日）早上9:00販售
5901200105,建興藥局,臺北市文山區木柵路２段８１號１樓,121.561,24.98889,(02)29399993,羅氏家用新冠病毒抗原自我檢測套組,40,2022/05/11 10:40:02,星期一至星期日早上8時30分現場販售實名制快篩試劑
5901200141,景美藥局,臺北市文山區景文街１２５號,121.5412,24.99033,(02)29335741,羅氏家用新冠病毒抗原自我檢測套組,67,2022/05/11 10:40:02,無
5901202216,皇興藥師藥局,臺北市文山區木柵路２段１２１號,121.5621,24.98901,(02)29365553,羅氏家用新冠病毒抗原自我檢測套組,33,2022/05/11 10:40:02,無
5901202627,杏隆藥局,臺北市文山區羅斯福路５段２６１號,121.5395,25.00115,(02)29313151,羅氏家用新冠病毒抗原自我檢測套組,158,2022/05/11 10:40:02,快篩實名制採預約登記，至5／14已登記額滿。
5901202850,北一藥師藥局,臺北市文山區木新路３段４７號,121.5642,24.98236,(02)22348686,羅氏家用新冠病毒抗原自我檢測套組,5,2022/05/11 10:40:02,實名制快篩：週一至週五14:30開賣（直接排隊）、週六看狀況、週日停售
5901203375,大樹景美藥局,臺北市文山區羅斯福路６段２３４之１號,121.5404,24.99244,(02)29322951,羅氏家用新冠病毒抗原自我檢測套組,78,2022/05/11 10:40:02,快篩實名制，每天16:00開始販售，售完為止。
5901203455,全球萬芳藥局,臺北市文山區興隆路３段６３號（１樓）,121.5562,25.00024,(02)89352147,羅氏家用新冠病毒抗原自我檢測套組,9,2022/05/11 10:40:02,營業時間9:00~22:00
5902010132,宏恩藥局,高雄市鹽埕區教仁里瀨南街１３３號,120.2823,22.62472,(07)5211318,羅氏家用新冠病毒抗原自我檢測套組,10,2022/05/11 10:40:02,5／10 10:30貨到開始販售 星期一至星期六10:30貨到開始販售，星期日14:00貨到開始販售
5902011291,長庚藥局,高雄市鹽埕區五福四路１６３號一樓,120.2834,22.62347,(07)5513436,羅氏家用新冠病毒抗原自我檢測套組,18,2022/05/11 10:40:02,無
5902032174,光明健保藥局,高雄市左營區翠華路６０１巷８３號,120.2893,22.67277,(07)5812499,羅氏家用新冠病毒抗原自我檢測套組,10,2022/05/11 10:40:02,實名制快篩周一到週六上午9:00販售.周日休息
5902032441,健怡藥局,高雄市左營區翠峰路４０號,120.2897,22.67229,(07)5821891,羅氏家用新冠病毒抗原自我檢測套組,8,2022/05/11 10:40:02,快篩星期一~星期六每天早上8:00開始販售
5902032674,辰暘藥局,高雄市左營區富民路１２０號１、２樓,120.3054,22.66066,(07)5588545,羅氏家用新冠病毒抗原自我檢測套組,6,2022/05/11 10:40:02,無
5902040112,丁丁楠梓藥局,高雄市楠梓區建楠路１３０、１３２、１３４號,120.3247,22.72731,(07)3533743,羅氏家用新冠病毒抗原自我檢測套組,1,2022/05/11 10:40:02,5／2快篩尚未到貨，貨到立即開賣
5902040210,益民藥局,高雄市楠梓區建楠路４７號,120.3287,22.72659,(07)3522161,羅氏家用新冠病毒抗原自我檢測套組,26,2022/05/11 10:40:02,開門時間10:00
5902040229,進昇藥局,高雄市楠梓區德賢路２０２號,120.3068,22.72694,(07)3652334,羅氏家用新冠病毒抗原自我檢測套組,5,2022/05/11 10:40:02,實名制快篩每日上午10點販售，售完為止
5902041226,正人藥師藥局,高雄市楠梓區和昌里軍校路６７２號,120.293,22.70707,(07)3652942,羅氏家用新冠病毒抗原自我檢測套組,78,2022/05/11 10:40:02,早上11點準時發放號碼牌，同時開賣；一人限一份，代購需重新排隊。週六營業半天；週日公休。
5902042769,家安藥局,高雄市楠梓區後昌新路１３號１樓,120.2917,22.71844,(07)3600066,羅氏家用新冠病毒抗原自我檢測套組,2,2022/05/11 10:40:02,週一到週六早上8點賣，星期日沒有賣快篩試劑
5902050903,皇安藥局,高雄市三民區九如一路４６１號,120.3296,22.63865,(07)3866779,羅氏家用新冠病毒抗原自我檢測套組,7,2022/05/11 10:40:02,營業日0900可先領取號碼牌，上午9:00-12:00及下午3:00~10:.00為販賣快篩時間，售完為止
5902051642,安寧藥局,高雄市三民區嫩江街３９號,120.2981,22.64208,(07)3217585,羅氏家用新冠病毒抗原自我檢測套組,1,2022/05/11 10:40:02,無
5902051786,億生藥局,高雄市三民區南台路２００號,120.2982,22.63706,(07)2873436,羅氏家用新冠病毒抗原自我檢測套組,27,2022/05/11 10:40:02,「藥局販售口罩時間，依藥局門口公告時間為主（售完為止）」
5902056807,長慶藥局,高雄市三民區金鼎路３１０號,120.3207,22.66513,(07)3105835,羅氏家用新冠病毒抗原自我檢測套組,20,2022/05/11 10:40:02,無
5902057939,朝陽健保藥局,高雄市三民區陽明路５７號１樓,120.341,22.63871,(07)3839886,羅氏家用新冠病毒抗原自我檢測套組,71,2022/05/11 10:40:02,營業日下午4:00-6:00為販賣口罩時間，若有異動依藥局門口公告時間為主
5902080474,弘宗藥局,高雄市苓雅區武智街２號,120.3356,22.62303,(07)7211088,羅氏家用新冠病毒抗原自我檢測套組,12,2022/05/11 10:40:02,家用實名制快篩試劑，早上8時開始販售。
5902080518,福海藥局,高雄市苓雅區武慶三路５８號,120.332,22.61958,(07)7618855,羅氏家用新冠病毒抗原自我檢測套組,8,2022/05/11 10:40:02,早上09:00開始代售快篩，現場排隊售完為止，售出不退換。
5902080803,功安中西大藥局,高雄市苓雅區三多二路２９１號,120.3195,22.61858,(07)7215949,羅氏家用新冠病毒抗原自我檢測套組,8,2022/05/11 10:40:02,快篩試劑早上9:30開賣
5902081186,寶麒藥局,高雄市苓雅區三多一路１４４號,120.3315,22.62306,(07)7610355,羅氏家用新冠病毒抗原自我檢測套組,9,2022/05/11 10:40:02,1.快篩販售時間為營業時間.2.星期天不販售快篩試劑.3.停售口罩.
5902083457,順一藥局,高雄市苓雅區田西里成功一路２１０號,120.2969,22.61696,(07)3330011,羅氏家用新冠病毒抗原自我檢測套組,25,2022/05/11 10:40:02,營業時間早上8點30 至12點下午3點至9點（12點至3點休息）
5902083582,健智藥局,高雄市苓雅區四維二路９６之２號,120.3192,22.62258,(07)7249153,羅氏家用新冠病毒抗原自我檢測套組,3,2022/05/11 10:40:02,營業日8:30~12:00為販賣口罩時間.售完為止
5902084785,新良安藥局,高雄市苓雅區苓雅二路１０６號,120.2987,22.61731,(07)3386980,羅氏家用新冠病毒抗原自我檢測套組,9,2022/05/11 10:40:02,早上9點開始代售實名制快篩.星期天早上有代售實名制快篩
5902085031,上好藥局,高雄市苓雅區四維一路六三號一樓,120.3294,22.6257,(07)7266863,羅氏家用新冠病毒抗原自我檢測套組,16,2022/05/11 10:40:02,快篩購買:上午10:30~／／／周六日上午10:00~
5902085166,景福藥局,高雄市苓雅區和平一路１４７之５號,120.3204,22.62364,(07)7719152,羅氏家用新冠病毒抗原自我檢測套組,14,2022/05/11 10:40:02,2／11早上9:00至下午15:00，2／12至16日休
5902085184,惠春藥局,高雄市苓雅區武慶三路９６號,120.3319,22.62043,(07)7611358,羅氏家用新冠病毒抗原自我檢測套組,8,2022/05/11 10:40:02,「藥局販售口罩時間，依藥局門口公告時間為主（售完為止）」
5902090167,勝惠藥局,高雄市前鎮區忠孝里三多三路７１號,120.3122,22.6163,(07)3354766,羅氏家用新冠病毒抗原自我檢測套組,13,2022/05/11 10:40:02,快篩發放時間早上9點
5902091128,北京藥局,高雄市前鎮區公正路３１號,120.3322,22.60291,(07)7113100,羅氏家用新冠病毒抗原自我檢測套組,78,2022/05/11 10:40:02,發放方式，下午15；00現場過卡
5902092205,百宏中西大藥局,高雄市前鎮區復興三路１９４號,120.3117,22.61311,(07)3386719,羅氏家用新冠病毒抗原自我檢測套組,27,2022/05/11 10:40:02,無
5902092296,迎廣藥局,高雄市前鎮區林森三路１５０號２樓,120.3089,22.61357,(07)3321466,羅氏家用新冠病毒抗原自我檢測套組,33,2022/05/11 10:40:02,週一至周六08:30至12:00  15:00至18:00 19:00至21:30 星期六晚休息  星期日休息
5902110628,悅是康藥局,高雄市小港區漢民路２７６號,120.3536,22.56665,(07)8010012,羅氏家用新冠病毒抗原自我檢測套組,30,2022/05/11 10:40:02,每日早上10:00開賣、不須拿號碼牌、領完為止。
5903010181,永豐藥局,臺中市豐原區中山路４２２號１樓,120.7153,24.24733,(04)25280088,羅氏家用新冠病毒抗原自我檢測套組,4,2022/05/11 10:40:02,快篩星期一至五 早上9:30開始販售 星期六 下午3點開始販售 星期日公休
5903010270,福心藥局,臺中市豐原區中正路７１５號１樓,120.7014,24.2491,(04)25229292,羅氏家用新冠病毒抗原自我檢測套組,5,2022/05/11 10:40:02,快篩販賣時間早上10點.排隊人多則提前10分賣.不發號碼牌.現場販售週日休
5903010485,大樹圓環藥局,臺中市豐原區圓環東路６１７號１樓,120.7283,24.25084,(04)25122212,羅氏家用新冠病毒抗原自我檢測套組,78,2022/05/11 10:40:02,口罩販售時間：14:00 - 16:00
5903020089,新明通藥局,臺中市東勢區豐勢路２３２號１樓,120.8302,24.25113,(04)25873969,羅氏家用新冠病毒抗原自我檢測套組,10,2022/05/11 10:40:02,5月9-14日  早上8:30  若有異動於門口公告
5903050103,北勢進騰藥局,臺中市沙鹿區北勢東路５０９之７號１樓,120.576,24.22526,(04)26330893,羅氏家用新冠病毒抗原自我檢測套組,62,2022/05/11 10:40:02,營業時間12:00-22:00，每日12:00販售實名制快篩
5903050176,全國藥局,臺中市沙鹿區臺灣大道７段９９２號,120.5622,24.24074,(04)26627097,羅氏家用新冠病毒抗原自我檢測套組,67,2022/05/11 10:40:02,快篩劑每日配送時間不同，依現場到貨為主，現場排隊購買
5903050274,鹿寮藥局,臺中市沙鹿區中山路４６１、４６１－１號１、２樓,120.5615,24.24387,(04)26630677,羅氏家用新冠病毒抗原自我檢測套組,78,2022/05/11 10:40:02,快篩實名制，每天16:00開始販售，售完為止。
5903060092,佑全梧棲文化藥局,臺中市梧棲區文化路二段１５０號１樓,120.531,24.25526,(04)26566433,羅氏家用新冠病毒抗原自我檢測套組,78,2022/05/11 10:40:02,實名快篩下午1：50發號碼牌；14：00開始販售
5903070025,得安藥局,臺中市后里區四村路７８號,120.7129,24.30469,(04)25585333,羅氏家用新冠病毒抗原自我檢測套組,76,2022/05/11 10:40:02,快篩販賣時間 14:00~15:00（售完為止）
5903080094,灃洲大藥局,臺中市神岡區豐洲路４６６－３號１樓,120.7045,24.26179,(04)25150169,羅氏家用新冠病毒抗原自我檢測套組,4,2022/05/11 10:40:02,星期日公休，實名制快篩販售時間為每日下午三點
5903090143,佳福藥局,臺中市潭子區中山路１段４３－１號,120.7023,24.19138,(04)25332982,羅氏家用新冠病毒抗原自我檢測套組,12,2022/05/11 10:40:02,每日中午12:00至下午3:00休息，星期六公休，營業日上午8:00快篩試劑開賣
5903150153,溪南藥局,臺中市烏日區溪南路一段５６５號１樓,120.6431,24.07523,(04)23353666,羅氏家用新冠病毒抗原自我檢測套組,78,2022/05/11 10:40:02,快篩實名制，每天16:00開始販售，售完為止。
5903150171,上益藥局,臺中市烏日區公園路３２０號１樓,120.6238,24.10287,(04)23360398,羅氏家用新冠病毒抗原自我檢測套組,19,2022/05/11 10:40:02,快篩實際到貨開始賣至售完為止
5903170146,向陽藥師連鎖藥局,臺中市龍井區中央路三段３７號１樓,120.5248,24.21176,(04)26390500,羅氏家用新冠病毒抗原自我檢測套組,76,2022/05/11 10:40:02,實名制快篩當天物流配送到就開賣，營業時間:0930~2130慢箋領藥.長照特約.更年期.糖尿病.孕期保健.小兒營養
5903180142,峰正藥局,臺中市霧峰區中正路８３０號１樓,120.6987,24.06244,(04)23303353,羅氏家用新冠病毒抗原自我檢測套組,78,2022/05/11 10:40:02,快篩實名制，每天16:00開始販售，售完為止。
5903190362,太平中山藥局,臺中市太平區中山路４段１１號,120.7139,24.14931,(04)23959200,羅氏家用新冠病毒抗原自我檢測套組,78,2022/05/11 10:40:02,快篩實名制，每天16:00開始販售，售完為止。
5903190693,維肯藥局,臺中市太平區中興路７８－１號１樓,120.7163,24.12783,(04)23512198,羅氏家用新冠病毒抗原自我檢測套組,11,2022/05/11 10:40:02,實名制快篩 週一~六早上10點開始發放
5903200149,祥佑健保特約藥局,臺中市大里區中興路２段４０６號,120.6901,24.10769,(04)24866398,羅氏家用新冠病毒抗原自我檢測套組,52,2022/05/11 10:40:02,政府快篩代售時間:周一~周六早上10:30開始販售.現場排隊.售完為止（週日店休）
5903200229,信元藥局,臺中市大里區益民路２段３７２號１樓,120.684,24.11545,(04)24876051,羅氏家用新冠病毒抗原自我檢測套組,59,2022/05/11 10:40:02,下午5點發號碼牌並依序販賣
5903200372,國光丁丁藥局,臺中市大里區國光路２段５５１－１號１樓,120.6788,24.11241,(04)24069711,羅氏家用新冠病毒抗原自我檢測套組,10,2022/05/11 10:40:02,星期一至星期日早上9點依排隊順序直接領取
5903200443,佳霖藥局,臺中市大里區塗城路９６４號１樓,120.6933,24.09081,(04)24960895,羅氏家用新冠病毒抗原自我檢測套組,1,2022/05/11 10:40:02,健保卡快篩:（周日和周三停賣）.請備好健保卡和500元整.下午3點半開賣.現場排隊／售完為止
5903200569,和信健康藥局,臺中市大里區德芳路一段５９號,120.6905,24.11342,(04)24833677,羅氏家用新冠病毒抗原自我檢測套組,25,2022/05/11 10:40:02,9am，發號碼牌，周日休
5903200587,大里安德健保藥局,臺中市大里區大明路１１７號,120.6861,24.11527,(04)24875607,羅氏家用新冠病毒抗原自我檢測套組,67,2022/05/11 10:40:02,早上9點開始發放
5903200649,躍獅日新藥局,臺中市大里區日新路３４２號１樓,120.6925,24.11528,(04)24822345,羅氏家用新冠病毒抗原自我檢測套組,13,2022/05/11 10:40:02,每日9:00代售口罩及快篩（星期日公休）（週六到17:30）
5903200667,永欣東榮藥局,臺中市大里區東榮路３７０號１樓,120.6836,24.11032,(04)24810599,羅氏家用新冠病毒抗原自我檢測套組,10,2022/05/11 10:40:02,快篩發放無特定時間.收到貨即發放.營業時間早上08:30至晚上10:00
5903200685,塗城藥局,臺中市大里區中興路一段１８７、１８９、１９１號１樓,120.6933,24.09008,(04)24967234,羅氏家用新冠病毒抗原自我檢測套組,78,2022/05/11 10:40:02,快篩實名制，每天16:00開始販售，售完為止。
5903200756,佑全大里大明藥局,臺中市大里區大明路３６０、３６２號,120.6787,24.11511,(04)24818633,羅氏家用新冠病毒抗原自我檢測套組,1,2022/05/11 10:40:02,實名制快篩，開賣時間:下午14:00，售完為止
5903220178,佑全台中中華藥局,臺中市中區中華路一段１６２號１樓,120.6779,24.14605,(04)22291556,羅氏家用新冠病毒抗原自我檢測套組,78,2022/05/11 10:40:02,下午01:40開始發放號碼牌!! 售完為止!! 一人一卡一盒
5903230094,平祐健保藥局,臺中市東區旱溪東路１段２９７號１樓,120.7009,24.13481,(04)22113898,羅氏家用新冠病毒抗原自我檢測套組,8,2022/05/11 10:40:02,早上九點開始販售!週六公休，週日正常販售!
5903240376,台丞藥局,臺中市西區三民路一段１６６－５號,120.6746,24.13743,(04)22279666,羅氏家用新冠病毒抗原自我檢測套組,9,2022/05/11 10:40:02,快篩實名制販賣時間即營業時間：早上0800開始販售，週日無營業
5903240438,真誠藥局,臺中市西區美村路一段３７８號１樓,120.6615,24.14458,(04)23015750,羅氏家用新冠病毒抗原自我檢測套組,6,2022/05/11 10:40:02,世鴻診所旁，星期一~星期六8:30開始賣，中午休息，週日休息。有困難，找藥師幫忙
5903240474,佑全台中向上藥局,臺中市西區向上路一段３８６、３８８號１樓,120.6559,24.14688,(04)23204732,羅氏家用新冠病毒抗原自我檢測套組,78,2022/05/11 10:40:02,因政府配貨時間不一，依照門市現場公告時間為主
5903250505,心安藥局,臺中市南區國光路２４１號１樓,120.6794,24.12676,(04)22858773,羅氏家用新冠病毒抗原自我檢測套組,3,2022/05/11 10:40:02,每天下午三點排隊開賣，一人一卡，週日公休下次是5／9號
5903250587,俊達藥師藥局,臺中市南區五權南路５２９號１樓,120.6698,24.11692,(04)22650023,羅氏家用新冠病毒抗原自我檢測套組,1,2022/05/11 10:40:02,快篩販售時間上午9點至12點，周日店休
5903250658,田園藥局,臺中市南區學府路１６０號１樓,120.6742,24.12909,(04)22220605,羅氏家用新冠病毒抗原自我檢測套組,1,2022/05/11 10:40:02,每週三公休。每天13:30 開始販售，一人限一卡，依到貨數量販售
5903260314,喜悅健保藥局,臺中市北區健行路４１４號１樓,120.6818,24.15927,(04)22333988,羅氏家用新冠病毒抗原自我檢測套組,49,2022/05/11 10:40:02,星期一到星期五早上10點到晚上9點半，星期六中午12點到晚上6點半.
5903260421,忠明小林健保藥局,臺中市北區忠明路１６１號,120.6642,24.16235,(04)22013666,羅氏家用新冠病毒抗原自我檢測套組,24,2022/05/11 10:40:02,每日早上8點發號碼牌及收健保卡，下午4點半領回
5903260449,喜樂藥局,臺中市北區中清路１段３１號,120.677,24.1529,(04)22060423,羅氏家用新冠病毒抗原自我檢測套組,47,2022/05/11 10:40:02,快篩實名制，每日早上9:30開始販售，售完為止。
5903260618,中清小林健保藥局,臺中市北區中清路一段８６、８８號１樓,120.6767,24.15622,(04)22034197,羅氏家用新冠病毒抗原自我檢測套組,70,2022/05/11 10:40:02,24小時營業無公休，早上八點發號碼牌，十二點以後過健保卡發放口罩.
5903260654,康新藥局,臺中市北區五權路２３２號,120.677,24.15078,(04)22020008,羅氏家用新冠病毒抗原自我檢測套組,21,2022/05/11 10:40:02,無
5903260681,昭德藥師藥局,臺中市北區西屯路一段３４５號,120.6654,24.16007,(04)23235655,羅氏家用新冠病毒抗原自我檢測套組,16,2022/05/11 10:40:02,早上八點至下午十一點營業，上午九點至下午九點現場排隊過卡買口罩，售完為止
5903260707,新藥林藥局,臺中市北區健行路４４５－５號１樓,120.6803,24.15896,(04)22053458,羅氏家用新冠病毒抗原自我檢測套組,77,2022/05/11 10:40:02,.快篩:星期一~星期五 下午3點開始，星期六下午一點，星期三.日公休，現場排隊
5903260734,立得藥局,臺中市北區忠太西路１１號１樓,120.6678,24.15997,(04)22080013,羅氏家用新冠病毒抗原自我檢測套組,56,2022/05/11 10:40:02,固定周一到周六，下午15:00開始販賣快篩
5903260798,光恒藥局,臺中市北區五權路２６１號１樓,120.6767,24.15097,(04)22068638,羅氏家用新冠病毒抗原自我檢測套組,67,2022/05/11 10:40:02,快篩 周一到周六早上8:00到12:00 開放購買
5903260896,中清丁丁藥局,臺中市北區中清路一段５３１號１樓,120.6728,24.1678,(04)22919866,羅氏家用新冠病毒抗原自我檢測套組,23,2022/05/11 10:40:02,快篩實名制到貨後開始販售  facebook公告 賣完為止
5903260949,進化瑞昌藥局,臺中市北區進化路３３２號１樓,120.6946,24.15378,(04)23608199,羅氏家用新冠病毒抗原自我檢測套組,13,2022/05/11 10:40:02,上午10:00開賣，9:45發號碼牌，須在現場排隊過號即棄權，請依現場指示排隊謝謝
5903260976,躍獅達心藥局,臺中市北區雙十路二段１８７號１樓,120.6906,24.15779,(04)22344548,羅氏家用新冠病毒抗原自我檢測套組,4,2022/05/11 10:40:02,實名制快篩販售每日11點發放號碼牌到貨公告領取
5903270105,樂得好大藥局,臺中市西屯區上石路２號１樓,120.644,24.16669,(04)24521173,羅氏家用新冠病毒抗原自我檢測套組,13,2022/05/11 10:40:02,試劑09:00販賣（依到貨狀況滾動式調整）
5903270230,大心藥局,臺中市西屯區西屯路２段２９５－１９號,120.6418,24.17795,(04)24528355,羅氏家用新冠病毒抗原自我檢測套組,9,2022/05/11 10:40:02,實名制快篩，早上9:00開始販售（售完為止），星期日固定公休
5903270365,麒霖藥局,臺中市西屯區福順路３０７號１樓,120.6185,24.1832,(04)24638978,羅氏家用新冠病毒抗原自我檢測套組,21,2022/05/11 10:40:02,販售健保快篩時間：週一至週六10:00開始至售完、週日公休。
5903270392,瑞德大藥局,臺中市西屯區中清西二街８４號,120.6671,24.17511,(04)22939820,羅氏家用新冠病毒抗原自我檢測套組,31,2022/05/11 10:40:02,固定周一至周日早上9:00開始販售口罩.售完為止
5903270721,舒健藥局,臺中市西屯區西屯路二段２５５號２樓,120.6459,24.17179,(04)27077858,羅氏家用新冠病毒抗原自我檢測套組,78,2022/05/11 10:40:02,公費快篩試劑於周一至周六晚上7點現場排隊購買，週日公休。
5903270776,河南丁丁藥局,臺中市西屯區河南路４段１９１號,120.6367,24.15565,(04)22511658,羅氏家用新冠病毒抗原自我檢測套組,4,2022/05/11 10:40:02,周一至周日每天上午9:00開始販售實名制快篩
5903270847,分子藥局,臺中市西屯區惠來路二段２３６－１號,120.6421,24.16318,(04)22513080,羅氏家用新冠病毒抗原自我檢測套組,48,2022/05/11 10:40:02,發放時間週一至週日早上10點起售完為止
5903270892,杏林堂藥局,臺中市西屯區黎明路三段１４８號１樓,120.6376,24.17729,(04)24528967,羅氏家用新冠病毒抗原自我檢測套組,78,2022/05/11 10:40:02,週一至週六11:00販售 週日08:30販售
5903271022,西屯藥局,臺中市西屯區西屯路三段１５０－４５號１樓,120.621,24.18716,(04)24621822,羅氏家用新冠病毒抗原自我檢測套組,78,2022/05/11 10:40:02,快篩實名制，每天16:00開始販售，售完為止。
5903271031,美十樂中科藥局,臺中市西屯區西屯路三段１６６－６５號１樓,120.6129,24.19035,(04)24610219,羅氏家用新冠病毒抗原自我檢測套組,468,2022/05/11 10:40:02,醫事人員卡片損壞，暫時無法販賣快篩
5903271068,西墩藥局,臺中市西屯區黎明路三段２７５、２７７號１樓,120.6373,24.17812,(04)24510770,羅氏家用新冠病毒抗原自我檢測套組,78,2022/05/11 10:40:02,快篩實名制，每天16:00開始販售，售完為止。
5903271139,百吉藥局,臺中市西屯區青海路一段７１號１樓,120.6547,24.1644,(04)23135698,羅氏家用新冠病毒抗原自我檢測套組,8,2022/05/11 10:40:02,周六休息
5903271175,維康中榮藥局,臺中市西屯區東大路一段１３號１樓,120.6022,24.18315,(04)23593195,羅氏家用新冠病毒抗原自我檢測套組,25,2022/05/11 10:40:02,無
5903271282,禾安藥局,臺中市西屯區西屯路二段１２６之８號,120.6518,24.16682,(04)23176162,羅氏家用新冠病毒抗原自我檢測套組,45,2022/05/11 10:40:02,無
5903271291,西屯長安藥局,臺中市西屯區成都路３６８號１樓,120.6641,24.17322,(04)22981221,羅氏家用新冠病毒抗原自我檢測套組,78,2022/05/11 10:40:02,快篩實名制，每天16:00開始販售，售完為止。
5903271308,祐生藥局,臺中市西屯區文華路３之１號１樓,120.6447,24.17535,(04)24517169,羅氏家用新冠病毒抗原自我檢測套組,188,2022/05/11 10:40:02,快篩發放時間：第一批中午12:00，第二批傍晚18:00，售完為止
5903280245,大墩何藥局,臺中市南屯區大敦南路４３１號１．２樓,120.6476,24.13497,(04)24710655,羅氏家用新冠病毒抗原自我檢測套組,2,2022/05/11 10:40:02,防疫用快篩試劑上午9點開始販售，售完為止
5903280334,長益藥局,臺中市南屯區忠勇路９９號,120.6155,24.14971,(04)23899383,羅氏家用新冠病毒抗原自我檢測套組,4,2022/05/11 10:40:02,週一至週六下午13點開始開始販售口罩（當場排隊，不發號碼牌售完為止）
5903280361,誠美健保藥局,臺中市南屯區南屯路２段１６９號１樓,120.6509,24.1361,(04)24752000,羅氏家用新冠病毒抗原自我檢測套組,27,2022/05/11 10:40:02,週一~週六快篩試劑早上九點開賣（週日公休），售完為止!
5903280450,瑞安藥局,臺中市南屯區大墩路２６１號,120.6497,24.14302,(04)24750818,羅氏家用新冠病毒抗原自我檢測套組,7,2022/05/11 10:40:02,周一到周日每日早上9:00開始，賣完為止，營業至晚上22:00。
5903280549,仁幼藥局,臺中市南屯區黎明東街２２９號１樓,120.6367,24.1482,(04)23809162,羅氏家用新冠病毒抗原自我檢測套組,34,2022/05/11 10:40:02,快篩販售時間平日早上8:30--9:00，晚上7:00--完售，禮拜六下午3:00--完售，請禮讓領藥病患優先
5903280567,康總藥局,臺中市南屯區南屯路二段１０１號１樓,120.6524,24.13579,(04)24735285,羅氏家用新冠病毒抗原自我檢測套組,16,2022/05/11 10:40:02,周一到周日每日上午收到貨立即發送，發完為止（營業時間到晚上10:00）。
5903280683,詠悅藥局,臺中市南屯區大墩十二街６３７號,120.6369,24.15009,(04)22515012,羅氏家用新冠病毒抗原自我檢測套組,7,2022/05/11 10:40:02,快篩實名制販售時間:周一~周六早上9點開賣，售完為止
5903280718,樂活藥局,臺中市南屯區大聖街３３２號１樓,120.6508,24.15401,(04)23106301,羅氏家用新冠病毒抗原自我檢測套組,23,2022/05/11 10:40:02,無
5903280807,大樹南屯藥局,臺中市南屯區向上路一段６４３號１樓,120.6486,24.14659,(04)24758887,羅氏家用新冠病毒抗原自我檢測套組,78,2022/05/11 10:40:02,快篩實名制，每天16:00開始販售，售完為止。
5903280923,南屯丁丁藥局,臺中市南屯區五權西路二段２１８號１樓,120.6503,24.14035,(04)36015077,羅氏家用新冠病毒抗原自我檢測套組,9,2022/05/11 10:40:02,無
5903290045,康美得藥局,臺中市北屯區昌平路１段１０５－８號,120.6903,24.17373,(04)22467128,羅氏家用新冠病毒抗原自我檢測套組,31,2022/05/11 10:40:02,早上9:30開始。W日早上10點販售。快篩使用方法請上（康美得藥局）官方臉書。血氧機。口罩100元。
5903290063,承恩藥局,臺中市北屯區北屯路４４１－１號１樓,120.7008,24.17977,(04)22467857,羅氏家用新冠病毒抗原自我檢測套組,26,2022/05/11 10:40:02,實名制快篩販售時間為下午4點開始（12:00-15:00中午休息）；星期六休息
5903290394,億銓藥局,臺中市北屯區北屯路２１０－１號,120.6961,24.16756,(04)22313670,羅氏家用新冠病毒抗原自我檢測套組,78,2022/05/11 10:40:02,快篩實名制週一~週五下午1：00開賣、週六上午11：00開賣，週日公休。
5903290661,康博中西健保藥局,臺中市北屯區后庄一街７號１樓,120.6644,24.1865,(04)24252468,羅氏家用新冠病毒抗原自我檢測套組,2,2022/05/11 10:40:02,快篩下午01:00發售53份；晚上06:00銷售25份.週六.日及假日下午06:30開始依配送滾動調整
5903290778,博宇藥局,臺中市北屯區北屯路３８５之１號,120.6979,24.17193,(04)22341479,羅氏家用新冠病毒抗原自我檢測套組,57,2022/05/11 10:40:02,快篩試劑10:00現場販售、售完為止。
5903290821,昌平炘星藥局,臺中市北屯區昌平路二段１１－３６號,120.6886,24.18159,(04)22417616,羅氏家用新冠病毒抗原自我檢測套組,16,2022/05/11 10:40:02,快篩禮拜一到禮拜六8:30開賣，禮拜六18:00後公休，禮拜日全日公休
5903290830,齊方藥局,臺中市北屯區四平路３９號,120.6708,24.17885,(04)22912192,羅氏家用新冠病毒抗原自我檢測套組,24,2022/05/11 10:40:02,5／10-5／14快篩早上9點開賣
5903290947,德寶健保藥局,臺中市北屯區熱河路一段７０號１樓,120.687,24.1674,(04)22325511,羅氏家用新冠病毒抗原自我檢測套組,31,2022/05/11 10:40:02,快篩試劑九點開始銷售賣完為止
5903291042,全成北屯藥局,臺中市北屯區北屯路４３９－１１號１樓,120.7004,24.17913,(04)22463518,羅氏家用新冠病毒抗原自我檢測套組,75,2022/05/11 10:40:02,快篩每日下午3:00開始販售
5903291060,大樹北屯藥局,臺中市北屯區松竹路二段４１１號１樓,120.6895,24.18192,(04)22422262,羅氏家用新冠病毒抗原自我檢測套組,78,2022/05/11 10:40:02,快篩實名制，每天16:00開始販售，售完為止。
5903291079,富丘藥局,臺中市北屯區興安路二段７７號１樓,120.6947,24.17686,(04)22477301,羅氏家用新冠病毒抗原自我檢測套組,11,2022/05/11 10:40:02,實名制快篩試劑早上08:30販售
5903291248,潔西卡大藥局,臺中市北屯區崇德路二段３１４號１樓,120.686,24.1765,(04)22416879,羅氏家用新冠病毒抗原自我檢測套組,38,2022/05/11 10:40:02,無
5903291275,康是美藥局東山店,臺中市北屯區東山路一段３２０號１樓、和福路２５８號１樓,120.7229,24.17591,(04)24364571,羅氏家用新冠病毒抗原自我檢測套組,25,2022/05/11 10:40:02,無
5905010143,啄木鳥藥師藥局,臺南市新營區新南里民治路２４２號,120.3041,23.30767,(06)6590248,羅氏家用新冠病毒抗原自我檢測套組,77,2022/05/11 10:40:02,每天下午4:00開始販售，售完為止
5905010250,大樹新營藥局,臺南市新營區民權路７４、７６、７８號１樓,120.3127,23.30615,(06)6328300,羅氏家用新冠病毒抗原自我檢測套組,78,2022/05/11 10:40:02,快篩實名制，每天16:00開始販售，售完為止。
5905020023,大樹鹽水藥局,臺南市鹽水區朝琴路１２６－３號１樓,120.271,23.32228,(06)6520432,羅氏家用新冠病毒抗原自我檢測套組,78,2022/05/11 10:40:02,快篩實名制，每天16:00開始販售，售完為止。
5905040141,大樹麻豆藥局,臺南市麻豆區中山路４８、５０號１樓,120.2469,23.18382,(06)5716556,羅氏家用新冠病毒抗原自我檢測套組,78,2022/05/11 10:40:02,快篩實名制，每天16:00開始販售，售完為止。
5905050209,大樹佳里藥局,臺南市佳里區延平路２３７號１樓,120.1783,23.1599,(06)7231323,羅氏家用新冠病毒抗原自我檢測套組,78,2022/05/11 10:40:02,快篩實名制，每天16:00開始販售，售完為止。
5905060054,全家康藥師藥局,臺南市新化區北勢里中正路１２０７號,120.2968,23.05935,(06)5980866,羅氏家用新冠病毒抗原自我檢測套組,6,2022/05/11 10:40:02,週一~週日早上10:00開始賣實名制快篩，售完為止
5905090061,安安藥局柳營店,臺南市柳營區福安一街５０號１樓,120.3126,23.27711,(06)6220585,羅氏家用新冠病毒抗原自我檢測套組,55,2022/05/11 10:40:02,無
5905140039,安安藥局隆田店,臺南市官田區中山路一段１５號１樓,120.3186,23.1927,(06)5795705,羅氏家用新冠病毒抗原自我檢測套組,2,2022/05/11 10:40:02,全日口罩販賣
5905210027,愛心藥師藥局,臺南市安定區港南里港口１４７號,120.233,23.09041,(06)5935104,羅氏家用新冠病毒抗原自我檢測套組,19,2022/05/11 10:40:02,春節營業時間請電洽或依現場公告
5905270176,大樹仁德藥局,臺南市仁德區中正路二段１１５２號１樓,120.2519,22.97062,(06)2797466,羅氏家用新冠病毒抗原自我檢測套組,78,2022/05/11 10:40:02,快篩實名制，每天16:00開始販售，售完為止。
5905280109,大樹青青藥局,臺南市歸仁區中山路三段１２號,120.2875,22.96765,(06)2300301,羅氏家用新冠病毒抗原自我檢測套組,78,2022/05/11 10:40:02,快篩實名制，每天16:00開始販售，售完為止。
5905280154,喜樂藥局,臺南市歸仁區辜厝里中正南路一段１１４號１樓,120.293,22.96419,(06)2305101,羅氏家用新冠病毒抗原自我檢測套組,1,2022/05/11 10:40:02,實名制快篩下午6:00開始販售，相關訊息將公告於喜樂藥局粉絲團FB。
5905310326,美德生醫藥局,臺南市永康區復國一路４９６號１樓,120.245,23.01514,(06)2030463,羅氏家用新冠病毒抗原自我檢測套組,68,2022/05/11 10:40:02,快篩販售時間：星期一~星期日 10:30~至售完
5905311074,中華長億藥局,臺南市永康區中華路７３４、７３６號１樓,120.2288,23.0167,(06)3022322,羅氏家用新冠病毒抗原自我檢測套組,78,2022/05/11 10:40:02,快篩實名制，每天16:00開始販售，售完為止。
5905311083,心康藥局,臺南市永康區永大路二段１７９號１樓,120.2616,23.00665,(06)2055075,羅氏家用新冠病毒抗原自我檢測套組,9,2022/05/11 10:40:02,實名制快篩販售時間:周一至週五下午1點至3點，售完為止，讓領藥患者優先領藥，每人限購一份；周六周日不販售
5905320653,東門台安藥局,臺南市東區中華東路三段２號１樓,120.2291,22.98105,(06)2904377,羅氏家用新冠病毒抗原自我檢測套組,19,2022/05/11 10:40:02,國定假日不開放領口罩
5905320797,大樹自由藥局,臺南市東區自由路三段３８２號１樓,120.2373,22.98241,(06)2890800,羅氏家用新冠病毒抗原自我檢測套組,78,2022/05/11 10:40:02,快篩實名制，每天16:00開始販售，售完為止。
5905320804,大樹大同藥局,臺南市東區大同路二段２２７、２２９號１樓,120.2143,22.97567,(06)2158700,羅氏家用新冠病毒抗原自我檢測套組,78,2022/05/11 10:40:02,快篩實名制，每天16:00開始販售，售完為止。
5905320859,裕農藥局,臺南市東區裕農路３０２號１樓,120.2287,22.98652,(06)2092286,羅氏家用新冠病毒抗原自我檢測套組,53,2022/05/11 10:40:02,無
5905320886,中華崇德藥局,臺南市東區中華東路三段１８１、１８３號１樓,120.2259,22.97667,(06)2880800,羅氏家用新冠病毒抗原自我檢測套組,78,2022/05/11 10:40:02,快篩實名制，每天16:00開始販售，售完為止。
5905330275,太子藥局大同店,臺南市南區大同路二段３４８號１樓,120.2138,22.97574,(06)2158339,羅氏家用新冠病毒抗原自我檢測套組,2,2022/05/11 10:40:02,快篩實名制，若供貨正常一律平日早上9點，週末早上11點。
5905330284,大樹佳華藥局,臺南市南區金華路二段１２９號１樓,120.1911,22.98035,(06)2641238,羅氏家用新冠病毒抗原自我檢測套組,78,2022/05/11 10:40:02,快篩實名制，每天16:00開始販售，售完為止。
5905330417,明興啄木鳥藥局,臺南市南區明興路５１號１樓,120.1883,22.95974,(06)2620793,羅氏家用新冠病毒抗原自我檢測套組,5,2022/05/11 10:40:02,每日10:00開始賣實名制快篩，若配送延遲則14:30開始。
5905340075,麗欣健保藥局,臺南市中西區永華路一段１９４號１樓,120.1917,22.98835,(06)2209393,羅氏家用新冠病毒抗原自我檢測套組,70,2022/05/11 10:40:02,w1~w6早上11:00開始發放快篩
5905350151,公園台安藥局,臺南市北區公園路８４０號,120.2121,23.01331,(06)2518402,羅氏家用新冠病毒抗原自我檢測套組,54,2022/05/11 10:40:02,實名制快篩每日上午10:30販售（依快篩配送時間可能延後）。
5905370206,美家藥局,臺南市安南區安和路一段３５２號１樓,120.2125,23.03322,(06)2566006,羅氏家用新冠病毒抗原自我檢測套組,22,2022/05/11 10:40:02,無
5905370466,大樹北安藥局,臺南市安南區北安路三段１５８號１樓,120.2036,23.04256,(06)2553633,羅氏家用新冠病毒抗原自我檢測套組,78,2022/05/11 10:40:02,快篩實名制，每天16:00開始販售，售完為止。
5905380300,新高橋藥局台南永華店,臺南市安平區華平路２７９號１樓,120.1748,22.99031,(06)2992362,羅氏家用新冠病毒抗原自我檢測套組,24,2022/05/11 10:40:02,若有到貨早上九點五十分發放號碼牌十點開始販售
5905380408,永華啄木鳥藥局,臺南市安平區永華路二段３６９號１樓,120.1806,22.98956,(06)2985173,羅氏家用新冠病毒抗原自我檢測套組,60,2022/05/11 10:40:02,5／7日起實名制快篩皆為早上10點半開始發放，若有延誤到貨則以現場公告為主
5907010454,上泰健保藥局,高雄市鳳山區鎮西里中華街２７號１樓,120.3559,22.62698,(07)7455127,羅氏家用新冠病毒抗原自我檢測套組,15,2022/05/11 10:40:02,5／7 配售之快篩目前0950開始販售。售完為止...1200~~1900店休
5907010730,鳳山啄木鳥藥局,高雄市鳳山區善美里保泰路３３６號１樓,120.3348,22.60287,(07)7162314,羅氏家用新冠病毒抗原自我檢測套組,1,2022/05/11 10:40:02,營業日08:50發號碼牌，發完立即販售，售完為止
5907011004,永豐久億藥局,高雄市鳳山區和興里五甲一路１１號１樓,120.3586,22.62189,(07)7104281,羅氏家用新冠病毒抗原自我檢測套組,1,2022/05/11 10:40:02,無
5907011148,大樹國泰藥局,高雄市鳳山區興仁里五甲一路２９２號,120.3539,22.61698,(07)7407234,羅氏家用新冠病毒抗原自我檢測套組,78,2022/05/11 10:40:02,快篩實名制，每天16:00開始販售，售完為止。
5907011193,新高橋藥局新富店,高雄市鳳山區新泰里新富路４２８號１樓,120.3451,22.61288,(07)9630233,羅氏家用新冠病毒抗原自我檢測套組,8,2022/05/11 10:40:02,早上10:00開始販售口罩
5907011228,鳳山青年藥局,高雄市鳳山區文德里青年路二段３９９號１樓,120.3513,22.64292,(07)7678383,羅氏家用新冠病毒抗原自我檢測套組,78,2022/05/11 10:40:02,口罩販售時間：14:00 - 16:00
5907011317,凱旋藥局,高雄市鳳山區國隆里新富路３７３號１樓,120.3475,22.61494,(07)7671181,羅氏家用新冠病毒抗原自我檢測套組,78,2022/05/11 10:40:02,快篩實名制，每天16:00開始販售，售完為止。
5907020085,大德藥局,高雄市岡山區大德一路９８號,120.3025,22.79689,(07)6221456,羅氏家用新冠病毒抗原自我檢測套組,78,2022/05/11 10:40:02,快篩實名制，每天16:00開始販售，售完為止。
5907030090,睛好活力藥局,高雄市旗山區湄洲里中山路１２７號,120.482,22.88873,(07)6625119,羅氏家用新冠病毒抗原自我檢測套組,1,2022/05/11 10:40:02,無
5907050029,林園健人藥師藥局,高雄市林園區林園北路３７２號,120.3951,22.5126,(07)6421598,羅氏家用新冠病毒抗原自我檢測套組,78,2022/05/11 10:40:02,營業日14:00~16:00為販賣時間，售完為止，週日不販售。
5907050092,林園啄木鳥藥局,高雄市林園區鳳林路二段８０３號１樓,120.3957,22.5135,(07)6414772,羅氏家用新冠病毒抗原自我檢測套組,69,2022/05/11 10:40:02,快篩實名制領取時間下午2點（若當天配送延誤，時間另行公布）
5907050109,林園藥局,高雄市林園區仁愛路１３號１樓,120.3928,22.50418,(07)6425855,羅氏家用新冠病毒抗原自我檢測套組,78,2022/05/11 10:40:02,快篩實名制，每天16:00開始販售，售完為止。
5907060267,加嘉藥局,高雄市大寮區山頂里內厝路１９１號１樓,120.3901,22.60793,(07)7860683,羅氏家用新冠病毒抗原自我檢測套組,1,2022/05/11 10:40:02,無
5907080223,新高橋藥局仁雄店,高雄市仁武區赤山里仁雄路８９－３號,120.3457,22.67722,(07)3485857,羅氏家用新冠病毒抗原自我檢測套組,11,2022/05/11 10:40:02,藥局電話07-3743243
5907080250,仁同藥局,高雄市仁武區八卦里永仁街７０６號１樓,120.3313,22.69072,(07)3736142,羅氏家用新冠病毒抗原自我檢測套組,7,2022/05/11 10:40:02,可購買快篩試劑時間每日早上7:30到8:30
5907080303,群邦藥局,高雄市仁武區八德東路１８０號１樓,120.3422,22.68538,(07)3745985,羅氏家用新冠病毒抗原自我檢測套組,73,2022/05/11 10:40:02,每日下午2:00開始販售公費快篩（售完為止），星期日藥局早上8:30-9:30賣公費快篩
5907090167,大樹大社藥局,高雄市大社區中山路３０８號１樓,120.3503,22.73145,(07)3531682,羅氏家用新冠病毒抗原自我檢測套組,78,2022/05/11 10:40:02,快篩實名制，每天16:00開始販售，售完為止。
5907140108,德昌藥局阿蓮店,高雄市阿蓮區阿蓮里中正路４５６號,120.3321,22.88075,(07)6318868,羅氏家用新冠病毒抗原自我檢測套組,78,2022/05/11 10:40:02,固定周一至周日14:30-16:00販售快篩，售完為止
5907150177,佑安藥局,高雄市路竹區中和街１８２號,120.2575,22.85889,(07)6072215,羅氏家用新冠病毒抗原自我檢測套組,3,2022/05/11 10:40:02,星期一至六08:00開始販售；星期日無販售，售完為止
5907150257,大樹大立藥局,高雄市路竹區國昌路５１號,120.26,22.85409,(07)6961663,羅氏家用新冠病毒抗原自我檢測套組,78,2022/05/11 10:40:02,快篩實名制，每天16:00開始販售，售完為止。
5907160093,保生藥局,高雄市湖內區葉厝里保生路３４０．３４２號,120.2195,22.90733,(07)6990800,羅氏家用新冠病毒抗原自我檢測套組,1,2022/05/11 10:40:02,快篩實名制，每天16:00開始販售，售完為止。
5907240014,博林健保藥局,高雄市內門區觀亭里中正路１６０巷５１號,120.4539,22.9232,(07)6671883,羅氏家用新冠病毒抗原自我檢測套組,7,2022/05/11 10:40:02,自2／11日~2／29日，營業日07:40~18:00為販賣口罩時間，售完為止
5907280036,七賢藥局,高雄市鹽埕區七賢三路１６２號１樓,120.2829,22.62712,(07)5330616,羅氏家用新冠病毒抗原自我檢測套組,78,2022/05/11 10:40:02,快篩實名制，每天16:00開始販售，售完為止。
5907290238,聯合藥師藥局,高雄市鼓山區中華一路９７０號１樓,120.2919,22.65515,(07)5500558,羅氏家用新冠病毒抗原自我檢測套組,78,2022/05/11 10:40:02,中午12:00開始販售快篩，請從騎樓排隊並遵守防疫規範，謝謝
5907290354,文昇藥局,高雄市鼓山區慶豐街１２５號,120.2942,22.66724,(07)5525314,羅氏家用新冠病毒抗原自我檢測套組,64,2022/05/11 10:40:02,無
5907300024,重愛藥局,高雄市左營區文自路９３０號１樓,120.3161,22.68547,(07)3501870,羅氏家用新冠病毒抗原自我檢測套組,13,2022/05/11 10:40:02,下午2:30開始販售口罩
5907300168,金元藥局,高雄市左營區重愛路２２０號,120.3156,22.68562,(07)3458378,羅氏家用新冠病毒抗原自我檢測套組,2,2022/05/11 10:40:02,快篩試劑郵差配送，約10點至11點左右會送到藥局，即開始販售，星期四，六營業時間至中午12點
5907300506,躍獅祐恩藥局,高雄市左營區明華一路１３２號１樓,120.3073,22.66307,(07)5508706,羅氏家用新冠病毒抗原自我檢測套組,48,2022/05/11 10:40:02,到貨時間不固定，到貨會FB通知並立即販售，售完為止~
5907300588,明禾藥局,高雄市左營區華夏路１７３２號１樓,120.3204,22.68777,(07)3493734,羅氏家用新冠病毒抗原自我檢測套組,36,2022/05/11 10:40:02,快篩販賣時間早上10點開始
5907300659,維康藥局高榮店,高雄市左營區榮總路１６３號、１６５號,120.3216,22.6809,(07)3494540,羅氏家用新冠病毒抗原自我檢測套組,3,2022/05/11 10:40:02,平常日0900-1700為快篩販賣時間賣完為止！假日1000-1800
5907300702,禾順左營藥局,高雄市左營區自由三路４１０號２樓,120.3127,22.67563,(07)3592582,羅氏家用新冠病毒抗原自我檢測套組,14,2022/05/11 10:40:02,星期一~星期六 實名制快篩劑發放時間13:30~15:00 （周日公休）
5907300748,翔生藥局合群店,高雄市左營區緯六路２５６號,120.2871,22.6976,(07)5880055,羅氏家用新冠病毒抗原自我檢測套組,8,2022/05/11 10:40:02,實名制快篩販售時間：星期一至星期五，售完為止
5907300800,元大藥師健保藥局,高雄市左營區榮德街３２７號,120.3211,22.68636,(07)3507531,羅氏家用新冠病毒抗原自我檢測套組,42,2022/05/11 10:40:02,無
5907300819,志全藥局,高雄市左營區富國路１６８號１樓,120.3068,22.66075,(07)5568217,羅氏家用新冠病毒抗原自我檢測套組,34,2022/05/11 10:40:02,藥局販售口罩時間，依藥局門口公告時間為主（售完為止）
5907300908,明自丁丁藥局,高雄市左營區自由二路１５２號１樓,120.3089,22.66223,(07)5568902,羅氏家用新冠病毒抗原自我檢測套組,18,2022/05/11 10:40:02,無
5907300926,高鐵藥局,高雄市左營區華夏路１３２２．１３２６號,120.312,22.68587,(07)3452797,羅氏家用新冠病毒抗原自我檢測套組,78,2022/05/11 10:40:02,快篩實名制，每天16:00開始販售，售完為止。
5907300953,翔生藥局,高雄市左營區左營大路５１４號,120.2953,22.68921,(07)5827329,羅氏家用新冠病毒抗原自我檢測套組,3,2022/05/11 10:40:02,快篩實名制早上9點開賣
5907301030,丁丁藥局北高雄店,高雄市左營區自由三路１４８號,120.311,22.6707,(07)3453680,羅氏家用新冠病毒抗原自我檢測套組,9,2022/05/11 10:40:02,快篩實名制早上9點開始販售
5907301076,熊安心藥局華夏店,高雄市左營區華夏路１２１２號１樓,120.3104,22.68483,(07)3430632,羅氏家用新冠病毒抗原自我檢測套組,37,2022/05/11 10:40:02,快篩試劑-販售時間14:00起至售完為止
5907301094,杏一高榮二店藥局,高雄市左營區榮總路１７７號１樓,120.3213,22.6811,(07)3463348,羅氏家用新冠病毒抗原自我檢測套組,14,2022/05/11 10:40:02,實名制快篩 週一~五09:30開賣／週六14:30開賣
5907310173,安健藥局,高雄市楠梓區鳳楠路２５０號,120.3296,22.72617,(07)3520167,羅氏家用新冠病毒抗原自我檢測套組,51,2022/05/11 10:40:02,2／06起營業日早上8點開始販賣，周六日早上8:30 .售完為止
5907310262,大樹楠梓藥局,高雄市楠梓區軍校路９０８號,120.2919,22.71246,(07)3632322,羅氏家用新冠病毒抗原自我檢測套組,78,2022/05/11 10:40:02,快篩實名制，每天16:00開始販售，售完為止。
5907310388,宸實藥局,高雄市楠梓區後昌路４７巷２３－１號,120.3129,22.71975,(07)3642142,羅氏家用新冠病毒抗原自我檢測套組,56,2022/05/11 10:40:02,W1星期一 ~ W5星期五（10:30開賣）。W6星期六（9:00開賣）賣完為止!
5907310404,藍田藥局,高雄市楠梓區藍田路１號,120.2953,22.72643,(07)3601236,羅氏家用新冠病毒抗原自我檢測套組,78,2022/05/11 10:40:02,快篩實名制，每天16:00開始販售，售完為止。
5907320302,新高橋藥局明誠店,高雄市三民區明誠一路４９２號,120.3226,22.66046,(07)3107072,羅氏家用新冠病毒抗原自我檢測套組,71,2022/05/11 10:40:02,早上10:00開始販售口罩
5907320535,康誠藥局,高雄市三民區建工路６１６號,120.3228,22.64934,(07)3893889,羅氏家用新冠病毒抗原自我檢測套組,26,2022/05/11 10:40:02,星期一~星期日早上09：30~11：50。星期一~星期六下午15：30~17：50、晚上19：30~21：20
5907320633,勁康健保藥局,高雄市三民區義華路４０２號１樓,120.3331,22.64371,(07)3966716,羅氏家用新冠病毒抗原自我檢測套組,17,2022/05/11 10:40:02,如為當日配量快篩實名制配貨到即可販售，若前一日就到貨，則早上10點開始
5907320777,桉家藥師藥局,高雄市三民區明誠一路３９３號,120.3228,22.65998,(07)3929732,羅氏家用新冠病毒抗原自我檢測套組,2,2022/05/11 10:40:02,無
5907321005,諾亞藥局,高雄市三民區鼎華路１４號１樓,120.3164,22.65139,(07)3929966,羅氏家用新冠病毒抗原自我檢測套組,10,2022/05/11 10:40:02,快篩早上10:00開始，營業時間:（一-五）早上8:00-12:00，下午02:30-6:00（五-下午5:30休息，六-開上午半天，日-休息）
5907321041,鼎安健保藥局,高雄市三民區鼎中路４１８號１樓,120.3199,22.66719,(07)3509939,羅氏家用新冠病毒抗原自我檢測套組,25,2022/05/11 10:40:02,無
5907321069,桂林活力藥局九如店,高雄市三民區懷安街１１２號１樓,120.3176,22.64095,(07)3981009,羅氏家用新冠病毒抗原自我檢測套組,78,2022/05/11 10:40:02,每天15:30發號碼牌，於18:00前兌換完畢，逾期棄權，剩餘則繼續發放
5907330219,美麗島台安藥局,高雄市新興區中山一路１１５號地下２樓（轉換層）,120.3015,22.63155,(07)2365490,羅氏家用新冠病毒抗原自我檢測套組,23,2022/05/11 10:40:02,位於美麗島捷運站內，往西子灣方向地下二樓。販賣時間依現場公告為主，可來電詢問。
5907340046,銘益藥局,高雄市前金區七賢二路２０８、２１０號１樓,120.2951,22.63314,(07)2853107,羅氏家用新冠病毒抗原自我檢測套組,3,2022/05/11 10:40:02,無
5907350186,中美藥局,高雄市苓雅區武廟路９８號,120.3303,22.6307,(07)7151149,羅氏家用新冠病毒抗原自我檢測套組,10,2022/05/11 10:40:02,快篩試劑販售，週一~週六09:30開始
5907350195,健順藥局,高雄市苓雅區自強三路１４０號,120.2986,22.61724,(07)2695832,羅氏家用新冠病毒抗原自我檢測套組,9,2022/05/11 10:40:02,自2／6起，營業日0830~22:00為口罩販售時間，售完為止
5907350220,仁愛藥師藥局,高雄市苓雅區中正一路２３０號,120.3296,22.62921,(07)7222300,羅氏家用新冠病毒抗原自我檢測套組,37,2022/05/11 10:40:02,快篩一到五10:00發號碼牌，紅字假日12:00發號碼牌。於3小時之後取快篩
5907350328,安杏藥局,高雄市苓雅區四維二路９４－１７號,120.3197,22.62273,(07)7511739,羅氏家用新冠病毒抗原自我檢測套組,28,2022/05/11 10:40:02,快篩試劑代售時間自早上9:00點服務
5907350506,大樹苓雅藥局,高雄市苓雅區中華四路１５３號,120.3001,22.61783,(07)5353111,羅氏家用新冠病毒抗原自我檢測套組,78,2022/05/11 10:40:02,快篩實名制，每天16:00開始販售，售完為止。
5907350631,三多藥局,高雄市苓雅區三多二路２９２號１樓,120.3173,22.61838,(07)3365889,羅氏家用新冠病毒抗原自我檢測套組,78,2022/05/11 10:40:02,快篩實名制，每天16:00開始販售，售完為止。
5907360520,大樹瑞福藥局,高雄市前鎮區瑞隆路１７０號１樓、２樓,120.3357,22.60598,(07)7271170,羅氏家用新冠病毒抗原自我檢測套組,78,2022/05/11 10:40:02,快篩實名制，每天16:00開始販售，售完為止。
5907360584,聖名健保藥局,高雄市前鎮區復興三路２４６號１樓,120.312,22.61558,(07)3319431,羅氏家用新冠病毒抗原自我檢測套組,25,2022/05/11 10:40:02,無
5907360600,桂林活力藥師藥局草衙店,高雄市前鎮區草衙二路３６０號,120.323,22.57801,(07)8131819,羅氏家用新冠病毒抗原自我檢測套組,35,2022/05/11 10:40:02,9:00發放實名制快篩號碼牌.售完為止
5907360628,風鈴藥局,高雄市前鎮區管仲路３７號,120.3117,22.60649,(07)5367833,羅氏家用新冠病毒抗原自我檢測套組,29,2022/05/11 10:40:02,販售快篩：09:30-11:30 依照配送調整販售時間（周日公休）
5907380184,桂林活力藥師藥局孔鳳店,高雄市小港區孔鳳路５６１號１樓,120.3586,22.58393,(07)7912331,羅氏家用新冠病毒抗原自我檢測套組,5,2022/05/11 10:40:02,無
5911011478,天康新豐藥局,基隆市中正區新豐街２５１巷４弄９號１樓,121.7885,25.13594,(02)24695168,羅氏家用新冠病毒抗原自我檢測套組,1,2022/05/11 10:40:02,無
5911011512,八斗子東亞藥局,基隆市中正區北寧路３７８號,121.7958,25.13944,(02)24698829,羅氏家用新冠病毒抗原自我檢測套組,2,2022/05/11 10:40:02,中午12點鐘開賣實名制快篩，售完為止
5911011521,禎宸藥局,基隆市中正區中正路１７５號１樓,121.7605,25.14233,(02)24620366,羅氏家用新冠病毒抗原自我檢測套組,45,2022/05/11 10:40:02,無
5911011638,中正藥局,基隆市中正區新豐街３８５號１、２樓,121.7856,25.13537,(02)24690660,羅氏家用新冠病毒抗原自我檢測套組,78,2022/05/11 10:40:02,快篩實名制，每天16:00開始販售，售完為止。
5911021438,正心藥局,基隆市七堵區南興路１０號１樓,121.7149,25.09755,(02)24563378,羅氏家用新冠病毒抗原自我檢測套組,1,2022/05/11 10:40:02,每日限量78盒， 星期一~六下午13:30發號碼牌，14:00開始販賣，星期日上午9:00發號碼牌，9:30開始販賣，12:00停止領取
5911030053,杏福藥局,基隆市暖暖區暖暖街１７８號,121.7357,25.09953,(02)24572427,羅氏家用新冠病毒抗原自我檢測套組,1,2022/05/11 10:40:02,無
5911031158,柏林藥局,基隆市暖暖區暖暖街２４６巷１６７號１樓,121.7357,25.10036,(02)24592277,羅氏家用新冠病毒抗原自我檢測套組,1,2022/05/11 10:40:02,早上8.40銷售快篩實名制
5911040228,大田大藥局,基隆市仁愛區仁二路５號,121.7507,25.12744,(02)24258762,羅氏家用新冠病毒抗原自我檢測套組,78,2022/05/11 10:40:02,下午2:00發號碼牌並販售
5911041350,何房藥局,基隆市仁愛區忠三路８１號,121.7389,25.12931,(02)24222978,羅氏家用新冠病毒抗原自我檢測套組,2,2022/05/11 10:40:02,無
5911041618,永樂藥局,基隆市仁愛區忠二路２２號,121.7401,25.13013,(02)24214878,羅氏家用新冠病毒抗原自我檢測套組,17,2022/05/11 10:40:02,上午八點半開始販售實名制快篩試劑
5911041967,東隆藥局,基隆市仁愛區仁二路１０５號２樓,121.7482,25.12742,(02)24260727,羅氏家用新冠病毒抗原自我檢測套組,14,2022/05/11 10:40:02,無
5911051267,親親藥局,基隆市中山區復興路１８１號,121.7264,25.14587,(02)24378323,羅氏家用新冠病毒抗原自我檢測套組,5,2022/05/11 10:40:02,無
5911051409,順豐藥局,基隆市中山區中華路４號,121.7388,25.14545,(02)24369176,羅氏家用新冠病毒抗原自我檢測套組,78,2022/05/11 10:40:02,家用快篩每日下午2點起隨到隨領售完為止。
5911051481,仁登藥局,基隆市中山區復興路１２２號,121.7262,25.14453,(02)24375789,羅氏家用新冠病毒抗原自我檢測套組,1,2022/05/11 10:40:02,無
5911071483,蘋果藥局,基隆市信義區東明路９７號,121.7614,25.12757,(02)24685158,羅氏家用新冠病毒抗原自我檢測套組,9,2022/05/11 10:40:02,無
5911071590,基隆藥局,基隆市信義區東信路１６６、１６８號１、２樓,121.7646,25.12821,(02)24680955,羅氏家用新冠病毒抗原自我檢測套組,78,2022/05/11 10:40:02,快篩實名制，每天16:00開始販售，售完為止。
5912012353,康田大藥局,新竹市東區金山街１０２號１樓,121.0238,24.77687,(03)5638217,羅氏家用新冠病毒抗原自我檢測套組,13,2022/05/11 10:40:02,週一-六 AM10點販售快篩 週日休息沒賣
5912013529,新莊藥局,新竹市東區光復路１段４７３號１樓,121.015,24.78421,(03)5634775,羅氏家用新冠病毒抗原自我檢測套組,148,2022/05/11 10:40:02,5／11早上11點
5912013654,七二八藥局,新竹市東區明湖路１２４５號１樓,120.979,24.76774,(03)5200530,羅氏家用新冠病毒抗原自我檢測套組,1,2022/05/11 10:40:02,5／10政府快篩，已經售完。5／11政府快篩，12:30開始販售。
5912042098,欣欣藥局,新竹市北區西大路736巷1號,120.9591,24.81011,(03)5351205,羅氏家用新冠病毒抗原自我檢測套組,1,2022/05/11 10:40:02,快篩代售周一~周六下午3點開始販售，售完為止  藥局營業時間上午8:00-12:00 ；下午15:00-18:00 ；晚上18:30-21:30
5912042940,新竹北門藥局,新竹市北區中正路３６０、３６２號１樓,120.9629,24.81414,(03)5333234,羅氏家用新冠病毒抗原自我檢測套組,1,2022/05/11 10:40:02,快篩實名制，每天16:00開始販售，售完為止。
5912051430,三姓藥局,新竹市香山區中華路四段５７６號１、２樓,120.9297,24.78886,(03)5385886,羅氏家用新冠病毒抗原自我檢測套組,78,2022/05/11 10:40:02,快篩實名制，每天16:00開始販售，售完為止。
5917010082,仁壽藥局,臺中市中區東墩里三民路三段１號,120.6817,24.14482,(04)22228058,羅氏家用新冠病毒抗原自我檢測套組,21,2022/05/11 10:40:02,週一至週日上午9時30分起販售快篩劑
5917011945,正三吉藥局,臺中市中區臺灣大道一段９５號,120.6831,24.13911,(04)22207700,羅氏家用新冠病毒抗原自我檢測套組,37,2022/05/11 10:40:02,快篩販售時間 14:00~17:00
5917020060,來安藥局,臺中市東區十甲東路４８８號１樓,120.7073,24.13824,(04)22116977,羅氏家用新冠病毒抗原自我檢測套組,1,2022/05/11 10:40:02,發快篩時間早上8點
5917020122,周藥師藥局,臺中市東區合作里力行路５５號１樓,120.6956,24.15085,(04)23606800,羅氏家用新冠病毒抗原自我檢測套組,18,2022/05/11 10:40:02,營業時間早上8:30-12:30 下午2:30-晚上9:00 ｛8:30賣快篩；週日不賣快篩｝
5917020417,群益藥局,臺中市東區東英八街１０６號１樓,120.7067,24.14148,(04)22129298,羅氏家用新冠病毒抗原自我檢測套組,27,2022/05/11 10:40:02,快篩實名制於早上8.30開始販售售完為止 周日公休
5917021718,中大藥局,臺中市東區十甲路５０５號,120.7109,24.14466,(04)22131348,羅氏家用新冠病毒抗原自我檢測套組,4,2022/05/11 10:40:02,無
5917030226,九和大藥局向上店,臺中市西區向上路一段１９２號１樓,120.6605,24.14684,(04)23020148,羅氏家用新冠病毒抗原自我檢測套組,16,2022/05/11 10:40:02,周一~六08:00開始。周日08:00~中午12:00，下午休息。
5917030520,林西藥局,臺中市西區向上路一段４６－１號,120.6661,24.14688,(04)23014023,羅氏家用新冠病毒抗原自我檢測套組,31,2022/05/11 10:40:02,每日早上9點開始依序當場領口罩，售完為止。
5917030600,永昇藥局,臺中市西區東昇里朝陽街４５號,120.6701,24.13522,(04)23717280,羅氏家用新冠病毒抗原自我檢測套組,38,2022/05/11 10:40:02,九時開賣快篩   周日休息
5917030646,華隆藥局,臺中市西區樂群街６之２號,120.6735,24.14025,(04)22243785,羅氏家用新冠病毒抗原自我檢測套組,39,2022/05/11 10:40:02,上午09:00開始販售快篩試劑，售完為止
5917030726,元泉藥局,臺中市西區公益里中美街２５７號,120.6601,24.14874,(04)23015503,羅氏家用新冠病毒抗原自我檢測套組,12,2022/05/11 10:40:02,固定週一至週六早上8:30開始販售口罩.售完為止
5917030842,向上中西藥局,臺中市西區向上路一段３５９號１樓,120.6561,24.1465,(04)24756688,羅氏家用新冠病毒抗原自我檢測套組,7,2022/05/11 10:40:02,周一~周六早上8:30開賣實名制快篩
5917030860,振聲藥局,臺中市西區公正里向上路１段４４７號１樓,120.6541,24.14654,(04)24721100,羅氏家用新冠病毒抗原自我檢測套組,34,2022/05/11 10:40:02,週一至週六早上9:00開始販售口罩，售完為止
5917032220,匯康藥局,臺中市西區向上路一段二七七號一樓,120.6585,24.14651,(04)23014038,羅氏家用新冠病毒抗原自我檢測套組,2,2022/05/11 10:40:02,週一至週六早上09:30開始販售至口罩售完為止
5917032462,名亨藥局,臺中市西區五權路２９號１樓,120.6696,24.14423,(04)22201089,羅氏家用新冠病毒抗原自我檢測套組,18,2022/05/11 10:40:02,每日上午8:20至12，下午3至6時販售.周 日  . 周 六    下 午 休 息 .
5917032471,銘津藥局,臺中市西區民生路３９０號１樓,120.6611,24.14444,(04)23021314,羅氏家用新冠病毒抗原自我檢測套組,38,2022/05/11 10:40:02,每日上午10:00至13:00，下午3:00至21:00 現場排隊，星期日下午休息
5917032613,向日睽藥局,臺中市西區林森路９８－２號１樓,120.6707,24.1379,(04)23731893,羅氏家用新冠病毒抗原自我檢測套組,13,2022/05/11 10:40:02,快篩.每天早上9點開賣
5917032908,佑恩藥師藥局,臺中市西區精誠路６７號１樓,120.6553,24.15224,(04)23100058,羅氏家用新冠病毒抗原自我檢測套組,12,2022/05/11 10:40:02,實名制快篩周一到周六，早上9:00，周日下午2:10開始販賣
5917040106,侑民藥局,臺中市南區興大路３９６巷４９號１樓,120.6712,24.11564,(04)22860146,羅氏家用新冠病毒抗原自我檢測套組,19,2022/05/11 10:40:02,週一至週日上午9點販賣防疫快篩試劑
5917040124,慧寧藥局,臺中市南區德義里忠孝路２號,120.6754,24.12662,(04)22851858,羅氏家用新冠病毒抗原自我檢測套組,18,2022/05/11 10:40:02,配合實名制快篩，星期一至星期六每天上午九時開始販售。
5917040393,鴻儀大藥局,臺中市南區樹義里大慶街二段３－４號,120.6528,24.11405,(04)22611769,羅氏家用新冠病毒抗原自我檢測套組,64,2022/05/11 10:40:02,為避免排隊群聚05／09起周一至周六採取AM10:00寄健保卡PM14:00~PM17:00領回快篩及健保卡
5917041765,荃大藥局,臺中市南區臺中路１５４號,120.6843,24.13114,(04)22858850,羅氏家用新冠病毒抗原自我檢測套組,8,2022/05/11 10:40:02,防疫快篩販售，早上09:10~10:00止...若貨運延誤，依門市公告販售時間
5917050433,松鶴藥局,臺中市北區文莊里篤行路２２４號,120.6738,24.15187,(04)22028790,羅氏家用新冠病毒抗原自我檢測套組,2,2022/05/11 10:40:02,口罩每日上午8:30開始販售，現場排隊售完為止。（全年無休）
5917050577,東生藥局,臺中市北區永興街１１２－１號１樓,120.6825,24.16152,(04)22358880,羅氏家用新冠病毒抗原自我檢測套組,11,2022/05/11 10:40:02,周一到周六上午8:30到晚上10:00開始販售口罩，周日公休
5917050586,仁柏藥局,臺中市北區賴明里山西街二段６２號,120.6758,24.16874,(04)22924462,羅氏家用新冠病毒抗原自我檢測套組,63,2022/05/11 10:40:02,實名制每日上午9:00開始現場排隊販售
5917050719,百鴻藥局,臺中市北區金龍里北屯路１３－１號,120.6914,24.15981,(04)22336330,羅氏家用新冠病毒抗原自我檢測套組,11,2022/05/11 10:40:02,固定周一至周五10.00--16.00 17.00--21.00開始販售口罩售完為止
5917050880,欣康藥局,臺中市北區館前路２１號,120.6657,24.15543,(04)23226837,羅氏家用新冠病毒抗原自我檢測套組,10,2022/05/11 10:40:02,週一至週六上午9時開始發放號碼牌，週日上午10時開始發放號碼牌。
5917051449,格霖大藥局,臺中市北區山西路二段７０號１樓,120.6758,24.1689,(04)22925076,羅氏家用新冠病毒抗原自我檢測套組,57,2022/05/11 10:40:02,早上10點-晚上9點
5917053514,學士藥局,臺中市北區學士路１３號之１樓,120.6823,24.15372,(04)22015008,羅氏家用新冠病毒抗原自我檢測套組,54,2022/05/11 10:40:02,固定周一到周日，早上09:50開始發放號碼牌及販賣快篩
5917053550,嘉樂藥局,臺中市北區西屯路一段３５１－７號,120.6658,24.15956,(04)23263967,羅氏家用新冠病毒抗原自我檢測套組,48,2022/05/11 10:40:02,星期一~五8.30~12.30，14.00~21.30，星期六8.30-12.30
5917060322,瑞康藥局,臺中市西屯區長安路二段２號１樓,120.6612,24.1724,(04)22914046,羅氏家用新冠病毒抗原自我檢測套組,1,2022/05/11 10:40:02,營業時間8:30~21:30 （家用快篩，酒精及防疫口罩）
5917060359,明達藥局,臺中市西屯區何厝里青海路一段１７號,120.6564,24.16345,(04)23137079,羅氏家用新冠病毒抗原自我檢測套組,28,2022/05/11 10:40:02,固定周一至周六9:30開始販售口罩
5917060644,大東藥局,臺中市西屯區西墩里黎明路三段５７號,120.6369,24.1726,(04)27020418,羅氏家用新冠病毒抗原自我檢測套組,24,2022/05/11 10:40:02,5／11上午9:00開賣。
5917061061,佳蒝藥局,臺中市西屯區西屯路３段１５９之１０之５號１樓,120.6194,24.18731,(04)24617763,羅氏家用新冠病毒抗原自我檢測套組,78,2022/05/11 10:40:02,無
5917062353,典安大藥局,臺中市西屯區西屯路３段１５９－６０號,120.6177,24.18807,(04)24616571,羅氏家用新冠病毒抗原自我檢測套組,16,2022/05/11 10:40:02,每天10:00發放快篩
5917062406,健康藥局,臺中市西屯區何南里大墩１９街２６號１樓,120.6568,24.15693,(04)23190305,羅氏家用新冠病毒抗原自我檢測套組,1,2022/05/11 10:40:02,原則上W1-W6 10:00開始販售快篩（視排隊狀況提前），星期日休息
5917062620,東亞藥師藥局,臺中市西屯區河南路２段３５０號１樓,120.6472,24.17387,(04)27022702,羅氏家用新冠病毒抗原自我檢測套組,25,2022/05/11 10:40:02,實名快篩每日早上9:30販賣
5917063403,逢甲藥局,臺中市西屯區逢甲路１６２－１號１樓,120.6425,24.17809,(04)27085922,羅氏家用新冠病毒抗原自我檢測套組,24,2022/05/11 10:40:02,實名制快篩販售時間:每日早上9:30~12:00
5917063725,永旭大藥局,臺中市西屯區逢甲路９２號１樓,120.6439,24.17883,(04)27087952,羅氏家用新冠病毒抗原自我檢測套組,44,2022/05/11 10:40:02,5／6起實名快篩，星期一到五早上10點開始，星期六日中午12點開始排隊販售。
5917070248,聯發藥局,臺中市南屯區溝墘里大墩路８５０號,120.6496,24.15551,(04)23262738,羅氏家用新冠病毒抗原自我檢測套組,31,2022/05/11 10:40:02,週一至周六早上十點開賣，以現場數量為主，售完為止。販售時間忙碌，恕無法接聽電話，請見諒。
5917070346,吉田藥局,臺中市南屯區大同里大墩六街１５４號,120.6506,24.14276,(04)24756816,羅氏家用新冠病毒抗原自我檢測套組,13,2022/05/11 10:40:02,近日到貨時間不定.到貨後.依一進一出.排隊先後序販售口罩，售完為止。
5917070417,康元藥局,臺中市南屯區黎明路２段２８１號１樓,120.6355,24.14863,(04)22548622,羅氏家用新冠病毒抗原自我檢測套組,23,2022/05/11 10:40:02,星期一~星期六早上九點發放號碼牌 下午1點以後領快篩試劑 星期日早上9:50現場排隊不發號碼牌
5917070515,裕登藥局,臺中市南屯區大墩二街９１號１Ｆ,120.6515,24.13873,(04)24715280,羅氏家用新冠病毒抗原自我檢測套組,15,2022/05/11 10:40:02,固定周一到周日早上9:00開始販賣防疫口罩。
5917071781,吉運藥局,臺中市南屯區南屯里黎明路１段１１３５號,120.6382,24.14047,(04)23834755,羅氏家用新冠病毒抗原自我檢測套組,8,2022/05/11 10:40:02,固定周一到周六，早上8:00賣實名制快篩。不發號碼牌
5917071996,乾生大藥局,臺中市南屯區大業路９５號,120.6524,24.15336,(04)23281277,羅氏家用新冠病毒抗原自我檢測套組,24,2022/05/11 10:40:02,09:00
5917072313,大業藥局,臺中市南屯區大業路５７１號１樓,120.6361,24.15347,(04)22516715,羅氏家用新冠病毒抗原自我檢測套組,29,2022/05/11 10:40:02,週一至週六早上10點  快篩試劑開賣
5917072564,恒安藥局,臺中市南屯區南屯路２段１１９號,120.652,24.13585,(04)24722887,羅氏家用新冠病毒抗原自我檢測套組,27,2022/05/11 10:40:02,5／7快篩試劑下午3:00開始販售，5／9（一）起快篩試劑早上8:30開始販售
5917080137,日盛藥局,臺中市北屯區東山路一段１４２-１１號,120.7036,24.16934,(04)24360810,羅氏家用新冠病毒抗原自我檢測套組,28,2022/05/11 10:40:02,每天（不含星期日）早上9點開始發售快篩，售完為止，歡迎洽購。
5917080262,寶麒藥局,臺中市北屯區旅順路２段１５０號,120.6895,24.174,(04)22433918,羅氏家用新冠病毒抗原自我檢測套組,78,2022/05/11 10:40:02,周一~周日每天下午1:00開始販售實名制快篩試劑，售完為止。
5917080593,崇安藥局,臺中市北屯區四民里昌平路二段５４－３號１樓,120.6831,24.19198,(04)24221929,羅氏家用新冠病毒抗原自我檢測套組,4,2022/05/11 10:40:02,實名制快篩周一至周日08:15發號碼牌
5917080744,早安藥局,臺中市北屯區崇德二路一段１９９號１樓,120.693,24.17641,(04)22439411,羅氏家用新冠病毒抗原自我檢測套組,26,2022/05/11 10:40:02,5月起周一至周六09:00開始販售快篩試劑。周日休息
5917080771,大生大藥局,臺中市北屯區三光里北屯路３３７號,120.6974,24.1703,(04)22337059,羅氏家用新冠病毒抗原自我檢測套組,23,2022/05/11 10:40:02,快篩試劑-周一至周日每天早上8:30開始販售，無發放號碼牌，每天即時現場販售服務，售完為止。（週日正常販售服務）
5917080780,吉英藥局,臺中市北屯區平順里昌平路一段４３４號１樓,120.6905,24.1763,(04)22448289,羅氏家用新冠病毒抗原自我檢測套組,36,2022/05/11 10:40:02,快篩實名制販賣
5917081170,順天大藥局,臺中市北屯區中清路二段２３２號１樓,120.6694,24.17767,(04)22918847,羅氏家用新冠病毒抗原自我檢測套組,20,2022/05/11 10:40:02,每日上午九點開始販售到售完為止.（週日正常營業）.
5917082300,蔡宗耀中西藥局,臺中市北屯區平德里河北路２段６１號,120.6831,24.16994,(04)22341880,羅氏家用新冠病毒抗原自我檢測套組,24,2022/05/11 10:40:02,早上9點30分至下午12點30分，下午3點至8點發口罩，有發號碼牌。
5917082364,慈慧藥師藥局,臺中市北屯區平田里昌平路１段１７８號１Ｆ,120.6887,24.17108,(04)22389846,羅氏家用新冠病毒抗原自我檢測套組,40,2022/05/11 10:40:02,星期一到星期日早上9點開始販售，5／6已販售完
5917082444,杏城藥局,臺中市北屯區崇德路２段２９２、２９４號,120.686,24.17596,(04)22464676,羅氏家用新冠病毒抗原自我檢測套組,3,2022/05/11 10:40:02,雙周的星期日休息，快篩開賣時間9點，假日10點
5917082882,世富藥局,臺中市北屯區北屯路２９９－３號１樓,120.6961,24.16825,(04)22317085,羅氏家用新冠病毒抗原自我檢測套組,45,2022/05/11 10:40:02,營業早上08:00-12:00，下午15:00-21:00.星期六晚上休息.星期日休息
5917083209,崇德啄木鳥藥局,臺中市北屯區崇德路二段２１７號,120.6852,24.17423,(04)22410441,羅氏家用新冠病毒抗原自我檢測套組,22,2022/05/11 10:40:02,每天早上8點40分發放號碼牌發售口罩，當天領取。
5917083272,吉富康藥局,臺中市北屯區大連路三段９９號１樓,120.6935,24.17494,(04)22473057,羅氏家用新冠病毒抗原自我檢測套組,28,2022/05/11 10:40:02,營業時間早上9點至晚上9點，快篩早上9點開賣，中午12:30至14:00午休及清消，周日公休
5917083334,瑞東大藥局,臺中市北屯區東山路一段２４６之３號,120.7179,24.17542,(04)24373799,羅氏家用新冠病毒抗原自我檢測套組,62,2022/05/11 10:40:02,快篩銷售時間:週一~週六早上9:30
5917083343,豋盛藥局,臺中市北屯區北平路三段１０７號,120.6827,24.17117,(04)22373863,羅氏家用新冠病毒抗原自我檢測套組,43,2022/05/11 10:40:02,實名制快篩販賣時間:5／11日上午10點開賣
5921010205,文成藥局,臺南市東區大學里東寧路４３號之１,120.2212,22.99217,(06)2340860,羅氏家用新冠病毒抗原自我檢測套組,38,2022/05/11 10:40:02,早上10:30至晚上10點     中午2點至3點休息
5921012049,小太陽藥局,臺南市東區東光里東平路１３號,120.2336,22.9947,(06)2099858,羅氏家用新冠病毒抗原自我檢測套組,32,2022/05/11 10:40:02,藥局營業時間為星期一至星期六10:00~21:30，星期天休息  實名制快篩試劑10:00開始販售，售完為止
5921040169,信心藥局,臺南市北區延平里公園路５４６號,120.2101,23.00693,(06)2822209,羅氏家用新冠病毒抗原自我檢測套組,2,2022/05/11 10:40:02,今快篩已售完9:00-20:00 . 週六9:00-12:00.  周日休息
5921040221,好鄰居藥局,臺南市北區西華里公園路１２８號２樓７室,120.2076,22.99889,(06)2219015,羅氏家用新冠病毒抗原自我檢測套組,3,2022/05/11 10:40:02,固定星期一至星期六8:30開始販賣快篩，星期天早上9:00開始販賣快篩
5921040301,永生藥局,臺南市北區六甲里公園路４８１號,120.2079,23.00898,(06)2813681,羅氏家用新冠病毒抗原自我檢測套組,4,2022/05/11 10:40:02,已全數售完／即日至15日暫停販售
5921050076,千代藥局,臺南市中西區民生路一段６０號１樓,120.2034,22.99337,(06)2256895,羅氏家用新冠病毒抗原自我檢測套組,66,2022/05/11 10:40:02,快篩試劑實名制:星期1~6下午一點至三點販售（星期日當日貨到開始販售）
5921050174,春天藥局,臺南市中西區民族路２段２７４號,120.2008,22.99758,(06)2221562,羅氏家用新冠病毒抗原自我檢測套組,5,2022/05/11 10:40:02,上午10 :00開始，售完為止，周日停售
5921050423,吉仁大藥局,臺南市中西區白金里民權路２段８６號,120.2045,22.99468,(06)2263777,羅氏家用新冠病毒抗原自我檢測套組,3,2022/05/11 10:40:02,周ㄧ15:30~16:30到周日09:30~10:30開始依序購買快篩，售完為止。
5921051582,丞功藥局,臺南市中西區成功路３１號,120.2095,22.99747,(06)2287641,羅氏家用新冠病毒抗原自我檢測套組,2,2022/05/11 10:40:02,星期一-六08:00-售完
5921060198,平光藥局,臺南市安南區安中路１段８２２號,120.1947,23.0437,(06)2459641,羅氏家用新冠病毒抗原自我檢測套組,60,2022/05/11 10:40:02,快篩 早上 10:30 開店起 販售 周日不賣快篩
5921071226,康活藥局,臺南市安平區健康三街１８６號,120.1686,22.98883,(06)2936483,羅氏家用新冠病毒抗原自我檢測套組,8,2022/05/11 10:40:02,快篩晚上18:00開賣.
5921071244,全家藥局,臺南市安平區華平路１７０號,120.1749,22.98882,(06)2939000,羅氏家用新冠病毒抗原自我檢測套組,71,2022/05/11 10:40:02,下午2:30 開賣快篩  到貨時間不確定  一進一出  請準備剛好金額 謝謝  星期日不營業
5922010263,秉榮藥局,嘉義市東區東仁里中山路１８９號,120.4553,23.48162,(05)2224320,羅氏家用新冠病毒抗原自我檢測套組,33,2022/05/11 10:40:02,周一至周日販售實名制快篩，5／9（一）起早上11:00開始販售
5922010361,壽生堂藥局,嘉義市東區府路里延平街２８０號,120.4502,23.47683,(05)2225058,羅氏家用新冠病毒抗原自我檢測套組,44,2022/05/11 10:40:02,周一至周日上午09:00起，至20:00或售鑿為止。
5922010718,安泰藥局,嘉義市東區民族路１８１號,120.4566,23.47649,(05)2294202,羅氏家用新冠病毒抗原自我檢測套組,14,2022/05/11 10:40:02,每天早上九點開始販售口罩! 售完為止
5922011966,源豪藥局,嘉義市東區光華路８２號,120.4529,23.4782,(05)2169696,羅氏家用新冠病毒抗原自我檢測套組,39,2022/05/11 10:40:02,周一至周六，售鑿為止。周日休
5922012285,聖安藥局,嘉義市東區仁武里民權路３６５號１樓,120.4506,23.48235,(05)2222941,羅氏家用新冠病毒抗原自我檢測套組,10,2022/05/11 10:40:02,每日8:30開始發放，每週四休息.
5922012712,誠泰藥師藥局,嘉義市東區安寮里興業東路５６號１樓,120.4555,23.46932,(05)2168905,羅氏家用新冠病毒抗原自我檢測套組,23,2022/05/11 10:40:02,快篩實名制早上8點開始販售
5922012721,仁藥集藥局,嘉義市東區太平里新生路５３９號,120.4582,23.49167,(05)2755533,羅氏家用新冠病毒抗原自我檢測套組,78,2022/05/11 10:40:02,8:30-11:00收健保卡，14:00發快篩
5922012856,民族弘安藥局,嘉義市東區朝陽里民族路１６５號,120.4571,23.47653,(05)2240101,羅氏家用新冠病毒抗原自我檢測套組,16,2022/05/11 10:40:02,周一至周日快篩到貨開始販售快篩，至售完為止.
5922012874,德風藥局,嘉義市東區仁義里台林街１０８－４號１樓,120.4547,23.49514,(05)2716233,羅氏家用新冠病毒抗原自我檢測套組,1,2022/05/11 10:40:02,週一至六 上午8:30開賣 周日下午5:30開賣
5922013059,杏光藥局,嘉義市東區保健街１４７號附４,120.4492,23.50036,(05)2745642,羅氏家用新冠病毒抗原自我檢測套組,30,2022/05/11 10:40:02,週一至週五 下午1:00~5:00 現場排隊，無號碼牌（ （六日及國定假日停售）
5922013102,後庄藥局,嘉義市東區吳鳳南路６４９號,120.4594,23.45511,(05)2391233,羅氏家用新冠病毒抗原自我檢測套組,78,2022/05/11 10:40:02,快篩實名制，每天16:00開始販售，售完為止。
5922013111,富善藥局,嘉義市東區新生路２３４號,120.4609,23.48419,(05)2759559,羅氏家用新冠病毒抗原自我檢測套組,65,2022/05/11 10:40:02,5／13、14休假，實名制快篩早上9:30-12:00 號碼牌領取
5922013120,大雅藥局,嘉義市東區大雅路二段４８７號,120.4714,23.47751,(05)2778237,羅氏家用新冠病毒抗原自我檢測套組,30,2022/05/11 10:40:02,有提前收到快篩就9:30營業就發 沒提前收到就依當天到貨時間發
5922013157,軍輝健康幸福藥局,嘉義市東區軍輝路１９２號,120.46,23.45571,(05)2395789,羅氏家用新冠病毒抗原自我檢測套組,52,2022/05/11 10:40:02,無
5922013175,森活中西藥局,嘉義市東區吳鳳北路２０８號一樓,120.4533,23.47931,(05)2288518,羅氏家用新冠病毒抗原自我檢測套組,63,2022/05/11 10:40:02,8:30開始發放號碼牌，12:00~14:00領取快篩
5922020303,新宏祥藥局,嘉義市西區湖內里民生南路５７４號,120.4427,23.45504,(05)2355588,羅氏家用新冠病毒抗原自我檢測套組,2,2022/05/11 10:40:02,羅氏家用快篩:每日早上8點開始販售.售完為止
5922020358,泰春藥局,嘉義市西區學圃里民生北路６６號,120.4468,23.47543,(05)2224118,羅氏家用新冠病毒抗原自我檢測套組,30,2022/05/11 10:40:02,快篩試劑販售時間：早上9點至晚上9點
5922020456,啄木鳥藥局,嘉義市西區國華里文化路２５３號,120.4488,23.48298,(05)2226497,羅氏家用新冠病毒抗原自我檢測套組,4,2022/05/11 10:40:02,實名制快篩8:15開始販售.售完為止
5922020527,友愛藥局,嘉義市西區福全里友愛路１７０號,120.4343,23.48026,(05)2330599,羅氏家用新冠病毒抗原自我檢測套組,20,2022/05/11 10:40:02,快篩實名制早上10點開始販售
5922020563,信康藥局,嘉義市西區翠岱里仁愛路２２６號,120.443,23.46984,(05)2161680,羅氏家用新冠病毒抗原自我檢測套組,49,2022/05/11 10:40:02,快篩星期一至星期五早上10:00開賣 星期六下午14:00開賣
5922020670,興嘉藥局,嘉義市西區興業西路３７０號,120.4373,23.46793,(05)2841812,羅氏家用新冠病毒抗原自我檢測套組,1,2022/05/11 10:40:02,固定週一至週日8:15開放領取口罩，至售完為止
5922020769,安麗藥師藥局,嘉義市西區車店里廣州街２０６號,120.4302,23.46519,(05)2352395,羅氏家用新冠病毒抗原自我檢測套組,15,2022/05/11 10:40:02,快篩販售時間上午9點開始，現場排隊，售完為止。六、日休息。
5922020796,佑安藥局,嘉義市西區民權路４２３號１樓,120.4469,23.48185,(05)2278298,羅氏家用新冠病毒抗原自我檢測套組,1,2022/05/11 10:40:02,快篩上午九點開始販售
5922020812,海鴻藥師藥局,嘉義市西區民生南路５５２號,120.4433,23.45878,(05)2837758,羅氏家用新冠病毒抗原自我檢測套組,34,2022/05/11 10:40:02,固定每日上午8 : 00 直接排隊發放
5922020858,大統藥局,嘉義市西區慶安里北興街１３６號,120.4421,23.48389,(05)2330230,羅氏家用新冠病毒抗原自我檢測套組,51,2022/05/11 10:40:02,5月11日預約登記已滿.有預約的民眾請於上午9:00-11:00領取
5922020867,庭一藥局,嘉義市西區文化路４４２號,120.4468,23.48856,(05)2325900,羅氏家用新冠病毒抗原自我檢測套組,19,2022/05/11 10:40:02,營業時間:周一至周六，0845-2045，開店即開始販售
5922020938,仁愛弘安藥局,嘉義市西區仁愛路３９３號１樓,120.442,23.47654,(05)2239000,羅氏家用新冠病毒抗原自我檢測套組,11,2022/05/11 10:40:02,早上八點開賣，賣完為止
5922020956,國同藥局,嘉義市西區八德路１０１號１樓,120.4305,23.48528,(05)2327336,羅氏家用新冠病毒抗原自我檢測套組,2,2022/05/11 10:40:02,快篩早上9點販售.售完為止
5922020992,昭安藥局,嘉義市西區民生南路４７９號１樓,120.4437,23.45821,(05)2842240,羅氏家用新冠病毒抗原自我檢測套組,39,2022/05/11 10:40:02,無
5922021024,理維藥局,嘉義市西區民生南路４０９號１樓,120.4436,23.45979,(05)2831110,羅氏家用新冠病毒抗原自我檢測套組,45,2022/05/11 10:40:02,週一至週日上午10:00販售。（週一至週六有保留25份於下午5:00販售，週日無）
5922028596,一安藥局,嘉義市西區福民里興業西路３１１號,120.4387,23.4677,(05)2859275,羅氏家用新冠病毒抗原自我檢測套組,34,2022/05/11 10:40:02,周一至周日早上9點至晚上10點半依發放號碼排依序售完
5922028783,勝成藥局,嘉義市西區南京路１２６巷１９號,120.4406,23.45687,(05)2360247,羅氏家用新冠病毒抗原自我檢測套組,40,2022/05/11 10:40:02,4月28日起9:30至12:00販賣快篩試劑，請於現場排隊，售完為止
5922028863,益生堂藥局,嘉義市西區杭州三街３０號,120.4446,23.46678,(05)2861415,羅氏家用新冠病毒抗原自我檢測套組,63,2022/05/11 10:40:02,平日（W一~W六）10:30
5922028881,中興中西藥局,嘉義市西區垂楊路５０１號,120.4422,23.47297,(05)2353096,羅氏家用新冠病毒抗原自我檢測套組,9,2022/05/11 10:40:02,周一至周五10點開始，周末下午5點開始，並依序販售快篩售完為止
5922028925,健安藥局,嘉義市西區民族路６２６號,120.4452,23.4757,(05)2281219,羅氏家用新冠病毒抗原自我檢測套組,2,2022/05/11 10:40:02,口罩:星期一至星期六9點-12點，15點-21點
592202A054,萬泰藥師藥局,嘉義市西區民族路４９４號,120.449,23.47605,(05)2168605,羅氏家用新冠病毒抗原自我檢測套組,34,2022/05/11 10:40:02,快篩實名制8:00開始販售
592202A349,力健藥局,嘉義市西區文化路５９１號,120.4443,23.49355,(05)2323217,羅氏家用新冠病毒抗原自我檢測套組,11,2022/05/11 10:40:02,營業時間為早上8:00至中午13:00，下午2:30至晚上9:30，口罩發放從早上8:30至售完為止
592202A358,國豐藥局,嘉義市西區北興街２４５－２號１樓,120.4386,23.4854,(05)2318473,羅氏家用新冠病毒抗原自我檢測套組,22,2022/05/11 10:40:02,週一至週六上午10:00開始販售，無號碼牌（週六下午及例假日停售）
5931010315,優良藥局,新北市板橋區莊敬路９３號,121.4727,25.02628,(02)22550251,羅氏家用新冠病毒抗原自我檢測套組,1,2022/05/11 10:40:02,無
5931010342,宏達大藥局,新北市板橋區莒光路１７號,121.47,25.02478,(02)22572345,羅氏家用新冠病毒抗原自我檢測套組,2,2022/05/11 10:40:02,快篩 晚上20:00開始販售! 不要打電話來 問題這麼多就到現場 也不給你問
5931010646,人民藥局,新北市板橋區仁愛路５９號,121.4604,24.99965,(02)89533956,羅氏家用新冠病毒抗原自我檢測套組,10,2022/05/11 10:40:02,1.依政府規定當日配送，當日販售。2.因每日郵局配送時間不一定，詳看現場公告。.
5931010726,賜您康大藥局,新北市板橋區國泰街５０號,121.4679,25.00668,(02)29513166,羅氏家用新冠病毒抗原自我檢測套組,18,2022/05/11 10:40:02,快篩配發時間，每天早上:10:00~11:00
5931011045,進發大藥局,新北市板橋區民治街１０１號,121.479,25.0315,(02)22528361,羅氏家用新冠病毒抗原自我檢測套組,2,2022/05/11 10:40:02,快篩08:00先收卡，排隊請不要擋到攤販，中午就可以領，開放80歲長者前天寄卡，謝謝。
5931011223,民侑藥局,新北市板橋區大觀路２段３７巷３１０號,121.45,25.00221,(02)22755938,羅氏家用新冠病毒抗原自我檢測套組,10,2022/05/11 10:40:02,快篩號碼牌發放時間為早上9點。12點前須拿號碼牌完成購買。
5931011241,利安藥局,新北市板橋區南雅東路１０８號,121.4535,25.00815,(02)29696295,羅氏家用新冠病毒抗原自我檢測套組,1,2022/05/11 10:40:02,無
5931011330,戴安藥局,新北市板橋區溪北路５４號,121.4276,24.98982,(02)26818663,羅氏家用新冠病毒抗原自我檢測套組,1,2022/05/11 10:40:02,無
5931011545,眾安大藥局,新北市板橋區長安街３３１巷７８號,121.4724,25.01305,(02)29550742,羅氏家用新冠病毒抗原自我檢測套組,20,2022/05/11 10:40:02,快篩販賣時間為週一至週六早上九點起.賣完為止
5931012051,全曜藥局,新北市板橋區民權路２６０巷６２號,121.4603,25.01495,(02)29682681,羅氏家用新冠病毒抗原自我檢測套組,1,2022/05/11 10:40:02,實名制快篩下午七點發放，依現場數量為準（星期日休）
5931012131,中山大藥局,新北市板橋區中山路１段１０７號,121.4618,25.01025,(02)29575029,羅氏家用新冠病毒抗原自我檢測套組,8,2022/05/11 10:40:02,口罩配發時間.星期一~六早上9點開始.星期日下午1點開始
5931013389,谷全藥局,新北市板橋區裕民街４９號,121.4613,25.02851,(02)22561856,羅氏家用新冠病毒抗原自我檢測套組,41,2022/05/11 10:40:02,無
5931013692,合泰藥局,新北市板橋區忠孝路１９號１樓,121.4604,25.002,(02)29572437,羅氏家用新冠病毒抗原自我檢測套組,18,2022/05/11 10:40:02,無
5931013781,佳和藥局,新北市板橋區文化路１段３８７巷５號１樓,121.4667,25.02193,(02)22589598,羅氏家用新冠病毒抗原自我檢測套組,38,2022/05/11 10:40:02,快篩週一 至五均分早上8:30 和下午3:00販售- 週六早上售完為止. 週日休
5931014046,欣安藥局,新北市板橋區懷德街１０９號１樓,121.4786,25.03147,(02)82570296,羅氏家用新冠病毒抗原自我檢測套組,6,2022/05/11 10:40:02,目前快篩送貨時間不定，發放時間依現場公告為主。
5931014420,萬泰藥局,新北市板橋區信義路２２１之１號,121.4597,24.99145,(02)89645570,羅氏家用新冠病毒抗原自我檢測套組,78,2022/05/11 10:40:02,無
5931014439,旭全藥局,新北市板橋區金門街３３１號,121.4294,24.98582,(02)26860526,羅氏家用新冠病毒抗原自我檢測套組,11,2022/05/11 10:40:02,星期1~6上午9:30~10:30 星期天上午9:30~下午5:00
5931014537,友虹藥師藥局,新北市板橋區國光路１６號,121.457,25.01739,(02)29691181,羅氏家用新冠病毒抗原自我檢測套組,47,2022/05/11 10:40:02,早上十點開始販賣到十一點
5931014555,廣益藥局,新北市板橋區自由路２１號,121.4654,25.02296,(02)22545726,羅氏家用新冠病毒抗原自我檢測套組,156,2022/05/11 10:40:02,下午3點50發號碼牌，4點開始賣
5931014831,詠濟藥局,新北市板橋區幸福路２３號,121.4618,25.02023,(02)22536951,羅氏家用新冠病毒抗原自我檢測套組,31,2022/05/11 10:40:02,無
5931015329,杏澤藥局,新北市板橋區國光路５５號,121.4584,25.01799,(02)29657959,羅氏家用新冠病毒抗原自我檢測套組,4,2022/05/11 10:40:02,口罩發放時間:星期一到星期六每天早上10；00-12；00
5931015687,正康健保藥局,新北市板橋區大觀路２段６５號１樓,121.4467,25.00246,(02)22756681,羅氏家用新冠病毒抗原自我檢測套組,7,2022/05/11 10:40:02,下午13:30依現場順序開始販售快篩，快篩配送絮亂庫存不準!!
5931015874,家碩藥局,新北市板橋區金門街３００號,121.4289,24.98539,(02)26755715,羅氏家用新冠病毒抗原自我檢測套組,15,2022/05/11 10:40:02,快篩9點發號碼牌和收健保卡.中午12點至下午六點憑號碼牌領快篩和健保卡.
5931016504,仁泰藥局,新北市板橋區四川路２段３３號１樓,121.4543,24.99537,(02)89672133,羅氏家用新冠病毒抗原自我檢測套組,33,2022/05/11 10:40:02,無
5931016611,民川藥局,新北市板橋區四川路１段９７號１樓,121.4598,25.00544,(02)29520090,羅氏家用新冠病毒抗原自我檢測套組,40,2022/05/11 10:40:02,星期一~星期六（快篩上午9:00販售38份下午3:00販售40份）
5931016719,王林藥局,新北市板橋區忠孝路２４巷１５號（１樓）,121.4602,25.00135,(02)29636775,羅氏家用新冠病毒抗原自我檢測套組,25,2022/05/11 10:40:02,表列調劑時間才有販售快篩試劑，週六及國定假日只有早上  ， 下午及晚上休息
5931016808,正安健保藥局,新北市板橋區民族路２２４號（１樓）,121.4687,25.00733,(02)29526813,羅氏家用新冠病毒抗原自我檢測套組,76,2022/05/11 10:40:02,17時依現場順序開始販售.週六12點.電腦配送庫存不準..以現場數量為準
5931017216,康鑫藥局,新北市板橋區文化路１段２０６號１樓,121.4664,25.02012,(02)82585135,羅氏家用新冠病毒抗原自我檢測套組,55,2022/05/11 10:40:02,實名制快篩販售：周一至周五 下午五點整 開始販售
5931017261,正康新埔藥局,新北市板橋區介壽街４號（１樓）,121.467,25.02025,(02)82595882,羅氏家用新冠病毒抗原自我檢測套組,77,2022/05/11 10:40:02,下午2:30依現場順序開始販售快篩。週日無快篩!
5931017494,佑全板橋四川藥局,新北市板橋區四川路１段４７１號１樓,121.4573,24.99744,(02)29559598,羅氏家用新冠病毒抗原自我檢測套組,48,2022/05/11 10:40:02,快篩販售時間：周一到周五1500開始，週六日公休，現場排隊
5931017547,好爸爸藥局,新北市板橋區民治街１０７號１樓,121.4788,25.03138,(02)22559955,羅氏家用新冠病毒抗原自我檢測套組,1,2022/05/11 10:40:02,無
5931017654,葆康藥局,新北市板橋區四川路２段２４５巷３號（１樓）,121.4507,24.99346,(02)89678373,羅氏家用新冠病毒抗原自我檢測套組,3,2022/05/11 10:40:02,下午四點開始販售實名制快篩，不用抽號碼牌，直接排隊購買。
5931017690,杏文藥局,新北市板橋區實踐路１００號（１樓）,121.464,25.00484,(02)29555699,羅氏家用新冠病毒抗原自我檢測套組,32,2022/05/11 10:40:02,無
5931017752,泓泰藥局,新北市板橋區館前西路１４０號２樓,121.4563,25.0081,(02)29686559,羅氏家用新冠病毒抗原自我檢測套組,65,2022/05/11 10:40:02,無
5931017869,躍獅國慶藥局,新北市板橋區國慶路１７９號（１樓）,121.4626,24.99636,(02)29641548,羅氏家用新冠病毒抗原自我檢測套組,78,2022/05/11 10:40:02,快篩實名制，每天14:00開始販售，售完為止
5931017967,曉品中西藥局,新北市板橋區貴興路２４號（１樓）,121.4575,25.00389,(02)29586990,羅氏家用新冠病毒抗原自我檢測套組,35,2022/05/11 10:40:02,無
5931018099,廣品藥局,新北市板橋區漢生西路８２號（１樓）,121.4628,25.01934,(02)22576880,羅氏家用新冠病毒抗原自我檢測套組,1,2022/05/11 10:40:02,實名制快篩 周一~周五下午16；00發放 週六.日 早上09；30發放 請勿打電話詢問 感謝配合
5931018106,力安藥局,新北市板橋區莒光路１９６巷８號（１樓）,121.4738,25.02255,(02)22503349,羅氏家用新冠病毒抗原自我檢測套組,4,2022/05/11 10:40:02,快篩實名制，早上9點依現場順序開始販售快篩，售完為止。
5931020400,新迪化中西藥局,新北市三重區三陽路２７號１樓,121.4855,25.05893,(02)29884755,羅氏家用新冠病毒抗原自我檢測套組,2,2022/05/11 10:40:02,快篩實名制中午12點開始販售，發號碼牌
5931020473,天佑藥局,新北市三重區大同北路８號,121.4954,25.06207,(02)29857456,羅氏家用新冠病毒抗原自我檢測套組,66,2022/05/11 10:40:02,無
5931020562,力健藥局,新北市三重區自強路３段３８號,121.4868,25.07266,(02)29856255,羅氏家用新冠病毒抗原自我檢測套組,16,2022/05/11 10:40:02,無
5931020919,東裕藥局,新北市三重區重新路４段１２２號,121.487,25.05652,(02)29773255,羅氏家用新冠病毒抗原自我檢測套組,45,2022/05/11 10:40:02,實名制快篩販售時間:AM9:00開始現場排隊，售完為止.（星期日休息）
5931021014,鴻成藥局,新北市三重區同安街１１３號,121.4943,25.0564,(02)29727025,羅氏家用新冠病毒抗原自我檢測套組,4,2022/05/11 10:40:02,無
5931021167,禮隆藥局,新北市三重區自強路４段６４號,121.4901,25.07853,(02)29894735,羅氏家用新冠病毒抗原自我檢測套組,25,2022/05/11 10:40:02,快篩試劑早上九點開始發號碼牌，發完為止
5931021452,家福藥局,新北市三重區仁愛街６８２號,121.4817,25.08026,(02)22877692,羅氏家用新冠病毒抗原自我檢測套組,2,2022/05/11 10:40:02,實名制快篩販售時間:AM9:00，售完為止，星期天公休。請自備零錢
5931021532,龍門藥局,新北市三重區龍門路１８９號,121.4996,25.07322,(02)29756141,羅氏家用新冠病毒抗原自我檢測套組,78,2022/05/11 10:40:02,實名制快篩販售時間~星期一至星期六下午3點
5931023018,重德藥局,新北市三重區正義北路２４６號２樓,121.496,25.06827,(02)89816164,羅氏家用新冠病毒抗原自我檢測套組,4,2022/05/11 10:40:02,無
5931023349,迪化藥局,新北市三重區中華路７７號,121.4836,25.06267,(02)29834445,羅氏家用新冠病毒抗原自我檢測套組,113,2022/05/11 10:40:02,實名制快篩每日早上九點發牌號／週日食藥署暫停供應快篩
5931023447,安泰藥局,新北市三重區正義北路３００－３號２樓,121.4953,25.06978,(02)89815379,羅氏家用新冠病毒抗原自我檢測套組,82,2022/05/11 10:40:02,5／2只有早上8:30--12:00營業下午.及晚上休息
5931024097,義榮藥局,新北市三重區三和路２段１４２號１樓,121.4995,25.06825,(02)29727598,羅氏家用新冠病毒抗原自我檢測套組,1,2022/05/11 10:40:02,快篩早上09:10發放10:00發完結束 每周日公休停止發放
5931024355,天賜藥局,新北市三重區自強路１段８５號１樓,121.4961,25.06658,(02)29856852,羅氏家用新冠病毒抗原自我檢測套組,22,2022/05/11 10:40:02,每周日固定公休
5931024426,甜心健康生活藥局,新北市三重區福祉里集美街４５號１樓,121.488,25.05542,(02)29762223,羅氏家用新冠病毒抗原自我檢測套組,53,2022/05/11 10:40:02,無
5931024588,陽光藥師藥局,新北市三重區三和路２段１８２號１樓,121.4987,25.06886,(02)29788120,羅氏家用新冠病毒抗原自我檢測套組,100,2022/05/11 10:40:02,無
5931024677,博愛藥局,新北市三重區三民街２２０號１樓,121.4803,25.06712,(02)29711606,羅氏家用新冠病毒抗原自我檢測套組,78,2022/05/11 10:40:02,快篩實名制，如有貨都將於下午2點開始發放，不接受電話只能現場排隊領取，謝謝
5931024962,建祥三和藥局,新北市三重區三和路２段１６０號１樓,121.4992,25.06853,(02)29703379,羅氏家用新冠病毒抗原自我檢測套組,34,2022/05/11 10:40:02,實名制快篩10:00發放號碼牌
5931025398,昌誠藥局,新北市三重區三和路４段１６１號１樓,121.4835,25.0785,(02)22876338,羅氏家用新冠病毒抗原自我檢測套組,5,2022/05/11 10:40:02,5／2 （休診）
5931025567,閎安藥局,新北市三重區重新路２段８５號１樓、２樓,121.4962,25.06181,(02)29881968,羅氏家用新冠病毒抗原自我檢測套組,1,2022/05/11 10:40:02,快篩代售時間:每日14:00發號碼牌（以在場者為主），15:00發快篩，當日領取至21:00
5931025647,幸康藥局,新北市三重區正義北路２０５號２樓,121.4962,25.0684,(02)29816105,羅氏家用新冠病毒抗原自我檢測套組,75,2022/05/11 10:40:02,國定假日，如元旦，端午，中秋不執行調劑業務。政府快篩實名制於週一~週六的14:30開始販售。
5931025781,芯慈藥局,新北市三重區永安北路２段１０５號１樓,121.4831,25.08392,(02)28570670,羅氏家用新冠病毒抗原自我檢測套組,21,2022/05/11 10:40:02,國定假日有提供藥劑服務
5931026055,芮櫟溪尾大藥局,新北市三重區仁愛街５１６號１樓,121.4871,25.08201,(02)22809009,羅氏家用新冠病毒抗原自我檢測套組,30,2022/05/11 10:40:02,周一到周日 10:30發快篩  ! 疫情分流上班下午休息 晚上18:30分營業
5931026082,大有藥局,新北市三重區中正北路２１３號１、２樓及２１５號１、２樓,121.4763,25.07013,(02)29885771,羅氏家用新冠病毒抗原自我檢測套組,78,2022/05/11 10:40:02,快篩實名制，每天16:00開始販售，售完為止。
5931032759,友辰藥局,新北市永和區中正路３８０號１樓,121.5177,25.00123,(02)29267131,羅氏家用新冠病毒抗原自我檢測套組,3,2022/05/11 10:40:02,無
5931032811,華特健康藥局,新北市永和區永貞路３６２號１樓,121.5102,25.00667,(02)29264391,羅氏家用新冠病毒抗原自我檢測套組,5,2022/05/11 10:40:02,快篩販賣時間13:00-15:00
5931032955,博輝藥局,新北市永和區中興街６０號１樓,121.5171,25.01162,(02)89211766,羅氏家用新冠病毒抗原自我檢測套組,6,2022/05/11 10:40:02,星期日提供急診服務
5931033345,御生藥局,新北市永和區中山路１段２７９號１樓,121.5071,25.00706,(02)29235658,羅氏家用新冠病毒抗原自我檢測套組,3,2022/05/11 10:40:02,販賣快篩試劑時間  週一~週五  早上九點
5931033461,常安中西藥局,新北市永和區保平路２６號１樓,121.5122,25.00749,(02)29283530,羅氏家用新冠病毒抗原自我檢測套組,10,2022/05/11 10:40:02,每日下午三點開始實名制快篩
5931033792,明慧藥師藥局,新北市永和區仁愛路２９５號１樓,121.5053,25.00917,(02)29297118,羅氏家用新冠病毒抗原自我檢測套組,9,2022/05/11 10:40:02,早上11:30營業
5931033925,康和藥局,新北市永和區中和路５８９號１樓,121.5122,25.00407,(02)22310300,羅氏家用新冠病毒抗原自我檢測套組,11,2022/05/11 10:40:02,實名制快篩下午1點開賣（現場排隊售完為止），星期日無販售
5931034119,仁愛陽光藥局,新北市永和區仁愛路１４３號１樓,121.5114,25.01293,(02)89213691,羅氏家用新冠病毒抗原自我檢測套組,3,2022/05/11 10:40:02,快篩代售時段14:00，售完為止...
5931034146,亮點藥局,新北市永和區竹林路７１號１樓,121.5186,25.01355,(02)89253895,羅氏家用新冠病毒抗原自我檢測套組,42,2022/05/11 10:40:02,快篩發放時段 下午16:30-18:00
5931040019,大榮藥局,新北市中和區中山路２段１２７號,121.5026,25.00337,(02)22497965,羅氏家用新冠病毒抗原自我檢測套組,12,2022/05/11 10:40:02,實名制快篩早上9:30現場排隊販售
5931040617,田邊藥局,新北市中和區泰和街４３號１樓,121.4991,24.99942,(02)22407725,羅氏家用新冠病毒抗原自我檢測套組,78,2022/05/11 10:40:02,W1~W6 下午1點發售快篩 （5／1 晚上7點開始發售快篩）
5931040680,博健藥局,新北市中和區忠孝街３７巷４號,121.5112,24.98368,(02)29402107,羅氏家用新冠病毒抗原自我檢測套組,9,2022/05/11 10:40:02,無
5931040840,千大藥局,新北市中和區立人街１３號１樓,121.5216,24.99394,(02)29441567,羅氏家用新冠病毒抗原自我檢測套組,12,2022/05/11 10:40:02,無
5931042371,真成大藥局,新北市中和區光華街３８號,121.5048,25.00389,(02)22447008,羅氏家用新冠病毒抗原自我檢測套組,78,2022/05/11 10:40:02,實名快篩周一至周六下午1:30發放號碼牌 周日早上9:30點~12點前領完 週日無販售
5931042853,正陽藥師藥局,新北市中和區連城路３５４號１樓,121.4822,24.99557,(02)82287336,羅氏家用新冠病毒抗原自我檢測套組,23,2022/05/11 10:40:02,周一至周六早上9:00開始販售實名制快篩試劑，售完為止
5931043234,康荃優生保健藥局,新北市中和區福祥路６６號１樓,121.4994,25.00494,(02)22486532,羅氏家用新冠病毒抗原自我檢測套組,8,2022/05/11 10:40:02,無
5931043430,慶華藥師藥局,新北市中和區華新街９０號１樓,121.5085,24.9832,(02)29420666,羅氏家用新冠病毒抗原自我檢測套組,53,2022/05/11 10:40:02,無
5931043690,捷勝藥師藥局,新北市中和區華順街１２２號〈１樓〉,121.4651,24.99646,(02)29646225,羅氏家用新冠病毒抗原自我檢測套組,43,2022/05/11 10:40:02,1-6賣快篩.貨到就賣.無法定時（週日無販售）
5931043798,永成藥局,新北市中和區景平路１５６號１樓,121.5176,24.99222,(02)29407619,羅氏家用新冠病毒抗原自我檢測套組,78,2022/05/11 10:40:02,實名制快篩，下午三點領取號碼並開始販售（每日78份）
5931043921,良安藥局,新北市中和區連城路４７７巷１號１樓,121.4833,24.99555,(02)22225798,羅氏家用新冠病毒抗原自我檢測套組,78,2022/05/11 10:40:02,週六日不開店，實名制快篩，晚上9:00開始販售
5931044017,幸福連鎖藥局,新北市中和區忠孝街１２２號１樓,121.5122,24.98581,(02)29410771,羅氏家用新冠病毒抗原自我檢測套組,10,2022/05/11 10:40:02,無
5931044419,喬登藥局,新北市中和區景平路６９７號１樓,121.4965,25.00337,(02)22470273,羅氏家用新冠病毒抗原自我檢測套組,78,2022/05/11 10:40:02,無
5931044704,惠民藥局,新北市中和區中興街１５３號１樓,121.5001,24.99102,(02)22475303,羅氏家用新冠病毒抗原自我檢測套組,4,2022/05/11 10:40:02,快篩試劑於8:30發放號碼牌，並同時開始領取。
5931044786,坤暉藥局,新北市中和區中山路３段９４號２樓,121.4774,25.00583,(02)82217939,羅氏家用新冠病毒抗原自我檢測套組,1,2022/05/11 10:40:02,口罩發售時間早上9:00到11:00
5931044820,禾心藥局,新北市中和區秀朗路３段６４號１樓,121.5242,24.99482,(02)86688922,羅氏家用新冠病毒抗原自我檢測套組,17,2022/05/11 10:40:02,實名制快篩週一至週六9:00販售，週日不販售實名制快篩
5931044955,安騏生活藥局,新北市中和區南華路１５號１樓,121.5024,24.99567,(02)22445130,羅氏家用新冠病毒抗原自我檢測套組,1,2022/05/11 10:40:02,快篩周一至周六下午2點直接販售
5931045210,廣來藥師藥局,新北市中和區員山路３９３號１樓,121.4811,25.00293,(02)32340393,羅氏家用新冠病毒抗原自我檢測套組,78,2022/05/11 10:40:02,代為販售實名制快篩，販售時間：每天上午11點到中午12點為止。
5931045327,景新藥局,新北市中和區景新街４２９號１樓,121.513,24.98908,(02)86686091,羅氏家用新冠病毒抗原自我檢測套組,6,2022/05/11 10:40:02,無
5931045345,芳碩藥局,新北市中和區連城路４７巷２號１樓,121.4982,25.00162,(02)82458816,羅氏家用新冠病毒抗原自我檢測套組,2,2022/05/11 10:40:02,販售時間星期一~星期六下午14:00-21:00 （星期日休息）
5931050131,再生藥局,新北市新店區北新路３段６５巷９號,121.5412,24.981,(02)29113781,羅氏家用新冠病毒抗原自我檢測套組,22,2022/05/11 10:40:02,5／7之後上午9點半販售實名制快篩試劑 請自備500元
5931050444,活元藥局,新北市新店區民族路４９號１樓,121.5403,24.97854,(02)29125526,羅氏家用新冠病毒抗原自我檢測套組,10,2022/05/11 10:40:02,快篩代售時間平日早上10:00開始   星期日休息
5931051852,康裕藥局,新北市新店區民權路８號,121.5426,24.98306,(02)29135479,羅氏家用新冠病毒抗原自我檢測套組,19,2022/05/11 10:40:02,無
5931052288,躍獅正新藥局,新北市新店區中正路５７之１號１樓,121.5443,24.96989,(02)89145930,羅氏家用新冠病毒抗原自我檢測套組,123,2022/05/11 10:40:02,星期一至六9:00為領取快篩號碼牌，20:00以前帶號碼牌來取快篩
5931052699,維顥藥局,新北市新店區中興路１段２７９號１樓,121.5451,24.9683,(02)29171986,羅氏家用新冠病毒抗原自我檢測套組,25,2022/05/11 10:40:02,無
5931052840,微笑生活藥局,新北市新店區建國路８５號１樓,121.5404,24.97657,(02)89113397,羅氏家用新冠病毒抗原自我檢測套組,47,2022/05/11 10:40:02,快篩於下午2點始賣，周日公休
5931053196,康心藥局,新北市新店區北新路３段１０４號１樓,121.5419,24.9812,(02)86655858,羅氏家用新冠病毒抗原自我檢測套組,78,2022/05/11 10:40:02,快篩販售：周一～週六15:00開始，周日無販售。以現場排隊為主，無發號碼牌，庫存有數量就是有貨
5931053285,北新212藥局,新北市新店區北新路３段２１２號（２樓）,121.5413,24.98429,(02)29183212,羅氏家用新冠病毒抗原自我檢測套組,19,2022/05/11 10:40:02,依照行一昌勳診所門診時間營業
5931060557,一安藥局,新北市新莊區立德里新泰路２６８號,121.446,25.04029,(02)29941618,羅氏家用新冠病毒抗原自我檢測套組,82,2022/05/11 10:40:02,實名制快篩發放時間為15:00  其他詳情請上FB查詢
5931060824,禮安藥師藥局,新北市新莊區自立街１０９號１樓,121.4555,25.0455,(02)29942891,羅氏家用新冠病毒抗原自我檢測套組,1,2022/05/11 10:40:02,無
5931067092,恩泰藥局,新北市新莊區民安西路２６５號－１,121.4262,25.01296,(02)22038680,羅氏家用新冠病毒抗原自我檢測套組,82,2022/05/11 10:40:02,無
5931068464,健安藥局,新北市新莊區光和里民安西路２０９號１樓,121.4261,25.0147,(02)22043765,羅氏家用新冠病毒抗原自我檢測套組,78,2022/05/11 10:40:02,無
5931068759,森活藥局,新北市新莊區民安路２２０－１號,121.426,25.02259,(02)22027927,羅氏家用新冠病毒抗原自我檢測套組,77,2022/05/11 10:40:02,實名快篩15點開賣
5931068866,大愛藥師藥局,新北市新莊區後港一路６９號１樓,121.4267,25.02666,(02)22042119,羅氏家用新冠病毒抗原自我檢測套組,2,2022/05/11 10:40:02,快篩代售時間自早上10點 現場排隊
593106A379,輔大美康藥局,新北市新莊區中正路５１０號之１，１樓,121.4341,25.03294,(02)29013056,羅氏家用新冠病毒抗原自我檢測套組,62,2022/05/11 10:40:02,實名制快篩9:20發號碼牌／9:30過卡+收費
593106A388,元大藥局,新北市新莊區富國路２０４號１、２樓,121.4249,25.02427,(02)22020082,羅氏家用新冠病毒抗原自我檢測套組,76,2022/05/11 10:40:02,無
593106A824,家禾藥局,新北市新莊區立信五街６號１樓,121.4445,25.05148,(02)29972121,羅氏家用新冠病毒抗原自我檢測套組,78,2022/05/11 10:40:02,若有配送會在12:00及18:00固定販售各39份，不提前販售，沒有發放號碼牌，請耐心等待。人手不足若無法接電話請見諒。
593106A833,欣國藥局,新北市新莊區富國路５７號１樓、２樓,121.4196,25.02625,(02)29080958,羅氏家用新冠病毒抗原自我檢測套組,8,2022/05/11 10:40:02,每天快篩劑發號碼牌AM09:30販賣AM09:30售完為止
593106A922,德翰藥局,新北市新莊區四維路１７１巷１、３號１樓,121.4226,25.0215,(02)22025576,羅氏家用新冠病毒抗原自我檢測套組,6,2022/05/11 10:40:02,無
593106B036,家嘉藥局,新北市新莊區自立街１０３號（１樓）,121.4553,25.04549,(02)89926488,羅氏家用新冠病毒抗原自我檢測套組,25,2022/05/11 10:40:02,今天號碼牌都已發放完畢
593106B081,平安藥局,新北市新莊區民安西路６０號２樓,121.4273,25.02037,(02)22082368,羅氏家用新冠病毒抗原自我檢測套組,3,2022/05/11 10:40:02,無
593106B214,微笑埔銓藥局,新北市新莊區中平路７７號（１樓、２樓）,121.4447,25.04507,(02)29901680,羅氏家用新冠病毒抗原自我檢測套組,2,2022/05/11 10:40:02,無
593106B241,善美藥局,新北市新莊區公園路８９號１樓,121.4546,25.04041,(02)29960979,羅氏家用新冠病毒抗原自我檢測套組,11,2022/05/11 10:40:02,無
5931070062,鴻真藥局,新北市樹林區保安街１段２０巷６號,121.4277,24.99363,(02)26828977,羅氏家用新冠病毒抗原自我檢測套組,9,2022/05/11 10:40:02,無
5931070080,耀鴻藥局,新北市樹林區中山路３段７６號,121.3936,24.97239,(02)26808989,羅氏家用新冠病毒抗原自我檢測套組,78,2022/05/11 10:40:02,每天都有發放口罩
5931071523,蔚海藥局,新北市樹林區鎮前街１７號１樓,121.4259,24.99263,(02)86754203,羅氏家用新冠病毒抗原自我檢測套組,1,2022/05/11 10:40:02,固定每日早上8點45分發放快篩， 發完為止
5931071916,立欣藥局,新北市樹林區三福街１６６號,121.4047,25.01619,(02)26764728,羅氏家用新冠病毒抗原自我檢測套組,1,2022/05/11 10:40:02,口罩代售時間 每日下午14:30 號碼牌發放時間14:20 現場排隊
5931072039,樹林藥師藥局,新北市樹林區鎮前街２４號１樓,121.426,24.99315,(02)26823030,羅氏家用新冠病毒抗原自我檢測套組,4,2022/05/11 10:40:02,無
5931072262,祐心藥局,新北市樹林區學府路３６２號１樓,121.3797,24.95028,(02)26803205,羅氏家用新冠病毒抗原自我檢測套組,11,2022/05/11 10:40:02,快篩每日8:30開賣，若未到貨則到貨後開始販賣，週日沒開
5931072468,樹林丁丁藥局,新北市樹林區中華路１７４號１樓,121.4208,24.9819,(02)86851518,羅氏家用新冠病毒抗原自我檢測套組,19,2022/05/11 10:40:02,無
5931081378,鶯歌宏達藥局,新北市鶯歌區國慶街１３８號１樓,121.3508,24.95347,(02)26709693,羅氏家用新冠病毒抗原自我檢測套組,1,2022/05/11 10:40:02,下午三點開始販售實名制快篩~不要打電話來問~藥師有其他工作要做
5931081494,康群藥局,新北市鶯歌區建國路２０２號１樓,121.3494,24.95357,(02)26796690,羅氏家用新冠病毒抗原自我檢測套組,2,2022/05/11 10:40:02,星期一到星期五上午九點開始發放*現場排隊
5931081510,鶯歌藥局,新北市鶯歌區鶯桃路２段１１號１樓,121.3258,24.97205,(02)86778778,羅氏家用新冠病毒抗原自我檢測套組,78,2022/05/11 10:40:02,快篩實名制，每天16:00開始販售，售完為止。
5931081529,正雅藥局,新北市鶯歌區建國路１７６號１樓,121.3497,24.95358,(02)26701128,羅氏家用新冠病毒抗原自我檢測套組,78,2022/05/11 10:40:02,無
5931091605,三峽文化藥局,新北市三峽區文化路２１２－２號,121.3685,24.93606,(02)26710825,羅氏家用新冠病毒抗原自我檢測套組,15,2022/05/11 10:40:02,12:00~14:00 17:00~18:00 休息時間
5931091696,祥祐藥局,新北市三峽區文化路１２５號１樓,121.3699,24.93598,(02)26738080,羅氏家用新冠病毒抗原自我檢測套組,4,2022/05/11 10:40:02,實名制快篩下午2點開始販售
5931091892,三峽藥局,新北市三峽區介壽路１段２７號１樓,121.3757,24.93321,(02)26738868,羅氏家用新冠病毒抗原自我檢測套組,1,2022/05/11 10:40:02,快篩實名制，每天16:00開始販售，售完為止。
5931092068,益銘藥師藥局,新北市三峽區大德路１８１號１樓,121.3753,24.94573,(02)26723662,羅氏家用新冠病毒抗原自我檢測套組,70,2022/05/11 10:40:02,無
5931100047,松和大藥局,新北市淡水區英專路９２號,121.4459,25.17167,(02)26203698,羅氏家用新冠病毒抗原自我檢測套組,76,2022/05/11 10:40:02,口罩代售:每週一~每週五10:30發放號碼牌
5931101464,伯聯藥局,新北市淡水區清水街９－１０號１樓,121.4444,25.17023,(02)26255847,羅氏家用新冠病毒抗原自我檢測套組,1,2022/05/11 10:40:02,快篩實名制星期一到六08:00開賣（如有到貨），星期日無販售
5931102103,四季寶健保藥局,新北市淡水區新市一路３段１１７－１號（含夾層）,121.4468,25.18314,(02)26283199,羅氏家用新冠病毒抗原自我檢測套組,1,2022/05/11 10:40:02,無
5931102176,淡水健康人生藥局,新北市淡水區清水街９－２號１樓,121.4447,25.17037,(02)26269679,羅氏家用新冠病毒抗原自我檢測套組,8,2022/05/11 10:40:02,快篩代售時間:週一至週日09:30，現場排隊購買，售完為止。（物流配送不及則例外，以門市公告為主）
5931102336,淡大郭藥局,新北市淡水區英專路３２號１樓,121.4456,25.17008,(02)26229966,羅氏家用新冠病毒抗原自我檢測套組,18,2022/05/11 10:40:02,如前日有收到快篩，隔日販售時間為上午10點。（以現場公告為主）
5931102425,日森人文藥局淡海店,新北市淡水區新市五路３段３８６號１樓,121.4388,25.19728,(02)26221313,羅氏家用新冠病毒抗原自我檢測套組,1,2022/05/11 10:40:02,無
5931102489,水源藥局,新北市淡水區水源街１段１３３號１樓,121.447,25.172,(02)26295233,羅氏家用新冠病毒抗原自我檢測套組,78,2022/05/11 10:40:02,快篩實名制，每天16:00開始販售，售完為止。
5931111755,幸福藥局,新北市汐止區大同路２段３３２號１．２樓,121.6565,25.06694,(02)26490127,羅氏家用新冠病毒抗原自我檢測套組,2,2022/05/11 10:40:02,星期日暫停販售快篩試劑
5931112369,汐止立欣藥局,新北市汐止區汐萬路二段２４９號１樓,121.6464,25.08835,(02)26464546,羅氏家用新冠病毒抗原自我檢測套組,3,2022/05/11 10:40:02,每日早上8:00販售實名制快篩。週日亦有販售。請先確認好購買資格（單、雙號及是否重複購買）。
5931112378,翔云大藥局,新北市汐止區祥雲街２號ㄧ１、１樓,121.6459,25.0896,(02)26463119,羅氏家用新冠病毒抗原自我檢測套組,13,2022/05/11 10:40:02,無
5931112645,健成藥局,新北市汐止區新興路２０號１樓,121.6564,25.06456,(02)26428989,羅氏家用新冠病毒抗原自我檢測套組,38,2022/05/11 10:40:02,無
5931113071,蒲公英藥局,新北市汐止區連興街１２６號（１樓）,121.6538,25.06188,(02)26907770,羅氏家用新冠病毒抗原自我檢測套組,78,2022/05/11 10:40:02,實名制快篩銷售時間:下午17:00-19:00（無發放號碼牌）
5931113080,宗齡藥局,新北市汐止區康寧街４５９巷２２號１樓,121.6313,25.06974,(02)26952788,羅氏家用新冠病毒抗原自我檢測套組,11,2022/05/11 10:40:02,週日公休，週一上午9點30分開始販售實名制快篩，現場排隊無號碼牌，庫存不準勿參考。
5931120049,本平藥局,新北市瑞芳區瑞芳街４５號,121.8076,25.10913,(02)24972167,羅氏家用新冠病毒抗原自我檢測套組,2,2022/05/11 10:40:02,無
5931121466,瑞芳藥局,新北市瑞芳區明燈路３段５９之１及５９之２號,121.8057,25.10812,(02)24966588,羅氏家用新冠病毒抗原自我檢測套組,78,2022/05/11 10:40:02,快篩實名制，每天16:00開始販售，售完為止。
5931130205,瑞益藥局,新北市土城區廣明街６３巷４號,121.4546,24.99356,(02)89668598,羅氏家用新冠病毒抗原自我檢測套組,1,2022/05/11 10:40:02,星期1-6早上9:30開始賣快篩.星期日休息.
5931131908,璨鴻藥局,新北市土城區延和路１９１號,121.4692,24.99035,(02)82622588,羅氏家用新冠病毒抗原自我檢測套組,6,2022/05/11 10:40:02,快篩發放時間星期一至五
5931132343,誠安藥局,新北市土城區中央路４段３６號１樓,121.4207,24.96088,(02)22677737,羅氏家用新冠病毒抗原自我檢測套組,79,2022/05/11 10:40:02,快篩代售時段：平日晚上8點，售完為止
5931132389,凱一藥局,新北市土城區裕民路９２巷２１弄８號１樓,121.4501,24.98629,(02)22707679,羅氏家用新冠病毒抗原自我檢測套組,27,2022/05/11 10:40:02,服務時間10:00~21:00，每週二休息。實名制快篩皆於營業日的10:00開賣。
5931132538,宏奇藥局,新北市土城區延吉街１２６號１樓,121.4695,24.98586,(02)82619585,羅氏家用新冠病毒抗原自我檢測套組,76,2022/05/11 10:40:02,無
5931132594,元蒼藥局,新北市土城區學府路１段６９號１樓,121.4571,24.98825,(02)22733868,羅氏家用新冠病毒抗原自我檢測套組,40,2022/05/11 10:40:02,無
5931132736,大眾藥局,新北市土城區明峰街６巷１號,121.4637,24.98557,(02)22666057,羅氏家用新冠病毒抗原自我檢測套組,78,2022/05/11 10:40:02,快篩販售:11：00-12：30 其餘時段恕不服務
5931132781,德隆藥局,新北市土城區裕民路１５３號１樓,121.4522,24.98595,(02)22656056,羅氏家用新冠病毒抗原自我檢測套組,78,2022/05/11 10:40:02,早上10點發號碼牌（收健保卡+收錢），下午4點到晚上10點憑號碼牌來領快篩
5931132950,美康藥妝藥局,新北市土城區延吉街２５４號１樓,121.4664,24.98465,(02)22616868,羅氏家用新冠病毒抗原自我檢測套組,44,2022/05/11 10:40:02,實名制快篩前一天若有到貨，則隔日三點販售
5931133126,成康藥局,新北市土城區學府路１段１８８號１樓,121.4532,24.98614,(02)22706596,羅氏家用新冠病毒抗原自我檢測套組,27,2022/05/11 10:40:02,春節期間看診時段請電洽
5931133331,城安大藥局,新北市土城區金城路３段４０號,121.4656,24.98639,(02)22646561,羅氏家用新冠病毒抗原自我檢測套組,39,2022/05/11 10:40:02,快篩代售時間晚上8:30
5931133635,順儷學府藥局,新北市土城區學府路１段１４４巷２號１樓,121.4549,24.98728,(02)22701979,羅氏家用新冠病毒抗原自我檢測套組,74,2022/05/11 10:40:02,無
5931133653,家泰藥局,新北市土城區青雲路１８１號１、２樓,121.4593,24.98285,(02)22749490,羅氏家用新冠病毒抗原自我檢測套組,6,2022/05/11 10:40:02,上午9：00發號碼牌14：00-21：00攜帶號碼牌及費用領快篩
5931133671,升立藥局,新北市土城區明德路２段１９５號１樓,121.4471,24.98333,(02)22605158,羅氏家用新冠病毒抗原自我檢測套組,6,2022/05/11 10:40:02,政府快篩早上9點開始販售，售完為止，請自備零錢500。 如有變動會再公告
5931141637,華興藥師藥局,新北市蘆洲區中山一路１８４號１樓,121.4739,25.08104,(02)22893899,羅氏家用新冠病毒抗原自我檢測套組,11,2022/05/11 10:40:02,防疫口罩：早上10點直接販售
5931141726,松展多利日式連鎖藥粧藥局,新北市蘆洲區民族路１６１號,121.4793,25.08817,(02)22882586,羅氏家用新冠病毒抗原自我檢測套組,1,2022/05/11 10:40:02,防疫物資每日下午02:00開始販售
5931142670,陽光幸福藥局,新北市蘆洲區重陽街８８號１樓,121.4821,25.08454,(02)28486566,羅氏家用新冠病毒抗原自我檢測套組,2,2022/05/11 10:40:02,快篩實名制 早上9點開始販售 採現場排隊
5931143275,集賢藥局,新北市蘆洲區信義路２２２巷６１號１、２樓,121.4813,25.08535,(02)22882400,羅氏家用新冠病毒抗原自我檢測套組,78,2022/05/11 10:40:02,快篩實名制，每天16:00開始販售，售完為止。
5931143319,大樹長榮藥局,新北市蘆洲區長榮路６１、６１－１號１樓,121.4624,25.0833,(02)28480567,羅氏家用新冠病毒抗原自我檢測套組,78,2022/05/11 10:40:02,快篩實名制，每天16:00開始販售，售完為止。
5931151713,五股藥局,新北市五股區成泰路１段２３５之２號（１樓）,121.4363,25.07968,(02)22951150,羅氏家用新冠病毒抗原自我檢測套組,77,2022/05/11 10:40:02,快篩實名制，每天16:00開始販售，售完為止。
5931161353,台灣藥局,新北市泰山區明志路１段２８２－２８６號,121.4319,25.06002,(02)22971969,羅氏家用新冠病毒抗原自我檢測套組,70,2022/05/11 10:40:02,下午2:20發號碼牌2:30販售實名制快篩試劑
5931161620,華特藥局,新北市泰山區明志路１段２６０號１樓,121.4321,25.06052,(02)29095662,羅氏家用新冠病毒抗原自我檢測套組,120,2022/05/11 10:40:02,5／10（二）-5／13（五） 晚上7:00開始販售，數量當天晚上會公布
5931170021,士昌藥局,新北市林口區工六路３６號１樓,121.3982,25.07874,(02)26018863,羅氏家用新冠病毒抗原自我檢測套組,1,2022/05/11 10:40:02,防疫口罩代售:週一至週六早上9:00現場排隊
5931171242,旺林藥局,新北市林口區文化二路１段２２８號,121.3697,25.0724,(02)26000186,羅氏家用新冠病毒抗原自我檢測套組,11,2022/05/11 10:40:02,政府實名制快篩早上10點開始賣，沒發號碼牌
5931171582,綠園藥局,新北市林口區仁愛路２段１０５號１樓,121.3843,25.07507,(02)86012258,羅氏家用新冠病毒抗原自我檢測套組,12,2022/05/11 10:40:02,上午8:30-12:00、下午2:30-18:00、晚上18:00-21:30
5931171706,榮新藥局,新北市林口區忠孝路３８３號１樓,121.3695,25.0713,(02)26089789,羅氏家用新冠病毒抗原自我檢測套組,1,2022/05/11 10:40:02,快篩發放時間  14:50發放號碼牌下午15:00開賣（直至賣完）
5931171742,唯恩藥局,新北市林口區麗園一街９巷１號１樓之２,121.3768,25.07139,(02)26005805,羅氏家用新冠病毒抗原自我檢測套組,78,2022/05/11 10:40:02,快篩發放固定13點，領取號碼牌
5931181104,介新大藥局,新北市深坑區文化街９４號,121.6172,25.002,(02)26648149,羅氏家用新冠病毒抗原自我檢測套組,1,2022/05/11 10:40:02,執業時段請電洽藥局
5932010202,安琪兒藥局,桃園市桃園區莊敬路二段７６號１樓,121.2934,25.02282,(03)3016965,羅氏家用新冠病毒抗原自我檢測套組,68,2022/05/11 10:40:02,無
5932010631,新華興清溪藥局,桃園市桃園區東門里中山東路１０號１樓,121.3136,24.99548,(03)3330011,羅氏家用新冠病毒抗原自我檢測套組,1,2022/05/11 10:40:02,實名制快篩週一~週日14:30，不發號碼牌請依序排隊購買
5932010908,大愛藥師藥局,桃園市桃園區中正路４３５號,121.307,25.00095,(03)3376771,羅氏家用新冠病毒抗原自我檢測套組,39,2022/05/11 10:40:02,快篩販售時間:星期1~5，下午一點開賣
5932011147,維格藥局,桃園市桃園區大興西路二段１２９號,121.2974,25.01048,(03)3016639,羅氏家用新冠病毒抗原自我檢測套組,72,2022/05/11 10:40:02,營業時間:8:30-12:00、14:00-22:00，快篩9:00販售
5932011610,郁祥藥局,桃園市桃園區成功里春日路２１６號,121.3156,24.99722,(03)3335495,羅氏家用新冠病毒抗原自我檢測套組,15,2022/05/11 10:40:02,無
5932011692,正安藥局,桃園市桃園區東山里安東街５８號,121.3158,24.99265,(03)3329461,羅氏家用新冠病毒抗原自我檢測套組,21,2022/05/11 10:40:02,營業時間 09:00~21:30
5932011870,永祥大藥局,桃園市桃園區永安路５２８號,121.2986,25.00181,(03)3337161,羅氏家用新冠病毒抗原自我檢測套組,3,2022/05/11 10:40:02,口罩販賣時段：週一至週六早上9點
5932012591,迦南藥局,桃園市桃園區國聖一街６１號１樓之１,121.2885,24.98721,(03)3609938,羅氏家用新冠病毒抗原自我檢測套組,5,2022/05/11 10:40:02,快篩販售時間:週一至週五晚上7點半，六日不販售。
5932012813,桃園大興藥局,桃園市桃園區大興西路二段７６巷３號,121.2984,25.01183,(03)3013222,羅氏家用新冠病毒抗原自我檢測套組,18,2022/05/11 10:40:02,快篩實名制，每天16:00開始販售，售完為止。
5932013114,仁悅藥師藥局,桃園市桃園區中山路６０號１樓,121.3116,24.99496,(03)3361718,羅氏家用新冠病毒抗原自我檢測套組,4,2022/05/11 10:40:02,快篩販售時間  早上08:00 ； 星期日停售
5932013123,桃康藥局,桃園市桃園區桃鶯路２０３號,121.3184,24.98495,(03)3641815,羅氏家用新冠病毒抗原自我檢測套組,27,2022/05/11 10:40:02,實名制快篩：早上10點發號碼牌，每日78份
5932013374,芳鄰藥局,桃園市桃園區昆明路３９號,121.3173,24.98372,(03)3679498,羅氏家用新冠病毒抗原自我檢測套組,4,2022/05/11 10:40:02,無
5932013392,桃園中正藥局,桃園市桃園區中正路３７３號,121.3079,24.99955,(03)3381600,羅氏家用新冠病毒抗原自我檢測套組,91,2022/05/11 10:40:02,快篩實名制，每天16:00開始販售，售完為止。
5932013687,桃園春日藥局,桃園市桃園區春日路８７８號,121.3096,25.01561,(03)3580101,羅氏家用新冠病毒抗原自我檢測套組,78,2022/05/11 10:40:02,快篩實名制，每天16:00開始販售，售完為止。
5932013749,桃園寶山藥局,桃園市桃園區寶山街７２號,121.3175,25.01291,(03)3250562,羅氏家用新冠病毒抗原自我檢測套組,78,2022/05/11 10:40:02,快篩實名制，每天16:00開始販售，售完為止。
5932014102,小飛象藥局,桃園市桃園區慈文路１９２號,121.3041,25.00907,(03)3552771,羅氏家用新冠病毒抗原自我檢測套組,34,2022/05/11 10:40:02,5／11[15:10]開賣37份，再打來問就掛電話。不發號碼牌。即起調劑確診者視訊處方，請自保。
5932014111,鴻發藥師藥局,桃園市桃園區大有路５４３號,121.3171,25.0149,(03)3582468,羅氏家用新冠病毒抗原自我檢測套組,78,2022/05/11 10:40:02,實聯快篩:早上09:30發放號碼牌，限當日下午2~4點憑牌購買，逾時不候請見諒
5932014166,華康中西藥局,桃園市桃園區中埔六街３號１號,121.2964,25.01549,(03)3166920,羅氏家用新冠病毒抗原自我檢測套組,13,2022/05/11 10:40:02,營業時間:週一~周六:9:00-21:30。週日10:00-18:30 （5／10快篩已售完）（5／11實名快篩早上09:20領號碼牌）
5932014175,東門大藥局,桃園市桃園區春日路７５號,121.3169,24.99305,(03)3378919,羅氏家用新冠病毒抗原自我檢測套組,14,2022/05/11 10:40:02,無
5932014291,躍獅民生藥局,桃園市桃園區民生路２２８號１樓,121.313,24.99472,(03)3362359,羅氏家用新冠病毒抗原自我檢測套組,78,2022/05/11 10:40:02,下午1點開始販售，會發號碼牌，購買權保留至下午6點
5932014317,躍獅省桃藥局,桃園市桃園區龍壽街２４號,121.2697,24.97836,(03)3791488,羅氏家用新冠病毒抗原自我檢測套組,40,2022/05/11 10:40:02,週1-7實名制快篩10:00開賣，5／6開始每日10點販售，沒發號碼牌
5932014344,豐藝藥局,桃園市桃園區泰昌三街２３號１樓,121.2943,24.98954,(03)2200977,羅氏家用新冠病毒抗原自我檢測套組,78,2022/05/11 10:40:02,實名制快篩下午3點販售，依序排隊購買，售完為止。
5932014488,琦舜藥師藥局,桃園市桃園區文中三路６３號,121.2885,24.99724,(03)3695001,羅氏家用新冠病毒抗原自我檢測套組,78,2022/05/11 10:40:02,營業時間: 9:00-21:30　　　　　　　　快篩販售時間於到貨後公布於FB【琦舜藥師藥局-桃園中路】粉絲專頁
5932017096,榮生藥師藥局,桃園市桃園區民生路２７５號一樓,121.3118,24.99697,(03)3396120,羅氏家用新冠病毒抗原自我檢測套組,33,2022/05/11 10:40:02,快篩販賣時段：星期一到星期六上午10:00-12:00 依配送時間滾動調整
5932018593,品一藥局,桃園市桃園區建新街７６號,121.3118,24.98261,(03)3638510,羅氏家用新冠病毒抗原自我檢測套組,19,2022/05/11 10:40:02,快篩販賣時間：週一至週五早上9：30；週六下午1：00（星期天休息），會發號碼牌（今天已發完）
5932019116,慈安藥局,桃園市桃園區永安路３８３號,121.299,25.00086,(03)3369599,羅氏家用新冠病毒抗原自我檢測套組,4,2022/05/11 10:40:02,快篩販賣時段：8:30~10:30，過時後，另78份係隔日販賣的量.
5932019330,同生藥師藥局,桃園市桃園區永安路３１８號,121.3029,24.99888,(03)3349791,羅氏家用新冠病毒抗原自我檢測套組,14,2022/05/11 10:40:02,快篩試劑代售時間自星期一至星期六早上8:00開始售完為止
5932019581,莘莘藥局,桃園市桃園區莊敬路一段３６８號,121.2957,25.02375,(03)3170681,羅氏家用新冠病毒抗原自我檢測套組,78,2022/05/11 10:40:02,實名制快篩週一至週六 下午2點開始 售完為止
593201A631,大國民藥局,桃園市桃園區中正路５７８號１樓,121.3053,25.00403,(03)3355575,羅氏家用新冠病毒抗原自我檢測套組,1,2022/05/11 10:40:02,下午1點開始販售（現場排隊售完為止 不發號碼牌）
5932020548,生富藥師藥局,桃園市中壢區新明里中央西路二段７６號,121.2162,24.95848,(03)4941475,羅氏家用新冠病毒抗原自我檢測套組,2,2022/05/11 10:40:02,快篩時段8：30發號碼牌，10：00以後領快筛劑
5932021036,廣怡藥局,桃園市中壢區華勛街２５６號,121.2603,24.94865,(03)4366885,羅氏家用新冠病毒抗原自我檢測套組,10,2022/05/11 10:40:02,口罩販賣時段：開賣時間周一~周六13:30~17:30 、  周日8:30~11:30
5932021090,新生藥師藥局,桃園市中壢區民權路５２號,121.2172,24.95608,(03)4919796,羅氏家用新冠病毒抗原自我檢測套組,17,2022/05/11 10:40:02,販賣時段：8:40
5932021269,優良藥局,桃園市中壢區長春路２０號,121.2499,24.97907,(03)4612336,羅氏家用新冠病毒抗原自我檢測套組,3,2022/05/11 10:40:02,快篩販售時間10:00
5932021401,懷仁藥師健保藥局,桃園市中壢區中北路９３號１樓,121.238,24.95653,(03)4378466,羅氏家用新冠病毒抗原自我檢測套組,76,2022/05/11 10:40:02,實名制快篩銷售\5月7號更改時間為下午5:00\星期日沒有販售
5932022631,中壢中正藥局,桃園市中壢區中正路３６３、３６５號,121.2163,24.95532,(03)4014100,羅氏家用新冠病毒抗原自我檢測套組,78,2022/05/11 10:40:02,快篩實名制，每天16:00開始販售，售完為止。
5932023370,中力藥局,桃園市中壢區復興路５４號,121.2249,24.95742,(03)4273119,羅氏家用新冠病毒抗原自我檢測套組,2,2022/05/11 10:40:02,05／01 ，全日休息。
5932023647,樂謙藥師藥局,桃園市中壢區龍東路１３４號,121.2522,24.92929,(03)4662775,羅氏家用新冠病毒抗原自我檢測套組,43,2022/05/11 10:40:02,實名快篩每日下午2點、晚上6點 各發39份
5932023889,華勛藥局,桃園市中壢區華勛街１１２、１１４號,121.2597,24.95065,(03)4161881,羅氏家用新冠病毒抗原自我檢測套組,2,2022/05/11 10:40:02,快篩實名制，每天16:00開始販售，售完為止。
5932024108,佳愷藥局,桃園市中壢區中北路４７號,121.2368,24.95614,(03)4664735,羅氏家用新冠病毒抗原自我檢測套組,149,2022/05/11 10:40:02,視配貨狀況禮拜三、禮拜五、禮拜六早上9點至11點販售。若未到貨則無法開賣，有任何疑問請致電聯繫許藥師0933-595-819
5932024251,佑全中壢中山藥局,桃園市中壢區中山東路２段２７號１樓,121.2374,24.95443,(03)4385373,羅氏家用新冠病毒抗原自我檢測套組,1,2022/05/11 10:40:02,家用快篩販售時間：下午1400-售完為止
5932024297,新資生弘揚大藥局,桃園市中壢區弘揚路６４號１樓,121.2411,24.95337,(03)3606180,羅氏家用新冠病毒抗原自我檢測套組,78,2022/05/11 10:40:02,無
5932024304,鈞康藥局,桃園市中壢區興仁路２段９１號１樓,121.263,24.96665,(03)2850505,羅氏家用新冠病毒抗原自我檢測套組,48,2022/05/11 10:40:02,營業時間：上午11點-售完。星期六日不販售
5932029676,中日大藥局,桃園市中壢區中北路二段７８號,121.225,24.95063,(03)4285068,羅氏家用新冠病毒抗原自我檢測套組,78,2022/05/11 10:40:02,快篩11點前到貨，11點開始販售；11點後到貨，到貨開始販售
593202A244,澤仁藥局,桃園市中壢區中正路２６３號,121.2193,24.95495,(03)4252254,羅氏家用新冠病毒抗原自我檢測套組,74,2022/05/11 10:40:02,販賣時段：下午 2:30 - 售完為止
593202A833,君安藥局,桃園市中壢區中北路二段３９０號,121.2318,24.95388,(03)4685484,羅氏家用新冠病毒抗原自我檢測套組,77,2022/05/11 10:40:02,快篩實名制，週一至週五晚上7點，週六週日早上9點，視現場狀況，45分鐘前發號碼牌，發完隨即販售，過號視同放棄
593202A931,佳佑藥局,桃園市中壢區環中東路二四一號,121.2573,24.96345,(03)4356190,羅氏家用新冠病毒抗原自我檢測套組,39,2022/05/11 10:40:02,口罩販賣時段：09:00以後發號碼牌，售完為止
593202B296,慧康藥局,桃園市中壢區中北路二段１０１號１樓,121.2255,24.95122,(03)2840064,羅氏家用新冠病毒抗原自我檢測套組,4,2022/05/11 10:40:02,快篩販售時間：13:30
593202B349,健康生活藥局,桃園市中壢區中山路二五號,121.2277,24.95526,(03)4272729,羅氏家用新冠病毒抗原自我檢測套組,3,2022/05/11 10:40:02,口罩8:30
593202B447,榮善堂藥局,桃園市中壢區前龍街九號,121.2535,24.9298,(03)4564946,羅氏家用新冠病毒抗原自我檢測套組,55,2022/05/11 10:40:02,全台第一自助快篩領取系統，快篩販賣星期一至四：晚上七點。星期五至六：下午二點。星期天：早上八點
5932030160,永耘藥局,桃園市大溪區介壽路６４號,121.2946,24.92239,(03)3804770,羅氏家用新冠病毒抗原自我檢測套組,2,2022/05/11 10:40:02,快篩試劑販賣時段: 週一至週日早上8:00
5932031756,明仁藥局,桃園市大溪區介壽路８１號１樓,121.2949,24.92218,(03)3804832,羅氏家用新冠病毒抗原自我檢測套組,10,2022/05/11 10:40:02,0800-11000
5932031890,福生藥局,桃園市大溪區民權東路１０３號１樓,121.2919,24.88209,(03)3873533,羅氏家用新冠病毒抗原自我檢測套組,69,2022/05/11 10:40:02,早上八點開始發放快篩試劑
5932031907,福澤大溪藥局,桃園市大溪區復興路１０５號１樓,121.2911,24.87917,(03)3884886,羅氏家用新冠病毒抗原自我檢測套組,5,2022/05/11 10:40:02,家用快篩販賣時段15:30至售完為止
5932040246,龍泰藥局,桃園市楊梅區民族路五段１４７巷２號,121.1736,24.9586,(03)4901525,羅氏家用新冠病毒抗原自我檢測套組,10,2022/05/11 10:40:02,快篩販售時間:早上7:30領號碼牌下午2點至4點領快篩（當日有效） 六日中午10點至12點領快篩
5932040255,中美藥局,桃園市楊梅區埔心里中興路７７號,121.1848,24.91776,(03)4822483,羅氏家用新冠病毒抗原自我檢測套組,20,2022/05/11 10:40:02,實名制快篩早上11點發放販售，一人只限一卡
5932042320,家康藥師藥局,桃園市楊梅區文化街二三二之一號,121.1851,24.91622,(03)4810893,羅氏家用新冠病毒抗原自我檢測套組,2,2022/05/11 10:40:02,快篩販售時間：12:00-13:00
5932043381,楊梅丁丁藥局,桃園市楊梅區中山北路２段２２７號,121.1729,24.90958,(03)4815486,羅氏家用新冠病毒抗原自我檢測套組,78,2022/05/11 10:40:02,依照配送時間預計下午發放號碼牌時間.請加LINE社群關注
5932050215,九德藥局,桃園市蘆竹區中山路６９號,121.3003,25.05242,(03)3116868,羅氏家用新冠病毒抗原自我檢測套組,94,2022/05/11 10:40:02,口罩販賣時段：中午12點
5932051472,康而美聖安藥師藥局,桃園市蘆竹區南山路一段二之一號,121.2916,25.04879,(03)3228753,羅氏家用新冠病毒抗原自我檢測套組,13,2022/05/11 10:40:02,暫停止販售
5932052737,知博藥師藥局,桃園市蘆竹區營盤里中山路１６０號,121.2977,25.05702,(03)2221886,羅氏家用新冠病毒抗原自我檢測套組,1,2022/05/11 10:40:02,快篩販賣時段：暫定週一至週五16:00-17:00 週六.日不發放.以現場公告時間為主
5932052979,南崁藥局,桃園市蘆竹區中正路２５１、２５３、２５５號,121.2921,25.04695,(03)3522022,羅氏家用新冠病毒抗原自我檢測套組,157,2022/05/11 10:40:02,快篩實名制，每天16:00開始販售，售完為止。
5932053001,安祐大藥局,桃園市蘆竹區忠孝西路１９２號,121.2891,25.03989,(03)2229195,羅氏家用新冠病毒抗原自我檢測套組,78,2022/05/11 10:40:02,口罩販賣時段：一~六 14:00
5932070208,福民藥局,桃園市龜山區山鶯路１０８號,121.3241,24.98942,(03)3207779,羅氏家用新冠病毒抗原自我檢測套組,5,2022/05/11 10:40:02,口罩販賣時段：原則上週一至週六早上9點-11點，以藥局當天公告為主
