醫事機構代碼,醫事機構名稱,醫事機構地址,經度,緯度,醫事機構電話,廠牌項目,快篩試劑截至目前結餘存貨數量,來源資料時間,備註
0291010010,連江縣立醫院,連江縣南竿鄉復興村２１７號,119.9492,26.16084,(083)623995,羅氏家用新冠病毒抗原自我檢測套組,10,2022/05/09 15:51:02,4／29起固定周一至周六上午8:30-9:30快篩試劑販售.
2336210034,臺中市和平區梨山衛生所,臺中市和平區中正路１２號１樓、６８號１樓,121.2592,24.25678,(04)25989540,羅氏家用新冠病毒抗原自我檢測套組,5,2022/05/09 15:51:02,提供24小時急診待診服務，快篩試劑販售時段為周一至五0900-12:00，六日及國定假日為0900-1100
2338120015,南投縣信義鄉衛生所,南投縣信義鄉明德村玉山路４５號,120.8547,23.69653,(049)2791148,羅氏家用新冠病毒抗原自我檢測套組,1,2022/05/09 15:51:02,快篩試劑販售時間星期一至星期五上午09：00-11：00，現場排隊發售，國定假日不販賣。
2340170016,嘉義縣大埔鄉衛生所,嘉義縣大埔鄉大埔村５３－１號,120.5928,23.29397,(05)2521214,羅氏家用新冠病毒抗原自我檢測套組,78,2022/05/09 15:51:02,無
2341120010,臺南市下營區衛生所,臺南市下營區營前里中山路二段１３７號,120.2624,23.23154,(06)6892149,羅氏家用新冠病毒抗原自我檢測套組,78,2022/05/09 15:51:02,家用快篩試劑販賣時間為每周一至週五 下午4點到五點，欲購買民眾請攜帶健保卡及自備零錢購買。
2342250017,高雄市茂林區衛生所,高雄市茂林區茂林里茂林巷８－４號,120.6641,22.88641,(07)6801046,羅氏家用新冠病毒抗原自我檢測套組,16,2022/05/09 15:51:02,夜間急診，請先撥電話07-6801046
2342260013,高雄市桃源區衛生所,高雄市桃源區桃源里南進巷１８８－１號,120.7642,23.15845,(07)6861126,羅氏家用新冠病毒抗原自我檢測套組,96,2022/05/09 15:51:02,IDS提供24小時服務
2342270019,高雄市那瑪夏區衛生所,高雄市那瑪夏區瑪雅里６鄰平和巷２５２號,120.7024,23.24708,(07)6701142,羅氏家用新冠病毒抗原自我檢測套組,8,2022/05/09 15:51:02,春節期間正常門診
2344011036,澎湖縣馬公市第三衛生所,澎湖縣馬公市西文里１１８之２號,119.5836,23.56813,(06)9211723,羅氏家用新冠病毒抗原自我檢測套組,78,2022/05/09 15:51:02,本所快篩試劑只提供離島衛生室（虎井、桶盤）販售，時間週一至週五08:30-17:00售完為止，星期六、日國定假日09:00-12:00。
2344030022,澎湖縣白沙鄉鳥嶼衛生所,澎湖縣白沙鄉鳥嶼村漁港新村３號,119.6599,23.66008,(06)9916092,羅氏家用新冠病毒抗原自我檢測套組,104,2022/05/09 15:51:02,非上班時間提供急診服務
2344030031,澎湖縣白沙鄉吉貝衛生所,澎湖縣白沙鄉吉貝村８－１３號,119.6138,23.74056,(06)9911430,羅氏家用新冠病毒抗原自我檢測套組,212,2022/05/09 15:51:02,無
2344050015,澎湖縣望安鄉衛生所,澎湖縣望安鄉西安村３６－７號,119.4972,23.36161,(06)9991036,羅氏家用新冠病毒抗原自我檢測套組,54,2022/05/09 15:51:02,夜間急診。口罩、快篩試劑販售時間為:每日08:00-12:00、13:30-17:30售完為止，如有餘數為離島未售出（東嶼坪、花嶼）。
2344050024,澎湖縣望安鄉將軍衛生所,澎湖縣望安鄉將軍村１２鄰將軍澳１之３號,119.5216,23.3615,(06)9902066,羅氏家用新冠病毒抗原自我檢測套組,29,2022/05/09 15:51:02,24小時急診
2391030016,連江縣莒光鄉西莒衛生所,連江縣莒光鄉青帆村１４－１號,119.9331,25.97157,(083)689122,羅氏家用新冠病毒抗原自我檢測套組,233,2022/05/09 15:51:02,防疫口罩星期一至五09:00-17:00、（六）09:00-12:00現場購買
2391030026,連江縣莒光鄉東莒衛生所,連江縣莒光鄉大坪村３０－１號,119.9731,25.96113,(083)689038,羅氏家用新冠病毒抗原自我檢測套組,481,2022/05/09 15:51:02,防疫口罩星期一至星期日上午10:00-12:00收取健保卡，下午3:30至本所領取口罩。
2391040012,連江縣東引鄉衛生所,連江縣東引鄉中柳村１２３號,120.4904,26.36701,(083)677206,羅氏家用新冠病毒抗原自我檢測套組,2,2022/05/09 15:51:02,防疫口罩每日10:00-12:00現場購買
5901012632,晨安藥局,臺北市松山區八德路３段１５５巷２０弄２號,121.5553,25.04914,(02)25798460,羅氏家用新冠病毒抗原自我檢測套組,14,2022/05/09 15:51:02,快篩實名制販售時間:平日下午3點-假日下午1點；現場販售，不抽號碼牌。
5901012749,躍獅松和藥局,臺北市松山區八德路四段６６６－１號,121.5761,25.04979,(02)27492569,羅氏家用新冠病毒抗原自我檢測套組,78,2022/05/09 15:51:02,實名制快篩販售時段，每日下午4點販售，售完為止
5901013095,康采藥局,臺北市松山區南京東路５段２９１巷１７－２號,121.5663,25.05236,(02)27670271,羅氏家用新冠病毒抗原自我檢測套組,94,2022/05/09 15:51:02,（已完售，庫存不準）快篩試劑每日16點販售，週日沒有販售
5901013399,一安正昇藥局,臺北市松山區南京東路５段３０９號,121.5667,25.05155,(02)27680993,羅氏家用新冠病毒抗原自我檢測套組,1,2022/05/09 15:51:02,快篩發放時間  下午14:30
5901013442,松山八德藥局,臺北市松山區八德路２段４００號,121.5466,25.04804,(02)27782773,羅氏家用新冠病毒抗原自我檢測套組,78,2022/05/09 15:51:02,快篩實名制，每天16:00開始販售，售完為止。
5901013700,杏一台北台安藥局,臺北市松山區八德路２段３９９號１樓,121.5465,25.04833,(02)87728295,羅氏家用新冠病毒抗原自我檢測套組,19,2022/05/09 15:51:02,快篩實名制販售時間為每天下午15:00，開賣前10分鐘發放號碼牌，售完為止
5901013719,大樹松山藥局,臺北市松山區民生東路５段１０７號１樓,121.5601,25.05878,(02)27562226,羅氏家用新冠病毒抗原自我檢測套組,78,2022/05/09 15:51:02,快篩實名制，每天16:00開始販售，售完為止。
5901013737,全欣藥局,臺北市松山區復興北路７３號２樓,121.5442,25.05104,(02)87729066,羅氏家用新冠病毒抗原自我檢測套組,18,2022/05/09 15:51:02,9:00am開始販售30人份15:00販售30人份:18:00販售17人份；週六:9:00販售39人份；週日:15:00販售39人份....排隊人數滿會先發號碼
5901020303,宏恩藥局,臺北市大安區大安路１段１８１號,121.5461,25.03619,(02)27000956,羅氏家用新冠病毒抗原自我檢測套組,1,2022/05/09 15:51:02,實名制快篩每周一~六，10:00發放號碼牌， 後於12:00~21:00自由擇時，持號碼牌領取快篩並收費
5901020385,延吉大藥局,臺北市大安區延吉街１５３號１樓,121.5548,25.04066,(02)27819227,羅氏家用新冠病毒抗原自我檢測套組,11,2022/05/09 15:51:02,無
5901020554,師大藥局,臺北市大安區師大路９９號１樓,121.5285,25.02271,(02)23623479,羅氏家用新冠病毒抗原自我檢測套組,1,2022/05/09 15:51:02,實名制快篩試劑開賣時間下午2:30現場排隊
5901020787,吉成藥局,臺北市大安區泰順街７號,121.5316,25.02557,(02)23636475,羅氏家用新冠病毒抗原自我檢測套組,2,2022/05/09 15:51:02,每日下午三點發放號碼牌，同時間開始販賣實名制快篩，四點結束，週日無發放
5901023215,大愛健康藥局,臺北市大安區敦化南路２段６３巷６５號,121.552,25.03103,(02)27092156,羅氏家用新冠病毒抗原自我檢測套組,19,2022/05/09 15:51:02,無
5901024221,安居藥局,臺北市大安區安居街１９號,121.5549,25.02085,(02)23773537,羅氏家用新冠病毒抗原自我檢測套組,78,2022/05/09 15:51:02,領快篩注意事項:週一到週五晚上7:30-9:00 週六早上8:00-12:00直接排隊購買 .週日不營業
5901024516,博昱師大藥局,臺北市大安區羅斯福路３段１８９號,121.5281,25.02109,(02)23696966,羅氏家用新冠病毒抗原自我檢測套組,10,2022/05/09 15:51:02,實名制快篩販售時間為下午14:00~15:30
5901024669,百岳藥局,臺北市大安區和平東路２段３１１巷１１號,121.5452,25.02514,(02)27551037,羅氏家用新冠病毒抗原自我檢測套組,89,2022/05/09 15:51:02,快篩試劑販售時間:周一至周五10:30~12:00止
5901024678,大安健康人生藥局,臺北市大安區信義路４段３４號,121.5447,25.03316,(02)27025553,羅氏家用新冠病毒抗原自我檢測套組,4,2022/05/09 15:51:02,快篩發放時間:下午3點開始發放號碼牌，並依序入場購買，請協助自備紙鈔
5901024687,博昱大藥局,臺北市大安區樂業街１４８號、１５０號,121.5529,25.01998,(02)23776199,羅氏家用新冠病毒抗原自我檢測套組,75,2022/05/09 15:51:02,快篩發放為周一至周五1600開始發放
5901024918,康祥藥局,臺北市大安區忠孝東路４段２１６巷２１號,121.5531,25.04025,(02)27817891,羅氏家用新冠病毒抗原自我檢測套組,1,2022/05/09 15:51:02,星期天11:00-19:00
5901024981,專品六張犁藥局,臺北市大安區基隆路２段２１７號１樓,121.5513,25.02299,(02)87322226,羅氏家用新冠病毒抗原自我檢測套組,63,2022/05/09 15:51:02,無
5901025059,博醫仁愛藥局,臺北市大安區仁愛路４段８巷２號１樓,121.5443,25.0375,(02)27019107,羅氏家用新冠病毒抗原自我檢測套組,3,2022/05/09 15:51:02,每天11:30發號碼牌，12:00~15:00憑號碼牌與健保卡購買實名制快篩
5901091884,躍獅雙蓮藥局,臺北市大同區涼州街４號,121.5147,25.06078,(02)25537551,羅氏家用新冠病毒抗原自我檢測套組,53,2022/05/09 15:51:02,實名制快篩：平日週一～五 下午３點開賣 （六、日停售）
5901092130,大同民生藥局,臺北市大同區民生西路１２８號１樓、２樓及１３０號１樓、２樓,121.5191,25.05734,(02)25558886,羅氏家用新冠病毒抗原自我檢測套組,78,2022/05/09 15:51:02,快篩實名制，每天16:00開始販售，售完為止。
5901100333,明美藥局,臺北市中山區長春路６９號,121.5266,25.05502,(02)25365419,羅氏家用新冠病毒抗原自我檢測套組,9,2022/05/09 15:51:02,口罩周一至周五，16:30-18:30販售
5901100422,滿順藥局,臺北市中山區伊通街５４號１樓,121.5347,25.05145,(02)25075283,羅氏家用新冠病毒抗原自我檢測套組,1,2022/05/09 15:51:02,快篩服務時間 AM 8:30 起 售完為止
5901101509,永直藥局,臺北市中山區北安路５９５巷２弄６號,121.5483,25.08192,(02)85098059,羅氏家用新冠病毒抗原自我檢測套組,198,2022/05/09 15:51:02,周一至周六早上8點發號碼牌，下午2點到晚上8點販售（拿號碼牌來買），周日不販售
5901101929,樂活苑藥局,臺北市中山區北安路５４６號１樓,121.548,25.08014,(02)25323296,羅氏家用新冠病毒抗原自我檢測套組,77,2022/05/09 15:51:02,實名制快篩代售時間為18:00~19:00.現場排隊，不發號碼牌.
5901102597,德惠藥局,臺北市中山區德惠街１２２號,121.53,25.06652,(02)25971131,羅氏家用新冠病毒抗原自我檢測套組,27,2022/05/09 15:51:02,每日下午3點30分開始販售快篩實名制
5901103272,長安藥局,臺北市中山區長安東路２段１７１－３號,121.5418,25.0484,(02)27772740,羅氏家用新冠病毒抗原自我檢測套組,78,2022/05/09 15:51:02,實名制快篩下午四點開始發放，周日公休
5901103414,元宏藥局,臺北市中山區北安路４５８巷４１弄４９號,121.5465,25.0794,(02)25339728,羅氏家用新冠病毒抗原自我檢測套組,1,2022/05/09 15:51:02,快篩試劑於下午2:30販售，周日不販售，現場排隊，不提供號碼牌。
5901103423,農安藥局,臺北市中山區農安街１８之１號,121.5248,25.06483,(02)25959293,羅氏家用新冠病毒抗原自我檢測套組,52,2022/05/09 15:51:02,快篩2點發號碼牌 3點後來拿
5901103629,十二願藥局,臺北市中山區林森北路３０９號,121.5256,25.05588,(02)25311223,羅氏家用新冠病毒抗原自我檢測套組,74,2022/05/09 15:51:02,快篩晚上8點開始發放.營業時間下午1點至凌晨3點
5901103656,大樹龍江藥局,臺北市中山區龍江路２４２號,121.5406,25.05889,(02)25035666,羅氏家用新冠病毒抗原自我檢測套組,78,2022/05/09 15:51:02,快篩實名制，每天16:00開始販售，售完為止。
5901103745,吉林藥局,臺北市中山區吉林路３７１號（１樓）,121.5305,25.06511,(02)25865990,羅氏家用新冠病毒抗原自我檢測套組,78,2022/05/09 15:51:02,快篩實名制，每天16:00開始販售，售完為止。
5901103807,專品龍江藥局,臺北市中山區龍江路３１１號１樓,121.5409,25.06127,(02)25178870,羅氏家用新冠病毒抗原自我檢測套組,10,2022/05/09 15:51:02,實名制快篩下午三點開始發號碼牌販售
5901113018,桔子藥局,臺北市內湖區內湖路２段３３３號,121.5917,25.08319,(02)27930052,羅氏家用新冠病毒抗原自我檢測套組,78,2022/05/09 15:51:02,早0900-1200，午1400-1700，晚1900-2100
5901113330,躍獅大湖藥局,臺北市內湖區成功路４段３２９號,121.599,25.08454,(02)27945376,羅氏家用新冠病毒抗原自我檢測套組,78,2022/05/09 15:51:02,星期一~星期六下午4點開始販售快篩 （無發放號碼牌）
5901121823,儀安健保藥局,臺北市南港區同德路７４號,121.5853,25.0457,(02)27859893,羅氏家用新冠病毒抗原自我檢測套組,3,2022/05/09 15:51:02,實名制快篩下午三點開賣，無發放號碼牌（只有週日為晚上六點）
5901121958,心亮藥局,臺北市南港區玉成街６６之７號,121.5818,25.04692,(02)27881677,羅氏家用新冠病毒抗原自我檢測套組,78,2022/05/09 15:51:02,無
5901122062,躍獅忠孝藥局,臺北市南港區成福路１６號,121.586,25.04561,(02)27862829,羅氏家用新冠病毒抗原自我檢測套組,41,2022/05/09 15:51:02,下午3:30開始販售快篩，不發放號碼牌
5901150011,南風藥局,臺北市士林區美崙街１９號１樓,121.5233,25.09715,(02)28320375,羅氏家用新冠病毒抗原自我檢測套組,16,2022/05/09 15:51:02,快篩15:30現場排隊購買共七十份。每日保留8份，給華榮市場固定攤販（登記完為止）
5901150548,田倉藥局,臺北市士林區士東路１２４號,121.5302,25.11219,(02)88662188,羅氏家用新冠病毒抗原自我檢測套組,78,2022/05/09 15:51:02,每日19:00（傍晚7點）開始販售.
5901152079,資生堂藥局,臺北市士林區承德路４段４０巷１７號１Ｆ,121.522,25.08107,(02)28857588,羅氏家用新冠病毒抗原自我檢測套組,78,2022/05/09 15:51:02,今日快篩已售完
5901152453,家赫藥局,臺北市士林區忠義街８０號１樓,121.5317,25.10614,(02)28346453,羅氏家用新冠病毒抗原自我檢測套組,13,2022/05/09 15:51:02,每日下午2:40開始發號碼牌販售實名制快篩
5901152471,得安藥局,臺北市士林區文林路１４０號,121.5267,25.08878,(02)28836336,羅氏家用新冠病毒抗原自我檢測套組,42,2022/05/09 15:51:02,星期一三五六日下午3:30---5:00   星期二 四下午5:00--6:30
5901153610,家安健保藥局,臺北市士林區德行東路１０９巷１１９號,121.5288,25.11156,(02)28322182,羅氏家用新冠病毒抗原自我檢測套組,75,2022/05/09 15:51:02,因目前當日販售快篩當日配送，目前銷售時間改為下午4:00 造成不便 敬請見諒
5901153674,愛佳藥局,臺北市士林區承德路４段２２２之１號,121.5215,25.0885,(02)28811199,羅氏家用新冠病毒抗原自我檢測套組,78,2022/05/09 15:51:02,實名制快篩平日一~五下午5:00販售，假日（六、日）不販售
5901153941,士東藥局,臺北市士林區士東路９１巷３號,121.5291,25.11256,(02)28760588,羅氏家用新冠病毒抗原自我檢測套組,78,2022/05/09 15:51:02,快篩實名制，每天16:00開始販售，售完為止。
5901153996,文昌春天藥局,臺北市士林區文昌路４４號（１樓）,121.5216,25.09562,(02)28838539,羅氏家用新冠病毒抗原自我檢測套組,15,2022/05/09 15:51:02,無
5901154000,文昌大藥局,臺北市士林區文昌路７２號１樓,121.5213,25.09634,(02)28376196,羅氏家用新冠病毒抗原自我檢測套組,2,2022/05/09 15:51:02,1.周一至周日下午15:00販售實名制快篩，請自備零錢 2.每日提供18份 醫護警消郵差憑證購買 限pm14:30以前 3.自費快篩已到貨
5901154028,向宇藥局,臺北市士林區德行東路２１７號１樓,121.5328,25.10935,(02)88661101,羅氏家用新冠病毒抗原自我檢測套組,49,2022/05/09 15:51:02,無
5901154135,誠泰中西藥局,臺北市士林區永平街１３號１樓,121.5051,25.08996,(02)88112352,羅氏家用新冠病毒抗原自我檢測套組,75,2022/05/09 15:51:02,周一到周六晚上7:00開始販賣，  周日休息!
5901160142,德昇藥局,臺北市北投區裕民二路２０號,121.517,25.11604,(02)28217565,羅氏家用新冠病毒抗原自我檢測套組,1,2022/05/09 15:51:02,週一至週五 &[5／7週六] 下午 2:30分 實名制快篩現場排隊發售
5901160428,九福藥局,臺北市北投區公館路２３６號,121.5081,25.12612,(02)28953009,羅氏家用新冠病毒抗原自我檢測套組,6,2022/05/09 15:51:02,★週日店休未營業. 快篩下午1點發號碼牌
5901160544,黎明藥局,臺北市北投區尊賢街２５３－１號,121.5066,25.11817,(02)28223795,羅氏家用新冠病毒抗原自我檢測套組,48,2022/05/09 15:51:02,營業時間星期1-6早上900至1230 下午1600至2100每日 下午4點發快篩星期日其他時間休息
5901161890,良興藥局,臺北市北投區中和街２８６號,121.5004,25.14047,(02)28933360,羅氏家用新冠病毒抗原自我檢測套組,61,2022/05/09 15:51:02,18點30分點開始營業
5901162306,上頤藥局,臺北市北投區中和街３２７號１樓,121.4997,25.14097,(02)28981230,羅氏家用新冠病毒抗原自我檢測套組,491,2022/05/09 15:51:02,無
5901163296,天禧大藥局,臺北市北投區實踐街３５號,121.5087,25.11521,(02)28213558,羅氏家用新冠病毒抗原自我檢測套組,43,2022/05/09 15:51:02,實名制快篩下午1:30現場販售
5901163509,吉利春天生活藥局,臺北市北投區吉利街１２０號,121.5068,25.11851,(02)28253256,羅氏家用新冠病毒抗原自我檢測套組,12,2022/05/09 15:51:02,無
5901163634,心樂藥局,臺北市北投區致遠一路２段１０５號１樓,121.5128,25.1131,(02)28210261,羅氏家用新冠病毒抗原自我檢測套組,58,2022/05/09 15:51:02,您好。發放快篩時間:周一二三五六早上8:30-09:00，週四加開早上10-11點，周一二三五 下午4:00-4:30，周日及國定假日休息
5901170406,鼎泰藥局,臺北市信義區基隆路１段１５５號１樓,121.5653,25.04222,(02)27620617,羅氏家用新冠病毒抗原自我檢測套組,4,2022/05/09 15:51:02,周一至周五 9：30-21：30 （9:30 開始發快篩） 5／1 有營業
5901173283,上禾藥師藥局,臺北市信義區林口街２７號,121.5792,25.03741,(02)27592686,羅氏家用新冠病毒抗原自我檢測套組,1,2022/05/09 15:51:02,無
5901173710,專品光復藥局,臺北市信義區光復南路４６７之１號,121.5577,25.03384,(02)27586682,羅氏家用新冠病毒抗原自我檢測套組,1,2022/05/09 15:51:02,禮拜一到六下午三點販售口罩
5901173818,博亞藥局,臺北市信義區莊敬路４６２號,121.5677,25.02672,(02)27580506,羅氏家用新冠病毒抗原自我檢測套組,39,2022/05/09 15:51:02,平日早上8:30、晚上8:00；假日早上8:30，發放號碼牌，持號碼牌購買!
5901173854,杏一後山埤藥局,臺北市信義區忠孝東路５段７７８號（實際營業地址：１樓）,121.5816,25.0434,(02)27274357,羅氏家用新冠病毒抗原自我檢測套組,31,2022/05/09 15:51:02,實名制快篩14:30開放排隊／14:55發放號碼牌
5901173925,杏一光復藥局,臺北市信義區光復南路４４９之１號,121.5578,25.03488,(02)87804626,羅氏家用新冠病毒抗原自我檢測套組,7,2022/05/09 15:51:02,快篩實名制視每日貨況下午三點開始販售
5901174002,吳興春天藥局,臺北市信義區吳興街１３７號１樓,121.5618,25.02947,(02)27585618,羅氏家用新冠病毒抗原自我檢測套組,11,2022/05/09 15:51:02,下午2:40發號碼牌
5901174066,愛維喜藥局,臺北市信義區莊敬路２７８號１樓,121.5627,25.02882,(02)27586989,羅氏家用新冠病毒抗原自我檢測套組,3,2022/05/09 15:51:02,快篩周一至五15:30.周六8:30開賣.約30分前收健保卡現金500元1張.發號碼牌
5901174084,市政藥局,臺北市信義區忠孝東路５段１６９號１樓、１７１號１樓,121.5688,25.0412,(02)27560050,羅氏家用新冠病毒抗原自我檢測套組,78,2022/05/09 15:51:02,快篩實名制，每天16:00開始販售，售完為止。
5901183645,大愛生活藥局,臺北市中正區汀州路２段２３２號,121.5243,25.02189,(02)23661155,羅氏家用新冠病毒抗原自我檢測套組,71,2022/05/09 15:51:02,下午14:30開始發放快篩（不發號碼牌直接買）~~不要太早開始排隊啊啊啊啊
5901184366,宏越藥局,臺北市中正區中華路２段３１３巷４號,121.5061,25.02813,(02)23050880,羅氏家用新冠病毒抗原自我檢測套組,5,2022/05/09 15:51:02,代售實名制快篩時間 每日下午14:30開始  售完即停止  可關注FB公告當日是否代售
5901184553,珍忻藥局,臺北市中正區南昌路１段６５號,121.5174,25.03107,(02)23965115,羅氏家用新冠病毒抗原自我檢測套組,31,2022/05/09 15:51:02,健保快篩發放:13:20及18:20分兩梯次發號碼牌
5901184633,躍獅東門藥局,臺北市中正區金山南路１段１０８之１號（１樓）,121.5273,25.03538,(02)23920339,羅氏家用新冠病毒抗原自我檢測套組,3,2022/05/09 15:51:02,5／9早上9點開始販售，不提早發放號碼牌
5901184642,康呈安藥局,臺北市中正區汀州路２段１８７號１樓,121.522,25.02403,(02)23672215,羅氏家用新冠病毒抗原自我檢測套組,1,2022/05/09 15:51:02,每天下午3點才發放快篩
5901184660,南昌春天藥局,臺北市中正區南昌路１段１５７號１樓,121.5188,25.02927,(02)23972886,羅氏家用新冠病毒抗原自我檢測套組,10,2022/05/09 15:51:02,若有配發到政府實名制快篩試劑，將於每日下午2:40發號碼牌、下午3:00開始販售。
5901184679,汀州藥局,臺北市中正區汀州路１段１８７、１８９、１９１號（１樓）,121.5112,25.02704,(02)23090705,羅氏家用新冠病毒抗原自我檢測套組,78,2022/05/09 15:51:02,快篩實名制，每天16:00開始販售，售完為止。
5901192822,專品藥局,臺北市萬華區長沙街２段７１－１號,121.5051,25.04062,(02)23718892,羅氏家用新冠病毒抗原自我檢測套組,4,2022/05/09 15:51:02,快篩實名制下午3點發放
5901192975,萬華藥局,臺北市萬華區萬大路２４８號實際營業地址１樓、２樓,121.5003,25.02626,(02)23012221,羅氏家用新冠病毒抗原自我檢測套組,78,2022/05/09 15:51:02,快篩實名制，每天16:00開始販售，售完為止。
5901193221,正盛藥局,臺北市萬華區中華路２段４３４－１號,121.5064,25.02708,(02)23050386,羅氏家用新冠病毒抗原自我檢測套組,62,2022/05/09 15:51:02,【5／8血氧機到貨!!】1.一~六20點，周日不賣 2.排隊人潮多，建議7點左右提前候位 3.詳情看門口公告或板橋正康總店臉書
5901193310,和德藥局,臺北市萬華區西園路２段２９２號１樓,121.4935,25.02698,(02)23331522,羅氏家用新冠病毒抗原自我檢測套組,78,2022/05/09 15:51:02,快篩實名制，每天16:00開始販售，售完為止。
5901201835,巧康藥局,臺北市文山區木新路３段２６２、２６４號,121.5585,24.98132,(02)29372061,羅氏家用新冠病毒抗原自我檢測套組,1,2022/05/09 15:51:02,每日下午2點發放號碼牌，2點15進行快篩販售。請勿離場，離場視同放棄。
5901202841,欣安景美藥局,臺北市文山區景文街７７號,121.5414,24.99126,(02)29316008,羅氏家用新冠病毒抗原自我檢測套組,21,2022/05/09 15:51:02,今日快篩劑PM:14:00販賣售完為止
5901202958,杏一萬安藥局,臺北市文山區萬安街１５號,121.5706,25.00139,(02)22302126,羅氏家用新冠病毒抗原自我檢測套組,1,2022/05/09 15:51:02,營業時間0900-2200
5901203080,杏一木柵藥局,臺北市文山區木柵路３段９８號,121.5674,24.98861,(02)29371839,羅氏家用新冠病毒抗原自我檢測套組,12,2022/05/09 15:51:02,無
5901203366,大樹木柵藥局,臺北市文山區木柵路３段１０８號、１１０號（１樓、２樓）,121.5676,24.98866,(02)22340110,羅氏家用新冠病毒抗原自我檢測套組,78,2022/05/09 15:51:02,快篩實名制，每天16:00開始販售，售完為止。
5901203375,大樹景美藥局,臺北市文山區羅斯福路６段２３４之１號,121.5404,24.99244,(02)29322951,羅氏家用新冠病毒抗原自我檢測套組,78,2022/05/09 15:51:02,快篩實名制，每天16:00開始販售，售完為止。
5901203464,大愛幸福藥局,臺北市文山區木新路２段２２１號１樓,121.5675,24.98344,(02)29379977,羅氏家用新冠病毒抗原自我檢測套組,5,2022/05/09 15:51:02,無
5902020012,永松藥局,高雄市鼓山區鼓山三路１３０－１５號,120.2802,22.66454,(07)5810657,羅氏家用新冠病毒抗原自我檢測套組,2,2022/05/09 15:51:02,無
5902030643,新高橋藥局,高雄市左營區民族一路１０２８號,120.3201,22.68255,(07)3100696,羅氏家用新冠病毒抗原自我檢測套組,1,2022/05/09 15:51:02,依快篩配送時間滾動式調整5／9下午14:30，請備妥當日可領買之健保卡與現金500元購買，不找零，0號是雙號，謝謝配合
5902042661,元春中西藥師藥局,高雄市楠梓區後昌路８３７巷３７號,120.294,22.71109,(07)3605656,羅氏家用新冠病毒抗原自我檢測套組,78,2022/05/09 15:51:02,周1~周6下午16:00開賣快篩，售完為止
5902050798,友泰藥局,高雄市三民區中和街１６９號,120.2868,22.6388,(07)3125236,羅氏家用新冠病毒抗原自我檢測套組,36,2022/05/09 15:51:02,無
5902050903,皇安藥局,高雄市三民區九如一路４６１號,120.3296,22.63865,(07)3866779,羅氏家用新冠病毒抗原自我檢測套組,8,2022/05/09 15:51:02,營業日0900可先領取號碼牌，上午9:00-12:00及下午3:00~10:.00為販賣快篩時間，售完為止
5902080545,柏松藥局,高雄市苓雅區輔仁路１７５號,120.3332,22.63065,(07)7119786,羅氏家用新冠病毒抗原自我檢測套組,72,2022/05/09 15:51:02,實名制快篩試劑.5／4.起.16:00開賣......售完為止!!
5903010485,大樹圓環藥局,臺中市豐原區圓環東路６１７號１樓,120.7283,24.25084,(04)25122212,羅氏家用新冠病毒抗原自我檢測套組,78,2022/05/09 15:51:02,口罩販售時間：14:00 - 16:00
5903010556,升禾和大藥局,臺中市豐原區育英路２６號１樓,120.7163,24.24346,(04)25293099,羅氏家用新冠病毒抗原自我檢測套組,78,2022/05/09 15:51:02,快篩試劑18:00領取.採現場排隊.售完為止
5903010609,隔壁藥局,臺中市豐原區一心路２４０之２號１樓,120.7007,24.24613,(04)25231527,羅氏家用新冠病毒抗原自我檢測套組,2,2022/05/09 15:51:02,無
5903050274,鹿寮藥局,臺中市沙鹿區中山路４６１、４６１－１號１、２樓,120.5615,24.24387,(04)26630677,羅氏家用新冠病毒抗原自我檢測套組,78,2022/05/09 15:51:02,快篩實名制，每天16:00開始販售，售完為止。
5903080094,灃洲大藥局,臺中市神岡區豐洲路４６６－３號１樓,120.7045,24.26179,(04)25150169,羅氏家用新冠病毒抗原自我檢測套組,14,2022/05/09 15:51:02,星期日公休，實名制快篩販售時間為每日下午三點
5903090189,名方藥局,臺中市潭子區勝利路２８５號１樓,120.7004,24.21321,(04)25341777,羅氏家用新冠病毒抗原自我檢測套組,78,2022/05/09 15:51:02,快篩販售  （一）~（五） 下午6點    週（六）早上9點  週日不販售
5903100206,民生藥局,臺中市大雅區民生路一段２２１號１樓,120.6512,24.22789,(04)25662229,羅氏家用新冠病毒抗原自我檢測套組,78,2022/05/09 15:51:02,快篩實名制，每天16:00開始販售，售完為止。
5903150153,溪南藥局,臺中市烏日區溪南路一段５６５號１樓,120.6431,24.07523,(04)23353666,羅氏家用新冠病毒抗原自我檢測套組,78,2022/05/09 15:51:02,快篩實名制，每天16:00開始販售，售完為止。
5903150180,九德藥局,臺中市烏日區中山路一段４３８、４４０號１樓,120.6365,24.10748,(04)23385456,羅氏家用新冠病毒抗原自我檢測套組,78,2022/05/09 15:51:02,快篩實名制，每天16:00開始販售，售完為止。
5903180142,峰正藥局,臺中市霧峰區中正路８３０號１樓,120.6987,24.06244,(04)23303353,羅氏家用新冠病毒抗原自我檢測套組,78,2022/05/09 15:51:02,快篩實名制，每天16:00開始販售，售完為止。
5903190228,中山德侑藥局,臺中市太平區中山路３段２之２號１樓,120.7222,24.14942,(04)23920682,羅氏家用新冠病毒抗原自我檢測套組,1,2022/05/09 15:51:02,每日下午13:30開始販售，但遇特殊情況快篩販售時間會調整
5903190362,太平中山藥局,臺中市太平區中山路４段１１號,120.7139,24.14931,(04)23959200,羅氏家用新冠病毒抗原自我檢測套組,78,2022/05/09 15:51:02,快篩實名制，每天16:00開始販售，售完為止。
5903200229,信元藥局,臺中市大里區益民路２段３７２號１樓,120.684,24.11545,(04)24876051,羅氏家用新冠病毒抗原自我檢測套組,62,2022/05/09 15:51:02,下午5點發號碼牌並依序販賣
5903200443,佳霖藥局,臺中市大里區塗城路９６４號１樓,120.6933,24.09081,(04)24960895,羅氏家用新冠病毒抗原自我檢測套組,56,2022/05/09 15:51:02,健保卡快篩:（周日和周三停賣）.請備好健保卡和500元整.下午3點半開賣.現場排隊／售完為止
5903200596,大樹大里藥局,臺中市大里區中興路二段１０１號,120.6885,24.10305,(04)24861133,羅氏家用新冠病毒抗原自我檢測套組,78,2022/05/09 15:51:02,快篩實名制，每天16:00開始販售，售完為止。
5903200685,塗城藥局,臺中市大里區中興路一段１８７、１８９、１９１號１樓,120.6933,24.09008,(04)24967234,羅氏家用新冠病毒抗原自我檢測套組,78,2022/05/09 15:51:02,快篩實名制，每天16:00開始販售，售完為止。
5903200701,大益藥局,臺中市大里區益民路二段３３５號１、２樓,120.6837,24.11311,(04)24811551,羅氏家用新冠病毒抗原自我檢測套組,78,2022/05/09 15:51:02,快篩實名制，每天16:00開始販售，售完為止。
5903200738,杏一大里國光藥局,臺中市大里區國光路二段４１１號１樓,120.6796,24.10921,(04)24071492,羅氏家用新冠病毒抗原自我檢測套組,156,2022/05/09 15:51:02,周一至周六16:00~19:00，周日及補假日人力不足不販售
5903220196,日安藥局,臺中市中區臺灣大道一段３３０號１樓,120.6801,24.1422,(04)22234246,羅氏家用新冠病毒抗原自我檢測套組,6,2022/05/09 15:51:02,週一至週六 下午2:30開始販售快篩   週日 早上9:30開始販售
5903240278,美術藥局,臺中市西區美村路一段５６７號,120.6618,24.14442,(04)23725286,羅氏家用新冠病毒抗原自我檢測套組,26,2022/05/09 15:51:02,5／7起下午2:30開始販售快篩，售完為止。（星期日公休）
5903240367,宇祥藥局,臺中市西區五權五街１１９號１樓,120.6601,24.13635,(04)23728239,羅氏家用新冠病毒抗原自我檢測套組,5,2022/05/09 15:51:02,實名制快篩 14:30開始販售
5903240410,德芳美村藥局,臺中市西區美村路一段６８１、６８３號１樓,120.6618,24.13545,(04)23782848,羅氏家用新冠病毒抗原自我檢測套組,58,2022/05/09 15:51:02,周一到周五下午3點~6點
5903240447,大樹五權藥局,臺中市西區五權路９７－１號１樓,120.6717,24.14626,(04)22022910,羅氏家用新冠病毒抗原自我檢測套組,78,2022/05/09 15:51:02,快篩實名制，每天16:00開始販售，售完為止。
5903240465,德恩藥師藥局,臺中市西區精誠路２５２號１樓,120.6549,24.14949,(04)23102358,羅氏家用新冠病毒抗原自我檢測套組,13,2022/05/09 15:51:02,下午2:00開賣。若延後送貨，會再另外公告開賣時間。
5903240483,名華藥局,臺中市西區中華路一段７號１樓,120.6732,24.14209,(04)22231187,羅氏家用新冠病毒抗原自我檢測套組,43,2022/05/09 15:51:02,實名制快篩，5／9 PM3:00開售
5903250381,大樹美村藥局,臺中市南區美村南路１２４號,120.667,24.11499,(04)22621113,羅氏家用新冠病毒抗原自我檢測套組,78,2022/05/09 15:51:02,口罩販售時間：14:00 - 16:00
5903250443,千美台安藥局,臺中市南區美村南路２６３號,120.6666,24.11426,(04)22602101,羅氏家用新冠病毒抗原自我檢測套組,1,2022/05/09 15:51:02,周一到周日，下午2:30開始販售居家快篩
5903250505,心安藥局,臺中市南區國光路２４１號１樓,120.6794,24.12676,(04)22858773,羅氏家用新冠病毒抗原自我檢測套組,38,2022/05/09 15:51:02,每天下午三點排隊開賣，一人一卡，週日公休下次是5／9號
5903250578,樂碩藥局,臺中市南區建國南路一段２５９號１樓,120.6583,24.12491,(04)22601288,羅氏家用新冠病毒抗原自我檢測套組,5,2022/05/09 15:51:02,快篩週一到週六15:00、週日16:30開始販售，售完為止
5903250630,澄光工學藥局,臺中市南區工學路１５９號１樓,120.6592,24.11688,(04)22620606,羅氏家用新冠病毒抗原自我檢測套組,1,2022/05/09 15:51:02,下午3點販售快篩，現場排隊無號碼牌。
5903260734,立得藥局,臺中市北區忠太西路１１號１樓,120.6678,24.15997,(04)22080013,羅氏家用新冠病毒抗原自我檢測套組,13,2022/05/09 15:51:02,固定周一到周六，下午15:00開始販賣快篩
5903260743,黎明安德藥局,臺中市北區中清路１段８５２號１樓,120.6718,24.17295,(04)22956098,羅氏家用新冠病毒抗原自我檢測套組,30,2022/05/09 15:51:02,週四公休、週日下午2點開始營業，一到六下午3點開始販賣快篩，禮拜日下午5點開始販賣快篩，現場排隊。
5903260912,莒光藥局,臺中市北區錦南街１２號１樓,120.6886,24.15399,(04)22336663,羅氏家用新冠病毒抗原自我檢測套組,5,2022/05/09 15:51:02,每日下午3點開賣 78份售完為止 星期日上午10點開賣 臉書搜尋莒光藥局
5903260958,健康達人藥局,臺中市北區北平路２段５６號１樓,120.6735,24.17153,(04)22994866,羅氏家用新冠病毒抗原自我檢測套組,6,2022/05/09 15:51:02,快篩實名制，每天中午2:00開始販售，售完為止。
5903260985,森川健保藥局,臺中市北區五權路２５１號１樓,120.6764,24.15074,(09)78157008,羅氏家用新冠病毒抗原自我檢測套組,32,2022/05/09 15:51:02,快篩試劑到貨後三點開賣，售完為止（請查閱快篩APP）
5903261008,台中大樹藥局,臺中市北區漢口路三段２６１號,120.6726,24.16703,(04)22981113,羅氏家用新冠病毒抗原自我檢測套組,78,2022/05/09 15:51:02,快篩實名制，每天16:00開始販售，售完為止。
5903270310,弘福藥師藥局,臺中市西屯區西屯路３段１６６－２１號１樓,120.6159,24.18918,(04)24611916,羅氏家用新冠病毒抗原自我檢測套組,26,2022/05/09 15:51:02,每日15:00發放號碼牌，發完即開始販售（全年無休）
5903270516,中科何藥局,臺中市西屯區福康路４０號,120.6173,24.18421,(04)24612570,羅氏家用新冠病毒抗原自我檢測套組,2,2022/05/09 15:51:02,防疫快篩每日15:00開始販售。（全年無休）
5903270721,舒健藥局,臺中市西屯區西屯路二段２５５號２樓,120.6459,24.17179,(04)27077858,羅氏家用新冠病毒抗原自我檢測套組,75,2022/05/09 15:51:02,公費快篩試劑於周一至周六晚上7點現場排隊購買，週日公休。
5903270749,大墩藥局,臺中市西屯區大墩１９街６８號１樓,120.6518,24.15734,(04)23209602,羅氏家用新冠病毒抗原自我檢測套組,11,2022/05/09 15:51:02,每天下午三點開賣，請提早來排隊（視排隊狀況會提早發售）
5903270865,尚禾藥局,臺中市西屯區青海路一段６５號,120.6548,24.16438,(04)23147688,羅氏家用新冠病毒抗原自我檢測套組,39,2022/05/09 15:51:02,實名制快篩發放：時段一中午12:30~14:00。時段二20：30~22：30。時段一若未發完，餘量將遞延至時段二發放。周日停售。
5903270874,熊健康藥局,臺中市西屯區太原路一段２３２號,120.6632,24.16394,(04)23163505,羅氏家用新冠病毒抗原自我檢測套組,13,2022/05/09 15:51:02,快篩實名制14:30開始販售，售完為止。 星期日公休。
5903270883,祥和大藥局,臺中市西屯區青海路二段２４０－９號,120.6418,24.17323,(04)27000122,羅氏家用新冠病毒抗原自我檢測套組,2,2022/05/09 15:51:02,快篩下午1:00發放
5903271022,西屯藥局,臺中市西屯區西屯路三段１５０－４５號１樓,120.621,24.18716,(04)24621822,羅氏家用新冠病毒抗原自我檢測套組,78,2022/05/09 15:51:02,快篩實名制，每天16:00開始販售，售完為止。
5903271031,美十樂中科藥局,臺中市西屯區西屯路三段１６６－６５號１樓,120.6129,24.19035,(04)24610219,羅氏家用新冠病毒抗原自我檢測套組,468,2022/05/09 15:51:02,醫事人員卡片損壞，暫時無法販賣快篩
5903271068,西墩藥局,臺中市西屯區黎明路三段２７５、２７７號１樓,120.6373,24.17812,(04)24510770,羅氏家用新冠病毒抗原自我檢測套組,78,2022/05/09 15:51:02,快篩實名制，每天16:00開始販售，售完為止。
5903271086,常春藤藥局,臺中市西屯區福康路８０號１樓,120.618,24.18603,(04)24619296,羅氏家用新冠病毒抗原自我檢測套組,4,2022/05/09 15:51:02,每日下午兩點到四點、晚上七點到九點 販賣防疫家用快篩
5903271193,何安藥局,臺中市西屯區西屯路二段１０１號Ｂ棟１樓,120.6531,24.16616,(04)23161110,羅氏家用新冠病毒抗原自我檢測套組,78,2022/05/09 15:51:02,快篩實名制，每天16:00開始販售，售完為止。
5903271246,柏醫藥局,臺中市西屯區上安路５６號１樓,120.6412,24.17052,(04)24526391,羅氏家用新冠病毒抗原自我檢測套組,78,2022/05/09 15:51:02,因應到貨時間不定，統一晚上7點開放78組（5／9已到貨 8:40）
5903271291,西屯長安藥局,臺中市西屯區成都路３６８號１樓,120.6641,24.17322,(04)22981221,羅氏家用新冠病毒抗原自我檢測套組,78,2022/05/09 15:51:02,快篩實名制，每天16:00開始販售，售完為止。
5903280067,博川健保藥局,臺中市南屯區大墩５街２９８號１樓,120.6486,24.14257,(04)24732995,羅氏家用新冠病毒抗原自我檢測套組,4,2022/05/09 15:51:02,每日指揮中心發送量為78份，多餘之庫存為系統異常；因目前配送時間不固定，送達即開始販售
5903280807,大樹南屯藥局,臺中市南屯區向上路一段６４３號１樓,120.6486,24.14659,(04)24758887,羅氏家用新冠病毒抗原自我檢測套組,78,2022/05/09 15:51:02,快篩實名制，每天16:00開始販售，售完為止。
5903290750,長幼藥局,臺中市北屯區崇德路二路二段１５７號１樓,120.6853,24.17329,(04)22426767,羅氏家用新冠病毒抗原自我檢測套組,5,2022/05/09 15:51:02,採現場排隊無號碼牌，快篩地圖與庫存餘量會有誤差，敬請見諒
5903290876,北屯軍功藥局,臺中市北屯區軍功路一段７５２號,120.7193,24.17513,(04)24375111,羅氏家用新冠病毒抗原自我檢測套組,77,2022/05/09 15:51:02,快篩實名制，每天16:00開始販售，售完為止。
5903290894,豐禾藥局,臺中市北屯區同榮路１６３號,120.6618,24.19589,(04)24260588,羅氏家用新冠病毒抗原自我檢測套組,78,2022/05/09 15:51:02,快篩試劑於每日下午5點販售，星期日停售
5903290965,崇德藥局,臺中市北屯區崇德路二段３１號,120.685,24.16962,(04)22361331,羅氏家用新冠病毒抗原自我檢測套組,78,2022/05/09 15:51:02,快篩實名制，每天16:00開始販售，售完為止。
5903291006,五和健保藥局,臺中市北屯區崇德路二段４６０號１樓,120.6863,24.18001,(04)22415533,羅氏家用新冠病毒抗原自我檢測套組,6,2022/05/09 15:51:02,週六公休 。周一至周五 14:30 發號碼牌 14:40販售； 週日 8:30發號碼牌 隨後販售
5903291060,大樹北屯藥局,臺中市北屯區松竹路二段４１１號１樓,120.6895,24.18192,(04)22422262,羅氏家用新冠病毒抗原自我檢測套組,78,2022/05/09 15:51:02,快篩實名制，每天16:00開始販售，售完為止。
5903291140,興安藥局,臺中市北屯區興安路二段５２號１、２樓,120.6949,24.1762,(04)22460369,羅氏家用新冠病毒抗原自我檢測套組,78,2022/05/09 15:51:02,快篩實名制，每天16:00開始販售，售完為止。
5903291202,好心情藥局,臺中市北屯區昌平路一段１７之３號,120.6941,24.16607,(04)22335663,羅氏家用新冠病毒抗原自我檢測套組,22,2022/05/09 15:51:02,快篩販售時間 14:30 ~售完為止 ， 12:30~13:30 請勿來電，謝謝配合
5903291211,愛樂芬兒童藥局,臺中市北屯區松竹路一段９２９號１樓,120.7131,24.18216,(04)24363660,羅氏家用新冠病毒抗原自我檢測套組,1,2022/05/09 15:51:02,因配送時間不固定，預定下午三點開始販售
5903291257,新一代何藥局,臺中市北屯區環中東路二段２６６、２６８號１樓,120.7207,24.17576,(04)24364366,羅氏家用新冠病毒抗原自我檢測套組,78,2022/05/09 15:51:02,因應配送時間不一 ，販賣時間改為下午四點
5905010250,大樹新營藥局,臺南市新營區民權路７４、７６、７８號１樓,120.3127,23.30615,(06)6328300,羅氏家用新冠病毒抗原自我檢測套組,78,2022/05/09 15:51:02,快篩實名制，每天16:00開始販售，售完為止。
5905010330,新進啄木鳥藥局,臺南市新營區新進路２段２５４號１樓,120.3056,23.30074,(06)6565303,羅氏家用新冠病毒抗原自我檢測套組,1,2022/05/09 15:51:02,自5／7起每日上午10:00開賣，售完為止..
5905020023,大樹鹽水藥局,臺南市鹽水區朝琴路１２６－３號１樓,120.271,23.32228,(06)6520432,羅氏家用新冠病毒抗原自我檢測套組,78,2022/05/09 15:51:02,快篩實名制，每天16:00開始販售，售完為止。
5905030092,大樹白河藥局,臺南市白河區中山路１５３號１樓,120.417,23.35255,(06)6830006,羅氏家用新冠病毒抗原自我檢測套組,78,2022/05/09 15:51:02,快篩實名制，每天16:00開始販售，售完為止。
5905040141,大樹麻豆藥局,臺南市麻豆區中山路４８、５０號１樓,120.2469,23.18382,(06)5716556,羅氏家用新冠病毒抗原自我檢測套組,78,2022/05/09 15:51:02,快篩實名制，每天16:00開始販售，售完為止。
5905050058,佳里啄木鳥藥局,臺南市佳里區延平路７６號１樓,120.1795,23.15507,(06)7236396,羅氏家用新冠病毒抗原自我檢測套組,1,2022/05/09 15:51:02,下午2點-售完為止（若當天配送延誤，時間另行公布）
5905050209,大樹佳里藥局,臺南市佳里區延平路２３７號１樓,120.1783,23.1599,(06)7231323,羅氏家用新冠病毒抗原自我檢測套組,78,2022/05/09 15:51:02,快篩實名制，每天16:00開始販售，售完為止。
5905060198,大樹新化藥局,臺南市新化區中正路５３１號１樓,120.3072,23.03764,(06)5901331,羅氏家用新冠病毒抗原自我檢測套組,78,2022/05/09 15:51:02,快篩實名制，每天16:00開始販售，售完為止。
5905070121,大樹善化藥局,臺南市善化區民權路５４、５６、５８號１樓,120.3034,23.1322,(06)5830550,羅氏家用新冠病毒抗原自我檢測套組,78,2022/05/09 15:51:02,快篩實名制，每天16:00開始販售，售完為止。
5905070201,善化啄木鳥藥局,臺南市善化區中山路１８１號１、２樓,120.3006,23.13256,(06)5853585,羅氏家用新冠病毒抗原自我檢測套組,15,2022/05/09 15:51:02,快篩實名制，15:30-售完
5905080056,大樹學甲藥局,臺南市學甲區中正路１３５號１樓,120.1793,23.23029,(06)7820001,羅氏家用新冠病毒抗原自我檢測套組,78,2022/05/09 15:51:02,快篩實名制，每天16:00開始販售，售完為止。
5905200085,大樹新市藥局,臺南市新市區中正路４９、５１號１樓,120.2916,23.07223,(06)5892552,羅氏家用新冠病毒抗原自我檢測套組,78,2022/05/09 15:51:02,快篩實名制，每天16:00開始販售，售完為止。
5905270176,大樹仁德藥局,臺南市仁德區中正路二段１１５２號１樓,120.2519,22.97062,(06)2797466,羅氏家用新冠病毒抗原自我檢測套組,78,2022/05/09 15:51:02,快篩實名制，每天16:00開始販售，售完為止。
5905280109,大樹青青藥局,臺南市歸仁區中山路三段１２號,120.2875,22.96765,(06)2300301,羅氏家用新冠病毒抗原自我檢測套組,78,2022/05/09 15:51:02,快篩實名制，每天16:00開始販售，售完為止。
5905290034,大樹關廟藥局,臺南市關廟區中央路２６３號１樓,120.3272,22.96109,(06)5965889,羅氏家用新冠病毒抗原自我檢測套組,77,2022/05/09 15:51:02,快篩實名制，每天16:00開始販售，售完為止。
5905310979,復華藥師藥局,臺南市永康區復興里復華一街１３１號１樓,120.2422,23.00531,(06)3123597,羅氏家用新冠病毒抗原自我檢測套組,1,2022/05/09 15:51:02,營業時間7:00~22:30   防疫快篩試劑 下午3:00統一開放購買
5905311001,和德藥局復國店,臺南市永康區復國里復國一路３３９之７號１樓,120.2464,23.01155,(06)2038728,羅氏家用新冠病毒抗原自我檢測套組,1,2022/05/09 15:51:02,快篩下午3:00開始~人數達到便開賣
5905311074,中華長億藥局,臺南市永康區中華路７３４、７３６號１樓,120.2288,23.0167,(06)3022322,羅氏家用新冠病毒抗原自我檢測套組,78,2022/05/09 15:51:02,快篩實名制，每天16:00開始販售，售完為止。
5905311127,台南永康藥局,臺南市永康區中山南路８１６、８１６─１、２、３號１樓,120.2471,23.02099,(06)2020201,羅氏家用新冠病毒抗原自我檢測套組,78,2022/05/09 15:51:02,快篩實名制，每天16:00開始販售，售完為止。
5905320466,佑全中華藥局,臺南市東區中華東路三段２１５號,120.2253,22.97603,(06)2906386,羅氏家用新冠病毒抗原自我檢測套組,2,2022/05/09 15:51:02,星期一-六08:00-21:00
5905320564,杏一台南崇德藥局,臺南市東區崇德路６７４號,120.2274,22.96762,(06)2671939,羅氏家用新冠病毒抗原自我檢測套組,15,2022/05/09 15:51:02,健保快篩發送時間:周一至周日:下午:15:00
5905320608,中華台安藥局,臺南市東區中華東路一段４號１樓,120.2344,22.99818,(06)2092622,羅氏家用新冠病毒抗原自我檢測套組,2,2022/05/09 15:51:02,固定週一至周日13點-16點販售快篩，售完為止，現場為主
5905320706,悅橙藥局,臺南市東區崇明路４５９號１樓,120.2247,22.97311,(06)2605168,羅氏家用新冠病毒抗原自我檢測套組,6,2022/05/09 15:51:02,快篩每日實際販售時間為下午3點整
5905320797,大樹自由藥局,臺南市東區自由路三段３８２號１樓,120.2373,22.98241,(06)2890800,羅氏家用新冠病毒抗原自我檢測套組,78,2022/05/09 15:51:02,快篩實名制，每天16:00開始販售，售完為止。
5905320804,大樹大同藥局,臺南市東區大同路二段２２７、２２９號１樓,120.2143,22.97567,(06)2158700,羅氏家用新冠病毒抗原自我檢測套組,78,2022/05/09 15:51:02,快篩實名制，每天16:00開始販售，售完為止。
5905320868,大樹東寧藥局,臺南市東區東寧路４３６號１樓,120.2291,22.9895,(06)2360006,羅氏家用新冠病毒抗原自我檢測套組,78,2022/05/09 15:51:02,快篩實名制，每天16:00開始販售，售完為止。
5905320886,中華崇德藥局,臺南市東區中華東路三段１８１、１８３號１樓,120.2259,22.97667,(06)2880800,羅氏家用新冠病毒抗原自我檢測套組,78,2022/05/09 15:51:02,快篩實名制，每天16:00開始販售，售完為止。
5905320911,大樹崇道藥局,臺南市東區崇道路６３號１樓,120.2272,22.97227,(06)2680456,羅氏家用新冠病毒抗原自我檢測套組,78,2022/05/09 15:51:02,快篩實名制，每天16:00開始販售，售完為止。
5905330284,大樹佳華藥局,臺南市南區金華路二段１２９號１樓,120.1911,22.98035,(06)2641238,羅氏家用新冠病毒抗原自我檢測套組,78,2022/05/09 15:51:02,快篩實名制，每天16:00開始販售，售完為止。
5905370304,大樹安南藥局,臺南市安南區安和路四段５５７號１樓,120.2185,23.06181,(06)3563370,羅氏家用新冠病毒抗原自我檢測套組,78,2022/05/09 15:51:02,快篩實名制，每天16:00開始販售，售完為止。
5905370466,大樹北安藥局,臺南市安南區北安路三段１５８號１樓,120.2036,23.04256,(06)2553633,羅氏家用新冠病毒抗原自我檢測套組,78,2022/05/09 15:51:02,快篩實名制，每天16:00開始販售，售完為止。
5905380293,人仁藥局,臺南市安平區怡平里慶平路２８１號１樓,120.1763,22.99668,(06)2998667,羅氏家用新冠病毒抗原自我檢測套組,1,2022/05/09 15:51:02,快篩每日下午2點開賣.現場排隊無號碼牌
5907010043,北京藥局文山店,高雄市鳳山區青年路二段３６７號１．２樓,120.3511,22.64152,(07)7676766,羅氏家用新冠病毒抗原自我檢測套組,78,2022/05/09 15:51:02,無
5907010212,北京藥局中崙店,高雄市鳳山區中崙四路１６號１樓,120.3519,22.59971,(07)7550655,羅氏家用新冠病毒抗原自我檢測套組,3,2022/05/09 15:51:02,營業時間上午08:00~下午11:00，下午3點開始販售快篩，售完為止。
5907010365,科健藥局,高雄市鳳山區八德路２４６－５號１樓,120.3568,22.63853,(07)7777868,羅氏家用新冠病毒抗原自我檢測套組,50,2022/05/09 15:51:02,下午3:30開始換購
5907010945,光田藥局,高雄市鳳山區鎮東里光遠路９５號１樓,120.3656,22.62412,(07)7460773,羅氏家用新冠病毒抗原自我檢測套組,3,2022/05/09 15:51:02,國定假日及周日固定店休 （實名制快篩 販售時間15:00-17:00 售完為止! ）
5907011095,鳳山五甲藥局,高雄市鳳山區正義里五甲二路１３９號１樓,120.3409,22.6014,(07)7269899,羅氏家用新冠病毒抗原自我檢測套組,78,2022/05/09 15:51:02,快篩實名制，每天16:00開始販售，售完為止。
5907011148,大樹國泰藥局,高雄市鳳山區興仁里五甲一路２９２號,120.3539,22.61698,(07)7407234,羅氏家用新冠病毒抗原自我檢測套組,78,2022/05/09 15:51:02,快篩實名制，每天16:00開始販售，售完為止。
5907011228,鳳山青年藥局,高雄市鳳山區文德里青年路二段３９９號１樓,120.3513,22.64292,(07)7678383,羅氏家用新冠病毒抗原自我檢測套組,78,2022/05/09 15:51:02,口罩販售時間：14:00 - 16:00
5907011264,新高橋藥局青年店,高雄市鳳山區文衡里青年路二段２８９號１樓,120.3508,22.63964,(07)7676179,羅氏家用新冠病毒抗原自我檢測套組,10,2022/05/09 15:51:02,上午10:00開始販售快篩
5907011371,大樹五甲藥局,高雄市鳳山區福祥里五甲三路２４號１－２樓．２６號１－２樓,120.3278,22.59317,(07)8224926,羅氏家用新冠病毒抗原自我檢測套組,79,2022/05/09 15:51:02,快篩實名制，每天16:00開始販售，售完為止。
5907020085,大德藥局,高雄市岡山區大德一路９８號,120.3025,22.79689,(07)6221456,羅氏家用新冠病毒抗原自我檢測套組,78,2022/05/09 15:51:02,快篩實名制，每天16:00開始販售，售完為止。
5907020094,大樹岡山藥局,高雄市岡山區岡山路１３６號,120.2967,22.78913,(07)6219477,羅氏家用新冠病毒抗原自我檢測套組,78,2022/05/09 15:51:02,快篩實名制，每天16:00開始販售，售完為止。
5907030152,旗山藥局,高雄市旗山區中華路２３號,120.4841,22.88027,(07)6621158,羅氏家用新冠病毒抗原自我檢測套組,78,2022/05/09 15:51:02,快篩實名制，每天16:00開始販售，售完為止。
5907050109,林園藥局,高雄市林園區仁愛路１３號１樓,120.3928,22.50418,(07)6425855,羅氏家用新冠病毒抗原自我檢測套組,78,2022/05/09 15:51:02,快篩實名制，每天16:00開始販售，售完為止。
5907060230,華思中西藥局,高雄市大寮區永芳里進學路１２２號１樓,120.3933,22.60468,(07)7835567,羅氏家用新冠病毒抗原自我檢測套組,78,2022/05/09 15:51:02,星期一~星期六 下午四點販售實名制快篩到售完為止   星期天店休
5907070030,久堂藥局,高雄市大樹區久堂里久堂路１３６號１樓,120.4178,22.65813,(07)6512800,羅氏家用新冠病毒抗原自我檢測套組,78,2022/05/09 15:51:02,快篩實名制，每天16:00開始販售，售完為止。
5907080125,仁武丁丁藥局,高雄市仁武區仁和里鳳仁路２１之８號,120.3558,22.6802,(07)3721896,羅氏家用新冠病毒抗原自我檢測套組,38,2022/05/09 15:51:02,自5月1日~5月31日，營業日9:00起為販賣快篩時間，售完為止。
5907080223,新高橋藥局仁雄店,高雄市仁武區赤山里仁雄路８９－３號,120.3457,22.67722,(07)3485857,羅氏家用新冠病毒抗原自我檢測套組,1,2022/05/09 15:51:02,藥局電話07-3743243
5907080232,大樹仁武藥局,高雄市仁武區赤山里仁雄路８０－９號,120.3469,22.67811,(07)3744777,羅氏家用新冠病毒抗原自我檢測套組,78,2022/05/09 15:51:02,快篩實名制，每天16:00開始販售，售完為止。
5907080269,興德昌藥局,高雄市仁武區文武里中華路２３２號,120.3516,22.69985,(07)3757005,羅氏家用新冠病毒抗原自我檢測套組,1,2022/05/09 15:51:02,固定週一至週日14:30~16:00開始發放號碼牌並依序販售快篩.售完為止
5907080330,文武藥局,高雄市仁武區文武里中華路３５３號,120.3535,22.7011,(07)3733551,羅氏家用新冠病毒抗原自我檢測套組,78,2022/05/09 15:51:02,快篩實名制，每天16:00開始販售，售完為止。
5907090167,大樹大社藥局,高雄市大社區中山路３０８號１樓,120.3503,22.73145,(07)3531682,羅氏家用新冠病毒抗原自我檢測套組,78,2022/05/09 15:51:02,快篩實名制，每天16:00開始販售，售完為止。
5907150257,大樹大立藥局,高雄市路竹區國昌路５１號,120.26,22.85409,(07)6961663,羅氏家用新冠病毒抗原自我檢測套組,78,2022/05/09 15:51:02,快篩實名制，每天16:00開始販售，售完為止。
5907160093,保生藥局,高雄市湖內區葉厝里保生路３４０．３４２號,120.2195,22.90733,(07)6990800,羅氏家用新冠病毒抗原自我檢測套組,79,2022/05/09 15:51:02,快篩實名制，每天16:00開始販售，售完為止。
5907280036,七賢藥局,高雄市鹽埕區七賢三路１６２號１樓,120.2829,22.62712,(07)5330616,羅氏家用新冠病毒抗原自我檢測套組,78,2022/05/09 15:51:02,快篩實名制，每天16:00開始販售，售完為止。
5907290309,鼓山藥局,高雄市鼓山區華榮路１０號,120.2973,22.66156,(07)5520017,羅氏家用新冠病毒抗原自我檢測套組,78,2022/05/09 15:51:02,快篩實名制，每天16:00開始販售，售完為止。
5907300613,新高橋藥局河堤店,高雄市左營區裕誠路１４４號１樓及地下１樓,120.3095,22.66423,(07)5582806,羅氏家用新冠病毒抗原自我檢測套組,1,2022/05/09 15:51:02,下午1:30開始販售口罩至下午5:30
5907300631,大樹孟子藥局,高雄市左營區孟子路２２６、２２８號,120.3112,22.67415,(07)3461772,羅氏家用新冠病毒抗原自我檢測套組,78,2022/05/09 15:51:02,快篩實名制，每天16:00開始販售，售完為止。
5907300686,左營自由藥局,高雄市左營區自由二路３５０、３５０－１號,120.3091,22.66599,(07)5589991,羅氏家用新冠病毒抗原自我檢測套組,78,2022/05/09 15:51:02,快篩實名制，每天16:00開始販售，售完為止。
5907300926,高鐵藥局,高雄市左營區華夏路１３２２．１３２６號,120.312,22.68587,(07)3452797,羅氏家用新冠病毒抗原自我檢測套組,78,2022/05/09 15:51:02,快篩實名制，每天16:00開始販售，售完為止。
5907300944,左營藥局,高雄市左營區華夏路３２５號,120.2972,22.67167,(07)5501017,羅氏家用新冠病毒抗原自我檢測套組,78,2022/05/09 15:51:02,快篩實名制，每天16:00開始販售，售完為止。
5907300980,大路藥局,高雄市左營區左營大路５５－２號１樓,120.2877,22.6813,(07)5851001,羅氏家用新冠病毒抗原自我檢測套組,78,2022/05/09 15:51:02,快篩實名制，每天16:00開始販售，售完為止。
5907310262,大樹楠梓藥局,高雄市楠梓區軍校路９０８號,120.2919,22.71246,(07)3632322,羅氏家用新冠病毒抗原自我檢測套組,78,2022/05/09 15:51:02,快篩實名制，每天16:00開始販售，售完為止。
5907310404,藍田藥局,高雄市楠梓區藍田路１號,120.2953,22.72643,(07)3601236,羅氏家用新冠病毒抗原自我檢測套組,78,2022/05/09 15:51:02,快篩實名制，每天16:00開始販售，售完為止。
5907320893,大樹天祥藥局,高雄市三民區天祥一路１６７號,120.3191,22.66737,(07)3429902,羅氏家用新冠病毒抗原自我檢測套組,78,2022/05/09 15:51:02,快篩實名制，每天16:00開始販售，售完為止。
5907321069,桂林活力藥局九如店,高雄市三民區懷安街１１２號１樓,120.3176,22.64095,(07)3981009,羅氏家用新冠病毒抗原自我檢測套組,59,2022/05/09 15:51:02,每天15:30發號碼牌，於18:00前兌換完畢，逾期棄權，剩餘則繼續發放
5907321103,自由藥局,高雄市三民區自由一路７８號,120.3089,22.64422,(07)3223113,羅氏家用新冠病毒抗原自我檢測套組,78,2022/05/09 15:51:02,快篩實名制，每天16:00開始販售，售完為止。
5907350346,武廟幸福藥局,高雄市苓雅區武廟路３５號,120.3316,22.62999,(07)7170085,羅氏家用新冠病毒抗原自我檢測套組,3,2022/05/09 15:51:02,1: 自111／5／1起：快篩販售時間為13:40開始。2: 販售方式依現場公告為主，售完為止。
5907350506,大樹苓雅藥局,高雄市苓雅區中華四路１５３號,120.3001,22.61783,(07)5353111,羅氏家用新冠病毒抗原自我檢測套組,78,2022/05/09 15:51:02,快篩實名制，每天16:00開始販售，售完為止。
5907350551,大樹武廟藥局,高雄市苓雅區武廟路４３、４５號１樓,120.3314,22.63005,(07)7222268,羅氏家用新冠病毒抗原自我檢測套組,78,2022/05/09 15:51:02,快篩實名制，每天16:00開始販售，售完為止。
5907350631,三多藥局,高雄市苓雅區三多二路２９２號１樓,120.3173,22.61838,(07)3365889,羅氏家用新冠病毒抗原自我檢測套組,78,2022/05/09 15:51:02,快篩實名制，每天16:00開始販售，售完為止。
5907350659,北京藥局林泉店,高雄市苓雅區林泉里３鄰林泉街３５號１樓,120.3192,22.62323,(07)7263030,羅氏家用新冠病毒抗原自我檢測套組,38,2022/05/09 15:51:02,營業時間早上8點到下午11點，快篩下午3點30分開始販售
5907360520,大樹瑞福藥局,高雄市前鎮區瑞隆路１７０號１樓、２樓,120.3357,22.60598,(07)7271170,羅氏家用新冠病毒抗原自我檢測套組,78,2022/05/09 15:51:02,快篩實名制，每天16:00開始販售，售完為止。
5907360548,芳鄰藥局,高雄市前鎮區中華五路９９３號１樓,120.3059,22.60262,(07)5361134,羅氏家用新冠病毒抗原自我檢測套組,11,2022/05/09 15:51:02,快篩實名制販售時間：週一～週五下午３點～５點，週六早上８點～１０點，週日不販售
5907360664,忠純藥局,高雄市前鎮區中華五路１００９號１樓,120.3056,22.60341,(07)3366886,羅氏家用新冠病毒抗原自我檢測套組,78,2022/05/09 15:51:02,快篩實名制，每天16:00開始販售，售完為止。
5907360673,前鎮大樹藥局,高雄市前鎮區瑞隆路４７２號１樓,120.3291,22.60547,(07)7137171,羅氏家用新冠病毒抗原自我檢測套組,78,2022/05/09 15:51:02,快篩實名制，每天16:00開始販售，售完為止。
5907380264,大樹孔鳳藥局,高雄市小港區孔鳳路５１９、５２１號,120.3587,22.5828,(07)7918521,羅氏家用新冠病毒抗原自我檢測套組,78,2022/05/09 15:51:02,快篩實名制，每天16:00開始販售，售完為止。
5907380424,大樹小港藥局,高雄市小港區康莊路７５號１樓,120.3559,22.56853,(07)8068328,羅氏家用新冠病毒抗原自我檢測套組,78,2022/05/09 15:51:02,快篩實名制，每天16:00開始販售，售完為止。
5911011325,永好藥局,基隆市中正區北寧路３１５號１樓,121.7951,25.13981,(02)24697639,羅氏家用新冠病毒抗原自我檢測套組,25,2022/05/09 15:51:02,快篩星期一*三*五是單號 二*四雙號 下午14:30販售 星期六星期日休息
5911011638,中正藥局,基隆市中正區新豐街３８５號１、２樓,121.7856,25.13537,(02)24690660,羅氏家用新冠病毒抗原自我檢測套組,77,2022/05/09 15:51:02,快篩實名制，每天16:00開始販售，售完為止。
5911021438,正心藥局,基隆市七堵區南興路１０號１樓,121.7149,25.09755,(02)24563378,羅氏家用新冠病毒抗原自我檢測套組,2,2022/05/09 15:51:02,每日限量78盒， 星期一~六下午13:30發號碼牌，14:00開始販賣，星期日上午9:00發號碼牌，9:30開始販賣，12:00停止領取
5911031238,碇內東亞藥師藥局,基隆市暖暖區源遠路３１９號１樓,121.7574,25.09941,(02)24590033,羅氏家用新冠病毒抗原自我檢測套組,3,2022/05/09 15:51:02,周一至周六下午三點發放快篩試劑
5911051490,大哈密藥局,基隆市中山區中山二路５號,121.741,25.13678,(02)24285368,羅氏家用新冠病毒抗原自我檢測套組,20,2022/05/09 15:51:02,發放快篩時間：星期一至星期五 15:00-17:00； 星期六 9:30-11:30
5911051543,復興藥局,基隆市中山區復興路１２８、１３０、１３２、１３４號１、２樓,121.7262,25.1446,(02)24362566,羅氏家用新冠病毒抗原自我檢測套組,78,2022/05/09 15:51:02,快篩實名制，每天16:00開始販售，售完為止。
5911071536,小不點健保藥局,基隆市信義區深溪路１２６號１樓,121.7827,25.13375,(02)24683985,羅氏家用新冠病毒抗原自我檢測套組,50,2022/05/09 15:51:02,無
5911071590,基隆藥局,基隆市信義區東信路１６６、１６８號１、２樓,121.7646,25.12821,(02)24680955,羅氏家用新冠病毒抗原自我檢測套組,78,2022/05/09 15:51:02,快篩實名制，每天16:00開始販售，售完為止。
5912012120,仁美藥局,新竹市東區振興里振興路５２號,120.9625,24.79493,(03)5625398,羅氏家用新冠病毒抗原自我檢測套組,78,2022/05/09 15:51:02,週一~週六晚上六點販售（週日店休）不發號碼牌!請不要問我要幾點排隊，我不是九天玄女!盡量不打電話，感恩!!
5912013494,田美藥局,新竹市東區田美三街３５之１號１樓,120.9767,24.81572,(03)5350233,羅氏家用新冠病毒抗原自我檢測套組,78,2022/05/09 15:51:02,快篩實名制，每天16:00開始販售，售完為止。
5912013672,關東藥局,新竹市東區光復路１段３３２、３３４號１至２樓,121.0187,24.78289,(03)5777077,羅氏家用新冠病毒抗原自我檢測套組,78,2022/05/09 15:51:02,快篩實名制，每天16:00開始販售，售完為止。
5912013681,仁春藥局,新竹市東區慈濟路２５２號１樓,121.0153,24.79245,(03)6686718,羅氏家用新冠病毒抗原自我檢測套組,78,2022/05/09 15:51:02,如有收到實名制快篩，於15:00開始販售，售完為止，請準備好現金，謝謝
5912042098,欣欣藥局,新竹市北區西大路736巷1號,120.9591,24.81011,(03)5351205,羅氏家用新冠病毒抗原自我檢測套組,13,2022/05/09 15:51:02,快篩代售周一~周六下午3點開始販售，售完為止  藥局營業時間上午8:00-12:00 ；下午15:00-18:00 ；晚上18:30-21:30
5912042235,均祐健康藥局,新竹市北區境福里１５鄰中正路３８９號１樓,120.961,24.81546,(03)5325369,羅氏家用新冠病毒抗原自我檢測套組,4,2022/05/09 15:51:02,口罩販售時間：09:00
5912042940,新竹北門藥局,新竹市北區中正路３６０、３６２號１樓,120.9629,24.81414,(03)5333234,羅氏家用新冠病毒抗原自我檢測套組,78,2022/05/09 15:51:02,快篩實名制，每天16:00開始販售，售完為止。
5912042968,大樹新竹藥局,新竹市北區西大路５４０、５４２號１、２樓,120.9619,24.80676,(03)5250388,羅氏家用新冠病毒抗原自我檢測套組,78,2022/05/09 15:51:02,快篩實名制，每天16:00開始販售，售完為止。
5912051430,三姓藥局,新竹市香山區中華路四段５７６號１、２樓,120.9297,24.78886,(03)5385886,羅氏家用新冠病毒抗原自我檢測套組,78,2022/05/09 15:51:02,快篩實名制，每天16:00開始販售，售完為止。
5917011945,正三吉藥局,臺中市中區臺灣大道一段９５號,120.6831,24.13911,(04)22207700,羅氏家用新冠病毒抗原自我檢測套組,78,2022/05/09 15:51:02,快篩販售時間 14:00~17:00
5917030995,麗新健保大藥局,臺中市西區向上路一段１６２號,120.6612,24.1469,(04)23017100,羅氏家用新冠病毒抗原自我檢測套組,2,2022/05/09 15:51:02,週一至週日下午15:00至售完為止
5917032640,幸福大藥局,臺中市西區向上路一段１９４號１樓,120.6605,24.14684,(04)23026149,羅氏家用新冠病毒抗原自我檢測套組,25,2022/05/09 15:51:02,每日下午3:00開始販售實名制快篩，售完為止（5／7改為上午8點））
5917050933,英才藥局,臺中市北區英才路２２９號,120.674,24.15558,(04)22012325,羅氏家用新冠病毒抗原自我檢測套組,15,2022/05/09 15:51:02,上午9~10:30及下午5~6:30依序發售口罩，週日公休。
5917060108,博新藥局,臺中市西屯區福安里中工三路２２０號,120.6153,24.17541,(04)23583412,羅氏家用新冠病毒抗原自我檢測套組,7,2022/05/09 15:51:02,星期一至六 下午2:30分 開始販賣快篩劑  無號碼牌 星期日休營
5917061150,裕和藥局,臺中市西屯區大墩路９５１號１Ｆ,120.652,24.15929,(04)23252629,羅氏家用新冠病毒抗原自我檢測套組,1,2022/05/09 15:51:02,實名制快篩W1-W6 14:00開始販售；星期日9:00開始
5917071727,大愛藥局,臺中市南屯區向心南路９６２．９６４號１樓,120.644,24.13718,(04)24733646,羅氏家用新冠病毒抗原自我檢測套組,51,2022/05/09 15:51:02,快篩販售請依現場公告為主
5917072644,全成藥局,臺中市南屯區大墩６街２２３號,120.6464,24.14254,(04)24712897,羅氏家用新冠病毒抗原自我檢測套組,13,2022/05/09 15:51:02,實名制快篩每日15:00開始販售-售完為止（庫存以現場為主）
5917083254,建祐藥局,臺中市北屯區太原路三段２６１號,120.6932,24.16505,(04)22389809,羅氏家用新冠病毒抗原自我檢測套組,10,2022/05/09 15:51:02,今日尚未收到貨；星期日休
5921010072,統一藥局,臺南市東區中西里東門路１段２９１號,120.2186,22.98683,(06)2376638,羅氏家用新冠病毒抗原自我檢測套組,1,2022/05/09 15:51:02,早上9點到晚間9點半  星期日休假
5921012085,台安藥局,臺南市東區大同路一段１６３號,120.2113,22.98503,(06)2150011,羅氏家用新冠病毒抗原自我檢測套組,53,2022/05/09 15:51:02,快篩下午四點開始銷售
5921013206,和德藥局,臺南市東區崇德路４９７號,120.2272,22.97435,(06)2882789,羅氏家用新冠病毒抗原自我檢測套組,38,2022/05/09 15:51:02,實名制快篩試劑販售時間14:30~17:00，售完即止
5921040623,惠光藥局,臺南市北區文亢里文賢路２３６號,120.1938,23.0042,(06)2586316,羅氏家用新冠病毒抗原自我檢測套組,78,2022/05/09 15:51:02,快篩販售:5／9下午4:00開始，星期日公休
5921050138,金德藥局,臺南市中西區府前路１段３３號,120.2108,22.98881,(06)2149082,羅氏家用新冠病毒抗原自我檢測套組,1,2022/05/09 15:51:02,星期一-日08:00-23:00
5921050423,吉仁大藥局,臺南市中西區白金里民權路２段８６號,120.2045,22.99468,(06)2263777,羅氏家用新冠病毒抗原自我檢測套組,38,2022/05/09 15:51:02,周ㄧ15:30~16:30到周日09:30~10:30開始依序購買快篩，售完為止。
5922010361,壽生堂藥局,嘉義市東區府路里延平街２８０號,120.4502,23.47683,(05)2225058,羅氏家用新冠病毒抗原自我檢測套組,2,2022/05/09 15:51:02,周一至周日上午09:00起，至20:00或售鑿為止。
5922012178,聖心藥局,嘉義市東區大雅路二段５７７號,120.4676,23.47718,(05)2777189,羅氏家用新冠病毒抗原自我檢測套組,27,2022/05/09 15:51:02,每日下午3點領號碼牌
5922012945,大明藥局,嘉義市東區大雅路二段６８２號,120.4663,23.47719,(05)2760958,羅氏家用新冠病毒抗原自我檢測套組,25,2022/05/09 15:51:02,5／9 號碼牌已經分發完畢
5922013102,後庄藥局,嘉義市東區吳鳳南路６４９號,120.4594,23.45511,(05)2391233,羅氏家用新冠病毒抗原自我檢測套組,78,2022/05/09 15:51:02,快篩實名制，每天16:00開始販售，售完為止。
5922013111,富善藥局,嘉義市東區新生路２３４號,120.4609,23.48419,(05)2759559,羅氏家用新冠病毒抗原自我檢測套組,28,2022/05/09 15:51:02,5／13、14休假，實名制快篩早上9:10-12:00下午3:10-5:00
5922013184,軍輝啄木鳥藥局,嘉義市東區軍輝路２２２號,120.4588,23.455,(05)2395963,羅氏家用新冠病毒抗原自我檢測套組,78,2022/05/09 15:51:02,實名制快篩販售週一~日下午4:00開始
5922013193,民權藥局,嘉義市東區民權路１５５號１樓、１５７號１樓,120.4604,23.48374,(05)2775322,羅氏家用新冠病毒抗原自我檢測套組,78,2022/05/09 15:51:02,快篩實名制，每天16:00開始販售，售完為止。
5922020858,大統藥局,嘉義市西區慶安里北興街１３６號,120.4421,23.48389,(05)2330230,羅氏家用新冠病毒抗原自我檢測套組,2,2022/05/09 15:51:02,5月9日預約登記已滿.有預約的民眾請於上午9:00-12:00領取
5922020894,平良藥局,嘉義市西區致遠里興業西路８４號１樓,120.4443,23.46856,(05)2235220,羅氏家用新冠病毒抗原自我檢測套組,24,2022/05/09 15:51:02,下午3點開賣快篩
5922021006,竹圍藥局,嘉義市西區友愛路２７０、２７２號,120.4339,23.4837,(05)2811233,羅氏家用新冠病毒抗原自我檢測套組,78,2022/05/09 15:51:02,快篩實名制，每天16:00開始販售，售完為止。
5931010011,埔墘藥局,新北市板橋區中山路２段２２７號,121.477,25.01741,(02)29646705,羅氏家用新冠病毒抗原自我檢測套組,1,2022/05/09 15:51:02,實名制快篩每天14:30發放號碼牌
5931010235,友祥藥局,新北市板橋區裕民街１０７號,121.4599,25.02773,(02)22544666,羅氏家用新冠病毒抗原自我檢測套組,2,2022/05/09 15:51:02,無
5931010342,宏達大藥局,新北市板橋區莒光路１７號,121.47,25.02478,(02)22572345,羅氏家用新冠病毒抗原自我檢測套組,156,2022/05/09 15:51:02,快篩 晚上20:00開始販售! 不要打電話來 問題這麼多就到現場 也不給你問
5931010646,人民藥局,新北市板橋區仁愛路５９號,121.4604,24.99965,(02)89533956,羅氏家用新冠病毒抗原自我檢測套組,1,2022/05/09 15:51:02,1.依政府規定當日配送，當日販售。2.因每日郵局配送時間不一定，詳看現場公告。.
5931011947,長弘藥局,新北市板橋區龍泉街１１０號,121.4568,25.02454,(02)22558789,羅氏家用新冠病毒抗原自我檢測套組,18,2022/05/09 15:51:02,勿打電話 快篩地圖不準 下午五點開始販售 若排隊人數超過庫存人數會提前販賣
5931014555,廣益藥局,新北市板橋區自由路２１號,121.4654,25.02296,(02)22545726,羅氏家用新冠病毒抗原自我檢測套組,28,2022/05/09 15:51:02,下午3點50發號碼牌，4點開始賣
5931015187,皇慶藥局,新北市板橋區南門街８１、８３號１、２樓及館前西路１１２巷７號,121.4568,25.0077,(02)29655351,羅氏家用新冠病毒抗原自我檢測套組,26,2022/05/09 15:51:02,實名防疫快篩號碼牌發放時間自15:00
5931015301,利安中西藥局,新北市板橋區板新路１４３號,121.4702,25.01544,(02)29644745,羅氏家用新冠病毒抗原自我檢測套組,1,2022/05/09 15:51:02,快篩每日下午三點開賣
5931015687,正康健保藥局,新北市板橋區大觀路２段６５號１樓,121.4467,25.00246,(02)22756681,羅氏家用新冠病毒抗原自我檢測套組,74,2022/05/09 15:51:02,下午13:30依現場順序開始販售快篩，快篩配送絮亂庫存不準!!
5931015749,品品藥局,新北市板橋區中山路２段４０２號〈１樓〉,121.4827,25.02073,(02)29647917,羅氏家用新冠病毒抗原自我檢測套組,46,2022/05/09 15:51:02,星期六9:30-15:30.連假上班9:30-15:30（半天）快篩每日下午4點發.
5931016273,湯明藥局,新北市板橋區中山路２段３１９號１樓,121.479,25.01866,(02)29571980,羅氏家用新冠病毒抗原自我檢測套組,65,2022/05/09 15:51:02,週一到週五 下午四點  六日時間未定 排隊不發號碼
5931016504,仁泰藥局,新北市板橋區四川路２段３３號１樓,121.4543,24.99537,(02)89672133,羅氏家用新冠病毒抗原自我檢測套組,6,2022/05/09 15:51:02,無
5931016611,民川藥局,新北市板橋區四川路１段９７號１樓,121.4598,25.00544,(02)29520090,羅氏家用新冠病毒抗原自我檢測套組,1,2022/05/09 15:51:02,星期一~星期六（快篩上午9:00販售38份下午3:00販售40份）
5931016808,正安健保藥局,新北市板橋區民族路２２４號（１樓）,121.4687,25.00733,(02)29526813,羅氏家用新冠病毒抗原自我檢測套組,70,2022/05/09 15:51:02,17時依現場順序開始販售.週六12點.電腦配送庫存不準..以現場數量為準
5931017172,順儷府中藥局,新北市板橋區中山路１段９６號（１樓）,121.4622,25.01016,(02)29541199,羅氏家用新冠病毒抗原自我檢測套組,26,2022/05/09 15:51:02,無
5931017529,埔全藥局,新北市板橋區忠孝路３３號（１樓）,121.4608,25.00206,(02)29567309,羅氏家用新冠病毒抗原自我檢測套組,78,2022/05/09 15:51:02,實名快篩 可以加line詢問
5931017618,新埔健保藥局,新北市板橋區自由路２號１樓,121.4654,25.02222,(02)22558878,羅氏家用新冠病毒抗原自我檢測套組,39,2022/05/09 15:51:02,無
5931017770,光環藥局,新北市板橋區光環路２段１６號１樓,121.4822,25.01476,(02)89520920,羅氏家用新冠病毒抗原自我檢測套組,1,2022/05/09 15:51:02,無
5931017789,明翠藥局,新北市板橋區四維路１４６、１４８號１、２樓,121.4651,25.02555,(02)22550201,羅氏家用新冠病毒抗原自我檢測套組,78,2022/05/09 15:51:02,快篩實名制，每天16:00開始販售，售完為止。
5931017912,社後藥局,新北市板橋區大仁街３９號（１樓）,121.4551,25.01661,(02)29665662,羅氏家用新冠病毒抗原自我檢測套組,78,2022/05/09 15:51:02,快篩實名制，每天16:00開始販售，售完為止。
5931017921,順儷民權藥局,新北市板橋區民權路２３４號１樓,121.4586,25.01453,(02)29609555,羅氏家用新冠病毒抗原自我檢測套組,9,2022/05/09 15:51:02,無
5931017967,曉品中西藥局,新北市板橋區貴興路２４號（１樓）,121.4575,25.00389,(02)29586990,羅氏家用新冠病毒抗原自我檢測套組,3,2022/05/09 15:51:02,無
5931017985,松柏藥局,新北市板橋區松柏街９４號（１樓）,121.4767,25.03065,(02)82585223,羅氏家用新冠病毒抗原自我檢測套組,78,2022/05/09 15:51:02,快篩實名制，每天16:00開始販售，售完為止。
5931017994,後埔藥局,新北市板橋區華興街９號（１樓）,121.459,25.00457,(02)89510306,羅氏家用新冠病毒抗原自我檢測套組,8,2022/05/09 15:51:02,5／9 下午2點發放號碼牌*確保作業流暢請自備500元*每天 78 份晚上10 點以前領取完畢（過卡時間差異剩餘數量僅供參考）
5931018026,莊敬藥局,新北市板橋區莊敬路１６３號（１樓）,121.4715,25.02456,(02)22551105,羅氏家用新冠病毒抗原自我檢測套組,78,2022/05/09 15:51:02,快篩實名制，每天16:00開始販售，售完為止。
5931018053,廣福健保藥局,新北市板橋區三民路１段７６號（１樓）,121.4793,25.02207,(02)29544288,羅氏家用新冠病毒抗原自我檢測套組,70,2022/05/09 15:51:02,實名制快篩每日下午16:00開始販售
5931018099,廣品藥局,新北市板橋區漢生西路８２號（１樓）,121.4628,25.01934,(02)22576880,羅氏家用新冠病毒抗原自我檢測套組,78,2022/05/09 15:51:02,實名制快篩 周一~周五下午16；00發放 週六.日 早上09；30發放 請勿打電話詢問 感謝配合
5931018142,重慶藥局,新北市板橋區國慶路１２７號（１樓）,121.4608,24.99602,(02)29565586,羅氏家用新冠病毒抗原自我檢測套組,78,2022/05/09 15:51:02,快篩實名制，每天16:00開始販售，售完為止。
5931023447,安泰藥局,新北市三重區正義北路３００－３號２樓,121.4953,25.06978,(02)89815379,羅氏家用新冠病毒抗原自我檢測套組,142,2022/05/09 15:51:02,5／2只有早上8:30--12:00營業下午.及晚上休息
5931023858,開元藥局,新北市三重區正義北路３２４號２樓,121.4949,25.07039,(02)29873976,羅氏家用新冠病毒抗原自我檢測套組,28,2022/05/09 15:51:02,無
5931024551,樂活處方箋藥局,新北市三重區中正北路９９號１樓,121.4897,25.06325,(02)29805182,羅氏家用新冠病毒抗原自我檢測套組,78,2022/05/09 15:51:02,4PM快篩  六日休
5931024971,欽勝藥局,新北市三重區重陽路４段６號２樓,121.4906,25.06894,(02)29857389,羅氏家用新冠病毒抗原自我檢測套組,6,2022/05/09 15:51:02,販售快篩需現場排隊，無預約無號碼牌，販售時間15:00。
5931025398,昌誠藥局,新北市三重區三和路４段１６１號１樓,121.4835,25.0785,(02)22876338,羅氏家用新冠病毒抗原自我檢測套組,5,2022/05/09 15:51:02,5／2 （休診）
5931025610,大樹三重藥局,新北市三重區正義北路６６號１樓,121.4972,25.06415,(02)29713188,羅氏家用新冠病毒抗原自我檢測套組,78,2022/05/09 15:51:02,快篩實名制，每天16:00開始販售，售完為止。
5931025914,仁美藥局,新北市三重區慈愛街５１號１、２樓,121.4861,25.07908,(02)22805150,羅氏家用新冠病毒抗原自我檢測套組,78,2022/05/09 15:51:02,快篩實名制，每天16:00開始販售，售完為止。
5931025969,躍獅欣欣藥局,新北市三重區正義北路２３３號１樓,121.496,25.06915,(02)29816955,羅氏家用新冠病毒抗原自我檢測套組,78,2022/05/09 15:51:02,16:00開始販售，15:50發號碼牌，離開視同放棄。
5931026028,宏欣藥局,新北市三重區仁愛街５１７號２樓,121.4878,25.08227,(02)29811234,羅氏家用新冠病毒抗原自我檢測套組,72,2022/05/09 15:51:02,一~五16:00，日09:30，六不發
5931026064,五華春天生活藥局,新北市三重區五華街７３號１、２樓,121.4925,25.08291,(02)29876838,羅氏家用新冠病毒抗原自我檢測套組,77,2022/05/09 15:51:02,快篩代售時間：週一至週日15：00，現場排隊購買，售完為止。（物流配送不及則例外，以門市公告為主）
5931026082,大有藥局,新北市三重區中正北路２１３號１、２樓及２１５號１、２樓,121.4763,25.07013,(02)29885771,羅氏家用新冠病毒抗原自我檢測套組,78,2022/05/09 15:51:02,快篩實名制，每天16:00開始販售，售完為止。
5931026091,重新藥局,新北市三重區重新路４段１２號１樓,121.4888,25.05775,(02)29742700,羅氏家用新冠病毒抗原自我檢測套組,78,2022/05/09 15:51:02,快篩實名制，每天16:00開始販售，售完為止。
5931033087,康宏安藥局,新北市永和區保福路２段７８號１樓,121.5106,25.01331,(02)29288118,羅氏家用新冠病毒抗原自我檢測套組,1,2022/05/09 15:51:02,無
5931033541,大欣安藥局,新北市永和區得和路３７０號１樓,121.5244,24.99928,(02)29450808,羅氏家用新冠病毒抗原自我檢測套組,2,2022/05/09 15:51:02,5／3起快篩試劑PAM14:00開始發號碼牌跟販售
5931033774,台化藥局,新北市永和區勵行街１１９號１樓,121.5175,25.01202,(02)22318585,羅氏家用新冠病毒抗原自我檢測套組,1,2022/05/09 15:51:02,無
5931033961,永和大樹藥局,新北市永和區福和路１４３號１、２樓,121.5207,25.00766,(02)29233377,羅氏家用新冠病毒抗原自我檢測套組,78,2022/05/09 15:51:02,快篩實名制，每天16:00開始販售，售完為止。
5931034119,仁愛陽光藥局,新北市永和區仁愛路１４３號１樓,121.5114,25.01293,(02)89213691,羅氏家用新冠病毒抗原自我檢測套組,1,2022/05/09 15:51:02,快篩代售時段14:00，售完為止...
5931034191,健生活藥局,新北市永和區得和路２３７號１樓,121.5203,25.00021,(02)29223222,羅氏家用新冠病毒抗原自我檢測套組,1,2022/05/09 15:51:02,無
5931040297,信隆大藥局,新北市中和區安樂路６號１至２樓,121.5118,24.99168,(02)29426196,羅氏家用新冠病毒抗原自我檢測套組,2,2022/05/09 15:51:02,無
5931042648,恩溢藥局,新北市中和區復興路７９號１樓.２樓,121.5035,24.9902,(02)22452450,羅氏家用新冠病毒抗原自我檢測套組,64,2022/05/09 15:51:02,無
5931043565,一安藥妝藥局,新北市中和區中和路９號１.２樓,121.4998,25.00221,(02)22483778,羅氏家用新冠病毒抗原自我檢測套組,9,2022/05/09 15:51:02,下午3點開始發號碼牌販售快篩
5931043921,良安藥局,新北市中和區連城路４７７巷１號１樓,121.4833,24.99555,(02)22225798,羅氏家用新冠病毒抗原自我檢測套組,8,2022/05/09 15:51:02,週六日不開店，實名制快篩，晚上9:00開始販售
5931045041,大誠藥局,新北市中和區民享街８７號１樓,121.4744,25.00162,(02)22258394,羅氏家用新冠病毒抗原自我檢測套組,11,2022/05/09 15:51:02,實名制快篩 每日下午03:30開始販售，現場排隊
5931045130,四維藥局,新北市中和區四維街３７巷２號１樓,121.5124,24.98679,(02)86681345,羅氏家用新冠病毒抗原自我檢測套組,78,2022/05/09 15:51:02,快篩實名制，每天16:00開始販售，售完為止。
5931045309,杏一中和雙和藥局,新北市中和區圓通路２９５之３號１樓,121.4946,24.99191,(02)22436116,羅氏家用新冠病毒抗原自我檢測套組,21,2022/05/09 15:51:02,5／1 下午2:30發號碼牌 3:00開始販賣 售完為止
5931045363,順儷景安藥局,新北市中和區景安路１９６號１樓,121.5042,24.99153,(02)22433515,羅氏家用新冠病毒抗原自我檢測套組,20,2022/05/09 15:51:02,健保卡實名制快篩於下午3點開始販售，現場排隊不發號碼牌及預訂
5931045443,台昕藥局,新北市中和區復興路２５５號（１樓）,121.5032,24.9902,(02)22406080,羅氏家用新冠病毒抗原自我檢測套組,5,2022/05/09 15:51:02,無
5931045452,安華藥局,新北市中和區圓通路２９３之２號２樓,121.4949,24.99236,(02)22426010,羅氏家用新冠病毒抗原自我檢測套組,2,2022/05/09 15:51:02,無
5931051816,康宜庭北新藥局,新北市新店區北新路２段４３號１樓,121.5428,24.97285,(02)89147015,羅氏家用新冠病毒抗原自我檢測套組,1,2022/05/09 15:51:02,快篩代售時間為下午2點， 現場排隊
5931052251,昇育健康藥局,新北市新店區中正路７６巷１８號１樓,121.5443,24.97085,(02)86679631,羅氏家用新冠病毒抗原自我檢測套組,67,2022/05/09 15:51:02,每日 16:00 販售 請依序排隊 無發號碼牌
5931052724,合康大藥局,新北市新店區中正路２６３－２號１樓,121.5384,24.97367,(02)29109888,羅氏家用新冠病毒抗原自我檢測套組,4,2022/05/09 15:51:02,快篩14:00開始（有事先發號碼牌）網上還有數量是拿到號碼牌還沒來領的，拜託別再問了
5931052920,碧潭大藥局,新北市新店區碧潭路４１號１樓,121.5342,24.95642,(02)22112271,羅氏家用新冠病毒抗原自我檢測套組,1,2022/05/09 15:51:02,快篩販售時間:下午3點起，現場開始販售  PS.依政府到貨時間 滾動式調整
5931053034,康宜庭市公所藥局,新北市新店區北新路１段２８５號１樓,121.541,24.96707,(02)29151709,羅氏家用新冠病毒抗原自我檢測套組,1,2022/05/09 15:51:02,實名制快篩下午兩點開賣
5931053196,康心藥局,新北市新店區北新路３段１０４號１樓,121.5419,24.9812,(02)86655858,羅氏家用新冠病毒抗原自我檢測套組,2,2022/05/09 15:51:02,快篩販售：周一~週六，15:00開始（若遇物流延遲則順延），以現場排隊為主
5931053203,巧新藥局,新北市新店區北宜路１段８４號１樓,121.5386,24.9556,(02)29183565,羅氏家用新冠病毒抗原自我檢測套組,16,2022/05/09 15:51:02,15:00 依序領取快篩，不發號碼牌，勿打電話詢問
5931053365,十二願藥局,新北市新店區中正路６８２號１樓,121.5341,24.98998,(02)22181899,羅氏家用新冠病毒抗原自我檢測套組,1,2022/05/09 15:51:02,公費快篩每日下午2點販售~ 公費快篩每日下午2點販售
5931060244,七安大藥局,新北市新莊區民安西路５５號１、２樓及５７號１樓,121.4275,25.02044,(02)22026066,羅氏家用新冠病毒抗原自我檢測套組,2,2022/05/09 15:51:02,實名制快篩15:00發號碼.發完號碼開始領快篩及收費
5931060342,十安藥局,新北市新莊區中港路３１６號,121.4524,25.04544,(02)29922859,羅氏家用新冠病毒抗原自我檢測套組,10,2022/05/09 15:51:02,自111／04／01起不再販賣實名制口罩
5931060557,一安藥局,新北市新莊區立德里新泰路２６８號,121.446,25.04029,(02)29941618,羅氏家用新冠病毒抗原自我檢測套組,107,2022/05/09 15:51:02,實名制快篩發放時間為15:00  其他詳情請上FB查詢
5931060628,錄新藥局,新北市新莊區後港一路７６巷１０弄１號,121.427,25.02604,(02)22051849,羅氏家用新冠病毒抗原自我檢測套組,78,2022/05/09 15:51:02,無
5931067136,蒲陽藥局,新北市新莊區中港路５１４號,121.4518,25.05187,(02)29930069,羅氏家用新冠病毒抗原自我檢測套組,12,2022/05/09 15:51:02,無
5931067565,豐年藥局,新北市新莊區中正路３７７巷１６號,121.4462,25.03395,(02)22071182,羅氏家用新冠病毒抗原自我檢測套組,14,2022/05/09 15:51:02,無
5931068464,健安藥局,新北市新莊區光和里民安西路２０９號１樓,121.4261,25.0147,(02)22043765,羅氏家用新冠病毒抗原自我檢測套組,1,2022/05/09 15:51:02,無
5931068759,森活藥局,新北市新莊區民安路２２０－１號,121.426,25.02259,(02)22027927,羅氏家用新冠病毒抗原自我檢測套組,19,2022/05/09 15:51:02,實名快篩15點開賣
5931068991,新莊健業藥局,新北市新莊區昌平街３７號１樓至２樓,121.4547,25.05221,(02)22798808,羅氏家用新冠病毒抗原自我檢測套組,24,2022/05/09 15:51:02,快篩實名制每天下午三點開始販售（不發號碼牌）
5931069505,陽光連鎖藥局,新北市新莊區中信街４０號１樓,121.4498,25.05089,(02)22774300,羅氏家用新冠病毒抗原自我檢測套組,2,2022/05/09 15:51:02,周一到週六下午三點賣快篩
5931069765,健業藥妝藥局,新北市新莊區中和街１３０號１樓,121.4475,25.04809,(02)22796279,羅氏家用新冠病毒抗原自我檢測套組,45,2022/05/09 15:51:02,口罩販售資訊:下午3點~11點販售
5931069792,宏泰藥局,新北市新莊區自信街３７號１樓,121.4543,25.04863,(02)29964649,羅氏家用新冠病毒抗原自我檢測套組,8,2022/05/09 15:51:02,無
593106A093,環球藥局,新北市新莊區中港路４３６號１、２樓,121.452,25.05105,(02)29901934,羅氏家用新冠病毒抗原自我檢測套組,7,2022/05/09 15:51:02,營業時間8-23，全年無休  **實名制快篩，每日下午3點發放號碼牌**
593106A931,建安藥局,新北市新莊區建安街１１７號、１１９號１樓,121.4262,25.02406,(02)22051969,羅氏家用新冠病毒抗原自我檢測套組,78,2022/05/09 15:51:02,快篩實名制，每天16:00開始販售，售完為止。
593106A977,丹鳳藥局,新北市新莊區中正路７４５、７４７號（１樓）,121.4227,25.0288,(02)29065755,羅氏家用新冠病毒抗原自我檢測套組,78,2022/05/09 15:51:02,快篩實名制，每天16:00開始販售，售完為止。
593106B027,樂福藥局,新北市新莊區幸福路４８號１樓、幸福路６４巷２弄１６號１樓,121.4577,25.04953,(02)29923388,羅氏家用新冠病毒抗原自我檢測套組,51,2022/05/09 15:51:02,下午三點半開始購買快篩實名制
593106B036,家嘉藥局,新北市新莊區自立街１０３號（１樓）,121.4553,25.04549,(02)89926488,羅氏家用新冠病毒抗原自我檢測套組,34,2022/05/09 15:51:02,今天號碼牌都已發放完畢
593106B090,依都勇藥局,新北市新莊區自信街６３號（１樓）,121.4554,25.04829,(02)29901516,羅氏家用新冠病毒抗原自我檢測套組,3,2022/05/09 15:51:02,無
593106B107,大樹新莊藥局,新北市新莊區新泰路５９號１樓、２樓,121.4494,25.03405,(02)22010566,羅氏家用新冠病毒抗原自我檢測套組,78,2022/05/09 15:51:02,快篩實名制，每天16:00開始販售，售完為止。
593106B152,福原藥局,新北市新莊區中原東路７０號（１樓）,121.4632,25.05461,(02)85216190,羅氏家用新冠病毒抗原自我檢測套組,1,2022/05/09 15:51:02,下午2點發放號碼牌
593106B205,藥師佛藥局,新北市新莊區中正路８８１之４號１樓,121.4175,25.02544,(02)29016625,羅氏家用新冠病毒抗原自我檢測套組,78,2022/05/09 15:51:02,準時七點開賣，現場排隊，不發號碼牌，會預留警察消防人員額度，所以民眾購買額度不會是78盒！
593106B232,新康健保藥局,新北市新莊區自立街１７２號１樓,121.4557,25.04537,(02)29962558,羅氏家用新冠病毒抗原自我檢測套組,1,2022/05/09 15:51:02,早上9點發號碼牌，下午2-4點帶號碼牌來領快篩（逾時不候）
593106B321,大樹幸福藥局,新北市新莊區幸福路６７２號１樓,121.4509,25.0493,(02)29981066,羅氏家用新冠病毒抗原自我檢測套組,78,2022/05/09 15:51:02,快篩實名制，每天16:00開始販售，售完為止。
5931071970,保康藥局,新北市樹林區保安街１段３６４號,121.4176,24.99856,(02)86875503,羅氏家用新冠病毒抗原自我檢測套組,4,2022/05/09 15:51:02,無
5931072217,樹林健業藥局,新北市樹林區東華街８９號１樓,121.4159,24.98048,(02)86851736,羅氏家用新冠病毒抗原自我檢測套組,46,2022/05/09 15:51:02,實名制快篩下午3點半開始販售，現場排隊
5931072431,樹林大樹藥局,新北市樹林區育英街５４號１－２樓,121.4213,24.98928,(02)26815488,羅氏家用新冠病毒抗原自我檢測套組,78,2022/05/09 15:51:02,快篩實名制，每天16:00開始販售，售完為止。
5931081289,唯新示範藥局,新北市鶯歌區建國路１６１號１樓,121.3503,24.95345,(02)86775363,羅氏家用新冠病毒抗原自我檢測套組,8,2022/05/09 15:51:02,實名制快篩購買時段下午2:50-4:00
5931081378,鶯歌宏達藥局,新北市鶯歌區國慶街１３８號１樓,121.3508,24.95347,(02)26709693,羅氏家用新冠病毒抗原自我檢測套組,5,2022/05/09 15:51:02,下午三點開始販售實名制快篩~不要打電話來問~藥師有其他工作要做
5931081510,鶯歌藥局,新北市鶯歌區鶯桃路２段１１號１樓,121.3258,24.97205,(02)86778778,羅氏家用新冠病毒抗原自我檢測套組,78,2022/05/09 15:51:02,快篩實名制，每天16:00開始販售，售完為止。
5931081547,信義健保藥局,新北市鶯歌區信義街６３號１樓,121.3534,24.95571,(02)86775563,羅氏家用新冠病毒抗原自我檢測套組,39,2022/05/09 15:51:02,發放時間以現場公告為主
5931091696,祥祐藥局,新北市三峽區文化路１２５號１樓,121.3699,24.93598,(02)26738080,羅氏家用新冠病毒抗原自我檢測套組,4,2022/05/09 15:51:02,今日快篩已售完，電腦庫存有誤.***實名制快篩每日下午2點開始販售***
5931091865,大新藥局,新北市三峽區大義路２５９號１樓,121.3774,24.94638,(02)86713204,羅氏家用新冠病毒抗原自我檢測套組,2,2022/05/09 15:51:02,實名制快篩下午2:50開始發號碼牌 3:00販售
5931091892,三峽藥局,新北市三峽區介壽路１段２７號１樓,121.3757,24.93321,(02)26738868,羅氏家用新冠病毒抗原自我檢測套組,79,2022/05/09 15:51:02,快篩實名制，每天16:00開始販售，售完為止。
5931092022,瑞達美藥局,新北市三峽區民權街１８０號１樓,121.3678,24.92983,(02)86741627,羅氏家用新冠病毒抗原自我檢測套組,1,2022/05/09 15:51:02,若政府有配送則早上9點10分開始發號碼牌，拿到號碼牌要離開請先寄卡付費，否則視同放棄
5931092200,金美藥局,新北市三峽區大同路２３８號１樓,121.3663,24.92573,(02)86715859,羅氏家用新冠病毒抗原自我檢測套組,1,2022/05/09 15:51:02,無
5931100154,尚運藥局,新北市淡水區學府路５１巷１弄２０號,121.4473,25.16892,(02)26225149,羅氏家用新冠病毒抗原自我檢測套組,10,2022/05/09 15:51:02,無
5931101464,伯聯藥局,新北市淡水區清水街９－１０號１樓,121.4444,25.17023,(02)26255847,羅氏家用新冠病毒抗原自我檢測套組,21,2022/05/09 15:51:02,快篩實名制星期一到六08:00開賣（如有到貨），星期日無販售
5931101919,優德仕藥局,新北市淡水區新市一路３段１０３號,121.4464,25.18314,(02)26236573,羅氏家用新冠病毒抗原自我檢測套組,9,2022/05/09 15:51:02,快篩代售時間 15:00~售完
5931101937,文川藥局,新北市淡水區中山北路１段９３號１樓,121.4423,25.17631,(02)86319033,羅氏家用新冠病毒抗原自我檢測套組,36,2022/05/09 15:51:02,星期一-六下午14:50開始販售快篩試劑:星期日早上8:30開始販售
5931102103,四季寶健保藥局,新北市淡水區新市一路３段１１７－１號（含夾層）,121.4468,25.18314,(02)26283199,羅氏家用新冠病毒抗原自我檢測套組,1,2022/05/09 15:51:02,無
5931102434,西雅圖聯合藥局,新北市淡水區新市一路３段１０１巷１６弄２０號１樓,121.4471,25.18403,(02)26200910,羅氏家用新冠病毒抗原自我檢測套組,8,2022/05/09 15:51:02,無
5931102452,池慶藥局,新北市淡水區中山北路２段５號１樓,121.4443,25.18344,(02)26238852,羅氏家用新冠病毒抗原自我檢測套組,3,2022/05/09 15:51:02,快篩販售14:50到16:00
5931102461,淡水藥局,新北市淡水區中山路１２７號（１、２樓）,121.4414,25.17107,(02)86313663,羅氏家用新冠病毒抗原自我檢測套組,78,2022/05/09 15:51:02,快篩實名制，每天16:00開始販售，售完為止。
5931102489,水源藥局,新北市淡水區水源街１段１３３號１樓,121.447,25.172,(02)26295233,羅氏家用新冠病毒抗原自我檢測套組,78,2022/05/09 15:51:02,快篩實名制，每天16:00開始販售，售完為止。
5931110034,麒豐藥局,新北市汐止區樟樹一路１３５巷２號,121.6421,25.0656,(02)26434737,羅氏家用新冠病毒抗原自我檢測套組,31,2022/05/09 15:51:02,實名制口罩銷售時間9:30~21:00
5931112645,健成藥局,新北市汐止區新興路２０號１樓,121.6564,25.06456,(02)26428989,羅氏家用新冠病毒抗原自我檢測套組,2,2022/05/09 15:51:02,無
5931112690,國升藥局,新北市汐止區建成路５９巷１號１樓,121.6618,25.0732,(02)26419459,羅氏家用新冠病毒抗原自我檢測套組,33,2022/05/09 15:51:02,無
5931113160,社后藥局,新北市汐止區康寧街４２４號１樓,121.6307,25.06801,(02)26956321,羅氏家用新冠病毒抗原自我檢測套組,78,2022/05/09 15:51:02,快篩實名制，每天16:00開始販售，售完為止。
5931113188,汐止藥局,新北市汐止區福德二路７０號１樓,121.6331,25.06651,(02)86932587,羅氏家用新冠病毒抗原自我檢測套組,78,2022/05/09 15:51:02,快篩實名制，每天16:00開始販售，售完為止。
5931120049,本平藥局,新北市瑞芳區瑞芳街４５號,121.8076,25.10913,(02)24972167,羅氏家用新冠病毒抗原自我檢測套組,2,2022/05/09 15:51:02,無
5931121466,瑞芳藥局,新北市瑞芳區明燈路３段５９之１及５９之２號,121.8057,25.10812,(02)24966588,羅氏家用新冠病毒抗原自我檢測套組,78,2022/05/09 15:51:02,快篩實名制，每天16:00開始販售，售完為止。
5931131908,璨鴻藥局,新北市土城區延和路１９１號,121.4692,24.99035,(02)82622588,羅氏家用新冠病毒抗原自我檢測套組,36,2022/05/09 15:51:02,快篩發放時間星期一至五
5931132245,萬昌健保藥局,新北市土城區中央路４段１６０號,121.417,24.95827,(02)22678057,羅氏家用新冠病毒抗原自我檢測套組,37,2022/05/09 15:51:02,3月2日起周一至周五15:00發號碼牌及販賣口罩  周六 10:00直接販售
5931132263,立新藥局,新北市土城區光明街５號１樓,121.4421,24.97475,(02)82626111,羅氏家用新冠病毒抗原自我檢測套組,8,2022/05/09 15:51:02,快篩試劑下午3點開始銷售
5931132343,誠安藥局,新北市土城區中央路４段３６號１樓,121.4207,24.96088,(02)22677737,羅氏家用新冠病毒抗原自我檢測套組,156,2022/05/09 15:51:02,快篩代售時段：平日晚上8點，售完為止
5931133331,城安大藥局,新北市土城區金城路３段４０號,121.4656,24.98639,(02)22646561,羅氏家用新冠病毒抗原自我檢測套組,79,2022/05/09 15:51:02,快篩代售時間晚上8:30
5931133395,順儷金城藥局,新北市土城區金城路３段１４７號１樓,121.4685,24.98831,(02)22621590,羅氏家用新冠病毒抗原自我檢測套組,3,2022/05/09 15:51:02,無
5931133500,菩提藥局,新北市土城區延和路１１４號１樓,121.4673,24.98988,(02)22624866,羅氏家用新冠病毒抗原自我檢測套組,44,2022/05/09 15:51:02,無
5931133546,宏林保健藥局,新北市土城區裕民路１３４號（１樓）,121.4515,24.98622,(02)82615919,羅氏家用新冠病毒抗原自我檢測套組,4,2022/05/09 15:51:02,無
5931133662,中央藥局,新北市土城區中央路２段８４、８６號（１樓）,121.4423,24.97885,(02)22630345,羅氏家用新冠病毒抗原自我檢測套組,78,2022/05/09 15:51:02,快篩實名制，每天16:00開始販售，售完為止。
5931142241,永恩健康藥局,新北市蘆洲區民族路４１４號１樓,121.4744,25.09164,(02)22880379,羅氏家用新冠病毒抗原自我檢測套組,14,2022/05/09 15:51:02,全天皆可以買口罩，隨時都可以買
5931143275,集賢藥局,新北市蘆洲區信義路２２２巷６１號１、２樓,121.4813,25.08535,(02)22882400,羅氏家用新冠病毒抗原自我檢測套組,78,2022/05/09 15:51:02,快篩實名制，每天16:00開始販售，售完為止。
5931143300,大樹蘆洲藥局,新北市蘆洲區民族路２６５號１樓,121.4762,25.09063,(02)22810747,羅氏家用新冠病毒抗原自我檢測套組,78,2022/05/09 15:51:02,快篩實名制，每天16:00開始販售，售完為止。
5931143319,大樹長榮藥局,新北市蘆洲區長榮路６１、６１－１號１樓,121.4624,25.0833,(02)28480567,羅氏家用新冠病毒抗原自我檢測套組,78,2022/05/09 15:51:02,快篩實名制，每天16:00開始販售，售完為止。
5931143364,光禾藥局,新北市蘆洲區民權路１２２號１樓,121.4734,25.08868,(02)28480050,羅氏家用新冠病毒抗原自我檢測套組,59,2022/05/09 15:51:02,無
5931151713,五股藥局,新北市五股區成泰路１段２３５之２號（１樓）,121.4363,25.07968,(02)22951150,羅氏家用新冠病毒抗原自我檢測套組,77,2022/05/09 15:51:02,快篩實名制，每天16:00開始販售，售完為止。
5931160141,日泰藥局,新北市泰山區泰林路２段２２７號,121.4323,25.06194,(02)29095989,羅氏家用新冠病毒抗原自我檢測套組,21,2022/05/09 15:51:02,下午兩點開始販售。每日提供10份確診個案，詳情上臉書粉絲頁
5931171706,榮新藥局,新北市林口區忠孝路３８３號１樓,121.3695,25.0713,(02)26089789,羅氏家用新冠病毒抗原自我檢測套組,1,2022/05/09 15:51:02,快篩發放時間  14:50發放號碼牌下午15:00開賣（直至賣完）
5931171813,力行藥局,新北市林口區文化３路１段４２３、４２５號１、２樓,121.3653,25.07438,(02)26080711,羅氏家用新冠病毒抗原自我檢測套組,78,2022/05/09 15:51:02,快篩實名制，每天16:00開始販售，售完為止。
5931171822,榮昌藥局,新北市林口區仁愛路１段４１０號１樓,121.3867,25.07683,(02)26011312,羅氏家用新冠病毒抗原自我檢測套組,1,2022/05/09 15:51:02,實名制快篩15:00開賣唷！
5931171831,沐霖藥局,新北市林口區文化三路２段２８６號１樓,121.3775,25.08304,(02)26032086,羅氏家用新冠病毒抗原自我檢測套組,156,2022/05/09 15:51:02,5／9 （一） 17:30 發放號碼牌
5931250015,松南藥局,新北市雙溪區中華路２９號,121.8658,25.03728,(02)24931085,羅氏家用新冠病毒抗原自我檢測套組,17,2022/05/09 15:51:02,實名制快篩12點半發號碼牌並販售，​但若排隊人數已超過數量，將視情況提早發放。週日快篩無販售。
5931250042,信芳藥局,新北市雙溪區中華路５０號,121.866,25.03761,(02)24931301,羅氏家用新冠病毒抗原自我檢測套組,1,2022/05/09 15:51:02,無
5932011370,家福聯合藥局,桃園市桃園區中山路６２３號,121.2939,24.99093,(03)2289492,羅氏家用新冠病毒抗原自我檢測套組,8,2022/05/09 15:51:02,0503人數已滿，1點發快篩
5932011870,永祥大藥局,桃園市桃園區永安路５２８號,121.2986,25.00181,(03)3337161,羅氏家用新冠病毒抗原自我檢測套組,3,2022/05/09 15:51:02,口罩販賣時段：週一至週六早上9點
5932012573,悅藥坊人文藥局,桃園市桃園區桃智路６號,121.2948,24.96505,(03)3761688,羅氏家用新冠病毒抗原自我檢測套組,1,2022/05/09 15:51:02,快篩若有到貨，販售時段為：（一）~（六）17:00-19:00；（日）中午12:30
5932013123,桃康藥局,桃園市桃園區桃鶯路２０３號,121.3184,24.98495,(03)3641815,羅氏家用新冠病毒抗原自我檢測套組,1,2022/05/09 15:51:02,實名制快篩：早上10點發號碼牌，每日78份
5932013392,桃園中正藥局,桃園市桃園區中正路３７３號,121.3079,24.99955,(03)3381600,羅氏家用新冠病毒抗原自我檢測套組,91,2022/05/09 15:51:02,快篩實名制，每天16:00開始販售，售完為止。
5932013687,桃園春日藥局,桃園市桃園區春日路８７８號,121.3096,25.01561,(03)3580101,羅氏家用新冠病毒抗原自我檢測套組,78,2022/05/09 15:51:02,快篩實名制，每天16:00開始販售，售完為止。
5932013721,桃園民光藥局,桃園市桃園區中正路５６９號,121.3049,25.0041,(03)3364888,羅氏家用新冠病毒抗原自我檢測套組,78,2022/05/09 15:51:02,快篩實名制，每天16:00開始販售，售完為止。
5932013749,桃園寶山藥局,桃園市桃園區寶山街７２號,121.3175,25.01291,(03)3250562,羅氏家用新冠病毒抗原自我檢測套組,78,2022/05/09 15:51:02,快篩實名制，每天16:00開始販售，售完為止。
5932013990,福澤大業藥局,桃園市桃園區大業路１段４２２號１樓,121.3118,25.01473,(03)3563865,羅氏家用新冠病毒抗原自我檢測套組,33,2022/05/09 15:51:02,家用快篩販賣時段15:30至售完為止
5932014004,同德辰安藥局,桃園市桃園區同德十街２５號,121.294,25.01835,(03)3012028,羅氏家用新冠病毒抗原自我檢測套組,78,2022/05/09 15:51:02,實名制快篩試劑於下午4點開始販售，現場排隊，沒有發放號碼牌。
5932014031,大廟藥局,桃園市桃園區中山路１５８號１樓,121.3091,24.99342,(03)3337006,羅氏家用新冠病毒抗原自我檢測套組,43,2022/05/09 15:51:02,無
5932014040,奇美大藥局,桃園市桃園區中正五街１８５號,121.3014,25.00513,(03)3587727,羅氏家用新冠病毒抗原自我檢測套組,3,2022/05/09 15:51:02,營業時間:9:00-22:00
5932014059,桃園南平藥局,桃園市桃園區南平路３０２－１號１樓,121.2989,25.01855,(03)3165222,羅氏家用新冠病毒抗原自我檢測套組,78,2022/05/09 15:51:02,快篩實名制，每天16:00開始販售，售完為止。
5932014102,小飛象藥局,桃園市桃園區慈文路１９２號,121.3041,25.00907,(03)3552771,羅氏家用新冠病毒抗原自我檢測套組,78,2022/05/09 15:51:02,5／9[21:30]開賣78份，5／10[09:30]開賣78份，再打來問就掛電話。不發號碼牌。即起調劑確診者視訊處方，請自保。
5932014111,鴻發藥師藥局,桃園市桃園區大有路５４３號,121.3171,25.0149,(03)3582468,羅氏家用新冠病毒抗原自我檢測套組,81,2022/05/09 15:51:02,實聯快篩:早上09:30發放號碼牌，限當日下午2~4點憑牌購買，逾時不候請見諒
5932014273,藝文藥局,桃園市桃園區大興西路１段１６５號,121.3049,25.01414,(03)3261789,羅氏家用新冠病毒抗原自我檢測套組,77,2022/05/09 15:51:02,快篩實名制，每天16:00開始販售，售完為止。
5932014291,躍獅民生藥局,桃園市桃園區民生路２２８號１樓,121.313,24.99472,(03)3362359,羅氏家用新冠病毒抗原自我檢測套組,4,2022/05/09 15:51:02,下午1點開始販售，會發號碼牌，購買權保留至下午6點
5932014326,闔新藥局,桃園市桃園區中正路５７６號１樓,121.3054,25.00388,(03)3317279,羅氏家用新冠病毒抗原自我檢測套組,13,2022/05/09 15:51:02,營業時間:9:00-21:00，實名制快篩領取時間14:30開始，現場排隊
5932014415,多多藥局,桃園市桃園區南平路１８３號１樓,121.3022,25.01946,(03)3162133,羅氏家用新冠病毒抗原自我檢測套組,1,2022/05/09 15:51:02,實名制快篩販售時段［下午3:00~3:30］
5932014424,桃園中山藥局,桃園市桃園區中山路７０７號,121.2914,24.99079,(03)2207168,羅氏家用新冠病毒抗原自我檢測套組,78,2022/05/09 15:51:02,快篩實名制，每天16:00開始販售，售完為止。
5932014460,桃鶯藥局,桃園市桃園區桃鶯路１０２號,121.318,24.98516,(03)3675100,羅氏家用新冠病毒抗原自我檢測套組,78,2022/05/09 15:51:02,快篩實名制，每天16:00開始販售，售完為止。
5932017069,佳赫藥局,桃園市桃園區龍壽街４８號,121.2694,24.97902,(03)3701037,羅氏家用新冠病毒抗原自我檢測套組,13,2022/05/09 15:51:02,快篩販售星期日不固定時間
5932018593,品一藥局,桃園市桃園區建新街７６號,121.3118,24.98261,(03)3638510,羅氏家用新冠病毒抗原自我檢測套組,5,2022/05/09 15:51:02,快篩販賣時間：週一至週五早上9：30；週六下午1：00（星期天休息），會發號碼牌（今天已發完）
5932019045,大一藥局,桃園市桃園區中山路684之一號一樓,121.2946,24.9912,(03)2171836,羅氏家用新冠病毒抗原自我檢測套組,43,2022/05/09 15:51:02,快篩試劑每日下午3點半發號碼牌，4點開賣。星期日停售。
5932019929,元氣藥局,桃園市桃園區民光東路一Ｏ九號,121.3183,25.0079,(03)3332201,羅氏家用新冠病毒抗原自我檢測套組,15,2022/05/09 15:51:02,現場排隊喔!，快篩試劑銷售時間:星期一三四六15:30，星期二五19:00，星期日無，12:00~15:00；18:00~18:30為休息時間
5932020360,日進藥局,桃園市中壢區中山東路二段１５６號,121.2394,24.95276,(03)4569132,羅氏家用新冠病毒抗原自我檢測套組,8,2022/05/09 15:51:02,政府實名制快篩販售時間:每日早上08:00~售完為止！
5932020548,生富藥師藥局,桃園市中壢區新明里中央西路二段７６號,121.2162,24.95848,(03)4941475,羅氏家用新冠病毒抗原自我檢測套組,1,2022/05/09 15:51:02,快篩時段8：30發號碼牌，10：00以後領快筛劑
5932022355,新家福藥局,桃園市中壢區福州二街４１９號,121.2325,24.968,(03)4621658,羅氏家用新冠病毒抗原自我檢測套組,58,2022/05/09 15:51:02,實名制快篩販售時間: 15:30開始至售完為止
5932022631,中壢中正藥局,桃園市中壢區中正路３６３、３６５號,121.2163,24.95532,(03)4014100,羅氏家用新冠病毒抗原自我檢測套組,78,2022/05/09 15:51:02,快篩實名制，每天16:00開始販售，售完為止。
5932023058,福澤健行藥局,桃園市中壢區健行路１３９號,121.2275,24.94943,(03)4681988,羅氏家用新冠病毒抗原自我檢測套組,34,2022/05/09 15:51:02,家用快篩販賣時段15:30至售完為止
5932023281,裕翔藥局,桃園市中壢區榮民路４８號１樓,121.2606,24.96956,(03)4355499,羅氏家用新冠病毒抗原自我檢測套組,136,2022/05/09 15:51:02,快篩下午五點販售
5932023647,樂謙藥師藥局,桃園市中壢區龍東路１３４號,121.2522,24.92929,(03)4662775,羅氏家用新冠病毒抗原自我檢測套組,85,2022/05/09 15:51:02,實名快篩每日下午2點、晚上6點 各發39份
5932023683,祥合藥局,桃園市中壢區中北路二段４３１號,121.2321,24.95431,(03)2841880,羅氏家用新冠病毒抗原自我檢測套組,24,2022/05/09 15:51:02,快篩販賣時段:如果有空星期一到五三點半 星期六日一點半 原則上本店家保有隨時更改發放時間之權利
5932023807,東興藥局,桃園市中壢區中北路２段３９號,121.224,24.95033,(03)4282611,羅氏家用新冠病毒抗原自我檢測套組,78,2022/05/09 15:51:02,快篩實名制，每天16:00開始販售，售完為止。
5932023889,華勛藥局,桃園市中壢區華勛街１１２、１１４號,121.2597,24.95065,(03)4161881,羅氏家用新冠病毒抗原自我檢測套組,79,2022/05/09 15:51:02,快篩實名制，每天16:00開始販售，售完為止。
5932023898,美康中壢藥局,桃園市中壢區龍岡路二段１１７號、後興路二段５５１巷３號、４號,121.2295,24.94529,(03)4590668,羅氏家用新冠病毒抗原自我檢測套組,1,2022/05/09 15:51:02,實名制快篩15:00發放
5932023914,內壢忠孝藥局,桃園市中壢區忠孝路３６號,121.2566,24.97338,(03)4636641,羅氏家用新冠病毒抗原自我檢測套組,78,2022/05/09 15:51:02,快篩實名制，每天16:00開始販售，售完為止。
5932023932,龍東藥局,桃園市中壢區龍東路２０５號,121.2523,24.92966,(03)4383088,羅氏家用新冠病毒抗原自我檢測套組,78,2022/05/09 15:51:02,快篩實名制，每天16:00開始販售，售完為止。
5932024126,民生藥師藥局,桃園市中壢區興仁路２段２８９號１樓,121.2649,24.96438,(03)3555008,羅氏家用新冠病毒抗原自我檢測套組,13,2022/05/09 15:51:02,每日下午3點開始販售實名制快篩
593202A931,佳佑藥局,桃園市中壢區環中東路二四一號,121.2573,24.96345,(03)4356190,羅氏家用新冠病毒抗原自我檢測套組,2,2022/05/09 15:51:02,口罩販賣時段：09:00以後發號碼牌，售完為止
593202B447,榮善堂藥局,桃園市中壢區前龍街九號,121.2535,24.9298,(03)4564946,羅氏家用新冠病毒抗原自我檢測套組,65,2022/05/09 15:51:02,全台第一自助快篩領取系統，快篩販賣星期一至四：晚上七點。星期五至六：下午二點。星期天：早上八點
5932030179,資生大藥局,桃園市大溪區康莊路１３２號,121.288,24.88146,(03)3882276,羅氏家用新冠病毒抗原自我檢測套組,2,2022/05/09 15:51:02,實名制快篩下午三點開賣
5932031729,德安堂藥局,桃園市大溪區介壽路８９２號,121.2837,24.90016,(03)3808173,羅氏家用新冠病毒抗原自我檢測套組,78,2022/05/09 15:51:02,快篩實名制，每天16:00開始販售，售完為止。
5932031747,欣康藥局,桃園市大溪區員林路２段３９０－６號,121.2677,24.88412,(03)3076310,羅氏家用新冠病毒抗原自我檢測套組,36,2022/05/09 15:51:02,快篩販賣時段：15:30
5932031881,大溪藥局,桃園市大溪區康莊路１６０號,121.2886,24.8808,(03)3873873,羅氏家用新冠病毒抗原自我檢測套組,78,2022/05/09 15:51:02,快篩實名制，每天16:00開始販售，售完為止。
5932031890,福生藥局,桃園市大溪區民權東路１０３號１樓,121.2919,24.88209,(03)3873533,羅氏家用新冠病毒抗原自我檢測套組,2,2022/05/09 15:51:02,早上八點開始發放快篩試劑
5932040246,龍泰藥局,桃園市楊梅區民族路五段１４７巷２號,121.1736,24.9586,(03)4901525,羅氏家用新冠病毒抗原自我檢測套組,2,2022/05/09 15:51:02,快篩販售時間:早上7:30領號碼牌下午2點至4點領快篩（當日有效） 六日中午10點至12點領快篩
5932042679,得康美藥局,桃園市楊梅區環南路１２８號１樓,121.1466,24.90164,(03)4788128,羅氏家用新冠病毒抗原自我檢測套組,1,2022/05/09 15:51:02,快篩領取規則~中午:12:00-12:30發號碼牌 ／下午時段發快篩A:14:00-15:00 B:20:00-21:00
5932043121,埔心藥局,桃園市楊梅區永美路２２５號,121.1841,24.91921,(03)4311539,羅氏家用新冠病毒抗原自我檢測套組,78,2022/05/09 15:51:02,快篩實名制，每天16:00開始販售，售完為止。
5932043130,宜康美藥局,桃園市楊梅區環東路４５２號,121.1571,24.91005,(03)4883805,羅氏家用新冠病毒抗原自我檢測套組,51,2022/05/09 15:51:02,快篩販賣時段：早上09:30~10:30（20份）下午15:30~16:30（38份）晚上19:30~20:30（20份）
5932052200,樺生藥師藥局,桃園市蘆竹區南崁路９６號,121.2957,25.04585,(03)3121821,羅氏家用新冠病毒抗原自我檢測套組,1,2022/05/09 15:51:02,快篩試劑販賣時段：15:00-17:00（周一至周六）
5932052924,青青藥師藥局,桃園市蘆竹區南山路三段３１３號１樓,121.2861,25.08533,(03)3240338,羅氏家用新冠病毒抗原自我檢測套組,1,2022/05/09 15:51:02,口罩販賣時段：週一至週日09:00起
5932052979,南崁藥局,桃園市蘆竹區中正路２５１、２５３、２５５號,121.2921,25.04695,(03)3522022,羅氏家用新冠病毒抗原自我檢測套組,157,2022/05/09 15:51:02,快篩實名制，每天16:00開始販售，售完為止。
5932053083,健力藥局,桃園市蘆竹區奉化路１３６號,121.2888,25.03924,(03)2221918,羅氏家用新冠病毒抗原自我檢測套組,11,2022/05/09 15:51:02,快篩下午三點開賣，週五停賣
5932060177,勝峰藥師藥局,桃園市大園區菓林里３鄰菓林路５１號１樓,121.2585,25.07499,(03)3835588,羅氏家用新冠病毒抗原自我檢測套組,74,2022/05/09 15:51:02,16:00
5932062484,園正藥局,桃園市大園區中正東路７５號,121.2003,25.06315,(03)3865250,羅氏家用新冠病毒抗原自我檢測套組,78,2022/05/09 15:51:02,快篩實名制，每天16:00開始販售，售完為止。
5932071009,德佑藥局,桃園市龜山區大崗里新興街２９３號,121.3558,25.04531,(03)3283556,羅氏家用新冠病毒抗原自我檢測套組,121,2022/05/09 15:51:02,快篩試劑販賣時段為每日晚上07:30開始（星期日暫停販售）
5932077056,桃園龜山藥局,桃園市龜山區萬壽路二段８９６號,121.3394,24.99586,(03)3203312,羅氏家用新冠病毒抗原自我檢測套組,78,2022/05/09 15:51:02,快篩實名制，每天16:00開始販售，售完為止。
5932077430,長庚藥局,桃園市龜山區文化三路８１巷２８號,121.3637,25.05847,(03)3181679,羅氏家用新冠病毒抗原自我檢測套組,1,2022/05/09 15:51:02,快篩發放時間下午 2:50~4:00
5932077510,左外野藥局,桃園市龜山區文光街６號１樓,121.3802,25.05471,(03)3271503,羅氏家用新冠病毒抗原自我檢測套組,72,2022/05/09 15:51:02,快篩販售:晚上19:30至20:30（週五公休）*不發號碼牌 請直接排隊購買
5932077529,泰麟大藥局,桃園市龜山區自強西路２３８號１樓,121.3325,24.99625,(03)2133728,羅氏家用新冠病毒抗原自我檢測套組,76,2022/05/09 15:51:02,無
5932077627,文興藥局,桃園市龜山區復興一路１０２號１、２、３樓,121.368,25.0592,(03)3285330,羅氏家用新冠病毒抗原自我檢測套組,78,2022/05/09 15:51:02,快篩實名制，每天16:00開始販售，售完為止。
5932080455,日鴻藥局,桃園市八德區義勇街１７５號,121.3065,24.96335,(03)3763304,羅氏家用新冠病毒抗原自我檢測套組,19,2022/05/09 15:51:02,口罩販賣時段：早上9:00 發號碼牌下午4:00~6:00領取
5932083509,上方藥局,桃園市八德區廣褔路一八八號,121.279,24.96204,(03)3635902,羅氏家用新冠病毒抗原自我檢測套組,26,2022/05/09 15:51:02,販賣快篩:於午間12:30~13:00發號碼牌，開賣時間下午3:00~4:30，賣完為止
5932083670,保健藥局,桃園市八德區介壽路一段８３３號２樓,121.3,24.96168,(03)3669486,羅氏家用新冠病毒抗原自我檢測套組,124,2022/05/09 15:51:02,無
5932083974,晨鴻藥師藥局,桃園市八德區桃鶯路７號１樓,121.3265,24.97179,(03)3764299,羅氏家用新冠病毒抗原自我檢測套組,55,2022/05/09 15:51:02,快篩為早上8:30跟晚上6:00領取號碼牌，星期六早上一次發78份，快篩地圖數量參考就好，請勿再打電話詢問 謝謝
5932084757,康是美藥局廣福店,桃園市八德區廣福路３０號,121.2981,24.95894,(03)3610841,羅氏家用新冠病毒抗原自我檢測套組,9,2022/05/09 15:51:02,無
5932084828,阿爾富山藥局,桃園市八德區桃鶯路４號１樓,121.3261,24.97167,(03)3763350,羅氏家用新冠病毒抗原自我檢測套組,1,2022/05/09 15:51:02,本藥局實名制快篩於每日晚間7點以實際到貨數量發放，唯保留可視現場排隊人數額滿情況.酌情提前發號碼牌並受理購買!
5932084864,阿寶藥局,桃園市八德區東勇一路６號,121.3064,24.96452,(03)3750060,羅氏家用新冠病毒抗原自我檢測套組,43,2022/05/09 15:51:02,實名制快篩詳細公告請參閱阿寶藥局官方臉書
5932099927,大心聯合藥局,桃園市龍潭區中興路３９０號,121.2313,24.87337,(03)4897998,羅氏家用新冠病毒抗原自我檢測套組,25,2022/05/09 15:51:02,快篩實名制：週一至週日下午15:30開始販售
5932100210,福澤中豐藥局,桃園市平鎮區中豐路３４５號,121.2116,24.91034,(03)4283805,羅氏家用新冠病毒抗原自我檢測套組,74,2022/05/09 15:51:02,家用快篩販賣時段15:30至售完為止
5932100809,福澤民族藥局,桃園市平鎮區民族路二段１３９號１樓,121.2048,24.95706,(03)4014747,羅氏家用新冠病毒抗原自我檢測套組,96,2022/05/09 15:51:02,家用快篩販賣時段15:30至售完為止
5932101146,景賀藥局,桃園市平鎮區金陵路三段６６號之６,121.2272,24.92883,(03)4570991,羅氏家用新冠病毒抗原自我檢測套組,18,2022/05/09 15:51:02,下午三點開始販售實名制快篩，無法早中晚三個時段分流，請見諒
5932101226,平鎮中豐藥局,桃園市平鎮區中豐路山頂段１６４號,121.2109,24.90035,(03)4690939,羅氏家用新冠病毒抗原自我檢測套組,78,2022/05/09 15:51:02,快篩實名制，每天16:00開始販售，售完為止。
5932120098,金永生藥局,桃園市觀音區觀音里甘泉街７號,121.0814,25.03696,(03)4732072,羅氏家用新冠病毒抗原自我檢測套組,7,2022/05/09 15:51:02,全年無休，口罩販賣時段：週一至週日14:00起17:00
5933010064,明德藥局,新竹縣關西鎮中山路１８號,121.1778,24.79152,(03)5874335,羅氏家用新冠病毒抗原自我檢測套組,2,2022/05/09 15:51:02,無
5933011196,高平堂藥局,新竹縣關西鎮正義路66號,121.1762,24.79269,(03)5872263,羅氏家用新冠病毒抗原自我檢測套組,63,2022/05/09 15:51:02,相關公告 請搜尋FB【高平堂藥局】
5933011267,關西藥局,新竹縣關西鎮中山路６８號,121.1764,24.79148,(03)5171121,羅氏家用新冠病毒抗原自我檢測套組,78,2022/05/09 15:51:02,快篩實名制，每天16:00開始販售，售完為止。
5933031769,竹東朝陽藥局,新竹縣竹東鎮朝陽路１號１、２樓,121.0852,24.74199,(03)5111166,羅氏家用新冠病毒抗原自我檢測套組,78,2022/05/09 15:51:02,快篩實名制，每天16:00開始販售，售完為止。
5933031885,東林藥局,新竹縣竹東鎮東林路８０號,121.0913,24.73683,(03)5961321,羅氏家用新冠病毒抗原自我檢測套組,78,2022/05/09 15:51:02,快篩實名制，每天16:00開始販售，售完為止。
5933052044,禾松藥局,新竹縣竹北市勝利5路23號,121.0227,24.8247,(03)6577267,羅氏家用新冠病毒抗原自我檢測套組,31,2022/05/09 15:51:02,實名制快篩販賣週一至週六下午15:00開始販售（營業時間）
5933052517,振元藥師藥局,新竹縣竹北市自強南路２０１號,121.0238,24.81364,(03)6587052,羅氏家用新冠病毒抗原自我檢測套組,1,2022/05/09 15:51:02,下午14:00銷售快篩，周日不販售.
5933053292,成功藥局,新竹縣竹北市成功三路６９號,121.0239,24.81934,(03)5509117,羅氏家用新冠病毒抗原自我檢測套組,78,2022/05/09 15:51:02,快篩實名制，每天16:00開始販售，售完為止。
5933053489,十興藥局,新竹縣竹北市莊敬五街７５號,121.0268,24.82346,(03)6684889,羅氏家用新冠病毒抗原自我檢測套組,78,2022/05/09 15:51:02,快篩實名制，每天16:00開始販售，售完為止。
5933053596,中華藥局,新竹縣竹北市中華路２２６號１、２樓,121.0028,24.83118,(03)5513031,羅氏家用新冠病毒抗原自我檢測套組,78,2022/05/09 15:51:02,快篩實名制，每天16:00開始販售，售完為止。
5933053603,竹北光明藥局,新竹縣竹北市光明一路１３７號,121.0157,24.83023,(03)5584545,羅氏家用新冠病毒抗原自我檢測套組,78,2022/05/09 15:51:02,快篩實名制，每天16:00開始販售，售完為止。
5933061712,湖山藥局,新竹縣湖口鄉中山路二段１２７號,121.0439,24.90198,(03)5904999,羅氏家用新冠病毒抗原自我檢測套組,78,2022/05/09 15:51:02,快篩實名制，每天16:00開始販售，售完為止。
5933081607,新豐藥局,新竹縣新豐鄉中興路２０８、２１０號,120.9949,24.87571,(03)5575005,羅氏家用新冠病毒抗原自我檢測套組,78,2022/05/09 15:51:02,快篩實名制，每天16:00開始販售，售完為止。
5934012473,宜蘭藥局,宜蘭縣宜蘭市泰山路３６號,121.7485,24.75524,(03)9365168,羅氏家用新冠病毒抗原自我檢測套組,78,2022/05/09 15:51:02,快篩實名制，每天16:00開始販售，售完為止。
5934022175,公正藥局,宜蘭縣羅東鎮興東路１３７、１３９號,121.769,24.6802,(03)9560543,羅氏家用新冠病毒抗原自我檢測套組,78,2022/05/09 15:51:02,快篩實名制，每天16:00開始販售，售完為止。
5935011738,佳禾藥局,苗栗縣苗栗市青苗里建台街7號,120.821,24.55742,(037)373041,羅氏家用新冠病毒抗原自我檢測套組,7,2022/05/09 15:51:02,快篩試劑7：30發號碼牌8：00開始販賣，販賣時段：營業時間至售完為止
5935011783,芳鄰國際連鎖藥局,苗栗縣苗栗市中山路５６７號,120.8201,24.55826,(037)330580,羅氏家用新冠病毒抗原自我檢測套組,3,2022/05/09 15:51:02,快篩販賣時段：14:00開始發放號碼牌 16:00-18:00領取快篩
5935021421,苑裡啄木鳥藥局,苗栗縣苑裡鎮世界路一段２５號,120.6561,24.44071,(037)854589,羅氏家用新冠病毒抗原自我檢測套組,7,2022/05/09 15:51:02,快篩實名制每日14:30開始販售。各醫院診所慢性處方箋、牙科處方皆可領，全年無休。
5935021430,苑裡藥局,苗栗縣苑裡鎮為公路３２－１號,120.6541,24.44247,(037)851331,羅氏家用新冠病毒抗原自我檢測套組,78,2022/05/09 15:51:02,快篩實名制，每天16:00開始販售，售完為止。
5935030171,立安藥局,苗栗縣通霄鎮信義路１０７號,120.6804,24.48877,(037)760100,羅氏家用新冠病毒抗原自我檢測套組,2,2022/05/09 15:51:02,快篩實名制 週一到週六下午15:00開始販售  售完為止
5935030180,通霄藥局,苗栗縣通霄鎮中山路１３１號,120.678,24.48903,(037)755155,羅氏家用新冠病毒抗原自我檢測套組,78,2022/05/09 15:51:02,快篩實名制，每天16:00開始販售，售完為止。
5935042108,好康健保藥局,苗栗縣竹南鎮科專七路２１９號１樓,120.9025,24.70536,(037)680877,羅氏家用新冠病毒抗原自我檢測套組,27,2022/05/09 15:51:02,快篩販售時間：下午3：00
5935052006,懷恩中西藥局,苗栗縣頭份市建國路１２８號１樓,120.9099,24.69584,(037)683981,羅氏家用新冠病毒抗原自我檢測套組,2,2022/05/09 15:51:02,營業時間:7:00-23:00
5935061452,後龍藥局,苗栗縣後龍鎮中山路２０９號１樓,120.7931,24.6127,(037)723660,羅氏家用新冠病毒抗原自我檢測套組,78,2022/05/09 15:51:02,快篩實名制，每天16:00開始販售，售完為止。
5935071172,健安藥局,苗栗縣卓蘭鎮上新里上新七之１１號,120.8297,24.30834,(04)25899617,羅氏家用新冠病毒抗原自我檢測套組,17,2022/05/09 15:51:02,每日 15:00開賣快篩試劑
5935090015,永信藥局,苗栗縣公館鄉館中村榮光街１６號,120.8271,24.50226,(037)223597,羅氏家用新冠病毒抗原自我檢測套組,1,2022/05/09 15:51:02,每日下午3點開始販售快篩
5936090224,海源大藥局,臺中市潭子區潭秀里中山路２段４８７號,120.705,24.216,(04)25312187,羅氏家用新冠病毒抗原自我檢測套組,1,2022/05/09 15:51:02,快篩試劑下午3點開始販賣。
5936111148,荷仕康藥局,臺中市新社區興安路１８－３３號,120.8078,24.24042,(04)25826258,羅氏家用新冠病毒抗原自我檢測套組,1,2022/05/09 15:51:02,快篩下午2點開始販售
5936171386,國際大藥局,臺中市龍井區藝術街６號,120.5954,24.18751,(04)26522118,羅氏家用新冠病毒抗原自我檢測套組,1,2022/05/09 15:51:02,無
5936180152,祥暘藥局,臺中市霧峰區中正路１１６２號,120.6996,24.07068,(04)23391346,羅氏家用新冠病毒抗原自我檢測套組,78,2022/05/09 15:51:02,快篩實名制，每天16:00開始販售，售完為止。
5936190676,中美藥師藥局,臺中市太平區中山路３段８５號,120.7173,24.14861,(04)22778238,羅氏家用新冠病毒抗原自我檢測套組,66,2022/05/09 15:51:02,無
5936192134,樹德大藥局,臺中市太平區樹德路１０２號１樓,120.7115,24.15386,(04)23981782,羅氏家用新冠病毒抗原自我檢測套組,61,2022/05/09 15:51:02,下午3點開始領號碼牌，分流領取，請勿依賴網站庫存
5936200032,優美藥師藥局,臺中市大里區新仁路３段２２７號,120.6848,24.11618,(04)24872277,羅氏家用新冠病毒抗原自我檢測套組,23,2022/05/09 15:51:02,下午3點開始販售快篩試劑
5936209287,德芳大藥局,臺中市大里區益民路二段３０４號１、２樓,120.684,24.11183,(04)24815932,羅氏家用新冠病毒抗原自我檢測套組,5,2022/05/09 15:51:02,快篩販售時間:下午3點~6點
593620B138,聯生中西健保藥局,臺中市大里區現岱路１５８巷１１號,120.6919,24.10295,(04)24834058,羅氏家用新冠病毒抗原自我檢測套組,9,2022/05/09 15:51:02,早上八點半領號碼牌下午四點到六點領口罩W6W日早七點
5937010426,正忠藥局,彰化縣彰化市福安里福鎮街１６號,120.5427,24.07324,(04)7244669,羅氏家用新冠病毒抗原自我檢測套組,1,2022/05/09 15:51:02,5月9日起周一~周六下午2:00~9:00販售快篩，售完為止.
5937010533,范藥局,彰化縣彰化市東興里公園路１段２９２號,120.5512,24.07501,(04)7271540,羅氏家用新冠病毒抗原自我檢測套組,78,2022/05/09 15:51:02,每日賣快篩劑時間恢復九點開賣
5937013436,大埔藥局,彰化縣彰化市大埔路４０６、４０８、４１０、４１２號,120.5439,24.06298,(04)7117511,羅氏家用新冠病毒抗原自我檢測套組,78,2022/05/09 15:51:02,快篩實名制，每天16:00開始販售，售完為止。
5937013570,彰化藥局,彰化縣彰化市永安街２７８、２８０號,120.5438,24.08977,(04)7287877,羅氏家用新冠病毒抗原自我檢測套組,78,2022/05/09 15:51:02,暫停販售
5937013730,佳漾藥局,彰化縣彰化市延平路５８８號１樓,120.5374,24.06301,(04)7135518,羅氏家用新冠病毒抗原自我檢測套組,78,2022/05/09 15:51:02,實名制快篩販售時間為下午5點-售完為止，週六，週日及國定假日藥局休息．
5937013767,民族藥局,彰化縣彰化市民族路２１２號１樓,120.5393,24.071,(04)7261221,羅氏家用新冠病毒抗原自我檢測套組,78,2022/05/09 15:51:02,快篩實名制，每天16:00開始販售，售完為止。
5937021849,大樹鹿港藥局,彰化縣鹿港鎮中正路１９３號,120.4405,24.05491,(04)7772226,羅氏家用新冠病毒抗原自我檢測套組,78,2022/05/09 15:51:02,快篩實名制，每天16:00開始販售，售完為止。
5937031747,大樹和美藥局,彰化縣和美鎮道周路５０１號,120.494,24.10896,(04)7550090,羅氏家用新冠病毒抗原自我檢測套組,80,2022/05/09 15:51:02,快篩實名制，每天16:00開始販售，售完為止。
5937051794,愛康生活保健中西藥局,彰化縣員林市靜修東路３４號,120.5753,23.96302,(04)8328826,羅氏家用新冠病毒抗原自我檢測套組,1,2022/05/09 15:51:02,星期一到星期日~下午2:30開始販售政府快篩，售完為止。（全年無休）
5937052255,淑德藥局,彰化縣員林市仁美里中山路２段１１０、１１２號,120.5713,23.96388,(04)8359155,羅氏家用新冠病毒抗原自我檢測套組,25,2022/05/09 15:51:02,周日沒營業。
5937052264,醫聯藥師藥局,彰化縣員林市三條里員東路二段４１０號１樓,120.5811,23.95898,(04)8360617,羅氏家用新冠病毒抗原自我檢測套組,1,2022/05/09 15:51:02,無
5937052273,員林鼎澄藥局,彰化縣員林市仁愛里三民東街２５２號,120.58,23.95997,(04)8330918,羅氏家用新冠病毒抗原自我檢測套組,21,2022/05/09 15:51:02,實名制快篩，星期一-六每日下午2點開始依現場排隊販售
5937052335,大樹三民藥局,彰化縣員林市三民東街３５６號,120.5825,23.96065,(04)8372837,羅氏家用新冠病毒抗原自我檢測套組,78,2022/05/09 15:51:02,快篩實名制，每天16:00開始販售，售完為止。
5937052433,迪迪連鎖藥局員林店,彰化縣員林市林森路１６３號１樓,120.5777,23.95715,(04)8312898,羅氏家用新冠病毒抗原自我檢測套組,7,2022/05/09 15:51:02,快篩實名制販售時間：每日十點發放，依物流配送時間為準。
5937052479,莒光藥局,彰化縣員林市莒光路３１６號１樓,120.5669,23.95942,(04)8361388,羅氏家用新冠病毒抗原自我檢測套組,78,2022/05/09 15:51:02,快篩實名制，每天16:00開始販售，售完為止。
5937052488,大樹員林藥局,彰化縣員林市大同路二段２０７號,120.5745,23.96891,(04)8331353,羅氏家用新冠病毒抗原自我檢測套組,78,2022/05/09 15:51:02,快篩實名制，每天16:00開始販售，售完為止。
5937061432,康健藥局,彰化縣溪湖鎮光平里彰水路３段３８８號,120.4802,23.96206,(04)8822549,羅氏家用新冠病毒抗原自我檢測套組,1,2022/05/09 15:51:02,每天8:30開門即開始配售防疫口罩及快篩試劑（星期日休）
5937061718,東環藥局,彰化縣溪湖鎮湖東街８１巷７０－３、７０－４、７０－５號,120.4833,23.95861,(04)8820001,羅氏家用新冠病毒抗原自我檢測套組,78,2022/05/09 15:51:02,快篩實名制，每天16:00開始販售，售完為止。
5937061727,溪湖藥局,彰化縣溪湖鎮西環路３６５、３７１號１樓,120.4771,23.96099,(04)8818617,羅氏家用新冠病毒抗原自我檢測套組,86,2022/05/09 15:51:02,5／8今日實名制快篩因電腦系統關係以發放號碼牌方式，目前號碼牌已經發放完畢
5937061736,平和藥局,彰化縣溪湖鎮彰水路三段２７７、２７９號１樓,120.4801,23.95959,(04)8816880,羅氏家用新冠病毒抗原自我檢測套組,78,2022/05/09 15:51:02,快篩實名制，每天16:00開始販售，售完為止。
5937071474,田中藥局,彰化縣田中鎮新生街１５０巷２號,120.5862,23.8621,(04)8761988,羅氏家用新冠病毒抗原自我檢測套組,78,2022/05/09 15:51:02,快篩實名制，每天16:00開始販售，售完為止。
5937081498,新杏林藥局,彰化縣二林鎮東和里斗苑路５段２６０號,120.3677,23.90106,(04)8953863,羅氏家用新冠病毒抗原自我檢測套組,36,2022/05/09 15:51:02,星期一至星期五下午3點30分；星期六、日上午8點開始販售，售完為止。一人一卡，持多卡者可重複排隊。
5937081596,二林藥局,彰化縣二林鎮斗苑路五段３９號,120.3709,23.89951,(04)8950010,羅氏家用新冠病毒抗原自我檢測套組,78,2022/05/09 15:51:02,快篩實名制，每天16:00開始販售，售完為止。
5937121184,伸豐藥局,彰化縣秀水鄉福安村彰水路二段６６３號,120.4977,24.03204,(04)7697482,羅氏家用新冠病毒抗原自我檢測套組,5,2022/05/09 15:51:02,5／1起因物流當日到貨時間不定，販售時間請查詢伸豐藥局FB公告
5937121317,彰水藥局,彰化縣秀水鄉彰水路二段４２５、４２７、４２９號１樓,120.4943,24.02791,(04)7685880,羅氏家用新冠病毒抗原自我檢測套組,78,2022/05/09 15:51:02,快篩實名制，每天16:00開始販售，售完為止。
5937170034,淑惠藥局,彰化縣埔心鄉亙北村員鹿路一段２４４號,120.5574,23.95515,(04)8297798,羅氏家用新冠病毒抗原自我檢測套組,67,2022/05/09 15:51:02,星期一~星期六16:00-18:00（2小時販售快篩試劑），星期日：休
5937181279,佳恩藥局,彰化縣永靖鄉永西村瑚璉路３０２號,120.547,23.92421,(04)8235753,羅氏家用新冠病毒抗原自我檢測套組,37,2022/05/09 15:51:02,快篩實名制 :電話預約制，當日早上9點開始預約（已額滿）
5937181304,永靖藥局,彰化縣永靖鄉瑚璉路１１６號,120.5505,23.92624,(04)8230220,羅氏家用新冠病毒抗原自我檢測套組,78,2022/05/09 15:51:02,快篩實名制，每天16:00開始販售，售完為止。
5937201061,長春藥局,彰化縣二水鄉文化村光文路１０３號,120.6167,23.81189,(04)8795289,羅氏家用新冠病毒抗原自我檢測套組,9,2022/05/09 15:51:02,早上8:00發放號碼牌，13:00開始販售至17:00止
5937241065,順順藥局,彰化縣大城鄉東城村東平路６３－１號,120.322,23.85443,(04)8946379,羅氏家用新冠病毒抗原自我檢測套組,1,2022/05/09 15:51:02,無
5938010420,弘昌藥局,南投縣南投市三興里南崗一路８５號,120.6834,23.90096,(049)2228902,羅氏家用新冠病毒抗原自我檢測套組,1,2022/05/09 15:51:02,週一至週六早防疫家用快篩試劑 早上發號碼.下午3點至4點領快篩.超過4點視同放棄.
5938011909,彰南藥局,南投縣南投市彰南路二段２１號,120.6845,23.90847,(049)2230005,羅氏家用新冠病毒抗原自我檢測套組,78,2022/05/09 15:51:02,無
5938022064,大樹埔里藥局,南投縣埔里鎮中正路４３８號,120.9632,23.97263,(049)2980805,羅氏家用新冠病毒抗原自我檢測套組,78,2022/05/09 15:51:02,快篩實名制，每天16:00開始販售，售完為止。
5938030717,百安大藥局,南投縣草屯鎮中正路７０９號,120.6843,23.9805,(049)2305542,羅氏家用新冠病毒抗原自我檢測套組,78,2022/05/09 15:51:02,每日下午3:50發放領取牌 下午4:00開賣
5938032480,草屯藥局,南投縣草屯鎮碧山路１４５、１４７號,120.6834,23.9778,(049)2362992,羅氏家用新冠病毒抗原自我檢測套組,78,2022/05/09 15:51:02,快篩實名制，每天16:00開始販售，售完為止。
5938032515,草屯丁丁藥局,南投縣草屯鎮太平路二段１７９號,120.6831,23.97335,(049)2330058,羅氏家用新冠病毒抗原自我檢測套組,8,2022/05/09 15:51:02,每日早上9點發號碼牌，05／09今日號碼牌已發放完畢
5938032560,祥陽藥局,南投縣草屯鎮中正路８２２、８２４號,120.6854,23.98276,(049)2353393,羅氏家用新冠病毒抗原自我檢測套組,78,2022/05/09 15:51:02,快篩實名制，每天16:00開始販售，售完為止。
5938041916,大明藥局,南投縣竹山鎮大明路４８２號,120.6798,23.759,(049)2652500,羅氏家用新冠病毒抗原自我檢測套組,78,2022/05/09 15:51:02,快篩實名制，每天16:00開始販售，售完為止。
5938050120,家禾藥局,南投縣集集鎮民生路２３７號,120.779,23.82647,(049)2760565,羅氏家用新冠病毒抗原自我檢測套組,2,2022/05/09 15:51:02,快篩代售：w1~w5 下午2：00（當場發放號碼牌，而後當場代售）
5939010399,東京大藥局,雲林縣斗六市文化路７９號,120.5486,23.71107,(05)5348073,羅氏家用新冠病毒抗原自我檢測套組,67,2022/05/09 15:51:02,快篩試劑每天下午4點販賣（售完為止）
5939010504,桂賓藥局,雲林縣斗六市信義里鎮北路３號,120.5432,23.71143,(05)5332138,羅氏家用新冠病毒抗原自我檢測套組,75,2022/05/09 15:51:02,週五.六.日 休息 沒售快篩
5939012400,陽光藥局,雲林縣斗六市永安路６９號,120.548,23.70923,(05)5362097,羅氏家用新冠病毒抗原自我檢測套組,36,2022/05/09 15:51:02,快篩16:00開賣~現場排隊，請勿電話詢問
5939012526,世明中西藥局,雲林縣斗六市文化路３２４－１號,120.5532,23.71162,(05)5333109,羅氏家用新冠病毒抗原自我檢測套組,13,2022/05/09 15:51:02,口罩販售:於周一到周日營業時間9:00~售完為止，快篩試劑販售:於周一到周六營業時間14:00開賣~售完為止
5939012599,斗六藥局,雲林縣斗六市雲林路二段１１３號,120.534,23.70477,(05)5372300,羅氏家用新冠病毒抗原自我檢測套組,78,2022/05/09 15:51:02,快篩實名制，每天16:00開始販售，售完為止。
5939021490,庚辛藥局,雲林縣斗南鎮中正路１３９－１號,120.478,23.67642,(05)5953776,羅氏家用新冠病毒抗原自我檢測套組,8,2022/05/09 15:51:02,因為配送時間不一定，以當日配送到店時間安排販售時段。
5939021614,斗南藥局,雲林縣斗南鎮南昌路１１２號,120.4791,23.67321,(05)5960102,羅氏家用新冠病毒抗原自我檢測套組,78,2022/05/09 15:51:02,無
5939021623,沈藥局,雲林縣斗南鎮中正路１７６號,120.4781,23.67661,(05)5972748,羅氏家用新冠病毒抗原自我檢測套組,42,2022/05/09 15:51:02,[實名制快篩] 每天固定 下午 3:30 開始販售
5939031576,良方藥局,雲林縣虎尾鎮中山路５７號,120.4344,23.70764,(05)6312106,羅氏家用新冠病毒抗原自我檢測套組,7,2022/05/09 15:51:02,周日休息.5／9（一）上午8點開賣78份，另下午2點半開賣78份.現場排隊!!
5939031585,利芳藥局,雲林縣虎尾鎮光復路３１０號,120.4385,23.71011,(05)6311016,羅氏家用新冠病毒抗原自我檢測套組,78,2022/05/09 15:51:02,販賣口罩時間:0830-賣完為止
5939032724,虎尾藥局,雲林縣虎尾鎮林森路二段１１７、１１９號,120.4298,23.70595,(05)6336330,羅氏家用新冠病毒抗原自我檢測套組,78,2022/05/09 15:51:02,新開業， 5／4網路建置完成 每日下午16:00開始販售
5939041849,西螺藥局,雲林縣西螺鎮光復西路１２３、１２５號,120.4612,23.79675,(05)5872112,羅氏家用新冠病毒抗原自我檢測套組,78,2022/05/09 15:51:02,快篩實名制，每天16:00開始販售，售完為止。
5939051238,天愛藥局,雲林縣土庫鎮中山路８０號,120.3903,23.6749,(05)6629923,羅氏家用新冠病毒抗原自我檢測套組,7,2022/05/09 15:51:02,無
5939061949,大樹北港藥局,雲林縣北港鎮華勝路９９號,120.2986,23.57559,(05)7830783,羅氏家用新冠病毒抗原自我檢測套組,78,2022/05/09 15:51:02,快篩實名制，每天16:00開始販售，售完為止。
5939121271,崙背台丞藥局,雲林縣崙背鄉建國路５６號,120.3548,23.76012,(05)6966789,羅氏家用新冠病毒抗原自我檢測套組,7,2022/05/09 15:51:02,週日公休，下午２：３０開賣，售完為止。
5939131400,正鴻健保藥局,雲林縣麥寮鄉表福路３５號,120.255,23.74769,(05)6938786,羅氏家用新冠病毒抗原自我檢測套組,1,2022/05/09 15:51:02,周一至周五早上八點到晚上八點，星期六早上八點到下午四點
5939131482,麥津藥局,雲林縣麥寮鄉中山路３１３、３１５號,120.2527,23.74947,(05)6932258,羅氏家用新冠病毒抗原自我檢測套組,78,2022/05/09 15:51:02,快篩實名制，每天16:00開始販售，售完為止。
5940031386,大樹大林藥局,嘉義縣大林鎮祥和路１９２號,120.4527,23.60447,(05)2641800,羅氏家用新冠病毒抗原自我檢測套組,78,2022/05/09 15:51:02,快篩實名制，每天16:00開始販售，售完為止。
5940031402,信沅中西藥局,嘉義縣大林鎮西林里０１１鄰中正路４２０號,120.4528,23.60129,(05)2656377,羅氏家用新冠病毒抗原自我檢測套組,78,2022/05/09 15:51:02,每日販售時間:19:00開始，領取排發完為止。
5940041739,民雄藥局,嘉義縣民雄鄉東榮村００５鄰建國路一段１１７號,120.4333,23.55681,(05)2264566,羅氏家用新冠病毒抗原自我檢測套組,78,2022/05/09 15:51:02,快篩實名制，每天16:00開始販售，售完為止。
5940121394,水上藥局,嘉義縣水上鄉水頭村中興路２６６號,120.4029,23.43014,(05)2601121,羅氏家用新冠病毒抗原自我檢測套組,78,2022/05/09 15:51:02,快篩實名制，每天16:00開始販售，售完為止。
5941270163,太子藥局,臺南市仁德區太子里太子路３３８號,120.2577,22.99146,(06)2729906,羅氏家用新冠病毒抗原自我檢測套組,1,2022/05/09 15:51:02,5／9快篩.已售完.
5942010349,長英藥局,高雄市鳳山區八德路二段２６７號,120.3519,22.64479,(07)7805002,羅氏家用新冠病毒抗原自我檢測套組,19,2022/05/09 15:51:02,4／29起-營業日15:00~17:00為快篩販賣時間，售完為止。
5942010812,一仁藥局,高雄市鳳山區自由路２００號,120.3495,22.62562,(07)7425004,羅氏家用新冠病毒抗原自我檢測套組,8,2022/05/09 15:51:02,實名快篩 （周一至周六） 15:00 -20:00
5942020130,建成藥局,高雄市岡山區台上里大仁路９７號,120.3016,22.8053,(07)6210458,羅氏家用新冠病毒抗原自我檢測套組,19,2022/05/09 15:51:02,營業日.販賣快篩劑.時間15:00-18:00.或至售完為止
5942030225,吉本藥局,高雄市旗山區旗南里中洲路４７４－１號,120.465,22.83976,(07)6663226,羅氏家用新冠病毒抗原自我檢測套組,4,2022/05/09 15:51:02,營業日0800~2200，14:00開始發號碼牌14:30起為配售口罩時間.售完為止；周六公休無配售口罩；
5942031357,錦昌藥局,高雄市旗山區大同街４號,120.4838,22.88333,(07)6613129,羅氏家用新冠病毒抗原自我檢測套組,75,2022/05/09 15:51:02,政府快篩下午四點16:00開始販售。因為下午兩點太熱了，避免排隊等候者中暑，所以延後開賣時間。早上接診所處方箋。
5942200030,順成藥局,高雄市梓官區梓官路城隍巷３１號,120.2681,22.75929,(07)6172407,羅氏家用新冠病毒抗原自我檢測套組,78,2022/05/09 15:51:02,週一至週五快篩銷售時間★下午4點，六、日★早上8點30
5943013853,復順藥局,屏東縣屏東市公園東路８４－２號,120.4986,22.67217,(08)7215662,羅氏家用新冠病毒抗原自我檢測套組,12,2022/05/09 15:51:02,自2／11日~12／31日，快篩需預約排隊登記，今日無餘額
5943013871,人和藥局,屏東縣屏東市林森路５４－１號,120.4935,22.67267,(08)7663883,羅氏家用新冠病毒抗原自我檢測套組,78,2022/05/09 15:51:02,快篩試劑每日下午四點開始販售，售完為止
5943014029,台大藥師藥局,屏東縣屏東市光復路１４０－３、１４２號,120.4838,22.66998,(08)7330587,羅氏家用新冠病毒抗原自我檢測套組,38,2022/05/09 15:51:02,快篩試劑: 每日依郵局到貨時間機動調整， 隨到隨賣， 售完為止.
5943014092,屏東藥局,屏東縣屏東市自由路６３１號,120.4824,22.683,(08)7323331,羅氏家用新冠病毒抗原自我檢測套組,78,2022/05/09 15:51:02,快篩實名制，每天16:00開始販售，售完為止。
5943014145,廣東藥局,屏東縣屏東市廣東路６８２－２．６８４號,120.4966,22.68527,(08)7362210,羅氏家用新冠病毒抗原自我檢測套組,78,2022/05/09 15:51:02,快篩實名制，每天16:00開始販售，售完為止。
5943014234,屏大藥局,屏東縣屏東市民生路５７－２１號,120.5038,22.66399,(08)7220369,羅氏家用新冠病毒抗原自我檢測套組,78,2022/05/09 15:51:02,快篩實名制，每天16:00開始販售，售完為止。
5943014341,和平藥局,屏東縣屏東市和平路３５號,120.4785,22.66651,(08)7556696,羅氏家用新冠病毒抗原自我檢測套組,78,2022/05/09 15:51:02,快篩實名制，每天16:00開始販售，售完為止。
5943021695,立康藥局,屏東縣潮州鎮介壽路７７號１樓,120.5365,22.54417,(08)7800995,羅氏家用新冠病毒抗原自我檢測套組,18,2022/05/09 15:51:02,快篩實名制下午3:30開始販售，售完為止
5943021720,潮州藥局,屏東縣潮州鎮介壽路１－１號,120.536,22.54448,(08)7894000,羅氏家用新冠病毒抗原自我檢測套組,78,2022/05/09 15:51:02,快篩實名制，每天16:00開始販售，售完為止。
5943031735,愛樂活藥局,屏東縣東港鎮長春一路１１３－１號,120.4594,22.47111,(08)8312388,羅氏家用新冠病毒抗原自我檢測套組,77,2022/05/09 15:51:02,快篩販賣時間: 週一，二，四，五，日 晚上7點開賣，週三，六（有夜市）下午3點開賣 （星期日公休 晚上才會開門喔）
5943031771,東港藥局,屏東縣東港鎮中正路２５７˙２５７－１號,120.4523,22.47022,(08)8325133,羅氏家用新冠病毒抗原自我檢測套組,77,2022/05/09 15:51:02,快篩實名制，每天16:00開始販售，售完為止。
5943031897,欣大眾藥局,屏東縣東港鎮中正路一段９２號,120.4569,22.47272,(08)8351177,羅氏家用新冠病毒抗原自我檢測套組,1,2022/05/09 15:51:02,無
5943041320,南門大藥局,屏東縣恆春鎮中正路８４號,120.7446,22.00343,(08)8894335,羅氏家用新冠病毒抗原自我檢測套組,78,2022/05/09 15:51:02,營業日16:00-21:00 販賣實名制快篩（賣完為止），星期日不販售
5943041357,西門藥局,屏東縣恆春鎮西門路１０８號,120.7437,22.00793,(08)8896980,羅氏家用新冠病毒抗原自我檢測套組,78,2022/05/09 15:51:02,快篩實名制，每天16:00開始販售，販售完為止
5943050169,新萬安藥局,屏東縣萬丹鄉萬安村萬丹路一段１１３號,120.4894,22.58628,(08)7772035,羅氏家用新冠病毒抗原自我檢測套組,7,2022/05/09 15:51:02,實名制快篩販售時間中午 12:30  至售完
5943091197,葉藥局里港店,屏東縣里港鄉春林村永春路１７－５號１樓,120.4961,22.77736,(08)7750318,羅氏家用新冠病毒抗原自我檢測套組,59,2022/05/09 15:51:02,今天下午三點領快篩
5943131534,內埔啄木鳥藥局,屏東縣內埔鄉光明路４７１號,120.5729,22.616,(08)7787078,羅氏家用新冠病毒抗原自我檢測套組,39,2022/05/09 15:51:02,5／7起 下午3:30發放
5943131561,南寧藥局,屏東縣內埔鄉南寧路２３號,120.5655,22.61723,(08)7690330,羅氏家用新冠病毒抗原自我檢測套組,78,2022/05/09 15:51:02,快篩實名制，每天16:00開始販售，售完為止。
5944011433,東文藥局,澎湖縣馬公市東文里文山路６６號,119.5846,23.56228,(06)9221433,羅氏家用新冠病毒抗原自我檢測套組,32,2022/05/09 15:51:02,快篩販售:週一~週五下午3:30 週六休息
5945012069,華康藥局,花蓮縣花蓮市建國路１９６號,121.601,23.98409,(03)8328366,羅氏家用新冠病毒抗原自我檢測套組,39,2022/05/09 15:51:02,快篩販售時間1500售完為止，每日1300-1400休息
5945012096,林森藥局,花蓮縣花蓮市林森路３０９之１號B１,121.6034,23.98008,(03)8336321,羅氏家用新冠病毒抗原自我檢測套組,3,2022/05/09 15:51:02,（快篩試劑周一到周五下午2點-4點販售）門診上午8:15-11點.下午2點-4點.週1.3.5晚上6:15-8:15.週2.4晚上6點15-8點
5945013299,柏陞藥局,花蓮縣花蓮市和平路４９８號,121.6013,23.97698,(03)8315339,羅氏家用新冠病毒抗原自我檢測套組,2,2022/05/09 15:51:02,預約制:預約隔日~留卡（注意單雙號）留現金 目前限量78盒 取貨時間:下午5點~7點
5945021040,人和藥局,花蓮縣鳳林鎮中正路２００號,121.45,23.74899,(03)8762712,羅氏家用新冠病毒抗原自我檢測套組,2,2022/05/09 15:51:02,無
5945021086,安康鳳林藥局,花蓮縣鳳林鎮仁愛街１０號１樓,121.4503,23.74937,(03)8762227,羅氏家用新冠病毒抗原自我檢測套組,8,2022/05/09 15:51:02,快篩發放時間，依現場公告為主，售完為止。
5945051584,安欣藥局,花蓮縣吉安鄉建國路一段７９號,121.5939,23.98513,(03)8563186,羅氏家用新冠病毒抗原自我檢測套組,55,2022/05/09 15:51:02,視收貨時間  今日下午3點40分販售
5945051646,花蓮建國藥局,花蓮縣吉安鄉建國路１段１３７－１號,121.5915,23.98574,(03)8461699,羅氏家用新冠病毒抗原自我檢測套組,81,2022/05/09 15:51:02,快篩實名制，每天16:00開始販售，售完為止。
5945051726,安康藥局,花蓮縣吉安鄉中山路３段３８４號,121.5689,23.97907,(03)8513951,羅氏家用新冠病毒抗原自我檢測套組,28,2022/05/09 15:51:02,週一至週五下午03:00，周六早上08:00與周日18:00開賣快篩，售完為止
5946010229,晃成藥局,臺東縣臺東市更生路４９４號,121.1411,22.76355,(089)336981,羅氏家用新冠病毒抗原自我檢測套組,3,2022/05/09 15:51:02,快篩3:00發號碼牌3:15開始
5946080552,伯安健康藥局,臺東縣長濱鄉長濱村１０鄰長濱路１０５號,121.4515,23.31496,(089)832519,羅氏家用新冠病毒抗原自我檢測套組,33,2022/05/09 15:51:02,無
5946101118,伯安藥局,臺東縣池上鄉新生路１１６號,121.2187,23.12315,(089)863585,羅氏家用新冠病毒抗原自我檢測套組,57,2022/05/09 15:51:02,早0800-1200，午1400-1800，晚1800-2000
5990010695,百泰藥局,金門縣金城鎮西海路１段１號,118.2864,24.41566,(082)312832,羅氏家用新冠病毒抗原自我檢測套組,78,2022/05/09 15:51:02,快篩實名制，每天16:00開始販售，售完為止。
