醫事機構代碼,醫事機構名稱,醫事機構地址,經度,緯度,醫事機構電話,廠牌項目,快篩試劑截至目前結餘存貨數量,來源資料時間,備註
2340170016,嘉義縣大埔鄉衛生所,嘉義縣大埔鄉大埔村５３－１號,120.5928,23.29397,(05)2521214,羅氏家用新冠病毒抗原自我檢測套組,78,2022/05/06 16:16:02,無
2342130010,高雄市田寮區衛生所,高雄市田寮區南安里崗北路３２號,120.3594,22.87301,(07)6361504,羅氏家用新冠病毒抗原自我檢測套組,77,2022/05/06 16:16:02,巡迴醫療:每星期一、四下午及每月第一個有上班的星期三下午巡迴醫療
2342250017,高雄市茂林區衛生所,高雄市茂林區茂林里茂林巷８－４號,120.6641,22.88641,(07)6801046,羅氏家用新冠病毒抗原自我檢測套組,60,2022/05/06 16:16:02,夜間急診，請先撥電話07-6801046
2342260013,高雄市桃源區衛生所,高雄市桃源區桃源里南進巷１８８－１號,120.7642,23.15845,(07)6861126,羅氏家用新冠病毒抗原自我檢測套組,77,2022/05/06 16:16:02,IDS提供24小時服務
2342270019,高雄市那瑪夏區衛生所,高雄市那瑪夏區瑪雅里６鄰平和巷２５２號,120.7024,23.24708,(07)6701142,羅氏家用新冠病毒抗原自我檢測套組,275,2022/05/06 16:16:02,春節期間正常門診
2344011036,澎湖縣馬公市第三衛生所,澎湖縣馬公市西文里１１８之２號,119.5836,23.56813,(06)9211723,羅氏家用新冠病毒抗原自我檢測套組,24,2022/05/06 16:16:02,本所快篩試劑只提供離島衛生室（虎井、桶盤）販售，時間週一至週五08:30-17:00售完為止，星期六、日國定假日09:00-12:00。
2344030022,澎湖縣白沙鄉鳥嶼衛生所,澎湖縣白沙鄉鳥嶼村漁港新村３號,119.6599,23.66008,(06)9916092,羅氏家用新冠病毒抗原自我檢測套組,85,2022/05/06 16:16:02,非上班時間提供急診服務
2344030031,澎湖縣白沙鄉吉貝衛生所,澎湖縣白沙鄉吉貝村８－１３號,119.6138,23.74056,(06)9911430,羅氏家用新冠病毒抗原自我檢測套組,110,2022/05/06 16:16:02,無
2344050015,澎湖縣望安鄉衛生所,澎湖縣望安鄉西安村３６－７號,119.4972,23.36161,(06)9991036,羅氏家用新冠病毒抗原自我檢測套組,129,2022/05/06 16:16:02,夜間急診。口罩、快篩試劑販售時間為:每日08:00-12:00、13:30-17:30售完為止，如有餘數為離島未售出（東嶼坪、花嶼）。
2344050024,澎湖縣望安鄉將軍衛生所,澎湖縣望安鄉將軍村１２鄰將軍澳１之３號,119.5216,23.3615,(06)9902066,羅氏家用新冠病毒抗原自我檢測套組,149,2022/05/06 16:16:02,24小時急診
2344060011,澎湖縣七美鄉衛生所,澎湖縣七美鄉中和村埔內５４號,119.431,23.2041,(06)9971005,羅氏家用新冠病毒抗原自我檢測套組,52,2022/05/06 16:16:02,無
2391030016,連江縣莒光鄉西莒衛生所,連江縣莒光鄉青帆村１４－１號,119.9331,25.97157,(083)689122,羅氏家用新冠病毒抗原自我檢測套組,326,2022/05/06 16:16:02,防疫口罩星期一至五09:00-17:00、（六）09:00-12:00現場購買
2391030026,連江縣莒光鄉東莒衛生所,連江縣莒光鄉大坪村３０－１號,119.9731,25.96113,(083)689038,羅氏家用新冠病毒抗原自我檢測套組,458,2022/05/06 16:16:02,防疫口罩星期一至星期日上午10:00-12:00收取健保卡，下午3:30至本所領取口罩。
5901012570,予志藥局,臺北市松山區富錦街５２１號,121.5649,25.06119,(02)27623522,羅氏家用新冠病毒抗原自我檢測套組,78,2022/05/06 16:16:02,實名制快篩星期一到三下午2點、星期四到六晚上8點、星期日停售
5901012598,婕登藥局,臺北市松山區八德路４段６９９號,121.5766,25.05021,(02)27482893,羅氏家用新冠病毒抗原自我檢測套組,5,2022/05/06 16:16:02,今天快篩已經發送完畢（電腦庫存不準）
5901012749,躍獅松和藥局,臺北市松山區八德路四段６６６－１號,121.5761,25.04979,(02)27492569,羅氏家用新冠病毒抗原自我檢測套組,42,2022/05/06 16:16:02,實名制快篩販售時段，每日下午4點販售，售完為止
5901013095,康采藥局,臺北市松山區南京東路５段２９１巷１７－２號,121.5663,25.05236,(02)27670271,羅氏家用新冠病毒抗原自我檢測套組,29,2022/05/06 16:16:02,（已完售，庫存不準）快篩試劑每日16點販售，週日沒有販售
5901013442,松山八德藥局,臺北市松山區八德路２段４００號,121.5466,25.04804,(02)27782773,羅氏家用新冠病毒抗原自我檢測套組,48,2022/05/06 16:16:02,快篩實名制，每天16:00開始販售，售完為止。
5901013693,民生盛康藥局,臺北市松山區民生東路５段２０４號１樓,121.5648,25.05826,(02)27460758,羅氏家用新冠病毒抗原自我檢測套組,118,2022/05/06 16:16:02,【每日70分】每日早上9:00發號碼牌，14:00~20:00拿號碼牌回來領取，每人限1張號碼牌，逾時不候
5901013700,杏一台北台安藥局,臺北市松山區八德路２段３９９號１樓,121.5465,25.04833,(02)87728295,羅氏家用新冠病毒抗原自我檢測套組,6,2022/05/06 16:16:02,快篩實名制販售時間為每天下午15:00，開賣前10分鐘發放號碼牌，售完為止
5901013719,大樹松山藥局,臺北市松山區民生東路５段１０７號１樓,121.5601,25.05878,(02)27562226,羅氏家用新冠病毒抗原自我檢測套組,61,2022/05/06 16:16:02,快篩實名制，每天16:00開始販售，售完為止。
5901013737,全欣藥局,臺北市松山區復興北路７３號２樓,121.5442,25.05104,(02)87729066,羅氏家用新冠病毒抗原自我檢測套組,9,2022/05/06 16:16:02,9:00am開始販售30人份15:00販售30人份:18:00販售17人份；週六:9:00販售39人份；週日:15:00販售39人份....排隊人數滿會先發號碼
5901024687,博昱大藥局,臺北市大安區樂業街１４８號、１５０號,121.5529,25.01998,(02)23776199,羅氏家用新冠病毒抗原自我檢測套組,5,2022/05/06 16:16:02,快篩發放為周一至周五1600開始發放
5901024918,康祥藥局,臺北市大安區忠孝東路４段２１６巷２１號,121.5531,25.04025,(02)27817891,羅氏家用新冠病毒抗原自我檢測套組,78,2022/05/06 16:16:02,星期天11:00-19:00
5901025059,博醫仁愛藥局,臺北市大安區仁愛路４段８巷２號１樓,121.5443,25.0375,(02)27019107,羅氏家用新冠病毒抗原自我檢測套組,1,2022/05/06 16:16:02,每天11:30發號碼牌，12:00~15:00憑號碼牌與健保卡購買實名制快篩
5901091544,得意藥師藥局,臺北市大同區延平北路２段２２９號,121.5115,25.06029,(02)25534294,羅氏家用新冠病毒抗原自我檢測套組,28,2022/05/06 16:16:02,無
5901092130,大同民生藥局,臺北市大同區民生西路１２８號１樓、２樓及１３０號１樓、２樓,121.5191,25.05734,(02)25558886,羅氏家用新冠病毒抗原自我檢測套組,2,2022/05/06 16:16:02,快篩實名制，每天16:00開始販售，售完為止。
5901101250,美日藥局,臺北市中山區天津街６６號１樓,121.5233,25.05136,(02)25631662,羅氏家用新冠病毒抗原自我檢測套組,37,2022/05/06 16:16:02,實名制快篩於營業日下午4點開始發號碼牌
5901101509,永直藥局,臺北市中山區北安路５９５巷２弄６號,121.5483,25.08192,(02)85098059,羅氏家用新冠病毒抗原自我檢測套組,232,2022/05/06 16:16:02,今日號碼牌（5／6）已發完，周一至周六早上8點發號碼牌，下午2點到晚上8點販售（拿號碼牌來買）
5901102444,啟美藥師藥局,臺北市中山區錦州街２８２號,121.5352,25.06024,(02)25178032,羅氏家用新冠病毒抗原自我檢測套組,78,2022/05/06 16:16:02,快篩 販售時間 20點開賣到21點，星期六日公休
5901102837,正傑健保藥局,臺北市中山區長安東路２段１８１號,121.5426,25.04839,(02)27310181,羅氏家用新冠病毒抗原自我檢測套組,39,2022/05/06 16:16:02,下午四點開始販售
5901103629,十二願藥局,臺北市中山區林森北路３０９號,121.5256,25.05588,(02)25311223,羅氏家用新冠病毒抗原自我檢測套組,71,2022/05/06 16:16:02,快篩晚上8點開始發放.營業時間下午1點至凌晨3點
5901103656,大樹龍江藥局,臺北市中山區龍江路２４２號,121.5406,25.05889,(02)25035666,羅氏家用新冠病毒抗原自我檢測套組,54,2022/05/06 16:16:02,國定假日仍執行調劑業務
5901103745,吉林藥局,臺北市中山區吉林路３７１號（１樓）,121.5305,25.06511,(02)25865990,羅氏家用新冠病毒抗原自我檢測套組,42,2022/05/06 16:16:02,快篩實名制，每天16:00開始販售，售完為止。
5901110393,明湖藥局,臺北市內湖區東湖路７巷２７號１Ｆ,121.6125,25.0697,(02)26313515,羅氏家用新冠病毒抗原自我檢測套組,3,2022/05/06 16:16:02,快篩實名制，下午2點半販售。
5901112995,昇龍藥局,臺北市內湖區東湖路１５１號,121.6174,25.0681,(02)26316783,羅氏家用新冠病毒抗原自我檢測套組,1,2022/05/06 16:16:02,營業時間為早上8點到晚上10點；實名制快篩於每日下午一點前領取，​但若排隊人數已超過數量，將視情況提早發放。
5901113018,桔子藥局,臺北市內湖區內湖路２段３３３號,121.5917,25.08319,(02)27930052,羅氏家用新冠病毒抗原自我檢測套組,78,2022/05/06 16:16:02,早0900-1200，午1400-1700，晚1900-2100
5901113250,大內湖藥局,臺北市內湖區成功路３段１６４號１樓,121.5903,25.08035,(02)27956286,羅氏家用新冠病毒抗原自我檢測套組,42,2022/05/06 16:16:02,5／5-5／7下午16:00開始發售，5／8（日）起早上9:30開始發售
5901113661,內湖藥局,臺北市內湖區康寧路１段１１６號１樓,121.5934,25.07948,(02)27940545,羅氏家用新冠病毒抗原自我檢測套組,42,2022/05/06 16:16:02,快篩實名制，每天16:00開始販售，售完為止。
5901121958,心亮藥局,臺北市南港區玉成街６６之７號,121.5818,25.04692,(02)27881677,羅氏家用新冠病毒抗原自我檢測套組,15,2022/05/06 16:16:02,無
5901122062,躍獅忠孝藥局,臺北市南港區成福路１６號,121.586,25.04561,(02)27862829,羅氏家用新冠病毒抗原自我檢測套組,2,2022/05/06 16:16:02,無
5901150548,田倉藥局,臺北市士林區士東路１２４號,121.5302,25.11219,(02)88662188,羅氏家用新冠病毒抗原自我檢測套組,78,2022/05/06 16:16:02,每日19:00（傍晚7點）開始販售.
5901152453,家赫藥局,臺北市士林區忠義街８０號１樓,121.5317,25.10614,(02)28346453,羅氏家用新冠病毒抗原自我檢測套組,3,2022/05/06 16:16:02,每日下午2:40開始發號碼牌販售實名制快篩
5901152471,得安藥局,臺北市士林區文林路１４０號,121.5267,25.08878,(02)28836336,羅氏家用新冠病毒抗原自我檢測套組,86,2022/05/06 16:16:02,星期三五六下午3:30---10:00   星期二 四日下午5:00--10:00
5901153432,大南春天生活藥局,臺北市士林區大南路３１７、３１９號,121.518,25.08888,(02)28882196,羅氏家用新冠病毒抗原自我檢測套組,1,2022/05/06 16:16:02,本藥局可領慢箋 快篩是下午3點開始販售 售完為止（物流無配送&配送不及例外）
5901153674,愛佳藥局,臺北市士林區承德路４段２２２之１號,121.5215,25.0885,(02)28811199,羅氏家用新冠病毒抗原自我檢測套組,156,2022/05/06 16:16:02,實名制快篩平日一~五下午5:00販售，假日（六、日）不販售
5901153941,士東藥局,臺北市士林區士東路９１巷３號,121.5291,25.11256,(02)28760588,羅氏家用新冠病毒抗原自我檢測套組,58,2022/05/06 16:16:02,快篩實名制，每天16:00開始販售，售完為止。
5901154028,向宇藥局,臺北市士林區德行東路２１７號１樓,121.5328,25.10935,(02)88661101,羅氏家用新冠病毒抗原自我檢測套組,79,2022/05/06 16:16:02,無
5901154135,誠泰中西藥局,臺北市士林區永平街１３號１樓,121.5051,25.08996,(02)88112352,羅氏家用新冠病毒抗原自我檢測套組,76,2022/05/06 16:16:02,周一到周六晚上7:00開始販賣，  周日休息
5901160428,九福藥局,臺北市北投區公館路２３６號,121.5081,25.12612,(02)28953009,羅氏家用新冠病毒抗原自我檢測套組,3,2022/05/06 16:16:02,★週日店休未營業. 快篩下午1點發號碼牌
5901161890,良興藥局,臺北市北投區中和街２８６號,121.5004,25.14047,(02)28933360,羅氏家用新冠病毒抗原自我檢測套組,53,2022/05/06 16:16:02,18點30分點開始營業
5901170139,福華藥局,臺北市信義區吳興街２８１巷３號１樓,121.5643,25.02656,(02)27208527,羅氏家用新冠病毒抗原自我檢測套組,78,2022/05/06 16:16:02,現階段下午1:30配合政府發售快篩試劑
5901173238,正和藥局,臺北市信義區吳興街２２５巷６號,121.5634,25.02782,(02)23455186,羅氏家用新冠病毒抗原自我檢測套組,1,2022/05/06 16:16:02,下午2點半發放快篩
5901173738,尚頤中西藥局,臺北市信義區虎林街１４５號,121.5767,25.03959,(02)27253818,羅氏家用新冠病毒抗原自我檢測套組,79,2022/05/06 16:16:02,無
5901173818,博亞藥局,臺北市信義區莊敬路４６２號,121.5677,25.02672,(02)27580506,羅氏家用新冠病毒抗原自我檢測套組,40,2022/05/06 16:16:02,平日早上8:30、晚上8:00；假日早上8:30，發放號碼牌，持號碼牌購買!
5901174002,吳興春天藥局,臺北市信義區吳興街１３７號１樓,121.5618,25.02947,(02)27585618,羅氏家用新冠病毒抗原自我檢測套組,7,2022/05/06 16:16:02,下午2:40發號碼牌
5901174057,詠晴中西藥局,臺北市信義區松山路４８４之４號（１樓含夾層）,121.5778,25.0389,(02)27266890,羅氏家用新冠病毒抗原自我檢測套組,2,2022/05/06 16:16:02,實名制快篩 - 16:30領號碼牌.當天取貨即可.避免群聚風險
5901174066,愛維喜藥局,臺北市信義區莊敬路２７８號１樓,121.5627,25.02882,(02)27586989,羅氏家用新冠病毒抗原自我檢測套組,1,2022/05/06 16:16:02,快篩周一至周五下午3:30開賣.約3:00收健保卡現金500元1張.發號碼牌
5901174084,市政藥局,臺北市信義區忠孝東路５段１６９號１樓、１７１號１樓,121.5688,25.0412,(02)27560050,羅氏家用新冠病毒抗原自我檢測套組,12,2022/05/06 16:16:02,快篩實名制，每天16:00開始販售，售完為止。
5901184080,活力健康藥妝藥局,臺北市中正區中華路２段３１５巷１號,121.5062,25.02795,(02)23392625,羅氏家用新冠病毒抗原自我檢測套組,7,2022/05/06 16:16:02,快篩14:00-15:00， 建議提早排隊
5901184491,躍獅南門藥局,臺北市中正區中華路２段３９巷１０號,121.5074,25.03484,(02)23141111,羅氏家用新冠病毒抗原自我檢測套組,24,2022/05/06 16:16:02,口罩販售時段：成人早上9點及晚上7點各200個
5901184553,珍忻藥局,臺北市中正區南昌路１段６５號,121.5174,25.03107,(02)23965115,羅氏家用新冠病毒抗原自我檢測套組,6,2022/05/06 16:16:02,健保快篩發放:13:20及18:20分兩梯次發號碼牌
5901184633,躍獅東門藥局,臺北市中正區金山南路１段１０８之１號（１樓）,121.5273,25.03538,(02)23920339,羅氏家用新冠病毒抗原自我檢測套組,34,2022/05/06 16:16:02,5／6銷售時間已結束。5／7下午兩點開始販售，不提早發放號碼牌
5901184679,汀州藥局,臺北市中正區汀州路１段１８７、１８９、１９１號（１樓）,121.5112,25.02704,(02)23090705,羅氏家用新冠病毒抗原自我檢測套組,28,2022/05/06 16:16:02,快篩實名制，每天16:00開始販售，售完為止。
5901190668,聯慶大藥局,臺北市萬華區萬大路３０６號１樓,121.5003,25.02495,(02)23039850,羅氏家用新冠病毒抗原自我檢測套組,1,2022/05/06 16:16:02,無
5901192180,康之友藥局,臺北市萬華區青年路２０號,121.5055,25.02592,(02)23011598,羅氏家用新冠病毒抗原自我檢測套組,1,2022/05/06 16:16:02,下午兩點發號碼牌
5901192975,萬華藥局,臺北市萬華區萬大路２４８號實際營業地址１樓、２樓,121.5003,25.02626,(02)23012221,羅氏家用新冠病毒抗原自我檢測套組,18,2022/05/06 16:16:02,快篩實名制，每天16:00開始販售，售完為止。
5901193221,正盛藥局,臺北市萬華區中華路２段４３４－１號,121.5064,25.02708,(02)23050386,羅氏家用新冠病毒抗原自我檢測套組,60,2022/05/06 16:16:02,1.快篩一~六20點，周日不賣 2.目前排隊人潮多，建議7點左右提前候位 3.詳情請看門口公告或板橋正康總店臉書
5901193301,富安藥局,臺北市萬華區萬大路４２６號,121.4981,25.02096,(02)23377878,羅氏家用新冠病毒抗原自我檢測套組,78,2022/05/06 16:16:02,快篩實名制：一人一卡，現場排隊，售完為止。【5／3早上暫停販售，販售時間待更新！】
5901193310,和德藥局,臺北市萬華區西園路２段２９２號１樓,121.4935,25.02698,(02)23331522,羅氏家用新冠病毒抗原自我檢測套組,10,2022/05/06 16:16:02,快篩實名制，每天16:00開始販售，售完為止。
5901193329,西園宏越藥局,臺北市萬華區西園路２段２１３號,121.4942,25.02714,(02)23097336,羅氏家用新冠病毒抗原自我檢測套組,48,2022/05/06 16:16:02,實名制快篩下午4點~5點販售
5901193338,艾米力藥師藥局,臺北市萬華區西藏路１０７－２號１樓,121.5035,25.02955,(02)23036583,羅氏家用新冠病毒抗原自我檢測套組,72,2022/05/06 16:16:02,實名制快篩：周一~周五 晚上7:00販售；周末（六日）早上9:00販售
5901201568,康宜庭生活藥局,臺北市文山區興隆路４段６４號,121.5613,24.98514,(02)29385363,羅氏家用新冠病毒抗原自我檢測套組,8,2022/05/06 16:16:02,實名快篩14:00開賣 現場排隊
5901202841,欣安景美藥局,臺北市文山區景文街７７號,121.5414,24.99126,(02)29316008,羅氏家用新冠病毒抗原自我檢測套組,5,2022/05/06 16:16:02,今日快篩劑PM:14:00販賣售完為止
5901202958,杏一萬安藥局,臺北市文山區萬安街１５號,121.5706,25.00139,(02)22302126,羅氏家用新冠病毒抗原自我檢測套組,1,2022/05/06 16:16:02,營業時間0900-2200
5901203062,大樹文山藥局,臺北市文山區興隆路３段１３號（１、２、３樓）,121.555,25.00088,(02)29342226,羅氏家用新冠病毒抗原自我檢測套組,31,2022/05/06 16:16:02,口罩販售時間：14:00 - 16:00
5901203213,綠杏萬芳藥局,臺北市文山區興隆路３段１１１號,121.5583,25.00031,(02)29349516,羅氏家用新冠病毒抗原自我檢測套組,15,2022/05/06 16:16:02,無
5901203366,大樹木柵藥局,臺北市文山區木柵路３段１０８號、１１０號（１樓、２樓）,121.5676,24.98866,(02)22340110,羅氏家用新冠病毒抗原自我檢測套組,44,2022/05/06 16:16:02,快篩實名制，每天16:00開始販售，售完為止。
5901203375,大樹景美藥局,臺北市文山區羅斯福路６段２３４之１號,121.5404,24.99244,(02)29322951,羅氏家用新冠病毒抗原自我檢測套組,16,2022/05/06 16:16:02,快篩實名制，每天16:00開始販售，售完為止。
5901203482,健康家藥局,臺北市文山區興隆路２段１３３號１樓,121.5481,25.00011,(02)29330858,羅氏家用新冠病毒抗原自我檢測套組,2,2022/05/06 16:16:02,實名制快篩下午一點開始販售，5／1店休
5902020012,永松藥局,高雄市鼓山區鼓山三路１３０－１５號,120.2802,22.66454,(07)5810657,羅氏家用新冠病毒抗原自我檢測套組,3,2022/05/06 16:16:02,無
5902040014,成吉藥局,高雄市楠梓區楠梓東街７４號,120.3301,22.72966,(07)3513339,羅氏家用新冠病毒抗原自我檢測套組,71,2022/05/06 16:16:02,下午6點開始販賣實名制快篩，售完為止!!!星期日店休
5902042661,元春中西藥師藥局,高雄市楠梓區後昌路８３７巷３７號,120.294,22.71109,(07)3605656,羅氏家用新冠病毒抗原自我檢測套組,37,2022/05/06 16:16:02,下午16.00開始為快篩領取時間，售完為止
5902050350,日星藥局,高雄市三民區寶龍里惠德街３８號,120.3241,22.64741,(07)3845188,羅氏家用新冠病毒抗原自我檢測套組,18,2022/05/06 16:16:02,快篩口罩時間:星期一至五16:00-21:00；星期六09:00-11:30，售完為止
5902080545,柏松藥局,高雄市苓雅區輔仁路１７５號,120.3332,22.63065,(07)7119786,羅氏家用新冠病毒抗原自我檢測套組,30,2022/05/06 16:16:02,實名制快篩試劑.5／4.起.16:00開賣......售完為止!!
5903010556,升禾和大藥局,臺中市豐原區育英路２６號１樓,120.7163,24.24346,(04)25293099,羅氏家用新冠病毒抗原自我檢測套組,78,2022/05/06 16:16:02,快篩試劑1800領取.採現場排隊.售完為止
5903050274,鹿寮藥局,臺中市沙鹿區中山路４６１、４６１－１號１、２樓,120.5615,24.24387,(04)26630677,羅氏家用新冠病毒抗原自我檢測套組,4,2022/05/06 16:16:02,快篩實名制，每天16:00開始販售，售完為止。
5903100206,民生藥局,臺中市大雅區民生路一段２２１號１樓,120.6512,24.22789,(04)25662229,羅氏家用新冠病毒抗原自我檢測套組,20,2022/05/06 16:16:02,快篩實名制，每天16:00開始販售，售完為止。
5903150153,溪南藥局,臺中市烏日區溪南路一段５６５號１樓,120.6431,24.07523,(04)23353666,羅氏家用新冠病毒抗原自我檢測套組,37,2022/05/06 16:16:02,快篩實名制，每天16:00開始販售，售完為止。
5903150180,九德藥局,臺中市烏日區中山路一段４３８、４４０號１樓,120.6365,24.10748,(04)23385456,羅氏家用新冠病毒抗原自我檢測套組,17,2022/05/06 16:16:02,快篩實名制，每天16:00開始販售，售完為止。
5903160097,安昌藥局,臺中市大肚區遊園路二段１７６號１樓,120.5808,24.17289,(04)26913890,羅氏家用新冠病毒抗原自我檢測套組,78,2022/05/06 16:16:02,每天晚上19:00點開始現場排隊販賣快篩試劑.
5903180115,永合藥局,臺中市霧峰區中正路９６５號,120.6989,24.06597,(04)23391910,羅氏家用新冠病毒抗原自我檢測套組,14,2022/05/06 16:16:02,無
5903180142,峰正藥局,臺中市霧峰區中正路８３０號１樓,120.6987,24.06244,(04)23303353,羅氏家用新冠病毒抗原自我檢測套組,19,2022/05/06 16:16:02,快篩實名制，每天16:00開始販售，售完為止。
5903190362,太平中山藥局,臺中市太平區中山路４段１１號,120.7139,24.14931,(04)23959200,羅氏家用新冠病毒抗原自我檢測套組,50,2022/05/06 16:16:02,快篩實名制，每天16:00開始販售，售完為止。
5903200229,信元藥局,臺中市大里區益民路２段３７２號１樓,120.684,24.11545,(04)24876051,羅氏家用新冠病毒抗原自我檢測套組,49,2022/05/06 16:16:02,下午5點發號碼牌並依序販賣
5903200596,大樹大里藥局,臺中市大里區中興路二段１０１號,120.6885,24.10305,(04)24861133,羅氏家用新冠病毒抗原自我檢測套組,40,2022/05/06 16:16:02,快篩實名制，每天16:00開始販售，售完為止。
5903200701,大益藥局,臺中市大里區益民路二段３３５號１、２樓,120.6837,24.11311,(04)24811551,羅氏家用新冠病毒抗原自我檢測套組,16,2022/05/06 16:16:02,快篩實名制，每天16:00開始販售，售完為止。
5903220061,宏信大藥局,臺中市中區自由路２段４５號１樓,120.6815,24.13959,(04)22222021,羅氏家用新冠病毒抗原自我檢測套組,1,2022/05/06 16:16:02,周1~周5 早上9點至晚上7點周6周日早上10點到晚上9點
5903240483,名華藥局,臺中市西區中華路一段７號１樓,120.6732,24.14209,(04)22231187,羅氏家用新冠病毒抗原自我檢測套組,4,2022/05/06 16:16:02,實名制快篩，5／6 PM3:00開售
5903250381,大樹美村藥局,臺中市南區美村南路１２４號,120.667,24.11499,(04)22621113,羅氏家用新冠病毒抗原自我檢測套組,40,2022/05/06 16:16:02,口罩販售時間：14:00 - 16:00
5903250505,心安藥局,臺中市南區國光路２４１號１樓,120.6794,24.12676,(04)22858773,羅氏家用新冠病毒抗原自我檢測套組,84,2022/05/06 16:16:02,每天下午三點排隊開賣，一人一卡，週日公休下次是5／6號.5／5已售完.
5903260814,杏一北區文心藥局,臺中市北區文心路４段２１０－８號１、２樓,120.678,24.1729,(04)22993847,羅氏家用新冠病毒抗原自我檢測套組,35,2022/05/06 16:16:02,實名制快篩下午16:00開始販售
5903261008,台中大樹藥局,臺中市北區漢口路三段２６１號,120.6726,24.16703,(04)22981113,羅氏家用新冠病毒抗原自我檢測套組,23,2022/05/06 16:16:02,快篩實名制，每天16:00開始販售，售完為止。
5903270721,舒健藥局,臺中市西屯區西屯路二段２５５號２樓,120.6459,24.17179,(04)27077858,羅氏家用新冠病毒抗原自我檢測套組,78,2022/05/06 16:16:02,公費快篩試劑於周一至周六晚上7點現場排隊購買，週日公休。
5903270865,尚禾藥局,臺中市西屯區青海路一段６５號,120.6548,24.16438,(04)23147688,羅氏家用新冠病毒抗原自我檢測套組,39,2022/05/06 16:16:02,實名制快篩發放：時段一中午12:30~14:00。時段二20：30~22：30。時段一若未發完，餘量將遞延至時段二發放。周日停售。
5903270909,元生藥局,臺中市西屯區大墩路９６０號,120.6516,24.15817,(04)23274539,羅氏家用新冠病毒抗原自我檢測套組,25,2022/05/06 16:16:02,快篩販售時段下午4點起
5903271022,西屯藥局,臺中市西屯區西屯路三段１５０－４５號１樓,120.621,24.18716,(04)24621822,羅氏家用新冠病毒抗原自我檢測套組,1,2022/05/06 16:16:02,快篩實名制，每天16:00開始販售，售完為止。
5903271031,美十樂中科藥局,臺中市西屯區西屯路三段１６６－６５號１樓,120.6129,24.19035,(04)24610219,羅氏家用新冠病毒抗原自我檢測套組,468,2022/05/06 16:16:02,醫事人員卡片損壞，暫時無法販賣快篩
5903271068,西墩藥局,臺中市西屯區黎明路三段２７５、２７７號１樓,120.6373,24.17812,(04)24510770,羅氏家用新冠病毒抗原自我檢測套組,3,2022/05/06 16:16:02,快篩實名制，每天16:00開始販售，售完為止。
5903271193,何安藥局,臺中市西屯區西屯路二段１０１號Ｂ棟１樓,120.6531,24.16616,(04)23161110,羅氏家用新冠病毒抗原自我檢測套組,47,2022/05/06 16:16:02,快篩實名制，每天16:00開始販售，售完為止。
5903271246,柏醫藥局,臺中市西屯區上安路５６號１樓,120.6412,24.17052,(04)24526391,羅氏家用新冠病毒抗原自我檢測套組,78,2022/05/06 16:16:02,因應到貨時間不定，統一晚上7點開放78組（5／6已到貨 14:43）
5903271291,西屯長安藥局,臺中市西屯區成都路３６８號１樓,120.6641,24.17322,(04)22981221,羅氏家用新冠病毒抗原自我檢測套組,4,2022/05/06 16:16:02,快篩實名制，每天16:00開始販售，售完為止。
5903280245,大墩何藥局,臺中市南屯區大敦南路４３１號１．２樓,120.6476,24.13497,(04)24710655,羅氏家用新冠病毒抗原自我檢測套組,51,2022/05/06 16:16:02,防疫用快篩試劑下午4點開始販售，售完為止
5903280656,熊大心藥局,臺中市南屯區河南路四段３７６號,120.6369,24.15208,(04)22516252,羅氏家用新冠病毒抗原自我檢測套組,15,2022/05/06 16:16:02,app庫存錯誤。周一至周六，15:00-16:00售實名制快篩
5903280807,大樹南屯藥局,臺中市南屯區向上路一段６４３號１樓,120.6486,24.14659,(04)24758887,羅氏家用新冠病毒抗原自我檢測套組,2,2022/05/06 16:16:02,快篩實名制，每天16:00開始販售，售完為止。
5903290518,佳美藥局,臺中市北屯區東山路１段２６５號１樓,120.7184,24.17583,(04)24363658,羅氏家用新冠病毒抗原自我檢測套組,2,2022/05/06 16:16:02,週日公休.下午4點現場販售
5903290607,敦化小林健保藥局,臺中市北屯區敦化路１段６６８號,120.6643,24.18593,(04)24261881,羅氏家用新冠病毒抗原自我檢測套組,2,2022/05/06 16:16:02,每日早上8:00領號碼牌，16:30再回藥局領口罩（全年無休）
5903290876,北屯軍功藥局,臺中市北屯區軍功路一段７５２號,120.7193,24.17513,(04)24375111,羅氏家用新冠病毒抗原自我檢測套組,28,2022/05/06 16:16:02,快篩實名制，每天16:00開始販售，售完為止。
5903290894,豐禾藥局,臺中市北屯區同榮路１６３號,120.6618,24.19589,(04)24260588,羅氏家用新冠病毒抗原自我檢測套組,78,2022/05/06 16:16:02,快篩試劑於每日下午5點販售，星期日停售
5903290965,崇德藥局,臺中市北屯區崇德路二段３１號,120.685,24.16962,(04)22361331,羅氏家用新冠病毒抗原自我檢測套組,46,2022/05/06 16:16:02,快篩實名制，每天16:00開始販售，售完為止。
5903291006,五和健保藥局,臺中市北屯區崇德路二段４６０號１樓,120.6863,24.18001,(04)22415533,羅氏家用新冠病毒抗原自我檢測套組,1,2022/05/06 16:16:02,週六公休 。周一至周五 14:30 發號碼牌 14:40販售； 週日 8:30發號碼牌 隨後販售
5903291060,大樹北屯藥局,臺中市北屯區松竹路二段４１１號１樓,120.6895,24.18192,(04)22422262,羅氏家用新冠病毒抗原自我檢測套組,39,2022/05/06 16:16:02,快篩實名制，每天16:00開始販售，售完為止。
5903291140,興安藥局,臺中市北屯區興安路二段５２號１、２樓,120.6949,24.1762,(04)22460369,羅氏家用新冠病毒抗原自我檢測套組,11,2022/05/06 16:16:02,快篩實名制，每天16:00開始販售，售完為止。
5903291168,日初藥局,臺中市北屯區軍功路一段４８２－３號１樓,120.7188,24.17102,(04)24363150,羅氏家用新冠病毒抗原自我檢測套組,63,2022/05/06 16:16:02,無
5903291177,大連何藥局,臺中市北屯區山西路二段２７４號１樓,120.677,24.177,(04)22930895,羅氏家用新冠病毒抗原自我檢測套組,40,2022/05/06 16:16:02,因應配送時間不一，販賣時間改為下午四點。
5903291195,匯百鴻藥局,臺中市北屯區昌平東二路１５６號１樓,120.6877,24.18922,(04)24222288,羅氏家用新冠病毒抗原自我檢測套組,50,2022/05/06 16:16:02,無
5905010072,長壽藥局,臺南市新營區中山路２１９號,120.3146,23.30286,(06)6324001,羅氏家用新冠病毒抗原自我檢測套組,26,2022/05/06 16:16:02,口罩販售時間：8:00~售完
5905010143,啄木鳥藥師藥局,臺南市新營區新南里民治路２４２號,120.3041,23.30767,(06)6590248,羅氏家用新冠病毒抗原自我檢測套組,4,2022/05/06 16:16:02,每天下午4:00開始販售，售完為止
5905010250,大樹新營藥局,臺南市新營區民權路７４、７６、７８號１樓,120.3127,23.30615,(06)6328300,羅氏家用新冠病毒抗原自我檢測套組,47,2022/05/06 16:16:02,快篩實名制，每天16:00開始販售，售完為止。
5905020023,大樹鹽水藥局,臺南市鹽水區朝琴路１２６－３號１樓,120.271,23.32228,(06)6520432,羅氏家用新冠病毒抗原自我檢測套組,4,2022/05/06 16:16:02,快篩實名制，每天16:00開始販售，售完為止。
5905030092,大樹白河藥局,臺南市白河區中山路１５３號１樓,120.417,23.35255,(06)6830006,羅氏家用新冠病毒抗原自我檢測套組,36,2022/05/06 16:16:02,快篩實名制，每天16:00開始販售，售完為止。
5905040141,大樹麻豆藥局,臺南市麻豆區中山路４８、５０號１樓,120.2469,23.18382,(06)5716556,羅氏家用新冠病毒抗原自我檢測套組,40,2022/05/06 16:16:02,快篩實名制，每天16:00開始販售，售完為止。
5905060198,大樹新化藥局,臺南市新化區中正路５３１號１樓,120.3072,23.03764,(06)5901331,羅氏家用新冠病毒抗原自我檢測套組,28,2022/05/06 16:16:02,快篩實名制，每天16:00開始販售，售完為止。
5905070121,大樹善化藥局,臺南市善化區民權路５４、５６、５８號１樓,120.3034,23.1322,(06)5830550,羅氏家用新冠病毒抗原自我檢測套組,15,2022/05/06 16:16:02,快篩實名制，每天16:00開始販售，售完為止。
5905080056,大樹學甲藥局,臺南市學甲區中正路１３５號１樓,120.1793,23.23029,(06)7820001,羅氏家用新冠病毒抗原自我檢測套組,38,2022/05/06 16:16:02,快篩實名制，每天16:00開始販售，售完為止。
5905200058,欣和德藥局,臺南市新市區中正路２００號,120.2916,23.07516,(06)5895658,羅氏家用新冠病毒抗原自我檢測套組,1,2022/05/06 16:16:02,快篩實名制每日14:15發號碼牌；14:30開始販售，售完為止
5905200085,大樹新市藥局,臺南市新市區中正路４９、５１號１樓,120.2916,23.07223,(06)5892552,羅氏家用新冠病毒抗原自我檢測套組,43,2022/05/06 16:16:02,快篩實名制，每天16:00開始販售，售完為止。
5905270176,大樹仁德藥局,臺南市仁德區中正路二段１１５２號１樓,120.2519,22.97062,(06)2797466,羅氏家用新冠病毒抗原自我檢測套組,50,2022/05/06 16:16:02,快篩實名制，每天16:00開始販售，售完為止。
5905280109,大樹青青藥局,臺南市歸仁區中山路三段１２號,120.2875,22.96765,(06)2300301,羅氏家用新冠病毒抗原自我檢測套組,3,2022/05/06 16:16:02,快篩實名制，每天16:00開始販售，售完為止。
5905290034,大樹關廟藥局,臺南市關廟區中央路２６３號１樓,120.3272,22.96109,(06)5965889,羅氏家用新冠病毒抗原自我檢測套組,27,2022/05/06 16:16:02,快篩實名制，每天16:00開始販售，售完為止。
5905311074,中華長億藥局,臺南市永康區中華路７３４、７３６號１樓,120.2288,23.0167,(06)3022322,羅氏家用新冠病毒抗原自我檢測套組,37,2022/05/06 16:16:02,快篩實名制，每天16:00開始販售，售完為止。
5905311127,台南永康藥局,臺南市永康區中山南路８１６、８１６─１、２、３號１樓,120.2471,23.02099,(06)2020201,羅氏家用新冠病毒抗原自我檢測套組,26,2022/05/06 16:16:02,快篩實名制，每天16:00開始販售，售完為止。
5905320466,佑全中華藥局,臺南市東區中華東路三段２１５號,120.2253,22.97603,(06)2906386,羅氏家用新冠病毒抗原自我檢測套組,1,2022/05/06 16:16:02,星期一-六08:00-21:00
5905320804,大樹大同藥局,臺南市東區大同路二段２２７、２２９號１樓,120.2143,22.97567,(06)2158700,羅氏家用新冠病毒抗原自我檢測套組,7,2022/05/06 16:16:02,快篩實名制，每天16:00開始販售，售完為止。
5905320868,大樹東寧藥局,臺南市東區東寧路４３６號１樓,120.2291,22.9895,(06)2360006,羅氏家用新冠病毒抗原自我檢測套組,51,2022/05/06 16:16:02,快篩實名制，每天16:00開始販售，售完為止。
5905320886,中華崇德藥局,臺南市東區中華東路三段１８１、１８３號１樓,120.2259,22.97667,(06)2880800,羅氏家用新冠病毒抗原自我檢測套組,55,2022/05/06 16:16:02,快篩實名制，每天16:00開始販售，售完為止。
5905320911,大樹崇道藥局,臺南市東區崇道路６３號１樓,120.2272,22.97227,(06)2680456,羅氏家用新冠病毒抗原自我檢測套組,23,2022/05/06 16:16:02,快篩實名制，每天16:00開始販售，售完為止。
5905330284,大樹佳華藥局,臺南市南區金華路二段１２９號１樓,120.1911,22.98035,(06)2641238,羅氏家用新冠病毒抗原自我檢測套組,46,2022/05/06 16:16:02,快篩實名制，每天16:00開始販售，售完為止。
5905350366,千多藥局,臺南市北區金華路五段１號,120.1962,23.0016,(06)2228641,羅氏家用新冠病毒抗原自我檢測套組,78,2022/05/06 16:16:02,晚上6點開始銷售實名制快篩試劑，賣完為止
5905370304,大樹安南藥局,臺南市安南區安和路四段５５７號１樓,120.2185,23.06181,(06)3563370,羅氏家用新冠病毒抗原自我檢測套組,39,2022/05/06 16:16:02,快篩實名制，每天16:00開始販售，售完為止。
5905370466,大樹北安藥局,臺南市安南區北安路三段１５８號１樓,120.2036,23.04256,(06)2553633,羅氏家用新冠病毒抗原自我檢測套組,3,2022/05/06 16:16:02,快篩實名制，每天16:00開始販售，售完為止。
5907010187,人人好藥局,高雄市鳳山區五甲三路１０巷７號１樓,120.3278,22.59336,(07)8151566,羅氏家用新冠病毒抗原自我檢測套組,202,2022/05/06 16:16:02,上午0830-1330下午1530-2100， 自2／11-2／29口罩販售周一三四五日，時間:9:00-12:00售完為止
5907010365,科健藥局,高雄市鳳山區八德路２４６－５號１樓,120.3568,22.63853,(07)7777868,羅氏家用新冠病毒抗原自我檢測套組,6,2022/05/06 16:16:02,下午3:30開始換購
5907010525,長青連鎖藥局光遠店,高雄市鳳山區光遠路２７１號１樓,120.3588,22.62596,(07)7103487,羅氏家用新冠病毒抗原自我檢測套組,59,2022/05/06 16:16:02,實名制快篩下午4點開始販售
5907011095,鳳山五甲藥局,高雄市鳳山區正義里五甲二路１３９號１樓,120.3409,22.6014,(07)7269899,羅氏家用新冠病毒抗原自我檢測套組,28,2022/05/06 16:16:02,快篩實名制，每天16:00開始販售，售完為止。
5907011148,大樹國泰藥局,高雄市鳳山區興仁里五甲一路２９２號,120.3539,22.61698,(07)7407234,羅氏家用新冠病毒抗原自我檢測套組,45,2022/05/06 16:16:02,快篩實名制，每天16:00開始販售，售完為止。
5907011175,鳳西藥局,高雄市鳳山區忠義里中山西路２３８號１樓,120.3471,22.62831,(07)7902717,羅氏家用新冠病毒抗原自我檢測套組,53,2022/05/06 16:16:02,快篩實名制，每天16:00開始販售，售完為止。
5907011228,鳳山青年藥局,高雄市鳳山區文德里青年路二段３９９號１樓,120.3513,22.64292,(07)7678383,羅氏家用新冠病毒抗原自我檢測套組,38,2022/05/06 16:16:02,口罩販售時間：14:00 - 16:00
5907011317,凱旋藥局,高雄市鳳山區國隆里新富路３７３號１樓,120.3475,22.61494,(07)7671181,羅氏家用新冠病毒抗原自我檢測套組,38,2022/05/06 16:16:02,快篩實名制，每天16:00開始販售，售完為止。
5907011371,大樹五甲藥局,高雄市鳳山區福祥里五甲三路２４號１－２樓．２６號１－２樓,120.3278,22.59317,(07)8224926,羅氏家用新冠病毒抗原自我檢測套組,22,2022/05/06 16:16:02,快篩實名制，每天16:00開始販售，售完為止。
5907011406,長青連鎖藥局大士店,高雄市鳳山區五甲一路１３９號１樓,120.3562,22.61968,(07)7104618,羅氏家用新冠病毒抗原自我檢測套組,50,2022/05/06 16:16:02,無
5907020085,大德藥局,高雄市岡山區大德一路９８號,120.3025,22.79689,(07)6221456,羅氏家用新冠病毒抗原自我檢測套組,18,2022/05/06 16:16:02,快篩實名制，每天16:00開始販售，售完為止。
5907020094,大樹岡山藥局,高雄市岡山區岡山路１３６號,120.2967,22.78913,(07)6219477,羅氏家用新冠病毒抗原自我檢測套組,35,2022/05/06 16:16:02,快篩實名制，每天16:00開始販售，售完為止。
5907030090,睛好活力藥局,高雄市旗山區湄洲里中山路１２７號,120.482,22.88873,(07)6625119,羅氏家用新冠病毒抗原自我檢測套組,1,2022/05/06 16:16:02,無
5907030152,旗山藥局,高雄市旗山區中華路２３號,120.4841,22.88027,(07)6621158,羅氏家用新冠病毒抗原自我檢測套組,49,2022/05/06 16:16:02,快篩實名制，每天16:00開始販售，售完為止。
5907050109,林園藥局,高雄市林園區仁愛路１３號１樓,120.3928,22.50418,(07)6425855,羅氏家用新冠病毒抗原自我檢測套組,39,2022/05/06 16:16:02,快篩實名制，每天16:00開始販售，售完為止。
5907060230,華思中西藥局,高雄市大寮區永芳里進學路１２２號１樓,120.3933,22.60468,(07)7835567,羅氏家用新冠病毒抗原自我檢測套組,63,2022/05/06 16:16:02,星期一~星期六 下午四點販售實名制快篩到售完為止   星期天店休
5907070030,久堂藥局,高雄市大樹區久堂里久堂路１３６號１樓,120.4178,22.65813,(07)6512800,羅氏家用新冠病毒抗原自我檢測套組,36,2022/05/06 16:16:02,快篩實名制，每天16:00開始販售，售完為止。
5907080232,大樹仁武藥局,高雄市仁武區赤山里仁雄路８０－９號,120.3469,22.67811,(07)3744777,羅氏家用新冠病毒抗原自我檢測套組,53,2022/05/06 16:16:02,快篩實名制，每天16:00開始販售，售完為止。
5907080330,文武藥局,高雄市仁武區文武里中華路３５３號,120.3535,22.7011,(07)3733551,羅氏家用新冠病毒抗原自我檢測套組,46,2022/05/06 16:16:02,快篩實名制，每天16:00開始販售，售完為止。
5907090167,大樹大社藥局,高雄市大社區中山路３０８號１樓,120.3503,22.73145,(07)3531682,羅氏家用新冠病毒抗原自我檢測套組,37,2022/05/06 16:16:02,快篩實名制，每天16:00開始販售，售完為止。
5907150257,大樹大立藥局,高雄市路竹區國昌路５１號,120.26,22.85409,(07)6961663,羅氏家用新冠病毒抗原自我檢測套組,22,2022/05/06 16:16:02,快篩實名制，每天16:00開始販售，售完為止。
5907160093,保生藥局,高雄市湖內區葉厝里保生路３４０．３４２號,120.2195,22.90733,(07)6990800,羅氏家用新冠病毒抗原自我檢測套組,42,2022/05/06 16:16:02,快篩實名制，每天16:00開始販售，售完為止。
5907280036,七賢藥局,高雄市鹽埕區七賢三路１６２號１樓,120.2829,22.62712,(07)5330616,羅氏家用新冠病毒抗原自我檢測套組,43,2022/05/06 16:16:02,快篩實名制，每天16:00開始販售，售完為止。
5907290112,新高橋藥局華榮店,高雄市鼓山區華榮路２８７號１樓,120.2967,22.66616,(07)5534727,羅氏家用新冠病毒抗原自我檢測套組,3,2022/05/06 16:16:02,下午2:30開始販售口罩
5907290309,鼓山藥局,高雄市鼓山區華榮路１０號,120.2973,22.66156,(07)5520017,羅氏家用新冠病毒抗原自我檢測套組,55,2022/05/06 16:16:02,快篩實名制，每天16:00開始販售，售完為止。
5907300168,金元藥局,高雄市左營區重愛路２２０號,120.3156,22.68562,(07)3458378,羅氏家用新冠病毒抗原自我檢測套組,1,2022/05/06 16:16:02,快篩試劑郵差配送，約10點至11點左右會送到藥局，即開始販售，星期四，六營業時間至中午12點
5907300631,大樹孟子藥局,高雄市左營區孟子路２２６、２２８號,120.3112,22.67415,(07)3461772,羅氏家用新冠病毒抗原自我檢測套組,38,2022/05/06 16:16:02,快篩實名制，每天16:00開始販售，售完為止。
5907300686,左營自由藥局,高雄市左營區自由二路３５０、３５０－１號,120.3091,22.66599,(07)5589991,羅氏家用新冠病毒抗原自我檢測套組,44,2022/05/06 16:16:02,快篩實名制，每天16:00開始販售，售完為止。
5907300926,高鐵藥局,高雄市左營區華夏路１３２２．１３２６號,120.312,22.68587,(07)3452797,羅氏家用新冠病毒抗原自我檢測套組,32,2022/05/06 16:16:02,快篩實名制，每天16:00開始販售，售完為止。
5907300944,左營藥局,高雄市左營區華夏路３２５號,120.2972,22.67167,(07)5501017,羅氏家用新冠病毒抗原自我檢測套組,50,2022/05/06 16:16:02,快篩實名制，每天16:00開始販售，售完為止。
5907300980,大路藥局,高雄市左營區左營大路５５－２號１樓,120.2877,22.6813,(07)5851001,羅氏家用新冠病毒抗原自我檢測套組,48,2022/05/06 16:16:02,快篩實名制，每天16:00開始販售，售完為止。
5907301049,新高橋藥局裕誠店,高雄市左營區裕誠路２９１號１樓,120.3078,22.66511,(07)5573857,羅氏家用新冠病毒抗原自我檢測套組,1,2022/05/06 16:16:02,無
5907310262,大樹楠梓藥局,高雄市楠梓區軍校路９０８號,120.2919,22.71246,(07)3632322,羅氏家用新冠病毒抗原自我檢測套組,30,2022/05/06 16:16:02,快篩實名制，每天16:00開始販售，售完為止。
5907310404,藍田藥局,高雄市楠梓區藍田路１號,120.2953,22.72643,(07)3601236,羅氏家用新冠病毒抗原自我檢測套組,40,2022/05/06 16:16:02,快篩實名制，每天16:00開始販售，售完為止。
5907320893,大樹天祥藥局,高雄市三民區天祥一路１６７號,120.3191,22.66737,(07)3429902,羅氏家用新冠病毒抗原自我檢測套組,25,2022/05/06 16:16:02,快篩實名制，每天16:00開始販售，售完為止。
5907320900,大昌藥局,高雄市三民區大昌二路３９７號,120.3317,22.64915,(07)3961396,羅氏家用新冠病毒抗原自我檢測套組,52,2022/05/06 16:16:02,快篩實名制，每天16:00開始販售，售完為止。
5907321069,桂林活力藥局九如店,高雄市三民區懷安街１１２號１樓,120.3176,22.64095,(07)3981009,羅氏家用新冠病毒抗原自我檢測套組,11,2022/05/06 16:16:02,每天15:30發號碼牌，於18:00前兌換完畢，逾期棄權，剩餘則繼續發放
5907321103,自由藥局,高雄市三民區自由一路７８號,120.3089,22.64422,(07)3223113,羅氏家用新冠病毒抗原自我檢測套組,33,2022/05/06 16:16:02,快篩實名制，每天16:00開始販售，售完為止。
5907330200,新興復興藥局,高雄市新興區復興一路７６號１樓,120.3085,22.63312,(07)2352550,羅氏家用新冠病毒抗原自我檢測套組,45,2022/05/06 16:16:02,快篩實名制，每天16:00開始販售，售完為止。
5907350346,武廟幸福藥局,高雄市苓雅區武廟路３５號,120.3316,22.62999,(07)7170085,羅氏家用新冠病毒抗原自我檢測套組,2,2022/05/06 16:16:02,1: 自111／5／1起：快篩販售時間為13:40開始。2: 販售方式依現場公告為主，售完為止。
5907350506,大樹苓雅藥局,高雄市苓雅區中華四路１５３號,120.3001,22.61783,(07)5353111,羅氏家用新冠病毒抗原自我檢測套組,38,2022/05/06 16:16:02,快篩實名制，每天16:00開始販售，售完為止。
5907350551,大樹武廟藥局,高雄市苓雅區武廟路４３、４５號１樓,120.3314,22.63005,(07)7222268,羅氏家用新冠病毒抗原自我檢測套組,42,2022/05/06 16:16:02,快篩實名制，每天16:00開始販售，售完為止。
5907350631,三多藥局,高雄市苓雅區三多二路２９２號１樓,120.3173,22.61838,(07)3365889,羅氏家用新冠病毒抗原自我檢測套組,50,2022/05/06 16:16:02,快篩實名制，每天16:00開始販售，售完為止。
5907350659,北京藥局林泉店,高雄市苓雅區林泉里３鄰林泉街３５號１樓,120.3192,22.62323,(07)7263030,羅氏家用新冠病毒抗原自我檢測套組,215,2022/05/06 16:16:02,營業時間早上8點到下午11點，快篩下午3點30分開始販售
5907360413,益源藥局,高雄市前鎮區草衙二路４１８號,120.3226,22.57903,(07)8412120,羅氏家用新冠病毒抗原自我檢測套組,40,2022/05/06 16:16:02,無
5907360584,聖名健保藥局,高雄市前鎮區復興三路２４６號１樓,120.312,22.61558,(07)3319431,羅氏家用新冠病毒抗原自我檢測套組,1,2022/05/06 16:16:02,無
5907360664,忠純藥局,高雄市前鎮區中華五路１００９號１樓,120.3056,22.60341,(07)3366886,羅氏家用新冠病毒抗原自我檢測套組,56,2022/05/06 16:16:02,快篩實名制，每天16:00開始販售，售完為止。
5907360673,前鎮大樹藥局,高雄市前鎮區瑞隆路４７２號１樓,120.3291,22.60547,(07)7137171,羅氏家用新冠病毒抗原自我檢測套組,46,2022/05/06 16:16:02,快篩實名制，每天16:00開始販售，售完為止。
5907380264,大樹孔鳳藥局,高雄市小港區孔鳳路５１９、５２１號,120.3587,22.5828,(07)7918521,羅氏家用新冠病毒抗原自我檢測套組,40,2022/05/06 16:16:02,快篩實名制，每天16:00開始販售，售完為止。
5907380424,大樹小港藥局,高雄市小港區康莊路７５號１樓,120.3559,22.56853,(07)8068328,羅氏家用新冠病毒抗原自我檢測套組,62,2022/05/06 16:16:02,快篩實名制，每天16:00開始販售，售完為止。
5911011325,永好藥局,基隆市中正區北寧路３１５號１樓,121.7951,25.13981,(02)24697639,羅氏家用新冠病毒抗原自我檢測套組,3,2022/05/06 16:16:02,快篩星期一*三*五是單號 二*四雙號 下午14:30販售 星期六星期日休息
5911011638,中正藥局,基隆市中正區新豐街３８５號１、２樓,121.7856,25.13537,(02)24690660,羅氏家用新冠病毒抗原自我檢測套組,33,2022/05/06 16:16:02,快篩實名制，每天16:00開始販售，售完為止。
5911041958,百福仁愛專業藥局,基隆市仁愛區仁四路５０號１樓,121.7413,25.12829,(02)24266699,羅氏家用新冠病毒抗原自我檢測套組,1,2022/05/06 16:16:02,4／30起，早上8:00販售快篩
5911051543,復興藥局,基隆市中山區復興路１２８、１３０、１３２、１３４號１、２樓,121.7262,25.1446,(02)24362566,羅氏家用新冠病毒抗原自我檢測套組,26,2022/05/06 16:16:02,快篩實名制，每天16:00開始販售，售完為止。
5911071536,小不點健保藥局,基隆市信義區深溪路１２６號１樓,121.7827,25.13375,(02)24683985,羅氏家用新冠病毒抗原自我檢測套組,2,2022/05/06 16:16:02,無
5911071590,基隆藥局,基隆市信義區東信路１６６、１６８號１、２樓,121.7646,25.12821,(02)24680955,羅氏家用新冠病毒抗原自我檢測套組,24,2022/05/06 16:16:02,快篩實名制，每天16:00開始販售，售完為止。
5912012120,仁美藥局,新竹市東區振興里振興路５２號,120.9625,24.79493,(03)5625398,羅氏家用新冠病毒抗原自我檢測套組,78,2022/05/06 16:16:02,週一~週六晚上六點販售（週日店休）不發號碼牌!請不要問我要幾點排隊，我不是九天玄女!盡量不打電話，感恩!!
5912012620,新康藥局,新竹市東區林森路１８８號,120.9641,24.79907,(03)5256938,羅氏家用新冠病毒抗原自我檢測套組,1,2022/05/06 16:16:02,快篩因配送問題，本周皆為下午04:00開始發放
5912012737,婷婷藥局,新竹市東區明湖路965號,120.9669,24.77371,(03)5290999,羅氏家用新冠病毒抗原自我檢測套組,1,2022/05/06 16:16:02,5／6星期五下午14點賣快篩
5912013494,田美藥局,新竹市東區田美三街３５之１號１樓,120.9767,24.81572,(03)5350233,羅氏家用新冠病毒抗原自我檢測套組,33,2022/05/06 16:16:02,快篩實名制，每天16:00開始販售，售完為止。
5912013565,合康連鎖藥局關新店,新竹市東區關新北路１６１號１樓,121.0204,24.78614,(03)5679666,羅氏家用新冠病毒抗原自我檢測套組,78,2022/05/06 16:16:02,快篩販售時間:17:00
5912013672,關東藥局,新竹市東區光復路１段３３２、３３４號１至２樓,121.0187,24.78289,(03)5777077,羅氏家用新冠病毒抗原自我檢測套組,24,2022/05/06 16:16:02,快篩實名制，每天16:00開始販售，售完為止。
5912042851,佑全新竹光華藥局,新竹市北區湳雅里光華街８６之１號１樓及２樓,120.9701,24.81723,(03)5311313,羅氏家用新冠病毒抗原自我檢測套組,54,2022/05/06 16:16:02,實名制快篩:16點開賣。因快篩配送作業不及，可能會調整開賣時間，請依現場公告為主
5912042940,新竹北門藥局,新竹市北區中正路３６０、３６２號１樓,120.9629,24.81414,(03)5333234,羅氏家用新冠病毒抗原自我檢測套組,42,2022/05/06 16:16:02,無
5912042968,大樹新竹藥局,新竹市北區西大路５４０、５４２號１、２樓,120.9619,24.80676,(03)5250388,羅氏家用新冠病毒抗原自我檢測套組,3,2022/05/06 16:16:02,快篩實名制，每天16:00開始販售，售完為止。
5912051430,三姓藥局,新竹市香山區中華路四段５７６號１、２樓,120.9297,24.78886,(03)5385886,羅氏家用新冠病毒抗原自我檢測套組,12,2022/05/06 16:16:02,快篩實名制，每天16:00開始販售，售完為止。
5917020211,何藥局,臺中市東區精武路１８０號１樓,120.691,24.14765,(04)23605435,羅氏家用新冠病毒抗原自我檢測套組,44,2022/05/06 16:16:02,快篩下午4:00開始販售，現場排隊，直接販售，售完為止。
5917032382,中港大藥局,臺中市西區臺灣大道２段１３２號,120.6714,24.14995,(04)22080708,羅氏家用新冠病毒抗原自我檢測套組,2,2022/05/06 16:16:02,無
5917072251,五六藥局,臺中市南屯區南屯路２段２４０號,120.6493,24.13696,(04)24757156,羅氏家用新冠病毒抗原自我檢測套組,19,2022/05/06 16:16:02,快篩週一至週六16 :00；週日20 : 00開始販售， 售完為止. （不發號碼牌）
5921012085,台安藥局,臺南市東區大同路一段１６３號,120.2113,22.98503,(06)2150011,羅氏家用新冠病毒抗原自我檢測套組,12,2022/05/06 16:16:02,快篩下午四點開始銷售
5921040623,惠光藥局,臺南市北區文亢里文賢路２３６號,120.1938,23.0042,(06)2586316,羅氏家用新冠病毒抗原自我檢測套組,20,2022/05/06 16:16:02,快篩代售:星期日公休
5921051582,丞功藥局,臺南市中西區成功路３１號,120.2095,22.99747,(06)2287641,羅氏家用新冠病毒抗原自我檢測套組,1,2022/05/06 16:16:02,星期一-六08:00-售完
5921060321,慈安藥局,臺南市安南區大安街５３號,120.1919,23.03148,(06)2551117,羅氏家用新冠病毒抗原自我檢測套組,79,2022/05/06 16:16:02,下午2:00
5922010754,松柏藥局,嘉義市東區東平里民權路８７號,120.4618,23.48392,(05)2780909,羅氏家用新冠病毒抗原自我檢測套組,76,2022/05/06 16:16:02,防疫口罩及實名制快篩試劑於週一至週六，每日下午4:30開始販售，售完為止。
5922012552,德和藥局,嘉義市東區新生路７０３號１樓,120.4553,23.49526,(05)2789940,羅氏家用新冠病毒抗原自我檢測套組,28,2022/05/06 16:16:02,快篩試劑 星期1-6 早上8點開始販賣
5922012909,昱安藥局,嘉義市東區成仁街１８０號,120.4521,23.48057,(05)2252395,羅氏家用新冠病毒抗原自我檢測套組,17,2022/05/06 16:16:02,購買時段星期（一）至（五）下午4:00-6:00 （六） 下午3:00-5:00
5922012945,大明藥局,嘉義市東區大雅路二段６８２號,120.4663,23.47719,(05)2760958,羅氏家用新冠病毒抗原自我檢測套組,4,2022/05/06 16:16:02,5／6 號碼卡已發完（星期一至六：11點發號碼牌12-14點開始販售）
5922013068,佑全嘉義吳鳳南藥局,嘉義市東區吳鳳南路５８５、５８７號,120.459,23.45639,(05)2399311,羅氏家用新冠病毒抗原自我檢測套組,2,2022/05/06 16:16:02,領取快篩14:00
5922013102,後庄藥局,嘉義市東區吳鳳南路６４９號,120.4594,23.45511,(05)2391233,羅氏家用新冠病毒抗原自我檢測套組,38,2022/05/06 16:16:02,快篩實名制，每天16:00開始販售，售完為止。
5922013111,富善藥局,嘉義市東區新生路２３４號,120.4609,23.48419,(05)2759559,羅氏家用新冠病毒抗原自我檢測套組,17,2022/05/06 16:16:02,5／13、14休假，實名制快篩早上9:10-12:00下午3:10-5:00
5922013184,軍輝啄木鳥藥局,嘉義市東區軍輝路２２２號,120.4588,23.455,(05)2395963,羅氏家用新冠病毒抗原自我檢測套組,35,2022/05/06 16:16:02,週一~日下午4:00開始
5922013193,民權藥局,嘉義市東區民權路１５５號１樓、１５７號１樓,120.4604,23.48374,(05)2775322,羅氏家用新冠病毒抗原自我檢測套組,14,2022/05/06 16:16:02,快篩實名制，每天16:00開始販售，售完為止。
5922020509,全德藥局,嘉義市西區福民里興業西路２８９號,120.4392,23.46776,(05)2854263,羅氏家用新冠病毒抗原自我檢測套組,63,2022/05/06 16:16:02,營業時間請電話洽詢  販售：19 :30~20:30
5922020858,大統藥局,嘉義市西區慶安里北興街１３６號,120.4421,23.48389,(05)2330230,羅氏家用新冠病毒抗原自我檢測套組,19,2022/05/06 16:16:02,5月6日預約登記已滿.有預約的民眾請於上午9:00點後領取
5922020894,平良藥局,嘉義市西區致遠里興業西路８４號１樓,120.4443,23.46856,(05)2235220,羅氏家用新冠病毒抗原自我檢測套組,2,2022/05/06 16:16:02,下午3點開賣快篩
5922021006,竹圍藥局,嘉義市西區友愛路２７０、２７２號,120.4339,23.4837,(05)2811233,羅氏家用新冠病毒抗原自我檢測套組,10,2022/05/06 16:16:02,快篩實名制，每天16:00開始販售，售完為止。
5931010011,埔墘藥局,新北市板橋區中山路２段２２７號,121.477,25.01741,(02)29646705,羅氏家用新冠病毒抗原自我檢測套組,2,2022/05/06 16:16:02,實名制快篩每天14:30發放號碼牌
5931010235,友祥藥局,新北市板橋區裕民街１０７號,121.4599,25.02773,(02)22544666,羅氏家用新冠病毒抗原自我檢測套組,1,2022/05/06 16:16:02,無
5931010397,正成藥師藥局,新北市板橋區三民路２段１５４巷７號,121.4787,25.01515,(02)29512760,羅氏家用新冠病毒抗原自我檢測套組,78,2022/05/06 16:16:02,無
5931011947,長弘藥局,新北市板橋區龍泉街１１０號,121.4568,25.02454,(02)22558789,羅氏家用新冠病毒抗原自我檢測套組,19,2022/05/06 16:16:02,勿打電話 快篩地圖不準 下午五點開始販售 若排隊人數超過庫存人數會提前販賣
5931012060,溪北藥局,新北市板橋區溪北路７８號１樓,121.4281,24.98953,(02)26866528,羅氏家用新冠病毒抗原自我檢測套組,23,2022/05/06 16:16:02,無
5931013692,合泰藥局,新北市板橋區忠孝路１９號１樓,121.4604,25.002,(02)29572437,羅氏家用新冠病毒抗原自我檢測套組,7,2022/05/06 16:16:02,無
5931015187,皇慶藥局,新北市板橋區南門街８１、８３號１、２樓及館前西路１１２巷７號,121.4568,25.0077,(02)29655351,羅氏家用新冠病毒抗原自我檢測套組,14,2022/05/06 16:16:02,實名防疫快篩號碼牌發放時間自15:00
5931015605,僑中藥師藥局,新北市板橋區僑中１街１０２巷５弄１５號１樓,121.4439,25.01262,(02)29692547,羅氏家用新冠病毒抗原自我檢測套組,46,2022/05/06 16:16:02,無
5931015687,正康健保藥局,新北市板橋區大觀路２段６５號１樓,121.4467,25.00246,(02)22756681,羅氏家用新冠病毒抗原自我檢測套組,78,2022/05/06 16:16:02,下午13:30依現場順序開始販售快篩，快篩配送絮亂庫存不準!!
5931017289,板橋大樹藥局,新北市板橋區忠孝路２８號（１樓）,121.4603,25.00176,(02)29555551,羅氏家用新冠病毒抗原自我檢測套組,7,2022/05/06 16:16:02,快篩實名制，每天16:00開始販售，售完為止。
5931017529,埔全藥局,新北市板橋區忠孝路３３號（１樓）,121.4608,25.00206,(02)29567309,羅氏家用新冠病毒抗原自我檢測套組,9,2022/05/06 16:16:02,實名快篩 可以加line詢問
5931017618,新埔健保藥局,新北市板橋區自由路２號１樓,121.4654,25.02222,(02)22558878,羅氏家用新冠病毒抗原自我檢測套組,39,2022/05/06 16:16:02,無
5931017789,明翠藥局,新北市板橋區四維路１４６、１４８號１、２樓,121.4651,25.02555,(02)22550201,羅氏家用新冠病毒抗原自我檢測套組,11,2022/05/06 16:16:02,快篩實名制，每天16:00開始販售，售完為止。
5931017912,社後藥局,新北市板橋區大仁街３９號（１樓）,121.4551,25.01661,(02)29665662,羅氏家用新冠病毒抗原自我檢測套組,22,2022/05/06 16:16:02,快篩實名制，每天16:00開始販售，售完為止。
5931017985,松柏藥局,新北市板橋區松柏街９４號（１樓）,121.4767,25.03065,(02)82585223,羅氏家用新冠病毒抗原自我檢測套組,44,2022/05/06 16:16:02,快篩實名制，每天16:00開始販售，售完為止。
5931017994,後埔藥局,新北市板橋區華興街９號（１樓）,121.459,25.00457,(02)89510306,羅氏家用新冠病毒抗原自我檢測套組,11,2022/05/06 16:16:02,5／6  下午2點發放號碼牌*確保作業流暢請自備500元*每天 78 份晚上10 點以前領取完畢（過卡時間差異剩餘數量僅供參考）
5931018026,莊敬藥局,新北市板橋區莊敬路１６３號（１樓）,121.4715,25.02456,(02)22551105,羅氏家用新冠病毒抗原自我檢測套組,6,2022/05/06 16:16:02,快篩實名制，每天16:00開始販售，售完為止。
5931018053,廣福健保藥局,新北市板橋區三民路１段７６號（１樓）,121.4793,25.02207,(02)29544288,羅氏家用新冠病毒抗原自我檢測套組,43,2022/05/06 16:16:02,實名制快篩每日下午16:00開始販售
5931018099,廣品藥局,新北市板橋區漢生西路８２號（１樓）,121.4628,25.01934,(02)22576880,羅氏家用新冠病毒抗原自我檢測套組,36,2022/05/06 16:16:02,實名制快篩 周一~周五下午16；00發放 週六.日 早上09；30發放 請勿打電話詢問 感謝配合
5931018142,重慶藥局,新北市板橋區國慶路１２７號（１樓）,121.4608,24.99602,(02)29565586,羅氏家用新冠病毒抗原自我檢測套組,41,2022/05/06 16:16:02,快篩實名制，每天16:00開始販售，售完為止。
5931020446,玉美藥局,新北市三重區力行路２段１３６巷４９弄２號,121.4793,25.07519,(02)22879836,羅氏家用新冠病毒抗原自我檢測套組,35,2022/05/06 16:16:02,實名制快篩:販售下午4:00   ** 沒有預先發號碼牌，現場販售.**
5931021532,龍門藥局,新北市三重區龍門路１８９號,121.4996,25.07322,(02)29756141,羅氏家用新冠病毒抗原自我檢測套組,78,2022/05/06 16:16:02,實名制快篩販售時間~星期一至星期六下午3點
5931023447,安泰藥局,新北市三重區正義北路３００－３號２樓,121.4953,25.06978,(02)89815379,羅氏家用新冠病毒抗原自我檢測套組,103,2022/05/06 16:16:02,5／2只有早上8:30--12:00營業下午.及晚上休息
5931023858,開元藥局,新北市三重區正義北路３２４號２樓,121.4949,25.07039,(02)29873976,羅氏家用新冠病毒抗原自我檢測套組,1,2022/05/06 16:16:02,無
5931024551,樂活處方箋藥局,新北市三重區中正北路９９號１樓,121.4897,25.06325,(02)29805182,羅氏家用新冠病毒抗原自我檢測套組,31,2022/05/06 16:16:02,4PM快篩  六日休
5931024631,德榮藥局,新北市三重區中華路９１號１樓,121.4836,25.06302,(02)29717291,羅氏家用新冠病毒抗原自我檢測套組,78,2022/05/06 16:16:02,政府快篩販售時間星期一至星期六晚間19:00整現場販售..謝謝
5931025610,大樹三重藥局,新北市三重區正義北路６６號１樓,121.4972,25.06415,(02)29713188,羅氏家用新冠病毒抗原自我檢測套組,21,2022/05/06 16:16:02,口罩販售時間：14:00 - 16:00
5931025914,仁美藥局,新北市三重區慈愛街５１號１、２樓,121.4861,25.07908,(02)22805150,羅氏家用新冠病毒抗原自我檢測套組,36,2022/05/06 16:16:02,快篩實名制，每天16:00開始販售，售完為止。
5931025932,永吉藥局,新北市三重區車路頭街９１號１樓,121.4844,25.07422,(02)22860432,羅氏家用新冠病毒抗原自我檢測套組,29,2022/05/06 16:16:02,快篩實名制，每天16:00開始販售，售完為止。
5931025969,躍獅欣欣藥局,新北市三重區正義北路２３３號１樓,121.496,25.06915,(02)29816955,羅氏家用新冠病毒抗原自我檢測套組,23,2022/05/06 16:16:02,16:00開始販售，15:50發號碼牌，離開視同放棄。
5931026082,大有藥局,新北市三重區中正北路２１３號１、２樓及２１５號１、２樓,121.4763,25.07013,(02)29885771,羅氏家用新冠病毒抗原自我檢測套組,29,2022/05/06 16:16:02,快篩實名制，每天16:00開始販售，售完為止。
5931026091,重新藥局,新北市三重區重新路４段１２號１樓,121.4888,25.05775,(02)29742700,羅氏家用新冠病毒抗原自我檢測套組,53,2022/05/06 16:16:02,快篩實名制，每天16:00開始販售，售完為止。
5931032302,威康藥局,新北市永和區中正路１５３號,121.5163,24.9984,(02)29461128,羅氏家用新冠病毒抗原自我檢測套組,48,2022/05/06 16:16:02,無
5931032811,華特健康藥局,新北市永和區永貞路３６２號１樓,121.5102,25.00667,(02)29264391,羅氏家用新冠病毒抗原自我檢測套組,4,2022/05/06 16:16:02,快篩販賣時間13:00-15:00
5931033774,台化藥局,新北市永和區勵行街１１９號１樓,121.5175,25.01202,(02)22318585,羅氏家用新冠病毒抗原自我檢測套組,1,2022/05/06 16:16:02,無
5931033809,新禾藥局,新北市永和區中和路５３７號１樓,121.5114,25.00318,(02)29208877,羅氏家用新冠病毒抗原自我檢測套組,36,2022/05/06 16:16:02,無
5931033961,永和大樹藥局,新北市永和區福和路１４３號１、２樓,121.5207,25.00766,(02)29233377,羅氏家用新冠病毒抗原自我檢測套組,42,2022/05/06 16:16:02,快篩實名制，每天16:00開始販售，售完為止。
5931034146,亮點藥局,新北市永和區竹林路７１號１樓,121.5186,25.01355,(02)89253895,羅氏家用新冠病毒抗原自我檢測套組,92,2022/05/06 16:16:02,快篩發放時段 下午16:30-18:00
5931043565,一安藥妝藥局,新北市中和區中和路９號１.２樓,121.4998,25.00221,(02)22483778,羅氏家用新冠病毒抗原自我檢測套組,2,2022/05/06 16:16:02,下午3點開始發號碼牌販售快篩
5931043921,良安藥局,新北市中和區連城路４７７巷１號１樓,121.4833,24.99555,(02)22225798,羅氏家用新冠病毒抗原自我檢測套組,42,2022/05/06 16:16:02,週六日不開店，實名制快篩，晚上9:00開始販售
5931045130,四維藥局,新北市中和區四維街３７巷２號１樓,121.5124,24.98679,(02)86681345,羅氏家用新冠病毒抗原自我檢測套組,43,2022/05/06 16:16:02,快篩實名制，每天16:00開始販售，售完為止。
5931052608,佑成藥局,新北市新店區民權路１０１號１樓,121.537,24.98281,(02)86673537,羅氏家用新冠病毒抗原自我檢測套組,116,2022/05/06 16:16:02,下午四點發快篩
5931052724,合康大藥局,新北市新店區中正路２６３－２號１樓,121.5384,24.97367,(02)29109888,羅氏家用新冠病毒抗原自我檢測套組,1,2022/05/06 16:16:02,快篩14:00開始（有事先發號碼牌）網上還有數量是拿到號碼牌還沒來領的，拜託別再問了
5931060342,十安藥局,新北市新莊區中港路３１６號,121.4524,25.04544,(02)29922859,羅氏家用新冠病毒抗原自我檢測套組,5,2022/05/06 16:16:02,自111／04／01起不再販賣實名制口罩
5931067136,蒲陽藥局,新北市新莊區中港路５１４號,121.4518,25.05187,(02)29930069,羅氏家用新冠病毒抗原自我檢測套組,2,2022/05/06 16:16:02,無
5931067403,建嘉藥局,新北市新莊區中誠街４２號１樓,121.4513,25.04812,(02)29925261,羅氏家用新冠病毒抗原自我檢測套組,78,2022/05/06 16:16:02,無
5931067565,豐年藥局,新北市新莊區中正路３７７巷１６號,121.4462,25.03395,(02)22071182,羅氏家用新冠病毒抗原自我檢測套組,1,2022/05/06 16:16:02,無
5931069603,中信藥師藥局,新北市新莊區中信街８０號１樓,121.448,25.05311,(02)29969811,羅氏家用新冠病毒抗原自我檢測套組,78,2022/05/06 16:16:02,AM 07:30 開始
5931069765,健業藥妝藥局,新北市新莊區中和街１３０號１樓,121.4475,25.04809,(02)22796279,羅氏家用新冠病毒抗原自我檢測套組,48,2022/05/06 16:16:02,口罩販售資訊:下午3點~11點販售
5931069792,宏泰藥局,新北市新莊區自信街３７號１樓,121.4543,25.04863,(02)29964649,羅氏家用新冠病毒抗原自我檢測套組,83,2022/05/06 16:16:02,無
593106A600,全鎵藥局,新北市新莊區建中街２２號１樓,121.4493,25.03766,(02)22761550,羅氏家用新冠病毒抗原自我檢測套組,38,2022/05/06 16:16:02,16:00快篩開賣
593106A931,建安藥局,新北市新莊區建安街１１７號、１１９號１樓,121.4262,25.02406,(02)22051969,羅氏家用新冠病毒抗原自我檢測套組,28,2022/05/06 16:16:02,快篩實名制，每天16:00開始販售，售完為止。
593106A977,丹鳳藥局,新北市新莊區中正路７４５、７４７號（１樓）,121.4227,25.0288,(02)29065755,羅氏家用新冠病毒抗原自我檢測套組,31,2022/05/06 16:16:02,快篩實名制，每天16:00開始販售，售完為止。
593106B036,家嘉藥局,新北市新莊區自立街１０３號（１樓）,121.4553,25.04549,(02)89926488,羅氏家用新冠病毒抗原自我檢測套組,17,2022/05/06 16:16:02,號碼牌預計於快篩到貨後開始發放 依現場公告為主
593106B107,大樹新莊藥局,新北市新莊區新泰路５９號１樓、２樓,121.4494,25.03405,(02)22010566,羅氏家用新冠病毒抗原自我檢測套組,29,2022/05/06 16:16:02,快篩實名制，每天16:00開始販售，售完為止。
593106B232,新康健保藥局,新北市新莊區自立街１７２號１樓,121.4557,25.04537,(02)29962558,羅氏家用新冠病毒抗原自我檢測套組,2,2022/05/06 16:16:02,無
593106B303,新莊丁丁藥局,新北市新莊區民安西路２３７號１樓,121.4261,25.01398,(02)22022388,羅氏家用新冠病毒抗原自我檢測套組,32,2022/05/06 16:16:02,無
593106B321,大樹幸福藥局,新北市新莊區幸福路６７２號１樓,121.4509,25.0493,(02)29981066,羅氏家用新冠病毒抗原自我檢測套組,39,2022/05/06 16:16:02,快篩實名制，每天16:00開始販售，售完為止。
5931070366,聖和藥局,新北市樹林區太元街５０號,121.4183,24.97967,(02)86866609,羅氏家用新冠病毒抗原自我檢測套組,78,2022/05/06 16:16:02,中午12:30分開始發放快篩
5931072431,樹林大樹藥局,新北市樹林區育英街５４號１－２樓,121.4213,24.98928,(02)26815488,羅氏家用新冠病毒抗原自我檢測套組,35,2022/05/06 16:16:02,快篩實名制，每天16:00開始販售，售完為止。
5931072584,佳園藥局,新北市樹林區佳園路一段４１巷２０號１樓,121.3941,24.97095,(02)26685056,羅氏家用新冠病毒抗原自我檢測套組,3,2022/05/06 16:16:02,快篩實名制早上9點10分販售，發號碼牌，帶500元／健保卡
5931081378,鶯歌宏達藥局,新北市鶯歌區國慶街１３８號１樓,121.3508,24.95347,(02)26709693,羅氏家用新冠病毒抗原自我檢測套組,1,2022/05/06 16:16:02,下午三點開始販售實名制快篩~不要打電話來問~藥師有其他工作要做
5931081547,信義健保藥局,新北市鶯歌區信義街６３號１樓,121.3534,24.95571,(02)86775563,羅氏家用新冠病毒抗原自我檢測套組,38,2022/05/06 16:16:02,5／6 早9:30 快篩限量40組發放
5931091892,三峽藥局,新北市三峽區介壽路１段２７號１樓,121.3757,24.93321,(02)26738868,羅氏家用新冠病毒抗原自我檢測套組,33,2022/05/06 16:16:02,快篩實名制，每天16:00開始販售，售完為止。
5931100154,尚運藥局,新北市淡水區學府路５１巷１弄２０號,121.4473,25.16892,(02)26225149,羅氏家用新冠病毒抗原自我檢測套組,205,2022/05/06 16:16:02,無
5931102461,淡水藥局,新北市淡水區中山路１２７號（１、２樓）,121.4414,25.17107,(02)86313663,羅氏家用新冠病毒抗原自我檢測套組,36,2022/05/06 16:16:02,快篩實名制，每天16:00開始販售，售完為止。
5931110034,麒豐藥局,新北市汐止區樟樹一路１３５巷２號,121.6421,25.0656,(02)26434737,羅氏家用新冠病毒抗原自我檢測套組,57,2022/05/06 16:16:02,實名制口罩銷售時間9:30~21:00
5931112083,裕和藥局,新北市汐止區宜興街４號１樓,121.6211,25.04126,(02)26609119,羅氏家用新冠病毒抗原自我檢測套組,131,2022/05/06 16:16:02,晚上9.00領實名制快篩時間
5931112789,富康東科藥局,新北市汐止區新台五路１段９６號Ｃ棟１樓Ｃ１５號,121.6483,25.06047,(02)26969222,羅氏家用新冠病毒抗原自我檢測套組,1,2022/05/06 16:16:02,每日九點至下午六點開放購買口罩，周六周日公休
5931113071,蒲公英藥局,新北市汐止區連興街１２６號（１樓）,121.6538,25.06188,(02)26907770,羅氏家用新冠病毒抗原自我檢測套組,78,2022/05/06 16:16:02,實名制快篩銷售時間:下午17:00-19:00（無發放號碼牌）
5931113160,社后藥局,新北市汐止區康寧街４２４號１樓,121.6307,25.06801,(02)26956321,羅氏家用新冠病毒抗原自我檢測套組,40,2022/05/06 16:16:02,快篩實名制，每天16:00開始販售，售完為止。
5931113188,汐止藥局,新北市汐止區福德二路７０號１樓,121.6331,25.06651,(02)86932587,羅氏家用新冠病毒抗原自我檢測套組,41,2022/05/06 16:16:02,無
5931121466,瑞芳藥局,新北市瑞芳區明燈路３段５９之１及５９之２號,121.8057,25.10812,(02)24966588,羅氏家用新冠病毒抗原自我檢測套組,48,2022/05/06 16:16:02,快篩實名制，每天16:00開始販售，售完為止。
5931132245,萬昌健保藥局,新北市土城區中央路４段１６０號,121.417,24.95827,(02)22678057,羅氏家用新冠病毒抗原自我檢測套組,26,2022/05/06 16:16:02,3月2日起周一至周五15:00發號碼牌及販賣口罩  周六 10:00直接販售
5931132343,誠安藥局,新北市土城區中央路４段３６號１樓,121.4207,24.96088,(02)22677737,羅氏家用新冠病毒抗原自我檢測套組,156,2022/05/06 16:16:02,快篩代售時段：平日晚上8點，售完為止
5931132807,健業藥局,新北市土城區中央路２段２２３－１０號,121.4407,24.97312,(02)22704798,羅氏家用新冠病毒抗原自我檢測套組,78,2022/05/06 16:16:02,無
5931132950,美康藥妝藥局,新北市土城區延吉街２５４號１樓,121.4664,24.98465,(02)22616868,羅氏家用新冠病毒抗原自我檢測套組,65,2022/05/06 16:16:02,實名制快篩前一天若有到貨，則隔日三點販售
5931133331,城安大藥局,新北市土城區金城路３段４０號,121.4656,24.98639,(02)22646561,羅氏家用新冠病毒抗原自我檢測套組,5,2022/05/06 16:16:02,快篩代售時間晚上8:30
5931133662,中央藥局,新北市土城區中央路２段８４、８６號（１樓）,121.4423,24.97885,(02)22630345,羅氏家用新冠病毒抗原自我檢測套組,20,2022/05/06 16:16:02,快篩實名制，每天16:00開始販售，售完為止。
5931133680,土城金城藥局,新北市土城區裕民路２８０號１、２樓,121.4554,24.982,(02)22631616,羅氏家用新冠病毒抗原自我檢測套組,35,2022/05/06 16:16:02,快篩實名制，每天16:00開始販售，售完為止。
5931140158,全民藥局,新北市蘆洲區中山一路２０１、２０３號,121.4687,25.07655,(02)22837168,羅氏家用新冠病毒抗原自我檢測套組,75,2022/05/06 16:16:02,無
5931141726,松展多利日式連鎖藥粧藥局,新北市蘆洲區民族路１６１號,121.4793,25.08817,(02)22882586,羅氏家用新冠病毒抗原自我檢測套組,22,2022/05/06 16:16:02,防疫物資每日下午02:00開始販售
5931143275,集賢藥局,新北市蘆洲區信義路２２２巷６１號１、２樓,121.4813,25.08535,(02)22882400,羅氏家用新冠病毒抗原自我檢測套組,6,2022/05/06 16:16:02,快篩實名制，每天16:00開始販售，售完為止。
5931143337,喜得健藥局,新北市蘆洲區中興街５４號１樓,121.4817,25.0874,(02)22886419,羅氏家用新冠病毒抗原自我檢測套組,30,2022/05/06 16:16:02,實名制快篩: 16:00
5931151713,五股藥局,新北市五股區成泰路１段２３５之２號（１樓）,121.4363,25.07968,(02)22951150,羅氏家用新冠病毒抗原自我檢測套組,35,2022/05/06 16:16:02,快篩實名制，每天16:00開始販售，售完為止。
5931171528,長康藥局,新北市林口區中山路１６６號１樓,121.3902,25.07894,(02)26012661,羅氏家用新冠病毒抗原自我檢測套組,1,2022/05/06 16:16:02,周日公休
5931171582,綠園藥局,新北市林口區仁愛路２段１０５號１樓,121.3843,25.07507,(02)86012258,羅氏家用新冠病毒抗原自我檢測套組,3,2022/05/06 16:16:02,上午8:30-12:00、下午2:30-18:00、晚上18:00-21:30
5931171680,一家好藥局,新北市林口區中山路５００號,121.3794,25.08303,(02)26028270,羅氏家用新冠病毒抗原自我檢測套組,70,2022/05/06 16:16:02,無
5931171813,力行藥局,新北市林口區文化３路１段４２３、４２５號１、２樓,121.3653,25.07438,(02)26080711,羅氏家用新冠病毒抗原自我檢測套組,27,2022/05/06 16:16:02,快篩實名制，每天16:00開始販售，售完為止。
5931171831,沐霖藥局,新北市林口區文化三路２段２８６號１樓,121.3775,25.08304,(02)26032086,羅氏家用新冠病毒抗原自我檢測套組,78,2022/05/06 16:16:02,無
5931171868,林口藥局,新北市林口區文化三路２段６９號１樓,121.374,25.08006,(02)26001899,羅氏家用新冠病毒抗原自我檢測套組,1,2022/05/06 16:16:02,快篩販售時間：下午02:40發號碼牌，03:00開始販售
5931171886,林口辰安藥局,新北市林口區文化三路１段１９１巷５號１樓,121.3619,25.07016,(02)26099151,羅氏家用新冠病毒抗原自我檢測套組,46,2022/05/06 16:16:02,快篩1600開始販售，現場排隊領取
5931250015,松南藥局,新北市雙溪區中華路２９號,121.8658,25.03728,(02)24931085,羅氏家用新冠病毒抗原自我檢測套組,4,2022/05/06 16:16:02,週一至週五營業至晚上21點.週六至20點週日至12點
5932011870,永祥大藥局,桃園市桃園區永安路５２８號,121.2986,25.00181,(03)3337161,羅氏家用新冠病毒抗原自我檢測套組,4,2022/05/06 16:16:02,口罩販賣時段：週一至週六早上9點
5932012813,桃園大興藥局,桃園市桃園區大興西路二段７６巷３號,121.2984,25.01183,(03)3013222,羅氏家用新冠病毒抗原自我檢測套組,60,2022/05/06 16:16:02,快篩實名制，每天16:00開始販售，售完為止。
5932013392,桃園中正藥局,桃園市桃園區中正路３７３號,121.3079,24.99955,(03)3381600,羅氏家用新冠病毒抗原自我檢測套組,25,2022/05/06 16:16:02,快篩實名制，每天16:00開始販售，售完為止。
5932013687,桃園春日藥局,桃園市桃園區春日路８７８號,121.3096,25.01561,(03)3580101,羅氏家用新冠病毒抗原自我檢測套組,46,2022/05/06 16:16:02,快篩實名制，每天16:00開始販售，售完為止。
5932013721,桃園民光藥局,桃園市桃園區中正路５６９號,121.3049,25.0041,(03)3364888,羅氏家用新冠病毒抗原自我檢測套組,28,2022/05/06 16:16:02,快篩實名制，每天16:00開始販售，售完為止。
5932013749,桃園寶山藥局,桃園市桃園區寶山街７２號,121.3175,25.01291,(03)3250562,羅氏家用新冠病毒抗原自我檢測套組,38,2022/05/06 16:16:02,快篩實名制，每天16:00開始販售，售完為止。
5932013918,益壽藥局,桃園市桃園區中山路８２８、８３０、８３２、８３４、８３６號,121.2902,24.99093,(03)3693100,羅氏家用新冠病毒抗原自我檢測套組,26,2022/05/06 16:16:02,快篩實名制，每天16:00開始販售，售完為止。
5932014004,同德辰安藥局,桃園市桃園區同德十街２５號,121.294,25.01835,(03)3012028,羅氏家用新冠病毒抗原自我檢測套組,24,2022/05/06 16:16:02,實名制快篩試劑於下午4點開始販售，現場排隊，沒有發放號碼牌。
5932014031,大廟藥局,桃園市桃園區中山路１５８號１樓,121.3091,24.99342,(03)3337006,羅氏家用新冠病毒抗原自我檢測套組,16,2022/05/06 16:16:02,無
5932014059,桃園南平藥局,桃園市桃園區南平路３０２－１號１樓,121.2989,25.01855,(03)3165222,羅氏家用新冠病毒抗原自我檢測套組,26,2022/05/06 16:16:02,快篩實名制，每天16:00開始販售，售完為止。
5932014102,小飛象藥局,桃園市桃園區慈文路１９２號,121.3041,25.00907,(03)3552771,羅氏家用新冠病毒抗原自我檢測套組,78,2022/05/06 16:16:02,5／6 [21:30] 開賣78份，別再問了。不發放號碼牌，請自行計算人數。即日起本所有調劑確診者之視訊處方，請自保。
5932014111,鴻發藥師藥局,桃園市桃園區大有路５４３號,121.3171,25.0149,(03)3582468,羅氏家用新冠病毒抗原自我檢測套組,78,2022/05/06 16:16:02,實聯快篩:早上09:30發放號碼牌，限當日下午2~4點憑牌購買，逾時不候請見諒
5932014273,藝文藥局,桃園市桃園區大興西路１段１６５號,121.3049,25.01414,(03)3261789,羅氏家用新冠病毒抗原自我檢測套組,20,2022/05/06 16:16:02,快篩實名制，每天16:00開始販售，售完為止。
5932014424,桃園中山藥局,桃園市桃園區中山路７０７號,121.2914,24.99079,(03)2207168,羅氏家用新冠病毒抗原自我檢測套組,38,2022/05/06 16:16:02,快篩實名制，每天16:00開始販售，售完為止。
5932014460,桃鶯藥局,桃園市桃園區桃鶯路１０２號,121.318,24.98516,(03)3675100,羅氏家用新冠病毒抗原自我檢測套組,3,2022/05/06 16:16:02,快篩實名制，每天16:00開始販售，售完為止。
5932017069,佳赫藥局,桃園市桃園區龍壽街４８號,121.2694,24.97902,(03)3701037,羅氏家用新冠病毒抗原自我檢測套組,1,2022/05/06 16:16:02,快篩販售時間:15:00-20:00
5932018593,品一藥局,桃園市桃園區建新街７６號,121.3118,24.98261,(03)3638510,羅氏家用新冠病毒抗原自我檢測套組,3,2022/05/06 16:16:02,快篩販賣時間：週一至週五早上9：30；週六下午1：00（星期天休息），會發號碼牌（今天已發完）
5932019045,大一藥局,桃園市桃園區中山路684之一號一樓,121.2946,24.9912,(03)2171836,羅氏家用新冠病毒抗原自我檢測套組,9,2022/05/06 16:16:02,快篩試劑每日下午3點半發號碼牌，4點開賣。星期日停售。
5932019929,元氣藥局,桃園市桃園區民光東路一Ｏ九號,121.3183,25.0079,(03)3332201,羅氏家用新冠病毒抗原自我檢測套組,78,2022/05/06 16:16:02,現場排隊喔!，快篩試劑銷售時間:星期一三四六15:30，星期二五19:00，星期日無，12:00~15:00；18:00~18:30為休息時間
5932021812,慧中健保藥局,桃園市中壢區成章二街１４１號１樓,121.2568,24.98025,(03)4556129,羅氏家用新冠病毒抗原自我檢測套組,79,2022/05/06 16:16:02,每日4:30開始領號碼牌販售快篩試劑
5932022346,宜美大藥局,桃園市中壢區莊敬路７１６號,121.2569,24.96642,(03)4637687,羅氏家用新冠病毒抗原自我檢測套組,30,2022/05/06 16:16:02,無
5932022355,新家福藥局,桃園市中壢區福州二街４１９號,121.2325,24.968,(03)4621658,羅氏家用新冠病毒抗原自我檢測套組,35,2022/05/06 16:16:02,實名制快篩販售時間: 15:30開始至售完為止
5932022631,中壢中正藥局,桃園市中壢區中正路３６３、３６５號,121.2163,24.95532,(03)4014100,羅氏家用新冠病毒抗原自我檢測套組,34,2022/05/06 16:16:02,快篩實名制，每天16:00開始販售，售完為止。
5932023058,福澤健行藥局,桃園市中壢區健行路１３９號,121.2275,24.94943,(03)4681988,羅氏家用新冠病毒抗原自我檢測套組,3,2022/05/06 16:16:02,家用快篩販賣時段15:30至售完為止
5932023281,裕翔藥局,桃園市中壢區榮民路４８號１樓,121.2606,24.96956,(03)4355499,羅氏家用新冠病毒抗原自我檢測套組,78,2022/05/06 16:16:02,快篩下午五點販售
5932023567,內壢成章藥局,桃園市中壢區忠孝路１９８號,121.2553,24.97719,(03)4524123,羅氏家用新冠病毒抗原自我檢測套組,41,2022/05/06 16:16:02,快篩實名制，每天16:00開始販售，售完為止。
5932023647,樂謙藥師藥局,桃園市中壢區龍東路１３４號,121.2522,24.92929,(03)4662775,羅氏家用新冠病毒抗原自我檢測套組,109,2022/05/06 16:16:02,實名快篩每日下午2點、晚上6點 各發39份
5932023807,東興藥局,桃園市中壢區中北路２段３９號,121.224,24.95033,(03)4282611,羅氏家用新冠病毒抗原自我檢測套組,16,2022/05/06 16:16:02,快篩實名制，每天16:00開始販售，售完為止。
5932023889,華勛藥局,桃園市中壢區華勛街１１２、１１４號,121.2597,24.95065,(03)4161881,羅氏家用新冠病毒抗原自我檢測套組,34,2022/05/06 16:16:02,快篩實名制，每天16:00開始販售，售完為止。
5932023914,內壢忠孝藥局,桃園市中壢區忠孝路３６號,121.2566,24.97338,(03)4636641,羅氏家用新冠病毒抗原自我檢測套組,36,2022/05/06 16:16:02,快篩實名制，每天16:00開始販售，售完為止。
5932023932,龍東藥局,桃園市中壢區龍東路２０５號,121.2523,24.92966,(03)4383088,羅氏家用新冠病毒抗原自我檢測套組,36,2022/05/06 16:16:02,快篩實名制，每天16:00開始販售，售完為止。
5932024215,幸運星藥師藥局,桃園市中壢區龍東路４４號１樓,121.2502,24.9284,(03)4563356,羅氏家用新冠病毒抗原自我檢測套組,60,2022/05/06 16:16:02,快篩實名制，下午16:00開始，排隊販售領取（無號碼牌）
5932024279,中壢環東藥局,桃園市中壢區中山東路２段１９３號,121.2404,24.95171,(03)4562345,羅氏家用新冠病毒抗原自我檢測套組,7,2022/05/06 16:16:02,快篩實名制，每天16:00開始販售，售完為止。
5932028348,田倉藥局,桃園市中壢區龍東路二五八號,121.2544,24.93062,(03)4379331,羅氏家用新冠病毒抗原自我檢測套組,34,2022/05/06 16:16:02,快篩代售時間自下午四點起。現場排隊，賣完為止。
593202A833,君安藥局,桃園市中壢區中北路二段３９０號,121.2318,24.95388,(03)4685484,羅氏家用新冠病毒抗原自我檢測套組,107,2022/05/06 16:16:02,快篩試劑販售時間，週一至週五晚上7點，週六週日早上9點，視現場狀況而定，前15至45分鐘發號碼牌，發完為止
593202A931,佳佑藥局,桃園市中壢區環中東路二四一號,121.2573,24.96345,(03)4356190,羅氏家用新冠病毒抗原自我檢測套組,9,2022/05/06 16:16:02,口罩販賣時段：09:00以後發號碼牌，售完為止
5932030080,吉壽藥局,桃園市大溪區員林路三段４２號,121.2648,24.88175,(03)3802049,羅氏家用新冠病毒抗原自我檢測套組,78,2022/05/06 16:16:02,快篩試劑販賣時段：星期一~五晚上7:00起及星期六、日上午8:30起。由於近日進貨庫存異常，另78份為隔日販售！請諒解。
5932031729,德安堂藥局,桃園市大溪區介壽路８９２號,121.2837,24.90016,(03)3808173,羅氏家用新冠病毒抗原自我檢測套組,49,2022/05/06 16:16:02,口罩販賣時段：14:00 - 16:00
5932031881,大溪藥局,桃園市大溪區康莊路１６０號,121.2886,24.8808,(03)3873873,羅氏家用新冠病毒抗原自我檢測套組,51,2022/05/06 16:16:02,快篩實名制，每天16:00開始販售，售完為止。
5932040246,龍泰藥局,桃園市楊梅區民族路五段１４７巷２號,121.1736,24.9586,(03)4901525,羅氏家用新冠病毒抗原自我檢測套組,2,2022/05/06 16:16:02,快篩販售時間:早上7:30領號碼牌下午2點至4點領快篩（當日有效）
5932043130,宜康美藥局,桃園市楊梅區環東路４５２號,121.1571,24.91005,(03)4883805,羅氏家用新冠病毒抗原自我檢測套組,20,2022/05/06 16:16:02,快篩販賣時段：早上09:30~10:30（20份）下午15:30~16:30（38份）晚上19:30~20:30（20份）
5932043336,楊梅藥局,桃園市楊梅區大成路１４８、１５０號,121.1458,24.91148,(03)4880776,羅氏家用新冠病毒抗原自我檢測套組,26,2022/05/06 16:16:02,快篩實名制，每天16:00開始販售，售完為止。
5932051329,恆安藥局,桃園市蘆竹區忠孝西路２４號,121.2924,25.04425,(03)2120206,羅氏家用新冠病毒抗原自我檢測套組,46,2022/05/06 16:16:02,口罩販賣時段：下午16:00  晚上20:00
5932051472,康而美聖安藥師藥局,桃園市蘆竹區南山路一段二之一號,121.2916,25.04879,(03)3228753,羅氏家用新冠病毒抗原自我檢測套組,4,2022/05/06 16:16:02,暫停止販售
5932052004,英登藥局,桃園市蘆竹區南崁路三四四號,121.2913,25.05039,(03)2124606,羅氏家用新冠病毒抗原自我檢測套組,7,2022/05/06 16:16:02,無
5932052228,大竹藥師藥局,桃園市蘆竹區南竹路五段二五九號,121.2594,25.02454,(03)3232508,羅氏家用新冠病毒抗原自我檢測套組,3,2022/05/06 16:16:02,快篩販賣時段：14:30起可購買至售完為止
5932052808,柏霖藥局,桃園市蘆竹區中正路３５９號２樓,121.291,25.04902,(03)2120284,羅氏家用新冠病毒抗原自我檢測套組,36,2022/05/06 16:16:02,快篩試劑販賣時間:18:00開始.售完為止
5932052835,悅兒藥局,桃園市蘆竹區忠孝西路１８６號,121.2892,25.04011,(03)3126967,羅氏家用新冠病毒抗原自我檢測套組,78,2022/05/06 16:16:02,快篩販賣時段：週一到週日 14:30 開賣
5932052871,政興藥局,桃園市蘆竹區南昌路２５４號,121.2913,25.04012,(03)3215544,羅氏家用新冠病毒抗原自我檢測套組,16,2022/05/06 16:16:02,快篩試劑星期一~星期六販售
5932052979,南崁藥局,桃園市蘆竹區中正路２５１、２５３、２５５號,121.2921,25.04695,(03)3522022,羅氏家用新冠病毒抗原自我檢測套組,157,2022/05/06 16:16:02,快篩實名制，每天16:00開始販售，售完為止。
5932053047,桃園大竹藥局,桃園市蘆竹區大竹路３６５號,121.2652,25.01997,(03)3235959,羅氏家用新冠病毒抗原自我檢測套組,34,2022/05/06 16:16:02,快篩實名制，每天16:00開始販售，售完為止。
5932062484,園正藥局,桃園市大園區中正東路７５號,121.2003,25.06315,(03)3865250,羅氏家用新冠病毒抗原自我檢測套組,9,2022/05/06 16:16:02,快篩實名制，每天16:00開始販售，售完為止。
5932076791,誠安生活藥局,桃園市龜山區文化七路７９之２號,121.3635,25.05166,(03)3271997,羅氏家用新冠病毒抗原自我檢測套組,36,2022/05/06 16:16:02,實名制快篩試劑每日下午三點啟售。5／1周日不販售
5932076844,帕米爾藥局,桃園市龜山區萬壽路二段９９１號,121.3369,24.99464,(03)3295522,羅氏家用新冠病毒抗原自我檢測套組,2,2022/05/06 16:16:02,星期一~六:家用快篩試劑販賣時段：14:30~售完。不發號碼牌，請直接排隊購買。
5932077056,桃園龜山藥局,桃園市龜山區萬壽路二段８９６號,121.3394,24.99586,(03)3203312,羅氏家用新冠病毒抗原自我檢測套組,73,2022/05/06 16:16:02,快篩實名制，每天16:00開始販售，售完為止。
5932077270,明昌藥局,桃園市龜山區中興里萬壽路二段１１９１－６號,121.3318,24.99291,(03)3501205,羅氏家用新冠病毒抗原自我檢測套組,2,2022/05/06 16:16:02,無
5932077592,南崁南祥藥局,桃園市龜山區南祥路４６號,121.2975,25.04633,(03)2227733,羅氏家用新冠病毒抗原自我檢測套組,54,2022/05/06 16:16:02,快篩實名制，每天16:00開始販售，售完為止。
5932077627,文興藥局,桃園市龜山區復興一路１０２號１、２、３樓,121.368,25.0592,(03)3285330,羅氏家用新冠病毒抗原自我檢測套組,50,2022/05/06 16:16:02,快篩實名制，每天16:00開始販售，售完為止。
5932080455,日鴻藥局,桃園市八德區義勇街１７５號,121.3065,24.96335,(03)3763304,羅氏家用新冠病毒抗原自我檢測套組,13,2022/05/06 16:16:02,口罩販賣時段：早上9:00 發號碼牌下午4:00~6:00領取
5932083509,上方藥局,桃園市八德區廣褔路一八八號,121.279,24.96204,(03)3635902,羅氏家用新冠病毒抗原自我檢測套組,2,2022/05/06 16:16:02,販賣快篩:於午間12:30~1:30發號碼牌，開賣時間下午3:00~4:30，賣完為止
5932083670,保健藥局,桃園市八德區介壽路一段８３３號２樓,121.3,24.96168,(03)3669486,羅氏家用新冠病毒抗原自我檢測套組,202,2022/05/06 16:16:02,無
5932083974,晨鴻藥師藥局,桃園市八德區桃鶯路７號１樓,121.3265,24.97179,(03)3764299,羅氏家用新冠病毒抗原自我檢測套組,78,2022/05/06 16:16:02,快篩為早上8:30跟晚上6:00領取號碼牌，因有送貨時間及短少的因素，所以快篩地圖數量參考就好，請勿再打電話詢問 謝謝
5932084793,美康健保藥局,桃園市八德區桃鶯路９１號１、２樓,121.328,24.97036,(03)3613624,羅氏家用新冠病毒抗原自我檢測套組,78,2022/05/06 16:16:02,無
5932084800,瑞豐藥局,桃園市八德區興豐路５７７號１樓,121.2935,24.93075,(03)3681456,羅氏家用新冠病毒抗原自我檢測套組,32,2022/05/06 16:16:02,快篩實名制，每天16:00開始販售，售完為止。
5932084828,阿爾富山藥局,桃園市八德區桃鶯路４號１樓,121.3261,24.97167,(03)3763350,羅氏家用新冠病毒抗原自我檢測套組,72,2022/05/06 16:16:02,本藥局實名制快篩於每日晚間7點以實際到貨數量發放，唯保留可視現場排隊人數額滿情況.酌情提前發號碼牌並受理購買!
5932084864,阿寶藥局,桃園市八德區東勇一路６號,121.3064,24.96452,(03)3750060,羅氏家用新冠病毒抗原自我檢測套組,48,2022/05/06 16:16:02,實名制快篩詳細公告請參閱阿寶藥局官方臉書
5932099383,龍星藥局,桃園市龍潭區中正路二八四號二樓,121.2175,24.86201,(03)4707390,羅氏家用新冠病毒抗原自我檢測套組,57,2022/05/06 16:16:02,無
5932099963,龍潭北龍藥局,桃園市龍潭區北龍路２７５號,121.2174,24.8681,(03)4893123,羅氏家用新冠病毒抗原自我檢測套組,11,2022/05/06 16:16:02,快篩實名制，每天16:00開始販售，售完為止。
5932100185,德聯藥師藥局,桃園市平鎮區龍南路３１號,121.2452,24.92473,(03)4603613,羅氏家用新冠病毒抗原自我檢測套組,1,2022/05/06 16:16:02,快篩 5月6日 下午2點開始賣
5932100210,福澤中豐藥局,桃園市平鎮區中豐路３４５號,121.2116,24.91034,(03)4283805,羅氏家用新冠病毒抗原自我檢測套組,66,2022/05/06 16:16:02,家用快篩販賣時段15:30至售完為止
5932100809,福澤民族藥局,桃園市平鎮區民族路二段１３９號１樓,121.2048,24.95706,(03)4014747,羅氏家用新冠病毒抗原自我檢測套組,6,2022/05/06 16:16:02,家用快篩販賣時段15:30至售完為止
5932101226,平鎮中豐藥局,桃園市平鎮區中豐路山頂段１６４號,121.2109,24.90035,(03)4690939,羅氏家用新冠病毒抗原自我檢測套組,44,2022/05/06 16:16:02,快篩實名制，每天16:00開始販售，售完為止。
5932111286,新中藥局,桃園市新屋區中山路３２４、３２６號１樓,121.1053,24.97287,(03)4971232,羅氏家用新冠病毒抗原自我檢測套組,55,2022/05/06 16:16:02,快篩實名制，每天16:00開始販售，售完為止。
5933010064,明德藥局,新竹縣關西鎮中山路１８號,121.1778,24.79152,(03)5874335,羅氏家用新冠病毒抗原自我檢測套組,3,2022/05/06 16:16:02,無
5933011258,安東藥師藥局,新竹縣關西鎮中山路６２號,121.1766,24.79147,(03)5872385,羅氏家用新冠病毒抗原自我檢測套組,78,2022/05/06 16:16:02,口罩販賣時段：星期一至六08:00-21:00、星期日08:00-17:00
5933011267,關西藥局,新竹縣關西鎮中山路６８號,121.1764,24.79148,(03)5171121,羅氏家用新冠病毒抗原自我檢測套組,40,2022/05/06 16:16:02,快篩實名制，每天16:00開始販售，售完為止。
5933031769,竹東朝陽藥局,新竹縣竹東鎮朝陽路１號１、２樓,121.0852,24.74199,(03)5111166,羅氏家用新冠病毒抗原自我檢測套組,1,2022/05/06 16:16:02,口罩販售時間：14:00 - 16:00
5933031885,東林藥局,新竹縣竹東鎮東林路８０號,121.0913,24.73683,(03)5961321,羅氏家用新冠病毒抗原自我檢測套組,43,2022/05/06 16:16:02,快篩實名制，每天16:00開始販售，售完為止。
5933053041,中一藥局,新竹縣竹北市文興路一段２４２號１樓,121.0287,24.81018,(03)6670827,羅氏家用新冠病毒抗原自我檢測套組,44,2022/05/06 16:16:02,更新:快篩販售時間下午16:00
5933053489,十興藥局,新竹縣竹北市莊敬五街７５號,121.0268,24.82346,(03)6684889,羅氏家用新冠病毒抗原自我檢測套組,20,2022/05/06 16:16:02,快篩實名制，每天16:00開始販售，售完為止。
5933053550,六家藥局,新竹縣竹北市六家一路一段１６３號,121.0289,24.80958,(03)6578456,羅氏家用新冠病毒抗原自我檢測套組,31,2022/05/06 16:16:02,快篩實名制，每天16:00開始販售，售完為止。
5933053596,中華藥局,新竹縣竹北市中華路２２６號１、２樓,121.0028,24.83118,(03)5513031,羅氏家用新冠病毒抗原自我檢測套組,66,2022/05/06 16:16:02,快篩實名制，每天16:00開始販售，售完為止。
5933053603,竹北光明藥局,新竹縣竹北市光明一路１３７號,121.0157,24.83023,(03)5584545,羅氏家用新冠病毒抗原自我檢測套組,41,2022/05/06 16:16:02,快篩實名制，每天16:00開始販售，售完為止。
5933061712,湖山藥局,新竹縣湖口鄉中山路二段１２７號,121.0439,24.90198,(03)5904999,羅氏家用新冠病毒抗原自我檢測套組,50,2022/05/06 16:16:02,快篩實名制，每天16:00開始販售，售完為止。
5934022175,公正藥局,宜蘭縣羅東鎮興東路１３７、１３９號,121.769,24.6802,(03)9560543,羅氏家用新冠病毒抗原自我檢測套組,27,2022/05/06 16:16:02,快篩實名制，每天16:00開始販售，售完為止。
5935011738,佳禾藥局,苗栗縣苗栗市青苗里建台街7號,120.821,24.55742,(037)373041,羅氏家用新冠病毒抗原自我檢測套組,158,2022/05/06 16:16:02,快篩試劑7：30發號碼牌8：00開始販賣，販賣時段：營業時間至售完為止
5935011783,芳鄰國際連鎖藥局,苗栗縣苗栗市中山路５６７號,120.8201,24.55826,(037)330580,羅氏家用新冠病毒抗原自我檢測套組,8,2022/05/06 16:16:02,快篩販賣時段：14:00開始發放號碼牌 16:00-18:00領取快篩
5935012413,苗栗藥局,苗栗縣苗栗市光復路５５號,120.8165,24.5532,(037)360789,羅氏家用新冠病毒抗原自我檢測套組,17,2022/05/06 16:16:02,快篩實名制，每天16:00開始販售，售完為止。
5935021430,苑裡藥局,苗栗縣苑裡鎮為公路３２－１號,120.6541,24.44247,(037)851331,羅氏家用新冠病毒抗原自我檢測套組,46,2022/05/06 16:16:02,快篩實名制，每天16:00開始販售，售完為止。
5935030171,立安藥局,苗栗縣通霄鎮信義路１０７號,120.6804,24.48877,(037)760100,羅氏家用新冠病毒抗原自我檢測套組,1,2022/05/06 16:16:02,快篩實名制 週一到週六下午15:00開始販售  售完為止
5935030180,通霄藥局,苗栗縣通霄鎮中山路１３１號,120.678,24.48903,(037)755155,羅氏家用新冠病毒抗原自我檢測套組,43,2022/05/06 16:16:02,快篩實名制，每天16:00開始販售，售完為止。
5935041914,合康連鎖藥局,苗栗縣竹南鎮博愛街２７０號,120.8725,24.68724,(037)474987,羅氏家用新冠病毒抗原自我檢測套組,78,2022/05/06 16:16:02,販售快篩時間為下午17:00開始販售
5935060053,鴻輝大藥局,苗栗縣後龍鎮北龍里中華路６４－１號,120.7879,24.61557,(037)721952,羅氏家用新冠病毒抗原自我檢測套組,1,2022/05/06 16:16:02,AM07:50~PM10:00
5935061452,後龍藥局,苗栗縣後龍鎮中山路２０９號１樓,120.7931,24.6127,(037)723660,羅氏家用新冠病毒抗原自我檢測套組,20,2022/05/06 16:16:02,快篩實名制，每天16:00開始販售，售完為止。
5936100118,保昇藥局,臺中市大雅區月祥路９１２號,120.6292,24.24076,(04)25662495,羅氏家用新冠病毒抗原自我檢測套組,36,2022/05/06 16:16:02,即日起週一到週六下午四點，週日早上8點現場販售，售完為止
5936150341,原全成藥局,臺中市烏日區中山路一段３８７號１樓,120.6388,24.10773,(04)23361818,羅氏家用新冠病毒抗原自我檢測套組,44,2022/05/06 16:16:02,每日＜下午４點＞!!＜下午４點＞!!＜下午４點＞!!開始發號碼牌販售，售完為止！！
5936180152,祥暘藥局,臺中市霧峰區中正路１１６２號,120.6996,24.07068,(04)23391346,羅氏家用新冠病毒抗原自我檢測套組,1,2022/05/06 16:16:02,快篩實名制，每天16:00開始販售，售完為止。
5936190676,中美藥師藥局,臺中市太平區中山路３段８５號,120.7173,24.14861,(04)22778238,羅氏家用新冠病毒抗原自我檢測套組,14,2022/05/06 16:16:02,無
5936192134,樹德大藥局,臺中市太平區樹德路１０２號１樓,120.7115,24.15386,(04)23981782,羅氏家用新冠病毒抗原自我檢測套組,43,2022/05/06 16:16:02,下午3點開始領號碼牌，分流領取，請勿依賴網站庫存
593620B138,聯生中西健保藥局,臺中市大里區現岱路１５８巷１１號,120.6919,24.10295,(04)24834058,羅氏家用新冠病毒抗原自我檢測套組,32,2022/05/06 16:16:02,早上八點半領號碼牌下午四點到六點領口罩W6W日早七點
5937013436,大埔藥局,彰化縣彰化市大埔路４０６、４０８、４１０、４１２號,120.5439,24.06298,(04)7117511,羅氏家用新冠病毒抗原自我檢測套組,23,2022/05/06 16:16:02,快篩實名制，每天16:00開始販售，售完為止。
5937013552,芳澤藥局,彰化縣彰化市中山路三段４３４號,120.5658,24.08861,(04)7380381,羅氏家用新冠病毒抗原自我檢測套組,31,2022/05/06 16:16:02,快篩實名制-週一至週五下午3點開始販售，星期六日休息
5937013570,彰化藥局,彰化縣彰化市永安街２７８、２８０號,120.5438,24.08977,(04)7287877,羅氏家用新冠病毒抗原自我檢測套組,78,2022/05/06 16:16:02,快篩實名制，每天16:00開始販售，售完為止。
5937013703,友誼藥局自強店,彰化縣彰化市自強路４６號,120.5393,24.08961,(04)7233471,羅氏家用新冠病毒抗原自我檢測套組,31,2022/05/06 16:16:02,5／6快篩販售時間15:00~16:00以現場量為主，免費領取各大醫院連續處方簽，診所、衛生所處方簽，歡迎諮詢友誼藥局
5937013712,寶生藥局,彰化縣彰化市中山路一段５５６巷２３之１２８號１樓,120.5404,24.06564,(04)7113037,羅氏家用新冠病毒抗原自我檢測套組,25,2022/05/06 16:16:02,六、日因人力不足無法發送快篩 每日下午一點～下午五點
5937013730,佳漾藥局,彰化縣彰化市延平路５８８號１樓,120.5374,24.06301,(04)7135518,羅氏家用新冠病毒抗原自我檢測套組,78,2022/05/06 16:16:02,實名制快篩販售時間為下午5點，週六，週日及國定假日藥局休息．
5937013767,民族藥局,彰化縣彰化市民族路２１２號１樓,120.5393,24.071,(04)7261221,羅氏家用新冠病毒抗原自我檢測套組,34,2022/05/06 16:16:02,快篩實名制，每天16:00開始販售，售完為止。
5937021849,大樹鹿港藥局,彰化縣鹿港鎮中正路１９３號,120.4405,24.05491,(04)7772226,羅氏家用新冠病毒抗原自我檢測套組,39,2022/05/06 16:16:02,快篩實名制，每天16:00開始販售，售完為止。
5937031667,丁丁藥局和美店,彰化縣和美鎮道周路３１２號,120.4971,24.10759,(04)7576322,羅氏家用新冠病毒抗原自我檢測套組,1,2022/05/06 16:16:02,固定周一至周日上午9:00開始發放號碼牌，發完後即開始販賣快篩。
5937031747,大樹和美藥局,彰化縣和美鎮道周路５０１號,120.494,24.10896,(04)7550090,羅氏家用新冠病毒抗原自我檢測套組,36,2022/05/06 16:16:02,快篩實名制，每天16:00開始販售，售完為止。
5937041421,惠生大藥局,彰化縣北斗鎮西德里中華路２９１號,120.521,23.87288,(04)8874041,羅氏家用新冠病毒抗原自我檢測套組,1,2022/05/06 16:16:02,販售時間 : 週一 ~ 週日，每日下午1:50~2點後至販售完畢
5937052264,醫聯藥師藥局,彰化縣員林市三條里員東路二段４１０號１樓,120.5811,23.95898,(04)8360617,羅氏家用新冠病毒抗原自我檢測套組,3,2022/05/06 16:16:02,無
5937052335,大樹三民藥局,彰化縣員林市三民東街３５６號,120.5825,23.96065,(04)8372837,羅氏家用新冠病毒抗原自我檢測套組,25,2022/05/06 16:16:02,快篩實名制，每天16:00開始販售，售完為止。
5937052479,莒光藥局,彰化縣員林市莒光路３１６號１樓,120.5669,23.95942,(04)8361388,羅氏家用新冠病毒抗原自我檢測套組,27,2022/05/06 16:16:02,快篩實名制，每天16:00開始販售，售完為止。
5937052488,大樹員林藥局,彰化縣員林市大同路二段２０７號,120.5745,23.96891,(04)8331353,羅氏家用新冠病毒抗原自我檢測套組,41,2022/05/06 16:16:02,快篩實名制，每天16:00開始販售，售完為止。
5937052504,佑全員林中正藥局,彰化縣員林市中正路１３５，１３７號１樓,120.5714,23.96324,(04)8368669,羅氏家用新冠病毒抗原自我檢測套組,3,2022/05/06 16:16:02,無
5937061503,大發藥局,彰化縣溪湖鎮大突里大發路８９號,120.4754,23.96356,(04)8822180,羅氏家用新冠病毒抗原自我檢測套組,77,2022/05/06 16:16:02,每日8點45分快篩開賣售完為止（單日為78份），星期日公休
5937061718,東環藥局,彰化縣溪湖鎮湖東街８１巷７０－３、７０－４、７０－５號,120.4833,23.95861,(04)8820001,羅氏家用新冠病毒抗原自我檢測套組,19,2022/05/06 16:16:02,快篩實名制，每天16:00開始販售，售完為止。
5937061736,平和藥局,彰化縣溪湖鎮彰水路三段２７７、２７９號１樓,120.4801,23.95959,(04)8816880,羅氏家用新冠病毒抗原自我檢測套組,46,2022/05/06 16:16:02,快篩實名制，每天16:00開始販售，售完為止。
5937071474,田中藥局,彰化縣田中鎮新生街１５０巷２號,120.5862,23.8621,(04)8761988,羅氏家用新冠病毒抗原自我檢測套組,49,2022/05/06 16:16:02,快篩實名制，每天16:00開始販售，售完為止。
5937081596,二林藥局,彰化縣二林鎮斗苑路五段３９號,120.3709,23.89951,(04)8950010,羅氏家用新冠病毒抗原自我檢測套組,23,2022/05/06 16:16:02,快篩實名制，每天16:00開始販售，售完為止。
5937101271,信義藥局,彰化縣伸港鄉新港村信義路７１號,120.4859,24.14681,(04)7982232,羅氏家用新冠病毒抗原自我檢測套組,41,2022/05/06 16:16:02,快篩實名制，每天16:00開始販售，售完為止。
5937121317,彰水藥局,彰化縣秀水鄉彰水路二段４２５、４２７、４２９號１樓,120.4943,24.02791,(04)7685880,羅氏家用新冠病毒抗原自我檢測套組,3,2022/05/06 16:16:02,快篩實名制，每天16:00開始販售，售完為止。
5937170034,淑惠藥局,彰化縣埔心鄉亙北村員鹿路一段２４４號,120.5574,23.95515,(04)8297798,羅氏家用新冠病毒抗原自我檢測套組,39,2022/05/06 16:16:02,星期一~星期六16:00-18:00（2小時販售快篩試劑），星期日：休
5937181279,佳恩藥局,彰化縣永靖鄉永西村瑚璉路３０２號,120.547,23.92421,(04)8235753,羅氏家用新冠病毒抗原自我檢測套組,38,2022/05/06 16:16:02,快篩實名制 :電話預約制，當日早上9點開始預約（已額滿）
5937181304,永靖藥局,彰化縣永靖鄉瑚璉路１１６號,120.5505,23.92624,(04)8230220,羅氏家用新冠病毒抗原自我檢測套組,39,2022/05/06 16:16:02,快篩實名制，每天16:00開始販售，售完為止。
5937191300,社頭藥局,彰化縣社頭鄉社斗路一段３７３號,120.5846,23.89651,(04)8720030,羅氏家用新冠病毒抗原自我檢測套組,65,2022/05/06 16:16:02,快篩實名制，每天16:00開始販售，售完為止。
5937201061,長春藥局,彰化縣二水鄉文化村光文路１０３號,120.6167,23.81189,(04)8795289,羅氏家用新冠病毒抗原自我檢測套組,7,2022/05/06 16:16:02,早上8:00發放號碼牌，13:00開始販售至17:00止
5938010420,弘昌藥局,南投縣南投市三興里南崗一路８５號,120.6834,23.90096,(049)2228902,羅氏家用新冠病毒抗原自我檢測套組,1,2022/05/06 16:16:02,週一至週六早防疫家用快篩試劑 早上發號碼.下午3點至4點領快篩.超過4點視同放棄.
5938011810,南投丁丁藥局,南投縣南投市三和里三和二路１０號,120.69,23.90461,(049)2245977,羅氏家用新冠病毒抗原自我檢測套組,10,2022/05/06 16:16:02,健保快篩早上8點開賣
5938011909,彰南藥局,南投縣南投市彰南路二段２１號,120.6845,23.90847,(049)2230005,羅氏家用新冠病毒抗原自我檢測套組,19,2022/05/06 16:16:02,無
5938022064,大樹埔里藥局,南投縣埔里鎮中正路４３８號,120.9632,23.97263,(049)2980805,羅氏家用新冠病毒抗原自我檢測套組,44,2022/05/06 16:16:02,快篩實名制，每天16:00開始販售，售完為止。
5938032417,虎山藥局,南投縣草屯鎮虎山路４８９－１號,120.6871,23.96869,(049)2371389,羅氏家用新冠病毒抗原自我檢測套組,21,2022/05/06 16:16:02,快篩販售時間依臉書公布為主，搜尋「虎山藥局」。每周日公休
5938032480,草屯藥局,南投縣草屯鎮碧山路１４５、１４７號,120.6834,23.9778,(049)2362992,羅氏家用新冠病毒抗原自我檢測套組,30,2022/05/06 16:16:02,快篩實名制，每天16:00開始販售，售完為止。
5938032560,祥陽藥局,南投縣草屯鎮中正路８２２、８２４號,120.6854,23.98276,(049)2353393,羅氏家用新冠病毒抗原自我檢測套組,39,2022/05/06 16:16:02,快篩實名制，每天16:00開始販售，售完為止。
5938041916,大明藥局,南投縣竹山鎮大明路４８２號,120.6798,23.759,(049)2652500,羅氏家用新冠病毒抗原自我檢測套組,16,2022/05/06 16:16:02,快篩實名制，每天16:00開始販售，售完為止。
5939010399,東京大藥局,雲林縣斗六市文化路７９號,120.5486,23.71107,(05)5348073,羅氏家用新冠病毒抗原自我檢測套組,20,2022/05/06 16:16:02,快篩試劑每天下午4點販賣（售完為止）
5939011850,明真西藥局,雲林縣斗六市自由路１號,120.5447,23.70513,(05)5321605,羅氏家用新冠病毒抗原自我檢測套組,2,2022/05/06 16:16:02,口罩販售:早上0800-1200中午1200-1400休息下午1400到2100賣完為止
5939012188,上海啄木鳥藥局,雲林縣斗六市上海路２３４號,120.5417,23.71444,(05)5374296,羅氏家用新冠病毒抗原自我檢測套組,50,2022/05/06 16:16:02,5月4日實名制快篩等候郵務士送達才能開賣，販售時間暫時無法固定，請民眾勿等候
5939012599,斗六藥局,雲林縣斗六市雲林路二段１１３號,120.534,23.70477,(05)5372300,羅氏家用新冠病毒抗原自我檢測套組,43,2022/05/06 16:16:02,快篩實名制，每天16:00開始販售，售完為止。
5939021614,斗南藥局,雲林縣斗南鎮南昌路１１２號,120.4791,23.67321,(05)5960102,羅氏家用新冠病毒抗原自我檢測套組,31,2022/05/06 16:16:02,無
5939032724,虎尾藥局,雲林縣虎尾鎮林森路二段１１７、１１９號,120.4298,23.70595,(05)6336330,羅氏家用新冠病毒抗原自我檢測套組,267,2022/05/06 16:16:02,新開業， 5／4網路建置完成 每日下午16:00開始販售
5939041849,西螺藥局,雲林縣西螺鎮光復西路１２３、１２５號,120.4612,23.79675,(05)5872112,羅氏家用新冠病毒抗原自我檢測套組,27,2022/05/06 16:16:02,快篩實名制，每天16:00開始販售，售完為止。
5939061949,大樹北港藥局,雲林縣北港鎮華勝路９９號,120.2986,23.57559,(05)7830783,羅氏家用新冠病毒抗原自我檢測套組,62,2022/05/06 16:16:02,快篩實名制，每天16:00開始販售，售完為止。
5939071294,元林中西藥局,雲林縣古坑鄉西平村西平路９－２號１樓,120.5606,23.64679,(05)5828229,羅氏家用新冠病毒抗原自我檢測套組,7,2022/05/06 16:16:02,販賣口罩時間：08:00
5939131482,麥津藥局,雲林縣麥寮鄉中山路３１３、３１５號,120.2527,23.74947,(05)6932258,羅氏家用新冠病毒抗原自我檢測套組,32,2022/05/06 16:16:02,快篩實名制，每天16:00開始販售，售完為止。
5939171093,和平藥局,雲林縣元長鄉下寮村東興路３３號,120.334,23.61849,(05)7862551,羅氏家用新冠病毒抗原自我檢測套組,11,2022/05/06 16:16:02,販賣口罩時間：0800開賣，賣完為止
5940031386,大樹大林藥局,嘉義縣大林鎮祥和路１９２號,120.4527,23.60447,(05)2641800,羅氏家用新冠病毒抗原自我檢測套組,20,2022/05/06 16:16:02,快篩實名制，每天16:00開始販售，售完為止。
5940041739,民雄藥局,嘉義縣民雄鄉東榮村００５鄰建國路一段１１７號,120.4333,23.55681,(05)2264566,羅氏家用新冠病毒抗原自我檢測套組,36,2022/05/06 16:16:02,快篩實名制，每天16:00開始販售，售完為止。
5940121394,水上藥局,嘉義縣水上鄉水頭村中興路２６６號,120.4029,23.43014,(05)2601121,羅氏家用新冠病毒抗原自我檢測套組,44,2022/05/06 16:16:02,快篩實名制，每天16:00開始販售，售完為止。
5940131283,一心藥局,嘉義縣中埔鄉富收村頂中下街３１、３１－１號１樓,120.4885,23.45077,(05)2303553,羅氏家用新冠病毒抗原自我檢測套組,7,2022/05/06 16:16:02,無
5941050107,百興藥局,臺南市佳里區安西里文化路２５９號,120.1756,23.16302,(06)7222735,羅氏家用新冠病毒抗原自我檢測套組,9,2022/05/06 16:16:02,禮拜一~六 08:00–21:00（快篩試劑每日販售時間:早上8:30分，星期日休息）       開始~售完
5942020130,建成藥局,高雄市岡山區台上里大仁路９７號,120.3016,22.8053,(07)6210458,羅氏家用新冠病毒抗原自我檢測套組,3,2022/05/06 16:16:02,營業日.販賣快篩劑.時間15:00-18:00.或至售完為止
5942140084,惠聖中西藥局,高雄市阿蓮區清蓮里中山路１４號,120.3291,22.88057,(07)6312582,羅氏家用新冠病毒抗原自我檢測套組,78,2022/05/06 16:16:02,自4／28日起，實名制快篩週一~五下午5:00起，週六日上午8:00起銷售，售完為止
5942200030,順成藥局,高雄市梓官區梓官路城隍巷３１號,120.2681,22.75929,(07)6172407,羅氏家用新冠病毒抗原自我檢測套組,31,2022/05/06 16:16:02,週一至週五快篩銷售時間★下午4點，六、日★早上8點30
5943013871,人和藥局,屏東縣屏東市林森路５４－１號,120.4935,22.67267,(08)7663883,羅氏家用新冠病毒抗原自我檢測套組,8,2022/05/06 16:16:02,快篩試劑每日下午四點開始販售，售完為止
5943014092,屏東藥局,屏東縣屏東市自由路６３１號,120.4824,22.683,(08)7323331,羅氏家用新冠病毒抗原自我檢測套組,38,2022/05/06 16:16:02,快篩實名制，每天16:00開始販售，售完為止。
5943014145,廣東藥局,屏東縣屏東市廣東路６８２－２．６８４號,120.4966,22.68527,(08)7362210,羅氏家用新冠病毒抗原自我檢測套組,24,2022/05/06 16:16:02,快篩實名制，每天16:00開始販售，售完為止。
5943014234,屏大藥局,屏東縣屏東市民生路５７－２１號,120.5038,22.66399,(08)7220369,羅氏家用新冠病毒抗原自我檢測套組,1,2022/05/06 16:16:02,快篩實名制，每天16:00開始販售，售完為止。
5943014332,千甲台安藥局,屏東縣屏東市武廟里逢甲路９２號,120.4867,22.67045,(08)7330663,羅氏家用新冠病毒抗原自我檢測套組,68,2022/05/06 16:16:02,因政府物流不穩定 每日塊篩販售時間公告於LINE社群https:／／reurl.cc／M0b5VX
5943014341,和平藥局,屏東縣屏東市和平路３５號,120.4785,22.66651,(08)7556696,羅氏家用新冠病毒抗原自我檢測套組,49,2022/05/06 16:16:02,快篩實名制，每天16:00開始販售，售完為止。
5943020125,信安西藥局,屏東縣潮州鎮同榮里中山路７０號,120.5415,22.54973,(08)7882176,羅氏家用新冠病毒抗原自我檢測套組,48,2022/05/06 16:16:02,5月5日實名制快篩已售完。5月6日實名制快篩下午4點開賣。週日不營業。
5943021720,潮州藥局,屏東縣潮州鎮介壽路１－１號,120.536,22.54448,(08)7894000,羅氏家用新冠病毒抗原自我檢測套組,60,2022/05/06 16:16:02,快篩實名制，每天16:00開始販售，售完為止。
5943031771,東港藥局,屏東縣東港鎮中正路２５７˙２５７－１號,120.4523,22.47022,(08)8325133,羅氏家用新冠病毒抗原自我檢測套組,50,2022/05/06 16:16:02,快篩實名制，每天16:00開始販售，售完為止。
5943041357,西門藥局,屏東縣恆春鎮西門路１０８號,120.7437,22.00793,(08)8896980,羅氏家用新冠病毒抗原自我檢測套組,9,2022/05/06 16:16:02,快篩實名制，每天16:00開始販售，販售完為止
5943050169,新萬安藥局,屏東縣萬丹鄉萬安村萬丹路一段１１３號,120.4894,22.58628,(08)7772035,羅氏家用新冠病毒抗原自我檢測套組,8,2022/05/06 16:16:02,實名制快篩販售時間中午 12:30  至售完
5943131561,南寧藥局,屏東縣內埔鄉南寧路２３號,120.5655,22.61723,(08)7690330,羅氏家用新冠病毒抗原自我檢測套組,44,2022/05/06 16:16:02,快篩實名制，每天16:00開始販售，售完為止。
5943170095,長安中西藥局,屏東縣新園鄉中洲村南興路１９４號,120.4586,22.48776,(08)8336986,羅氏家用新冠病毒抗原自我檢測套組,1,2022/05/06 16:16:02,自2／11~2／29日，販賣口罩時間9:00起，售完為止。
5944020558,全民藥局,澎湖縣湖西鄉湖西村１５０－３號,119.6603,23.5844,(06)9920403,羅氏家用新冠病毒抗原自我檢測套組,39,2022/05/06 16:16:02,中午12:00-13:30休息
5945021086,安康鳳林藥局,花蓮縣鳳林鎮仁愛街１０號１樓,121.4503,23.74937,(03)8762227,羅氏家用新冠病毒抗原自我檢測套組,9,2022/05/06 16:16:02,快篩發放時間，依現場公告為主，售完為止。
5945051646,花蓮建國藥局,花蓮縣吉安鄉建國路１段１３７－１號,121.5915,23.98574,(03)8461699,羅氏家用新冠病毒抗原自我檢測套組,50,2022/05/06 16:16:02,快篩實名制，每天16:00開始販售，售完為止。
5946080552,伯安健康藥局,臺東縣長濱鄉長濱村１０鄰長濱路１０５號,121.4515,23.31496,(089)832519,羅氏家用新冠病毒抗原自我檢測套組,100,2022/05/06 16:16:02,無
5946101118,伯安藥局,臺東縣池上鄉新生路１１６號,121.2187,23.12315,(089)863585,羅氏家用新冠病毒抗原自我檢測套組,182,2022/05/06 16:16:02,早0800-1200，午1400-1800，晚1800-2000
