醫事機構代碼,醫事機構名稱,醫事機構地址,經度,緯度,醫事機構電話,廠牌項目,快篩試劑截至目前結餘存貨數量,來源資料時間,備註
2341250013,臺南市南化區衛生所,臺南市南化區南化里２２６－１號,120.4793,23.0444,(06)5771139,羅氏家用新冠病毒抗原自我檢測套組,60,2022/05/01 09:39:02,家用快篩週一~週五 （9:30-11:30）--依中央公告時間滾動式調整。5／2（星期一）調整為下午2點半-4點半販售
2343260017,屏東縣三地門鄉衛生所,屏東縣三地門鄉三地村行政街４號,120.653,22.71477,(08)7991284,羅氏家用新冠病毒抗原自我檢測套組,59,2022/05/01 09:39:02,假日及夜間提供待診；星期一至五快篩販售時間0900~1200；1400~1700賣完為止
5901010174,仁弘藥局,臺北市松山區民生東路３段１１３巷２５弄６號１樓,121.5466,25.05948,(02)27136764,羅氏家用新冠病毒抗原自我檢測套組,78,2022/05/01 09:39:02,星期日早上10點發售快篩，不發號碼牌.
5901010290,健全藥局,臺北市松山區民權東路３段１０３巷２０號,121.5449,25.06327,(02)27128293,羅氏家用新冠病毒抗原自我檢測套組,78,2022/05/01 09:39:02,無
5901010496,瑞昌大藥局,臺北市松山區民權東路３段１０３巷１０號,121.5449,25.06298,(02)27151881,羅氏家用新冠病毒抗原自我檢測套組,78,2022/05/01 09:39:02,無
5901010576,合生藥局,臺北市松山區南京東路５段１２３巷４５號１樓,121.5607,25.05364,(02)27602932,羅氏家用新冠病毒抗原自我檢測套組,78,2022/05/01 09:39:02,口罩發放方式:早上9點至晚上10點 ， 週日店休
5901011975,萬泰藥局,臺北市松山區敦化北路２２２巷３８號,121.5471,25.05994,(02)27135891,羅氏家用新冠病毒抗原自我檢測套組,78,2022/05/01 09:39:02,每日早上9.00販售快篩試劑
5901012561,松田藥局,臺北市松山區延吉街９－６號,121.5536,25.04701,(02)25798005,羅氏家用新冠病毒抗原自我檢測套組,156,2022/05/01 09:39:02,每日上午9:30開始實名制快篩販售
5901012570,予志藥局,臺北市松山區富錦街５２１號,121.5649,25.06119,(02)27623522,羅氏家用新冠病毒抗原自我檢測套組,78,2022/05/01 09:39:02,實名制快篩星期一到三下午2點、星期四到六晚上8點、5／1停售
5901012749,躍獅松和藥局,臺北市松山區八德路四段６６６－１號,121.5761,25.04979,(02)27492569,羅氏家用新冠病毒抗原自我檢測套組,154,2022/05/01 09:39:02,實名制快篩販售時段，下午16:00起，售完為止
5901012767,晨新藥局,臺北市松山區八德路４段９１巷１－１號,121.5608,25.04894,(02)27422951,羅氏家用新冠病毒抗原自我檢測套組,78,2022/05/01 09:39:02,無
5901013200,專品南京藥局,臺北市松山區南京東路４段７３號,121.5532,25.05185,(02)25147685,羅氏家用新冠病毒抗原自我檢測套組,78,2022/05/01 09:39:02,無
5901013362,啄木鳥藥局,臺北市松山區八德路４段２０９號、２１１號（１、２層）,121.564,25.04894,(02)27422413,羅氏家用新冠病毒抗原自我檢測套組,78,2022/05/01 09:39:02,無
5901013399,一安正昇藥局,臺北市松山區南京東路５段３０９號,121.5667,25.05155,(02)27680993,羅氏家用新冠病毒抗原自我檢測套組,78,2022/05/01 09:39:02,無
5901013442,松山八德藥局,臺北市松山區八德路２段４００號,121.5466,25.04804,(02)27782773,羅氏家用新冠病毒抗原自我檢測套組,78,2022/05/01 09:39:02,快篩實名制，每天16:00開始販售，售完為止。
5901013504,杏一台北長庚藥局,臺北市松山區敦化北路１９９巷２弄３號,121.55,25.05569,(02)25149463,羅氏家用新冠病毒抗原自我檢測套組,78,2022/05/01 09:39:02,無
5901013586,安禾大藥局,臺北市松山區撫遠街３８２號,121.5656,25.06443,(02)27602952,羅氏家用新冠病毒抗原自我檢測套組,80,2022/05/01 09:39:02,週一~週五 14:00發放號碼牌，65歲以上老人12歲以下兒童優先
5901013648,慶昌藥局,臺北市松山區延吉街２９號１樓,121.5537,25.04595,(02)25770820,羅氏家用新冠病毒抗原自我檢測套組,149,2022/05/01 09:39:02,下午14:00開始發放／醫護優先
5901013693,民生盛康藥局,臺北市松山區民生東路５段２０４號１樓,121.5648,25.05826,(02)27460758,羅氏家用新冠病毒抗原自我檢測套組,126,2022/05/01 09:39:02,【嗨各位5／1不發放喔~】每日早上9:00發號碼牌，11:00~20:00拿號碼牌回來領取，每人限兩張號碼牌，逾時不候
5901013737,全欣藥局,臺北市松山區復興北路７３號２樓,121.5442,25.05104,(02)87729066,羅氏家用新冠病毒抗原自我檢測套組,118,2022/05/01 09:39:02,9:00am開始販售30人份15:00販售30人份:18:00販售18人份；週六:9:00販售39人份；週日:15:00販售39人份
5901020376,靜園藥局,臺北市大安區和平東路２段１１８巷５７之１號,121.5429,25.02254,(02)27336390,羅氏家用新冠病毒抗原自我檢測套組,78,2022/05/01 09:39:02,無
5901020616,龍護大藥局,臺北市大安區大安路１段２２４巷７號１Ｆ,121.5454,25.03401,(02)23250686,羅氏家用新冠病毒抗原自我檢測套組,2,2022/05/01 09:39:02,無
5901020689,四維藥局,臺北市大安區復興南路２段１５１巷４３號１樓,121.5454,25.02846,(02)27094222,羅氏家用新冠病毒抗原自我檢測套組,78,2022/05/01 09:39:02,假日可先打電話聯絡
5901022898,永康藥局,臺北市大安區麗水街６之２號,121.529,25.03289,(02)23279362,羅氏家用新冠病毒抗原自我檢測套組,78,2022/05/01 09:39:02,5月開始下午2點賣
5901023411,長虹藥局,臺北市大安區忠孝東路４段２１６巷 ６３號,121.5531,25.0382,(02)27210232,羅氏家用新冠病毒抗原自我檢測套組,78,2022/05/01 09:39:02,2:30pm 發放實名制快篩 （現場排隊現場買）
5901023680,新富川藥局,臺北市大安區大安路１段５１巷４號,121.5464,25.04303,(02)27114758,羅氏家用新冠病毒抗原自我檢測套組,78,2022/05/01 09:39:02,無提供急診服務
5901024490,明星大藥局,臺北市大安區光復南路４３０之１號,121.5574,25.03618,(02)27023747,羅氏家用新冠病毒抗原自我檢測套組,78,2022/05/01 09:39:02,無
5901024525,國泰維康藥局,臺北市大安區仁愛路４段２６６巷１５弄２０號,121.5541,25.03654,(02)27542185,羅氏家用新冠病毒抗原自我檢測套組,78,2022/05/01 09:39:02,星期一到星期六下午3點到5點販賣實名制快篩（不發號碼牌）
5901024678,大安健康人生藥局,臺北市大安區信義路４段３４號,121.5447,25.03316,(02)27025553,羅氏家用新冠病毒抗原自我檢測套組,78,2022/05/01 09:39:02,無
5901024696,仁華藥局,臺北市大安區臥龍街１５５號,121.5511,25.01834,(02)27336762,羅氏家用新冠病毒抗原自我檢測套組,78,2022/05/01 09:39:02,無
5901024838,昶青藥局,臺北市大安區濟南路３段２２之１號,121.5346,25.04008,(02)27515678,羅氏家用新冠病毒抗原自我檢測套組,156,2022/05/01 09:39:02,每天下午13:00販售快篩實名制
5901025013,頤品中西藥局,臺北市大安區浦城街２４之２號１樓,121.5267,25.02295,(02)23685656,羅氏家用新冠病毒抗原自我檢測套組,73,2022/05/01 09:39:02,無
5901025022,躍獅敦和藥局,臺北市大安區和平東路３段１０號,121.547,25.02453,(02)23785767,羅氏家用新冠病毒抗原自我檢測套組,78,2022/05/01 09:39:02,無
5901025031,中力信義藥局,臺北市大安區信義路４段５１號（１樓）,121.545,25.03354,(02)23250266,羅氏家用新冠病毒抗原自我檢測套組,78,2022/05/01 09:39:02,下午一點到三點販售實名制快篩
5901025040,弘昌藥局,臺北市大安區通化街１３９號１樓,121.554,25.02901,(02)27321616,羅氏家用新冠病毒抗原自我檢測套組,78,2022/05/01 09:39:02,無
5901025059,博醫仁愛藥局,臺北市大安區仁愛路４段８巷２號１樓,121.5443,25.0375,(02)27019107,羅氏家用新冠病毒抗原自我檢測套組,78,2022/05/01 09:39:02,無
5901025068,鎮安中西安和藥局,臺北市大安區安和路１段１２３號１樓,121.5527,25.03488,(02)27015201,羅氏家用新冠病毒抗原自我檢測套組,32,2022/05/01 09:39:02,無
5901025077,敦南春天藥局,臺北市大安區敦化南路２段８１巷６３號１樓,121.5513,25.03002,(02)27553266,羅氏家用新冠病毒抗原自我檢測套組,78,2022/05/01 09:39:02,無
5901090154,柯藥局,臺北市大同區重慶北路３段３３５巷６號,121.5144,25.07452,(02)25948515,羅氏家用新冠病毒抗原自我檢測套組,94,2022/05/01 09:39:02,無
5901090181,時春藥局,臺北市大同區赤峰街４號,121.5191,25.05356,(02)25597918,羅氏家用新冠病毒抗原自我檢測套組,78,2022/05/01 09:39:02,上午9點發號碼牌
5901090289,正利民藥局,臺北市大同區延平北路３段１０５號,121.511,25.06806,(02)25924842,羅氏家用新冠病毒抗原自我檢測套組,78,2022/05/01 09:39:02,快篩劑:週一到週六下午1:00開始，週日彈性.
5901091624,健康美藥局,臺北市大同區民族西路１６５號,121.5155,25.06872,(02)25976707,羅氏家用新冠病毒抗原自我檢測套組,78,2022/05/01 09:39:02,無
5901091688,宏泰藥師藥局,臺北市大同區酒泉街１３１號,121.5145,25.07213,(02)25957025,羅氏家用新冠病毒抗原自我檢測套組,156,2022/05/01 09:39:02,發放口罩時間上午9:30-晚間9:00  其餘時間不販賣。75%酒精到貨供應
5901091857,佳禾藥局,臺北市大同區大龍街２６２號,121.5158,25.07061,(02)25953806,羅氏家用新冠病毒抗原自我檢測套組,78,2022/05/01 09:39:02,無
5901092103,新聖安藥局,臺北市大同區昌吉街１３０號,121.5143,25.06584,(02)25977877,羅氏家用新冠病毒抗原自我檢測套組,78,2022/05/01 09:39:02,無
5901092130,大同民生藥局,臺北市大同區民生西路１２８號１樓、２樓及１３０號１樓、２樓,121.5191,25.05734,(02)25558886,羅氏家用新冠病毒抗原自我檢測套組,78,2022/05/01 09:39:02,快篩實名制，每天16:00開始販售，售完為止。
5901100333,明美藥局,臺北市中山區長春路６９號,121.5266,25.05502,(02)25365419,羅氏家用新冠病毒抗原自我檢測套組,156,2022/05/01 09:39:02,口罩周一至周五，16:30-18:30販售
5901100431,長生藥局,臺北市中山區松江路３６２巷５５號１樓,121.5313,25.06207,(02)25816210,羅氏家用新冠病毒抗原自我檢測套組,78,2022/05/01 09:39:02,無
5901100628,貢玄藥局,臺北市中山區錦州街２０７號,121.532,25.06039,(02)25637847,羅氏家用新冠病毒抗原自我檢測套組,156,2022/05/01 09:39:02,早上10點~11點領口罩
5901101321,文德藥局,臺北市中山區龍江路３５６巷１９號１樓,121.5401,25.06607,(02)25181178,羅氏家用新冠病毒抗原自我檢測套組,78,2022/05/01 09:39:02,無
5901101536,展佑藥局,臺北市中山區長春路１４６－１號,121.5317,25.05473,(02)25232803,羅氏家用新冠病毒抗原自我檢測套組,78,2022/05/01 09:39:02,快篩試劑上午10點開賣，週日休息!
5901101607,蓁榛健康生活藥局,臺北市中山區合江街１００－２號１樓,121.5391,25.05845,(02)25099333,羅氏家用新冠病毒抗原自我檢測套組,78,2022/05/01 09:39:02,5／1及5／2號 實名制快篩配售時間請參考蓁榛健康生活藥局合江店臉書
5901102408,康林藥局,臺北市中山區興安街１０５號,121.5438,25.05617,(02)25171867,羅氏家用新冠病毒抗原自我檢測套組,78,2022/05/01 09:39:02,無
5901102560,龍江藥局,臺北市中山區龍江路３５６巷１４號,121.5403,25.06591,(02)25023724,羅氏家用新冠病毒抗原自我檢測套組,78,2022/05/01 09:39:02,無
5901102597,德惠藥局,臺北市中山區德惠街１２２號,121.53,25.06652,(02)25971131,羅氏家用新冠病毒抗原自我檢測套組,78,2022/05/01 09:39:02,每日下午3點30分開始販售快篩實名制
5901102631,金生藥局,臺北市中山區長安東路２段１６７－１號,121.5407,25.04843,(02)87729808,羅氏家用新冠病毒抗原自我檢測套組,154,2022/05/01 09:39:02,購買實名制快篩時間為周一~周五09:00~20:00（售完為止）
5901102855,錦西春天生活藥局,臺北市中山區錦西街１０號,121.5216,25.06024,(02)25312658,羅氏家用新冠病毒抗原自我檢測套組,78,2022/05/01 09:39:02,口罩15:30領號碼牌 即行販售至16:30
5901102971,保德明水藥局,臺北市中山區北安路６０８巷４弄１號,121.5493,25.08191,(02)85097769,羅氏家用新冠病毒抗原自我檢測套組,78,2022/05/01 09:39:02,快篩實名制5／1（日）~5／3（二）晚上七點開賣，不提早發號碼牌，以現場排隊為主
5901103183,OK藥師藥局,臺北市中山區興安街９５號,121.5435,25.05615,(02)25170068,羅氏家用新冠病毒抗原自我檢測套組,78,2022/05/01 09:39:02,全年無休
5901103192,昶青林森藥局,臺北市中山區林森北路１１９巷５２號,121.5269,25.05018,(02)25639939,羅氏家用新冠病毒抗原自我檢測套組,78,2022/05/01 09:39:02,口罩代售平日10:30-20:00，例假日13:30-18:00 售完為止
5901103325,仁一藥局,臺北市中山區林森北路５２０號,121.5255,25.06232,(02)25711742,羅氏家用新冠病毒抗原自我檢測套組,78,2022/05/01 09:39:02,快篩發放時間每日下午2點
5901103352,美康正康藥局,臺北市中山區北安路６１６之１號、６１８號２樓之１,121.549,25.08243,(02)25323077,羅氏家用新冠病毒抗原自我檢測套組,78,2022/05/01 09:39:02,實名制快篩:14:30~售完
5901103405,大直永安藥局,臺北市中山區北安路５６７之２號,121.5482,25.08073,(02)25332125,羅氏家用新冠病毒抗原自我檢測套組,156,2022/05/01 09:39:02,昨天4／30 今天5／1 都還沒有收到試劑  等收到再開始銷售 時間不確定
5901103487,錦州春天生活藥局,臺北市中山區錦州街２１３號、２１３號２樓,121.5321,25.06039,(02)25213586,羅氏家用新冠病毒抗原自我檢測套組,78,2022/05/01 09:39:02,快篩14:40發號碼牌15:00販賣 每天78盒
5901103558,佳頤中西藥局,臺北市中山區長春路１４７之１號,121.5323,25.05495,(02)25641479,羅氏家用新冠病毒抗原自我檢測套組,146,2022/05/01 09:39:02,5／1（日）實名制快篩販售時間為下午1點起，售完為止，其他販售細節以店內公告為主
5901103585,禾全藥局,臺北市中山區龍江路３３２號,121.5409,25.06532,(02)25165721,羅氏家用新冠病毒抗原自我檢測套組,78,2022/05/01 09:39:02,口罩代售時間：1400、20:00  ；現場排隊
5901103629,十二願藥局,臺北市中山區林森北路３０９號,121.5256,25.05588,(02)25311223,羅氏家用新冠病毒抗原自我檢測套組,81,2022/05/01 09:39:02,快篩晚上8點開始發放.營業時間下午1點至凌晨3點
5901103656,大樹龍江藥局,臺北市中山區龍江路２４２號,121.5406,25.05889,(02)25035666,羅氏家用新冠病毒抗原自我檢測套組,78,2022/05/01 09:39:02,國定假日仍執行調劑業務
5901103683,東東藥局,臺北市中山區長春路２５７之２號１樓,121.5408,25.05477,(02)25031730,羅氏家用新冠病毒抗原自我檢測套組,78,2022/05/01 09:39:02,快篩發放時間:星期一至六 .15點開始銷售至16點前結束
5901103745,吉林藥局,臺北市中山區吉林路３７１號（１樓）,121.5305,25.06511,(02)25865990,羅氏家用新冠病毒抗原自我檢測套組,78,2022/05/01 09:39:02,快篩實名制，每天16:00開始販售，售完為止。
5901103807,專品龍江藥局,臺北市中山區龍江路３１１號１樓,121.5409,25.06127,(02)25178870,羅氏家用新冠病毒抗原自我檢測套組,78,2022/05/01 09:39:02,實名制快篩下午三點開始發號碼牌販售
5901110133,泰成藥局,臺北市內湖區內湖路３段１３５號１樓,121.5899,25.08685,(02)27921231,羅氏家用新冠病毒抗原自我檢測套組,78,2022/05/01 09:39:02,口罩販售:上午9:00開始發號碼牌，9點同步販售.
5901110311,永安藥局,臺北市內湖區文德路２１０巷３０弄４８號,121.5852,25.07723,(02)26586658,羅氏家用新冠病毒抗原自我檢測套組,78,2022/05/01 09:39:02,口罩販售時間早上10點開始發號碼牌  同時販售
5901110339,富山藥局,臺北市內湖區麗山街３６４巷２號１樓,121.5728,25.08168,(02)27996446,羅氏家用新冠病毒抗原自我檢測套組,78,2022/05/01 09:39:02,無
5901110393,明湖藥局,臺北市內湖區東湖路７巷２７號１Ｆ,121.6125,25.0697,(02)26313515,羅氏家用新冠病毒抗原自我檢測套組,78,2022/05/01 09:39:02,春節期間看診時段請電洽
5901110624,宏光藥局,臺北市內湖區成功路２段２２１號１樓,121.5909,25.06738,(02)27919068,羅氏家用新冠病毒抗原自我檢測套組,156,2022/05/01 09:39:02,快篩實名制13:30開始販售（現場排隊不發號碼牌售完為止）
5901112100,盧狄聯合藥局,臺北市內湖區康寧路３段１８９巷５７號,121.6129,25.07133,(02)26308897,羅氏家用新冠病毒抗原自我檢測套組,78,2022/05/01 09:39:02,營業時間早上9點至晚上8點，週六上半天 **快篩實名制08:00開賣 **
5901112351,康信藥局,臺北市內湖區民權東路６段２９６巷２９號,121.6062,25.07203,(02)26342088,羅氏家用新冠病毒抗原自我檢測套組,78,2022/05/01 09:39:02,兒童口罩:全天供應.成人口罩發放時間:下午4:00.售完為止
5901112682,富康東湖藥局,臺北市內湖區東湖路１１９巷４９弄１６號,121.617,25.06988,(02)26323222,羅氏家用新冠病毒抗原自我檢測套組,78,2022/05/01 09:39:02,週一至週六，每天9:00~22:00販售口罩，請記得攜帶健保卡與零錢（恕不找零）
5901112780,樂康藥妝藥局,臺北市內湖區文德路１１７號,121.5841,25.0787,(02)26562110,羅氏家用新冠病毒抗原自我檢測套組,78,2022/05/01 09:39:02,無
5901113018,桔子藥局,臺北市內湖區內湖路２段３３３號,121.5917,25.08319,(02)27930052,羅氏家用新冠病毒抗原自我檢測套組,156,2022/05/01 09:39:02,早0900-1200，午1400-1700，晚1900-2100
5901113081,宜昇優良藥局,臺北市內湖區康寧路３段１６５巷１０號,121.6118,25.07081,(02)26327817,羅氏家用新冠病毒抗原自我檢測套組,78,2022/05/01 09:39:02,快篩代售時間:星期一-五早上9:00；星期六.日.例假日早上10:00
5901113143,躍獅寶湖藥局,臺北市內湖區民權東路６段１２３巷２８號,121.5928,25.0701,(02)87928335,羅氏家用新冠病毒抗原自我檢測套組,78,2022/05/01 09:39:02,口罩: 周一至周日 上午九點半-晚上八點整 售完為止
5901113198,傑昇藥局,臺北市內湖區內湖路２段２２７號,121.589,25.0818,(02)27925957,羅氏家用新冠病毒抗原自我檢測套組,78,2022/05/01 09:39:02,無
5901113330,躍獅大湖藥局,臺北市內湖區成功路４段３２９號,121.599,25.08454,(02)27945376,羅氏家用新冠病毒抗原自我檢測套組,78,2022/05/01 09:39:02,星期一~星期六下午4點開始販售快篩 售完為止
5901113385,躍獅康成藥局,臺北市內湖區成功路４段６１巷１１號,121.5928,25.0814,(02)87922031,羅氏家用新冠病毒抗原自我檢測套組,156,2022/05/01 09:39:02,如有收到政府配送，實名制快篩13:40發號碼牌，14:00開賣。實名制口罩已無販售。
5901113456,佑全內湖康寧藥局,臺北市內湖區康寧路３段３９號、３９號２樓、４１號、４３號,121.6078,25.07264,(02)26346578,羅氏家用新冠病毒抗原自我檢測套組,78,2022/05/01 09:39:02,實名制快篩每日14:00販售 13:50發號碼牌
5901113643,博昱東福藥局,臺北市內湖區東湖路１４７號,121.6172,25.06815,(02)26308599,羅氏家用新冠病毒抗原自我檢測套組,78,2022/05/01 09:39:02,無
5901113652,加一藥師藥局,臺北市內湖區星雲街２４號１樓,121.5908,25.07804,(02)87912653,羅氏家用新冠病毒抗原自我檢測套組,185,2022/05/01 09:39:02,無
5901113661,內湖藥局,臺北市內湖區康寧路１段１１６號１樓,121.5934,25.07948,(02)27940545,羅氏家用新冠病毒抗原自我檢測套組,77,2022/05/01 09:39:02,快篩實名制，每天16:00開始販售，售完為止。
5901113705,富康活力湖光藥局,臺北市內湖區康寧路１段２５號１樓,121.5914,25.08062,(02)87927999,羅氏家用新冠病毒抗原自我檢測套組,78,2022/05/01 09:39:02,無
5901120175,新錦安藥局,臺北市南港區南港路３段３４號,121.5922,25.05429,(02)27825218,羅氏家用新冠病毒抗原自我檢測套組,78,2022/05/01 09:39:02,快篩試劑販售時間上午8:30開始    5／1（日）尚未到貨，貨到即開始販售
5901121627,富康活力藥局,臺北市南港區研究院路１段１０１巷８號,121.6165,25.05181,(02)27828810,羅氏家用新冠病毒抗原自我檢測套組,78,2022/05/01 09:39:02,週一至週六，每天09:00-21:00販售口罩，請記得帶健保卡&零錢，售完為止。
5901121734,湳港藥局,臺北市南港區研究院路１段１０１巷１２號,121.6167,25.05175,(02)27892200,羅氏家用新冠病毒抗原自我檢測套組,112,2022/05/01 09:39:02,週一至週日，2:30開賣（政府有配送的況狀下）（沒有發放號碼牌），售完為止
5901121896,順翔藥局,臺北市南港區研究院路２段１７０號,121.6169,25.03785,(02)27824332,羅氏家用新冠病毒抗原自我檢測套組,78,2022/05/01 09:39:02,代售政府快篩時間:週一~五:早10點開始 週六日:早9點30分開始 感恩
5901121930,小藥師健保藥局,臺北市南港區福德街３２０之１號,121.588,25.03948,(02)27867002,羅氏家用新冠病毒抗原自我檢測套組,78,2022/05/01 09:39:02,無
5901122124,杏安藥局,臺北市南港區昆陽街１４０巷１６號１樓,121.5938,25.04969,(02)27864119,羅氏家用新冠病毒抗原自我檢測套組,78,2022/05/01 09:39:02,實名制快篩周一~周六下午3點-4點現場販售，不發放號碼牌；周日不販售
5901150146,坤成泰藥局,臺北市士林區大南路４１２號,121.5162,25.08996,(02)28813903,羅氏家用新冠病毒抗原自我檢測套組,49,2022/05/01 09:39:02,口罩販賣時間：周一~六 早上9：00 現場排隊 售完為止
5901152293,安泰藥師藥局,臺北市士林區延平北路六段８３號（實際使用：１、２樓）,121.5087,25.08844,(02)28166977,羅氏家用新冠病毒抗原自我檢測套組,157,2022/05/01 09:39:02,發放口罩時間 早上9:30-晚上10:00
5901152739,芳圓藥局,臺北市士林區社子街２６－１號,121.508,25.0875,(02)28168666,羅氏家用新冠病毒抗原自我檢測套組,78,2022/05/01 09:39:02,快篩購買時間為早上9點15分到10點
5901152971,石川藥師藥局,臺北市士林區忠義街７０號,121.5314,25.10594,(02)28385850,羅氏家用新冠病毒抗原自我檢測套組,78,2022/05/01 09:39:02,5月1日，星期日，不分單雙號，早上 10:00 開始販售
5901153263,健揚藥局,臺北市士林區延平北路５段２５１號,121.5097,25.08483,(02)28163698,羅氏家用新冠病毒抗原自我檢測套組,156,2022/05/01 09:39:02,無
5901153272,光榮藥局,臺北市士林區社中街１１８號,121.5103,25.0899,(02)28136060,羅氏家用新冠病毒抗原自我檢測套組,78,2022/05/01 09:39:02,實名制快篩販售時間~下午兩點半（14:30）開始販售~另外若當日未收到快篩無法販售會公告，謝謝大家~
5901153521,天母台安藥局,臺北市士林區天母西路３４號,121.5262,25.11835,(02)28728017,羅氏家用新冠病毒抗原自我檢測套組,78,2022/05/01 09:39:02,下午2點開始販售實名制快篩試劑｛以人數到齊開始開賣｝
5901153567,華齡春天生活藥局,臺北市士林區華齡街３６、３８號,121.5195,25.08359,(02)28882156,羅氏家用新冠病毒抗原自我檢測套組,78,2022/05/01 09:39:02,下午3點開始發號碼牌持健保卡購買快篩售完為止
5901153585,德行春天生活藥局,臺北市士林區德行東路７６號,121.5275,25.1073,(02)28380306,羅氏家用新冠病毒抗原自我檢測套組,78,2022/05/01 09:39:02,下午2點40持健保卡領號碼牌販售快篩到晚上10點售完為止
5901153905,躍獅芝山藥局,臺北市士林區福華路１５４號（實際使用：１樓）,121.5227,25.10357,(02)28365822,羅氏家用新冠病毒抗原自我檢測套組,156,2022/05/01 09:39:02,無
5901153941,士東藥局,臺北市士林區士東路９１巷３號,121.5291,25.11256,(02)28760588,羅氏家用新冠病毒抗原自我檢測套組,78,2022/05/01 09:39:02,快篩實名制，每天16:00開始販售，售完為止。
5901153996,文昌春天藥局,臺北市士林區文昌路４４號（１樓）,121.5216,25.09562,(02)28838539,羅氏家用新冠病毒抗原自我檢測套組,78,2022/05/01 09:39:02,無
5901154000,文昌大藥局,臺北市士林區文昌路７２號１樓,121.5213,25.09634,(02)28376196,羅氏家用新冠病毒抗原自我檢測套組,78,2022/05/01 09:39:02,本日4／30下午15：30分開始實名制快篩販售
5901154082,德行盛康藥局,臺北市士林區德行東路２０６之１號１樓,121.532,25.1089,(02)28348756,羅氏家用新冠病毒抗原自我檢測套組,78,2022/05/01 09:39:02,無
5901160062,丸三大藥局,臺北市北投區自強街１０５號,121.5153,25.11086,(02)28230637,羅氏家用新冠病毒抗原自我檢測套組,156,2022/05/01 09:39:02,無
5901160197,川秀藥局,臺北市北投區石牌路２段９９巷９號１樓,121.5166,25.11792,(02)28270702,羅氏家用新冠病毒抗原自我檢測套組,156,2022/05/01 09:39:02,快篩下午2點開賣
5901160400,世全藥局,臺北市北投區知行路２７３號,121.4672,25.12134,(02)28585378,羅氏家用新冠病毒抗原自我檢測套組,78,2022/05/01 09:39:02,早0000-0100，午1300-1600，晚1600-2400
5901160517,弘安藥局,臺北市北投區懷德街３３號１樓,121.5193,25.11219,(02)28206390,羅氏家用新冠病毒抗原自我檢測套組,78,2022/05/01 09:39:02,快篩每日下午2:00開賣，現場購買售完為止
5901161890,良興藥局,臺北市北投區中和街２８６號,121.5004,25.14047,(02)28933360,羅氏家用新冠病毒抗原自我檢測套組,78,2022/05/01 09:39:02,18點30分點開始營業
5901162119,祐鄰藥局,臺北市北投區尊賢街２５０號,121.5073,25.11707,(02)28281232,羅氏家用新冠病毒抗原自我檢測套組,78,2022/05/01 09:39:02,無
5901162477,長宜藥局,臺北市北投區自強街１１２號,121.5155,25.11074,(02)28216605,羅氏家用新冠病毒抗原自我檢測套組,156,2022/05/01 09:39:02,實名制快篩試劑發放時間:14:00~售完為止，會依政府配送狀況調整
5901163152,石牌健康人生藥局,臺北市北投區石牌路２段１８７號,121.5183,25.11868,(02)28225169,羅氏家用新冠病毒抗原自我檢測套組,78,2022/05/01 09:39:02,政府快篩每日14點賣（星期一到五13:30發號碼牌）；週末不發號碼牌，請自行排隊
5901163250,關渡松藥局,臺北市北投區知行路２４７號,121.4671,25.12074,(02)28584824,羅氏家用新冠病毒抗原自我檢測套組,78,2022/05/01 09:39:02,口罩時段: 星期一至星期五早上9:00及晚上18:30，星期六日為下午15:00
5901163296,天禧大藥局,臺北市北投區實踐街３５號,121.5087,25.11521,(02)28213558,羅氏家用新冠病毒抗原自我檢測套組,78,2022/05/01 09:39:02,實名制快篩下午1:30現場販售
5901163330,萬信藥局,臺北市北投區知行路３０５號（實際使用１樓）,121.4672,25.12214,(02)28583083,羅氏家用新冠病毒抗原自我檢測套組,1,2022/05/01 09:39:02,每天早上8:00
5901163376,北投春天藥局,臺北市北投區中央南路１段７６號,121.5011,25.13135,(02)28916668,羅氏家用新冠病毒抗原自我檢測套組,78,2022/05/01 09:39:02,每日14:40發號碼牌 15:00販售
5901163394,致遠春天藥局,臺北市北投區致遠一路１段１３２號１、２樓,121.5149,25.11051,(02)28253258,羅氏家用新冠病毒抗原自我檢測套組,78,2022/05/01 09:39:02,15:30開始發放號碼牌15:30開始販售口罩
5901163509,吉利春天生活藥局,臺北市北投區吉利街１２０號,121.5068,25.11851,(02)28253256,羅氏家用新冠病毒抗原自我檢測套組,78,2022/05/01 09:39:02,無
5901163527,理得藥局,臺北市北投區石牌路１段１５０號,121.5131,25.11426,(02)28289680,羅氏家用新冠病毒抗原自我檢測套組,75,2022/05/01 09:39:02,每日10:00開賣，售完為止。
5901163536,天富大藥局,臺北市北投區石牌路２段１７１號（實際使用：１樓）,121.518,25.11848,(02)28225812,羅氏家用新冠病毒抗原自我檢測套組,78,2022/05/01 09:39:02,無
5901163545,天康大藥局,臺北市北投區中央南路１段５７號,121.5014,25.13192,(02)28914265,羅氏家用新冠病毒抗原自我檢測套組,156,2022/05/01 09:39:02,實名制快篩下午1:30現場販售
5901163563,躍獅光明藥局,臺北市北投區光明路５１號、５３號（實際使用：１樓）,121.4998,25.13286,(02)28915993,羅氏家用新冠病毒抗原自我檢測套組,78,2022/05/01 09:39:02,無
5901163572,永欣中西藥局,臺北市北投區中和街５０１號,121.4947,25.1452,(02)28910307,羅氏家用新冠病毒抗原自我檢測套組,156,2022/05/01 09:39:02,5／2 早上9:30發號碼牌 10點販售  周日公休
5901163643,致遠盛康藥局,臺北市北投區致遠二路１４１號１樓,121.5128,25.1173,(02)28263580,羅氏家用新冠病毒抗原自我檢測套組,78,2022/05/01 09:39:02,早上9點發號碼牌，早上10點開始販售實名制快篩試劑
5901170433,松山大藥局,臺北市信義區永吉路４３６號,121.5781,25.04526,(02)27620624,羅氏家用新冠病毒抗原自我檢測套組,78,2022/05/01 09:39:02,購防疫快篩早上10:00，_21:00發售.週日下午1點起售完即止
5901172704,鴻濟藥局,臺北市信義區永吉路３２６巷２號１樓,121.5754,25.04507,(02)27645331,羅氏家用新冠病毒抗原自我檢測套組,158,2022/05/01 09:39:02,快篩販售時間:周一至周五: 15:00開始。週六.周日:視實際到貨情形請見門口公告
5901172820,安心藥局,臺北市信義區永吉路３０巷１４８弄４之１號,121.5685,25.04266,(02)27474992,羅氏家用新冠病毒抗原自我檢測套組,79,2022/05/01 09:39:02,口罩代售時間14:00起現場排隊
5901172924,躍獅松仁藥局,臺北市信義區松仁路２３３號（實際營業地址：１樓）,121.5688,25.02617,(02)27238626,羅氏家用新冠病毒抗原自我檢測套組,78,2022/05/01 09:39:02,快篩販售時段:下午13:30開始售完至晚上19:00前
5901172964,榮泰藥局,臺北市信義區光復南路４１９巷１９號,121.5582,25.03659,(02)77296777,羅氏家用新冠病毒抗原自我檢測套組,156,2022/05/01 09:39:02,09:00開始發口罩，發完為止
5901173372,新永春藥局,臺北市信義區忠孝東路５段４２３巷１號,121.5753,25.04126,(02)27667385,羅氏家用新冠病毒抗原自我檢測套組,156,2022/05/01 09:39:02,快篩販售時間:每日13:00開始。4／30政府來不及配送，故停止販售
5901173390,馨馨藥局,臺北市信義區虎林街８２巷１９號,121.5764,25.04336,(02)27491208,羅氏家用新冠病毒抗原自我檢測套組,78,2022/05/01 09:39:02,無
5901173587,新興健保藥局,臺北市信義區永吉路３０巷１１３號,121.5689,25.04324,(02)27494892,羅氏家用新冠病毒抗原自我檢測套組,78,2022/05/01 09:39:02,無
5901173694,洪暘藥局,臺北市信義區富陽街８６號,121.5564,25.02127,(02)27337099,羅氏家用新冠病毒抗原自我檢測套組,78,2022/05/01 09:39:02,下午2點開始發號碼牌，領取號碼牌後請於下午4點前購買，否則視同放棄。
5901173710,專品光復藥局,臺北市信義區光復南路４６７之１號,121.5577,25.03384,(02)27586682,羅氏家用新冠病毒抗原自我檢測套組,78,2022/05/01 09:39:02,禮拜一到六下午三點販售口罩
5901173872,柏愛藥局,臺北市信義區基隆路２段１３１之９號,121.5567,25.02788,(02)27325472,羅氏家用新冠病毒抗原自我檢測套組,78,2022/05/01 09:39:02,國定假日營業時間為09:30-17:30；實名制快篩09:30開賣
5901173934,躍獅光復藥局,臺北市信義區光復南路４１７之８號,121.5577,25.03682,(02)87862307,羅氏家用新冠病毒抗原自我檢測套組,214,2022/05/01 09:39:02,無
5901174084,市政藥局,臺北市信義區忠孝東路５段１６９號１樓、１７１號１樓,121.5688,25.0412,(02)27560050,羅氏家用新冠病毒抗原自我檢測套組,78,2022/05/01 09:39:02,快篩實名制，每天16:00開始販售，售完為止。
5901180055,日生大藥局,臺北市中正區汀州路１段５３號１樓,121.5076,25.03026,(02)23031393,羅氏家用新冠病毒抗原自我檢測套組,6,2022/05/01 09:39:02,快篩代售服務時間:（1） 周一到周六 上午9點起售完為止  （2）5月1日周日上午9點起售完為止
5901180322,南昌大藥局,臺北市中正區南昌路１段８６號１樓,121.5174,25.03086,(02)23510322,羅氏家用新冠病毒抗原自我檢測套組,78,2022/05/01 09:39:02,無
5901183529,達昌藥局,臺北市中正區汀州路１段２０７號,121.5116,25.02692,(02)23390109,羅氏家用新冠病毒抗原自我檢測套組,78,2022/05/01 09:39:02,口罩配發時間 每日下午13:00開始
5901183645,大愛生活藥局,臺北市中正區汀州路２段２３２號,121.5243,25.02189,(02)23661155,羅氏家用新冠病毒抗原自我檢測套組,156,2022/05/01 09:39:02,下午14:30開始發放快篩（不發號碼牌直接買）~~不要太早開始排隊啊啊啊啊
5901183798,佳和藥局,臺北市中正區黎明里公園路３０號,121.5169,25.04448,(02)23117102,羅氏家用新冠病毒抗原自我檢測套組,78,2022/05/01 09:39:02,無
5901183985,正康藥局,臺北市中正區漢口街１段２２號,121.5142,25.04507,(02)23712831,羅氏家用新冠病毒抗原自我檢測套組,78,2022/05/01 09:39:02,快篩固定下午2:00發放
5901184080,活力健康藥妝藥局,臺北市中正區中華路２段３１５巷１號,121.5062,25.02795,(02)23392625,羅氏家用新冠病毒抗原自我檢測套組,79,2022/05/01 09:39:02,快篩販售1100-1200 1800-1900 週日有
5901184106,信康藥局,臺北市中正區南昌路１段１４３號,121.5186,25.02953,(02)23961979,羅氏家用新冠病毒抗原自我檢測套組,156,2022/05/01 09:39:02,14:00開始販售實名制快篩
5901184179,保德中華藥局,臺北市中正區中華路２段１５９號,121.5042,25.03101,(02)23027720,羅氏家用新冠病毒抗原自我檢測套組,78,2022/05/01 09:39:02,快篩視政府有無配發而販售；有貨的話下午三點開始發號碼牌及販售，限當日購買
5901184222,豐仁藥局,臺北市中正區寧波西街１６１號,121.5109,25.02736,(02)23033908,羅氏家用新冠病毒抗原自我檢測套組,78,2022/05/01 09:39:02,實名制快篩販售: 周一至周六 12:30-13:30
5901184473,中力藥局,臺北市中正區襄陽路１３之５號、１５號,121.5155,25.04349,(02)23313768,羅氏家用新冠病毒抗原自我檢測套組,78,2022/05/01 09:39:02,實名制快篩 販售時間：09:30~售完為止
5901184491,躍獅南門藥局,臺北市中正區中華路２段３９巷１０號,121.5074,25.03484,(02)23141111,羅氏家用新冠病毒抗原自我檢測套組,78,2022/05/01 09:39:02,口罩販售時段：成人早上9點及晚上7點各200個
5901184535,桐心藥局,臺北市中正區金華街１８之６號１樓,121.5202,25.03175,(02)23581663,羅氏家用新冠病毒抗原自我檢測套組,80,2022/05/01 09:39:02,快篩週一、週三到星期五08:30發號碼牌收健保卡，09:30-21:00取回；週六到周日10:30發號碼牌收健保卡，11:30-20:00取回
5901184633,躍獅東門藥局,臺北市中正區金山南路１段１０８之１號（１樓）,121.5273,25.03538,(02)23920339,羅氏家用新冠病毒抗原自我檢測套組,156,2022/05/01 09:39:02,無
5901184660,南昌春天藥局,臺北市中正區南昌路１段１５７號１樓,121.5188,25.02927,(02)23972886,羅氏家用新冠病毒抗原自我檢測套組,78,2022/05/01 09:39:02,無
5901184679,汀州藥局,臺北市中正區汀州路１段１８７、１８９、１９１號（１樓）,121.5112,25.02704,(02)23090705,羅氏家用新冠病毒抗原自我檢測套組,78,2022/05/01 09:39:02,快篩實名制，每天16:00開始販售，售完為止。
5901190024,長泰藥局,臺北市萬華區西園路２段２８０號,121.4942,25.02753,(02)23012869,羅氏家用新冠病毒抗原自我檢測套組,78,2022/05/01 09:39:02,現場排隊 口罩販賣時段：9:00至售完為止
5901190033,世欣藥局,臺北市萬華區東園街１７３號１Ｆ,121.4973,25.02419,(02)23074263,羅氏家用新冠病毒抗原自我檢測套組,78,2022/05/01 09:39:02,防疫快篩劑服務時間週一至五14:00-16:00週六10:00-12:00
5901190079,建和藥局,臺北市萬華區青年路１６８巷４４號,121.5016,25.01987,(02)23010838,羅氏家用新冠病毒抗原自我檢測套組,8,2022/05/01 09:39:02,春節期間看診時段請電洽
5901190177,信昌藥局,臺北市萬華區長泰街３６號１樓,121.5007,25.02336,(02)23054898,羅氏家用新冠病毒抗原自我檢測套組,78,2022/05/01 09:39:02,快篩實名制販售時間:週一~週日9:00起售完為止
5901190784,欣安藥局,臺北市萬華區東園街１９０、１９２號,121.4983,25.02177,(02)23327830,羅氏家用新冠病毒抗原自我檢測套組,78,2022/05/01 09:39:02,每日販售時間13:00售完為止
5901192448,健誠大藥局,臺北市萬華區環河南路２段１８５號,121.4919,25.03246,(02)23042223,羅氏家用新冠病毒抗原自我檢測套組,78,2022/05/01 09:39:02,口罩販售：週六早上10點開始， 其他日早上9點開始， 周日休息
5901192546,躍獅西園藥局,臺北市萬華區西園路２段２６０號,121.4946,25.02784,(02)23094063,羅氏家用新冠病毒抗原自我檢測套組,156,2022/05/01 09:39:02,快篩販售時段：下午2點至售完為止（政府有正常配貨的情況下）
5901192975,萬華藥局,臺北市萬華區萬大路２４８號實際營業地址１樓、２樓,121.5003,25.02626,(02)23012221,羅氏家用新冠病毒抗原自我檢測套組,78,2022/05/01 09:39:02,快篩實名制，每天16:00開始販售，售完為止。
5901193070,榮勝藥局,臺北市萬華區萬大路２３３號,121.5006,25.02649,(02)23331121,羅氏家用新冠病毒抗原自我檢測套組,70,2022/05/01 09:39:02,口罩代售時間禮拜一~禮拜六早上9:00開始，現場排隊／ 看診時間早上8:30-12:00，下午3:00-6:00，晚上6:30-10:00
5901193150,日森人文藥局,臺北市萬華區和平西路３段１４９號,121.4988,25.03543,(02)23082100,羅氏家用新冠病毒抗原自我檢測套組,78,2022/05/01 09:39:02,快篩每日11點現場發放號碼牌購買
5901193230,啟仁藥局,臺北市萬華區環河南路２段１７７號,121.492,25.03259,(02)23362771,羅氏家用新冠病毒抗原自我檢測套組,156,2022/05/01 09:39:02,六日沒配送停售，一般時間下午2點開始發號碼牌， 發完為止
5901193249,光華藥局,臺北市萬華區華西街１９－５號,121.4985,25.03892,(02)23613609,羅氏家用新冠病毒抗原自我檢測套組,78,2022/05/01 09:39:02,上午11時營業即販售快篩試劑售完為止
5901193310,和德藥局,臺北市萬華區西園路２段２９２號１樓,121.4935,25.02698,(02)23331522,羅氏家用新冠病毒抗原自我檢測套組,78,2022/05/01 09:39:02,快篩實名制，每天16:00開始販售，售完為止。
5901201540,逸仙藥師藥局,臺北市文山區興隆路２段２１８－１號１樓,121.5524,25.00148,(02)29312597,羅氏家用新冠病毒抗原自我檢測套組,58,2022/05/01 09:39:02,9:00-10:00
5901201728,東京晟藥局,臺北市文山區辛亥路４段９７號,121.5587,25.00684,(02)29356354,羅氏家用新冠病毒抗原自我檢測套組,78,2022/05/01 09:39:02,周日不銷售實名制快篩，預領號碼牌購買
5901201835,巧康藥局,臺北市文山區木新路３段２６２、２６４號,121.5585,24.98132,(02)29372061,羅氏家用新冠病毒抗原自我檢測套組,75,2022/05/01 09:39:02,每日下午2點發放號碼牌，2點15進行快篩販售
5901201871,佳醫景美藥局,臺北市文山區羅斯福路６段２９０號,121.5398,24.991,(02)86636659,羅氏家用新冠病毒抗原自我檢測套組,78,2022/05/01 09:39:02,實名制快篩販售時間：每日12:00-15:00，提前售完，提前結束
5901202047,華君藥局,臺北市文山區興隆路２段６０號,121.5478,24.99955,(02)29319510,羅氏家用新冠病毒抗原自我檢測套組,79,2022/05/01 09:39:02,每天12:00開始販售快篩
5901202645,永源大藥局,臺北市文山區興隆路３段３０２號,121.5588,24.99312,(02)22396166,羅氏家用新冠病毒抗原自我檢測套組,78,2022/05/01 09:39:02,口罩販售時段原本21:00，但藥局會視人數多寡滾動式調整提早發放快篩避免群聚，根據4／28情況約20:00開始發售，約45鐘完售
5901202841,欣安景美藥局,臺北市文山區景文街７７號,121.5414,24.99126,(02)29316008,羅氏家用新冠病毒抗原自我檢測套組,78,2022/05/01 09:39:02,每天快篩劑AM10：00發號碼牌PM14:00開始販賣售完為止
5901202958,杏一萬安藥局,臺北市文山區萬安街１５號,121.5706,25.00139,(02)22302126,羅氏家用新冠病毒抗原自我檢測套組,78,2022/05/01 09:39:02,營業時間0900-2200
5901203044,木新健康人生藥局,臺北市文山區木新路３段２０３號,121.5598,24.9814,(02)86611465,羅氏家用新冠病毒抗原自我檢測套組,156,2022/05/01 09:39:02,9：30~22：00
5901203062,大樹文山藥局,臺北市文山區興隆路３段１３號（１、２、３樓）,121.555,25.00088,(02)29342226,羅氏家用新冠病毒抗原自我檢測套組,78,2022/05/01 09:39:02,口罩販售時間：14:00 - 16:00
5901203080,杏一木柵藥局,臺北市文山區木柵路３段９８號,121.5674,24.98861,(02)29371839,羅氏家用新冠病毒抗原自我檢測套組,78,2022/05/01 09:39:02,無
5901203295,專品政大藥局,臺北市文山區指南路２段８號,121.5742,24.98784,(02)22343010,羅氏家用新冠病毒抗原自我檢測套組,78,2022/05/01 09:39:02,無
5901203375,大樹景美藥局,臺北市文山區羅斯福路６段２３４之１號,121.5404,24.99244,(02)29322951,羅氏家用新冠病毒抗原自我檢測套組,80,2022/05/01 09:39:02,快篩實名制，每天16:00開始販售，售完為止。
5901203400,富康活力睦新藥局,臺北市文山區木新路３段２１６號,121.5595,24.98153,(02)29393666,羅氏家用新冠病毒抗原自我檢測套組,156,2022/05/01 09:39:02,無
5901203428,康宜庭景文藥局,臺北市文山區景文街９７號１樓,121.5413,24.99093,(02)29302801,羅氏家用新冠病毒抗原自我檢測套組,79,2022/05/01 09:39:02,營業時間為08:30-22:30；14:00開始發放快篩實名制號碼牌並立即販售，謝謝您的配合
5901203455,全球萬芳藥局,臺北市文山區興隆路３段６３號（１樓）,121.5562,25.00024,(02)89352147,羅氏家用新冠病毒抗原自我檢測套組,3,2022/05/01 09:39:02,營業時間9:00~22:00
5902011308,昇安藥局,高雄市鹽埕區瀨南街２２５號１樓,120.284,22.62797,(07)5216438,羅氏家用新冠病毒抗原自我檢測套組,78,2022/05/01 09:39:02,快篩試劑早上9:00開始發號碼牌
5902022794,定國藥局,高雄市鼓山區九如四路１１３５號,120.2791,22.65936,(07)5815858,羅氏家用新冠病毒抗原自我檢測套組,78,2022/05/01 09:39:02,無
5902022801,裕康中西大藥局,高雄市鼓山區裕誠路１５１９號,120.2951,22.66479,(07)5555352,羅氏家用新冠病毒抗原自我檢測套組,80,2022/05/01 09:39:02,藥局販售口罩時間，依藥局門口公告時間為主（售完為止）
5902022972,高雄藥局,高雄市鼓山區九如四路９２４號,120.2793,22.65466,(07)5214266,羅氏家用新冠病毒抗原自我檢測套組,78,2022/05/01 09:39:02,賣口罩時間為週一～週六晚上6點，售完為止
5902030090,宏仁藥局,高雄市左營區左營大路３９０號,120.2932,22.68702,(07)5817895,羅氏家用新冠病毒抗原自我檢測套組,78,2022/05/01 09:39:02,口罩代售時間自早上10:00開始，售完為止。
5902030287,慈德藥局,高雄市左營區重愛路５３號,120.3186,22.68308,(07)3416212,羅氏家用新冠病毒抗原自我檢測套組,78,2022/05/01 09:39:02,快篩發放時間.週一至周六:上午9點-點.週日下午2點半至5點.
5902030312,吉辰藥局,高雄市左營區左營大路４１之１號,120.2876,22.68109,(07)5815069,羅氏家用新冠病毒抗原自我檢測套組,7,2022/05/01 09:39:02,早上9點開賣口罩   賣完為止
5902030410,重仁藥局,高雄市左營區左營大路４０８號,120.2935,22.68725,(07)5824083,羅氏家用新冠病毒抗原自我檢測套組,78,2022/05/01 09:39:02,自2／11日~2／29日，營業日08:00~22:30為販賣口罩時間.售完為止
5902030643,新高橋藥局,高雄市左營區民族一路１０２８號,120.3201,22.68255,(07)3100696,羅氏家用新冠病毒抗原自我檢測套組,78,2022/05/01 09:39:02,下午2:30開始販售口罩
5902031999,平安藥局,高雄市左營區中華一路５之１號,120.287,22.66961,(07)5833688,羅氏家用新冠病毒抗原自我檢測套組,78,2022/05/01 09:39:02,無
5902032487,必健藥局,高雄市左營區自由二路９０號,120.309,22.65954,(07)5584259,羅氏家用新冠病毒抗原自我檢測套組,78,2022/05/01 09:39:02,快篩試劑有配送日.上午 9:00開始販售
5902032530,杏光藥局,高雄市左營區果峰街４７巷１號１樓,120.2869,22.6703,(07)5837060,羅氏家用新冠病毒抗原自我檢測套組,78,2022/05/01 09:39:02,上午營業時間為9 :00~12:00；晚上營業至21:30
5902032674,辰暘藥局,高雄市左營區富民路１２０號１、２樓,120.3054,22.66066,(07)5588545,羅氏家用新冠病毒抗原自我檢測套組,78,2022/05/01 09:39:02,口罩販售時間09:30-21:30
5902040087,世詠藥局,高雄市楠梓區楠都東街１３８號,120.3262,22.72532,(07)3539869,羅氏家用新冠病毒抗原自我檢測套組,78,2022/05/01 09:39:02,快篩周一~周五早上9:00-21:30周六.日下午15:00-21:30，售完為止
5902040185,東初藥局,高雄市楠梓區楠梓路３２號,120.33,22.72873,(07)3511261,羅氏家用新冠病毒抗原自我檢測套組,78,2022/05/01 09:39:02,無
5902040210,益民藥局,高雄市楠梓區建楠路４７號,120.3287,22.72659,(07)3522161,羅氏家用新冠病毒抗原自我檢測套組,78,2022/05/01 09:39:02,星期一至星期五 號碼牌發放時間自10:00  星期六   不發放口罩   星期日號碼牌發放時間自 15:00
5902040498,順明藥局,高雄市楠梓區和光街６５號,120.2939,22.70717,(07)3615574,羅氏家用新冠病毒抗原自我檢測套組,78,2022/05/01 09:39:02,快篩劑販售時間早上 9:00～晚上9:30
5902042563,天健藥局,高雄市楠梓區後昌路１０８７號,120.2922,22.71718,(07)3634179,羅氏家用新冠病毒抗原自我檢測套組,78,2022/05/01 09:39:02,早上九點販售口罩
5902042769,家安藥局,高雄市楠梓區後昌新路１３號１樓,120.2917,22.71844,(07)3600066,羅氏家用新冠病毒抗原自我檢測套組,78,2022/05/01 09:39:02,無
5902050298,瑞鶴藥局,高雄市三民區寶德里義德路２５號,120.3352,22.64301,(07)3862757,羅氏家用新冠病毒抗原自我檢測套組,78,2022/05/01 09:39:02,下午2:00至4:30午休勿擾，每日09:30至21:00發售快篩。
5902050636,嘉益藥局,高雄市三民區重慶街３０號,120.302,22.64223,(07)3110157,羅氏家用新冠病毒抗原自我檢測套組,78,2022/05/01 09:39:02,快篩實名制早上11：00開始販售.
5902050770,仁生藥局,高雄市三民區民享里熱河二街７８號,120.3006,22.64431,(07)3118765,羅氏家用新冠病毒抗原自我檢測套組,78,2022/05/01 09:39:02,上午:8點開始販售
5902050903,皇安藥局,高雄市三民區九如一路４６１號,120.3296,22.63865,(07)3866779,羅氏家用新冠病毒抗原自我檢測套組,78,2022/05/01 09:39:02,營業日08:15~08:30可先領取號碼牌，上午08:30~12:00及下午3:00~10:.00為販賣口罩時間，售完為止
5902051222,利民藥局,高雄市三民區孝順街７４號,120.3128,22.6431,(07)3125436,羅氏家用新冠病毒抗原自我檢測套組,78,2022/05/01 09:39:02,快篩實名制早上9點30分開始販售，發號碼牌
5902051240,明皇藥局,高雄市三民區寶國里義華路１８１號,120.3399,22.64276,(07)3860121,羅氏家用新冠病毒抗原自我檢測套組,78,2022/05/01 09:39:02,藥局販售口罩時間，依藥局門口公告時間為主（售完為止）
5902051786,億生藥局,高雄市三民區南台路２００號,120.2982,22.63706,(07)2873436,羅氏家用新冠病毒抗原自我檢測套組,156,2022/05/01 09:39:02,「藥局販售口罩時間，依藥局門口公告時間為主（售完為止）」
5902054858,勝發藥局,高雄市三民區金鼎路３５０號,120.3197,22.66521,(07)3474780,羅氏家用新冠病毒抗原自我檢測套組,78,2022/05/01 09:39:02,營業日08:00為販賣快篩試劑時間.售完為止
5902056807,長慶藥局,高雄市三民區金鼎路３１０號,120.3207,22.66513,(07)3105835,羅氏家用新冠病毒抗原自我檢測套組,78,2022/05/01 09:39:02,自110／01／01-110／12／31，營業日早上08:30至晚上10:30為販賣口罩時間.售完為止
5902057126,民安藥局,高雄市三民區嫩江街７０號,120.2985,22.64282,(07)3121381,羅氏家用新冠病毒抗原自我檢測套組,3,2022/05/01 09:39:02,販賣快篩09:00~12:00_16:00~18:00_19:00~21:00（售完為止），週日休息
5902057144,欣仁惠藥局,高雄市三民區大昌二路２４８號,120.3323,22.64529,(07)3837833,羅氏家用新冠病毒抗原自我檢測套組,78,2022/05/01 09:39:02,無
5902057288,育英藥局,高雄市三民區灣子里和順街３９號,120.3159,22.65336,(07)3824467,羅氏家用新冠病毒抗原自我檢測套組,78,2022/05/01 09:39:02,營業時間:8:30-21:00， 週日休息
5902057484,永勝藥局,高雄市三民區褒忠街１１４號,120.334,22.64262,(07)3814643,羅氏家用新冠病毒抗原自我檢測套組,78,2022/05/01 09:39:02,代售時間14:00--16:00.週日休
5902057519,伍陸藥局,高雄市三民區正興路９４號,120.3208,22.64597,(07)3890676,羅氏家用新冠病毒抗原自我檢測套組,78,2022/05/01 09:39:02,口罩發放時間早上08:30開始 售完為止春節期間看診時段請電洽藥局
5902057680,健爾康藥局,高雄市三民區正興路２３號,120.3226,22.6456,(07)3965658,羅氏家用新冠病毒抗原自我檢測套組,78,2022/05/01 09:39:02,自2／11日~2／29日，營業日08:30~2100為販賣口罩時間，售完為止。
5902057902,利安藥局,高雄市三民區建工路５４５號,120.3213,22.64854,(07)3965550,羅氏家用新冠病毒抗原自我檢測套組,78,2022/05/01 09:39:02,營業日9:00AM起販賣口罩，售完為止
5902057920,必好藥局,高雄市三民區義華路４６０號,120.3313,22.64356,(07)3851751,羅氏家用新冠病毒抗原自我檢測套組,78,2022/05/01 09:39:02,早上九點開始販售口罩，售完為止。
5902057939,朝陽健保藥局,高雄市三民區陽明路５７號１樓,120.341,22.63871,(07)3839886,羅氏家用新冠病毒抗原自我檢測套組,78,2022/05/01 09:39:02,營業日下午4:00-6:00為販賣口罩時間，若有異動依藥局門口公告時間為主
5902060025,連作藥局,高雄市新興區大同一路２０３－１號,120.3003,22.62856,(07)2154716,羅氏家用新冠病毒抗原自我檢測套組,84,2022/05/01 09:39:02,快篩試紙領用時間為每日下午2點  5／1日周日加班
5902060150,永明藥局,高雄市新興區仁智街２２３號,120.3027,22.62084,(07)2619832,羅氏家用新冠病毒抗原自我檢測套組,78,2022/05/01 09:39:02,無
5902080465,廣德泰藥局,高雄市苓雅區苓雅二路７６號,120.2997,22.61762,(07)3340769,羅氏家用新冠病毒抗原自我檢測套組,156,2022/05/01 09:39:02,早上8點開始快篩實名制，售完為止一人限購買一份
5902080474,弘宗藥局,高雄市苓雅區武智街２號,120.3356,22.62303,(07)7211088,羅氏家用新冠病毒抗原自我檢測套組,78,2022/05/01 09:39:02,8:00~22:00（營業時段）
5902080616,一加藥局,高雄市苓雅區和平一路四二號,120.3218,22.62093,(07)7212748,羅氏家用新冠病毒抗原自我檢測套組,78,2022/05/01 09:39:02,05／01~05／31 7:30開始販賣快篩暨口罩
5902081015,明群藥局,高雄市苓雅區英明路５４號,120.3253,22.61276,(07)7254953,羅氏家用新冠病毒抗原自我檢測套組,78,2022/05/01 09:39:02,周一至周日每日8:00開始販售快篩試劑依現場排隊序販賣售完為止
5902081328,東信藥局,高雄市苓雅區三多一路１８９號,120.3313,22.62258,(07)7613309,羅氏家用新冠病毒抗原自我檢測套組,78,2022/05/01 09:39:02,早上8:30開始發送號碼牌販售口罩，售完為止，假日正常販售
5902083591,晨安藥局,高雄市苓雅區興中一路１６０號,120.3096,22.61753,(07)3365463,羅氏家用新冠病毒抗原自我檢測套組,16,2022/05/01 09:39:02,每日上午9開始販賣快篩.售完為止
5902085031,上好藥局,高雄市苓雅區四維一路六三號一樓,120.3294,22.6257,(07)7266863,羅氏家用新冠病毒抗原自我檢測套組,78,2022/05/01 09:39:02,快篩販售時間.每日上午11:00~下午13:00
5902085228,永森藥局,高雄市苓雅區建國一路２９０號,120.3262,22.63308,(07)7163087,羅氏家用新冠病毒抗原自我檢測套組,78,2022/05/01 09:39:02,快篩代售時間:營業時間
5902090032,全國大藥局,高雄市前鎮區三多二路４０３號１樓,120.3166,22.61777,(07)3345775,羅氏家用新冠病毒抗原自我檢測套組,78,2022/05/01 09:39:02,快篩實名制下午13:30開始..賣完為止
5902090087,久億藥局,高雄市前鎮區保泰路３５１號,120.3341,22.60289,(07)7619333,羅氏家用新冠病毒抗原自我檢測套組,17,2022/05/01 09:39:02,無實名制口罩
5902090167,勝惠藥局,高雄市前鎮區忠孝里三多三路７１號,120.3122,22.6163,(07)3354766,羅氏家用新冠病毒抗原自我檢測套組,92,2022/05/01 09:39:02,快篩發放時間早上9點
5902090765,家安大藥局,高雄市前鎮區崗山南街３４２巷２１號,120.3323,22.6021,(07)7137711,羅氏家用新冠病毒抗原自我檢測套組,9,2022/05/01 09:39:02,販售快篩實名制時間:週一.二.三.五.六.日（上午9點）、週四（晚上7點），依藥局門口公告時間為主（售完為止）
5902090827,博平藥局,高雄市前鎮區草衙二路３７７號,120.3224,22.57808,(07)8311814,羅氏家用新冠病毒抗原自我檢測套組,78,2022/05/01 09:39:02,下午2點開始販售快篩.售完為止
5902092205,百宏中西大藥局,高雄市前鎮區復興三路１９４號,120.3117,22.61311,(07)3386719,羅氏家用新冠病毒抗原自我檢測套組,33,2022/05/01 09:39:02,早上9:00開始發放號碼牌並依序販售口罩，售完為止！
5902092410,旺盛藥局,高雄市前鎮區永豐路１０８號,120.3337,22.6065,(07)7512899,羅氏家用新冠病毒抗原自我檢測套組,46,2022/05/01 09:39:02,過年期間 111／01／31下午至111／02／03  休診
5902092492,元生藥局,高雄市前鎮區鎮興路２２６號１樓,120.3117,22.59305,(07)8156356,羅氏家用新冠病毒抗原自我檢測套組,78,2022/05/01 09:39:02,無
5902092910,健家藥局,高雄市前鎮區二聖二路４５號,120.3165,22.61293,(07)3389986,羅氏家用新冠病毒抗原自我檢測套組,75,2022/05/01 09:39:02,早上9:30營業，快篩售完為止
5902100033,旗后藥局,高雄市旗津區中洲三路７１５號,120.2705,22.61096,(07)5715838,羅氏家用新冠病毒抗原自我檢測套組,156,2022/05/01 09:39:02,無
5902110066,文祺藥局,高雄市小港區正苓里平治街１１２號,120.3543,22.56743,(07)8014066,羅氏家用新冠病毒抗原自我檢測套組,78,2022/05/01 09:39:02,自2／11日~2／29日，6:00發號碼牌，14:00為販賣口罩時間.售完為止
5902110422,臨生藥局,高雄市小港區鳳鳴路１４６－４號,120.3588,22.51445,(07)8711290,羅氏家用新冠病毒抗原自我檢測套組,37,2022/05/01 09:39:02,早上9:00開始販售快篩劑售完為止。
5902110628,悅是康藥局,高雄市小港區漢民路２７６號,120.3536,22.56665,(07)8010012,羅氏家用新冠病毒抗原自我檢測套組,78,2022/05/01 09:39:02,4／30下午3:30開賣
5902111670,桂林活力藥師藥局,高雄市小港區桂陽路４０號,120.3575,22.58194,(07)7931248,羅氏家用新冠病毒抗原自我檢測套組,100,2022/05/01 09:39:02,自2／11日~2／29日，營業日08:30及13:00各50份為販賣口罩時間.售完為止
5902111938,丁丁藥局小港店,高雄市小港區宏平路８５號,120.3635,22.57096,(07)8603388,羅氏家用新冠病毒抗原自我檢測套組,77,2022/05/01 09:39:02,無
5903010127,友誠藥局,臺中市豐原區豐東路４０１號１樓,120.7336,24.25457,(04)25132371,羅氏家用新冠病毒抗原自我檢測套組,78,2022/05/01 09:39:02,禮拜一至禮拜日快篩發放時間下午兩點開始販售，售完為止。
5903010261,豐原西勢藥局,臺中市豐原區西勢路２００號１樓,120.7067,24.24379,(04)25262330,羅氏家用新冠病毒抗原自我檢測套組,78,2022/05/01 09:39:02,5／1起實名制快篩因物流因素，於到貨後於FB粉絲頁與店面公告開始販售時間。
5903010485,大樹圓環藥局,臺中市豐原區圓環東路６１７號１樓,120.7283,24.25084,(04)25122212,羅氏家用新冠病毒抗原自我檢測套組,78,2022/05/01 09:39:02,口罩販售時間：14:00 - 16:00
5903010501,佑全豐原圓環東藥局,臺中市豐原區圓環東路５４８、５５０、５５２、５５４號１樓,120.7275,24.24948,(04)25246069,羅氏家用新冠病毒抗原自我檢測套組,78,2022/05/01 09:39:02,販售實名制快篩時間14:00~17:00
5903010510,安德豐原藥局,臺中市豐原區中正路２９５號１樓,120.7159,24.25142,(04)25200733,羅氏家用新冠病毒抗原自我檢測套組,80,2022/05/01 09:39:02,快篩0800發號碼牌，憑號碼牌領取時間0830-1900
5903010547,佑全豐原中正藥局,臺中市豐原區中正路２２３、２２５號１、２樓,120.7175,24.25179,(04)25152886,羅氏家用新冠病毒抗原自我檢測套組,78,2022/05/01 09:39:02,實名制快篩販售時間:4／30下午4點開始
5903010609,隔壁藥局,臺中市豐原區一心路２４０之２號１樓,120.7007,24.24613,(04)25231527,羅氏家用新冠病毒抗原自我檢測套組,78,2022/05/01 09:39:02,無
5903020034,國良豐藥局,臺中市東勢區豐勢路２１號１樓,120.8318,24.24779,(04)25885778,羅氏家用新冠病毒抗原自我檢測套組,78,2022/05/01 09:39:02,快篩試劑下午2:00開始
5903020089,新明通藥局,臺中市東勢區豐勢路２３２號１樓,120.8302,24.25113,(04)25873969,羅氏家用新冠病毒抗原自我檢測套組,78,2022/05/01 09:39:02,實名制快篩 門口公告
5903040116,千順藥局,臺中市清水區光復街１１０－２號１樓,120.5752,24.27125,(04)26220580,羅氏家用新冠病毒抗原自我檢測套組,78,2022/05/01 09:39:02,快篩試劑9:00準時販售，另有提供領慢籤服務及保健食品，任何疑問請洽藥師。
5903050069,進騰藥局,臺中市沙鹿區鎮南路２段２３４號,120.5689,24.22394,(04)26314418,羅氏家用新冠病毒抗原自我檢測套組,78,2022/05/01 09:39:02,營業時間8:00-22:00，每日中午12點開始販售家用快篩
5903050103,北勢進騰藥局,臺中市沙鹿區北勢東路５０９之７號１樓,120.576,24.22526,(04)26330893,羅氏家用新冠病毒抗原自我檢測套組,156,2022/05/01 09:39:02,營業時間12:00-22:00，每日12:00販售實名制快篩
5903050238,百岳大藥局,臺中市沙鹿區鎮南路二段７７號１樓,120.5697,24.21895,(04)26359825,羅氏家用新冠病毒抗原自我檢測套組,78,2022/05/01 09:39:02,9:00憑健保卡購買口罩
5903050274,鹿寮藥局,臺中市沙鹿區中山路４６１、４６１－１號１、２樓,120.5615,24.24387,(04)26630677,羅氏家用新冠病毒抗原自我檢測套組,78,2022/05/01 09:39:02,快篩實名制，每天16:00開始販售，售完為止。
5903060092,佑全梧棲文化藥局,臺中市梧棲區文化路二段１５０號１樓,120.531,24.25526,(04)26566433,羅氏家用新冠病毒抗原自我檢測套組,78,2022/05/01 09:39:02,今日快篩延遲到貨，開賣時間會在FB公布
5903060127,沐光藥師連鎖藥局梧棲店,臺中市梧棲區文昌路４４９號１樓,120.5386,24.24486,(04)26562262,羅氏家用新冠病毒抗原自我檢測套組,68,2022/05/01 09:39:02,實名制快篩9:30開賣 9:30~21:30慢箋領藥／長照特約／孕期&小兒保健
5903070089,后里瑞士藥師藥局,臺中市后里區甲后路二段５７９號,120.7063,24.31155,(04)25566999,羅氏家用新冠病毒抗原自我檢測套組,78,2022/05/01 09:39:02,周一到周五，早上8點到10點。周六、周日早上9點到11點
5903070098,祐恩藥局,臺中市后里區甲后路一段４７８號１樓,120.6819,24.3157,(04)25587518,羅氏家用新冠病毒抗原自我檢測套組,78,2022/05/01 09:39:02,固定周一到周六，國定例假日照常調劑藥服務。清明、端午、中秋節晚上休息。
5903070132,內埔瑞士藥師藥局,臺中市后里區中山路３７號１樓,120.7113,24.30446,(04)25566959,羅氏家用新冠病毒抗原自我檢測套組,78,2022/05/01 09:39:02,發放口罩以藥局店內公告為主
5903070169,佑全后里甲后藥局,臺中市后里區甲后路一段７２８號１、２樓,120.7193,24.30951,(04)25583116,羅氏家用新冠病毒抗原自我檢測套組,78,2022/05/01 09:39:02,實名制快篩每日14:00販售。13:50發放號碼牌。
5903080138,佑全神岡中山藥局,臺中市神岡區中山路５４９、５４９之１、５４９之２號１樓,120.6842,24.24638,(04)25634677,羅氏家用新冠病毒抗原自我檢測套組,78,2022/05/01 09:39:02,無
5903090116,上宇藥局,臺中市潭子區中山路２段３８１號１樓,120.7051,24.21301,(04)25321258,羅氏家用新冠病毒抗原自我檢測套組,78,2022/05/01 09:39:02,週一至週五上午9點至12點，下午三點至九點，週六早上9點至12點，依序發售口罩，週日休息。
5903090143,佳福藥局,臺中市潭子區中山路１段４３－１號,120.7023,24.19138,(04)25332982,羅氏家用新冠病毒抗原自我檢測套組,78,2022/05/01 09:39:02,每日中午12:00至下午3:00休息，星期六公休
5903090367,成記藥局,臺中市潭子區潭興路三段９３號１樓,120.7024,24.21151,(04)25358076,羅氏家用新冠病毒抗原自我檢測套組,78,2022/05/01 09:39:02,早上10點販售快篩試劑.售完為止
5903090394,全球健康藥局,臺中市潭子區南環路５號１樓,120.7045,24.21661,(04)25340212,羅氏家用新冠病毒抗原自我檢測套組,78,2022/05/01 09:39:02,無
5903090429,佑全潭子中山藥局,臺中市潭子區中山路一段９之１號,120.7023,24.18847,(04)25356140,羅氏家用新冠病毒抗原自我檢測套組,78,2022/05/01 09:39:02,健保實聯制購買時間:14:00開始販售，13:50開始發號碼牌，售完為止。
5903100037,大雅東亞藥師大藥局,臺中市大雅區民生路１段２２、２２－１號,120.6543,24.22924,(04)25605233,羅氏家用新冠病毒抗原自我檢測套組,28,2022/05/01 09:39:02,10am-12n，不發號碼牌，全年無休
5903100046,躍獅佑仁藥局,臺中市大雅區雅環路２段２８７號,120.6488,24.22919,(04)25608256,羅氏家用新冠病毒抗原自我檢測套組,153,2022/05/01 09:39:02,家用快篩販售-星期一~星期五 晚上7點（19:00）開始.時間更新異動請參閱粉專
5903100055,大詮藥師藥局,臺中市大雅區民生路３段４３２號,120.6655,24.23441,(04)25682767,羅氏家用新冠病毒抗原自我檢測套組,78,2022/05/01 09:39:02,營業時間；週一到週五11:30至22:00，週六晚上9點打烊，周日固定公休。
5903100117,妙昌藥局,臺中市大雅區永和路１９４號,120.6472,24.22272,(04)25664426,羅氏家用新冠病毒抗原自我檢測套組,36,2022/05/01 09:39:02,每日上午9:30發放號碼牌，10:00開始販售。（固定周一到周日）
5903100135,大雅安德藥局,臺中市大雅區中清東路２２９號１樓,120.6469,24.22459,(04)25604133,羅氏家用新冠病毒抗原自我檢測套組,78,2022/05/01 09:39:02,實名制快篩13:30領取號碼牌，14:00販賣，不找零，每張卡一個月僅能買一次，限每人一卡一份
5903100206,民生藥局,臺中市大雅區民生路一段２２１號１樓,120.6512,24.22789,(04)25662229,羅氏家用新冠病毒抗原自我檢測套組,78,2022/05/01 09:39:02,快篩實名制，每天16:00開始販售，售完為止。
5903110051,新社千百岳大藥局,臺中市新社區興安路２４、２６號,120.8083,24.2412,(04)25821798,羅氏家用新冠病毒抗原自我檢測套組,78,2022/05/01 09:39:02,無
5903130026,博翔欣大藥局,臺中市外埔區重光路３３－１９號,120.6521,24.33128,(04)26833312,羅氏家用新冠病毒抗原自我檢測套組,78,2022/05/01 09:39:02,無
5903150019,統元藥局,臺中市烏日區中華路５８３號,120.6342,24.10755,(04)23377588,羅氏家用新冠病毒抗原自我檢測套組,11,2022/05/01 09:39:02,快篩販售時間:早上9:00至12:00或（售完即止）.
5903150028,全成烏日藥局,臺中市烏日區溪南路１段７７６號,120.6427,24.07423,(04)23352656,羅氏家用新冠病毒抗原自我檢測套組,78,2022/05/01 09:39:02,5／1快篩尚未收到，收到再發放
5903150037,杏益藥局,臺中市烏日區信義街１７２號,120.6393,24.10502,(04)23364059,羅氏家用新冠病毒抗原自我檢測套組,51,2022/05/01 09:39:02,快篩貨來就發!!!
5903150091,學田藥局,臺中市烏日區學田路便行巷１４號,120.6075,24.12086,(04)23382230,羅氏家用新冠病毒抗原自我檢測套組,78,2022/05/01 09:39:02,快篩以實際到貨時間為主，到貨開賣至售完為止。
5903150153,溪南藥局,臺中市烏日區溪南路一段５６５號１樓,120.6431,24.07523,(04)23353666,羅氏家用新冠病毒抗原自我檢測套組,78,2022/05/01 09:39:02,快篩實名制，每天16:00開始販售，售完為止。
5903150171,上益藥局,臺中市烏日區公園路３２０號１樓,120.6238,24.10287,(04)23360398,羅氏家用新冠病毒抗原自我檢測套組,78,2022/05/01 09:39:02,快篩10:00-售完
5903170020,理想藥局,臺中市龍井區國際街１２１號,120.5953,24.18672,(04)26521597,羅氏家用新冠病毒抗原自我檢測套組,78,2022/05/01 09:39:02,無
5903170039,大佶安藥局龍井店,臺中市龍井區沙田路６段１９７號１樓,120.5496,24.20907,(04)26361410,羅氏家用新冠病毒抗原自我檢測套組,156,2022/05/01 09:39:02,營業時間（早上9:30-12:30，下午13:30-21:30）都有賣口罩，售完為止
5903170146,向陽藥師連鎖藥局,臺中市龍井區中央路三段３７號１樓,120.5248,24.21176,(04)26390500,羅氏家用新冠病毒抗原自我檢測套組,78,2022/05/01 09:39:02,09:30發放快篩.除過年全年無休.癌症諮詢.慢箋領藥.長照特約.更年期.糖尿病.戒菸諮詢.孕期保健.小兒營養
5903180115,永合藥局,臺中市霧峰區中正路９６５號,120.6989,24.06597,(04)23391910,羅氏家用新冠病毒抗原自我檢測套組,56,2022/05/01 09:39:02,無
5903180142,峰正藥局,臺中市霧峰區中正路８３０號１樓,120.6987,24.06244,(04)23303353,羅氏家用新冠病毒抗原自我檢測套組,78,2022/05/01 09:39:02,快篩實名制，每天16:00開始販售，售完為止。
5903190139,劍橋藥局,臺中市太平區宜昌路５５２號１樓,120.7157,24.14758,(04)22776619,羅氏家用新冠病毒抗原自我檢測套組,78,2022/05/01 09:39:02,星期一到星期日
5903190148,亞洲藥師連鎖大藥局,臺中市太平區中山路２段４５８號,120.7253,24.14984,(04)23921681,羅氏家用新冠病毒抗原自我檢測套組,78,2022/05/01 09:39:02,實名制快篩，每天14:30開賣，一人一卡，請自備500元
5903190228,中山德侑藥局,臺中市太平區中山路３段２之２號１樓,120.7222,24.14942,(04)23920682,羅氏家用新冠病毒抗原自我檢測套組,78,2022/05/01 09:39:02,每日上午現場9:00販售口罩
5903190362,太平中山藥局,臺中市太平區中山路４段１１號,120.7139,24.14931,(04)23959200,羅氏家用新冠病毒抗原自我檢測套組,78,2022/05/01 09:39:02,快篩實名制，每天16:00開始販售，售完為止。
5903190693,維肯藥局,臺中市太平區中興路７８－１號１樓,120.7163,24.12783,(04)23512198,羅氏家用新冠病毒抗原自我檢測套組,78,2022/05/01 09:39:02,實名制快篩 星期一~六早上九點開始發放
5903190700,佑全太平藥局,臺中市太平區樹德路１２１號１樓,120.712,24.15444,(04)23910016,羅氏家用新冠病毒抗原自我檢測套組,78,2022/05/01 09:39:02,5／1實名制快篩:13:40發號碼牌.14點開始販售
5903190719,勤益藥局,臺中市太平區中山路一段３２１號１樓,120.7343,24.14496,(04)23938969,羅氏家用新冠病毒抗原自我檢測套組,156,2022/05/01 09:39:02,無
5903190737,精武丁丁藥局,臺中市太平區中山路四段１３２－１號,120.7044,24.14856,(04)23957235,羅氏家用新冠病毒抗原自我檢測套組,78,2022/05/01 09:39:02,無
5903200096,仁化藥局,臺中市大里區仁化路５４０號,120.7012,24.09623,(04)24915902,羅氏家用新冠病毒抗原自我檢測套組,156,2022/05/01 09:39:02,W6 休息
5903200372,國光丁丁藥局,臺中市大里區國光路２段５５１－１號１樓,120.6788,24.11241,(04)24069711,羅氏家用新冠病毒抗原自我檢測套組,78,2022/05/01 09:39:02,星期一至星期日早上9點依排隊順序直接領取
5903200514,大明永欣藥局,臺中市大里區大明路５３９號１樓、５４１號１樓,120.6735,24.11478,(04)24068864,羅氏家用新冠病毒抗原自我檢測套組,78,2022/05/01 09:39:02,實名制快篩每天下午2點開始發號碼牌
5903200541,大里康媞藥局,臺中市大里區塗城路４９４號,120.7024,24.08867,(04)24966627,羅氏家用新冠病毒抗原自我檢測套組,78,2022/05/01 09:39:02,快篩下午兩點開始
5903200587,大里安德健保藥局,臺中市大里區大明路１１７號,120.6861,24.11527,(04)24875607,羅氏家用新冠病毒抗原自我檢測套組,78,2022/05/01 09:39:02,無
5903200596,大樹大里藥局,臺中市大里區中興路二段１０１號,120.6885,24.10305,(04)24861133,羅氏家用新冠病毒抗原自我檢測套組,78,2022/05/01 09:39:02,快篩實名制，每天16:00開始販售，售完為止。
5903200621,德芳東榮藥局,臺中市大里區東榮路８號,120.6893,24.1102,(04)24863898,羅氏家用新冠病毒抗原自我檢測套組,156,2022/05/01 09:39:02,快篩販售時間：下午3點~6點，現場排隊，完售即停
5903200658,德芳成功藥局,臺中市大里區成功路５３５－３號１樓,120.7033,24.0913,(04)24920298,羅氏家用新冠病毒抗原自我檢測套組,152,2022/05/01 09:39:02,快篩販售時間:下午3點~6點
5903200667,永欣東榮藥局,臺中市大里區東榮路３７０號１樓,120.6836,24.11032,(04)24810599,羅氏家用新冠病毒抗原自我檢測套組,78,2022/05/01 09:39:02,無
5903200685,塗城藥局,臺中市大里區中興路一段１８７、１８９、１９１號１樓,120.6933,24.09008,(04)24967234,羅氏家用新冠病毒抗原自我檢測套組,78,2022/05/01 09:39:02,快篩實名制，每天16:00開始販售，售完為止。
5903200701,大益藥局,臺中市大里區益民路二段３３５號１、２樓,120.6837,24.11311,(04)24811551,羅氏家用新冠病毒抗原自我檢測套組,78,2022/05/01 09:39:02,快篩實名制，每天16:00開始販售，售完為止。
5903200756,佑全大里大明藥局,臺中市大里區大明路３６０、３６２號,120.6787,24.11511,(04)24818633,羅氏家用新冠病毒抗原自我檢測套組,78,2022/05/01 09:39:02,實名制快篩，開賣時間:下午14:00，售完為止
5903220061,宏信大藥局,臺中市中區自由路２段４５號１樓,120.6815,24.13959,(04)22222021,羅氏家用新冠病毒抗原自我檢測套組,78,2022/05/01 09:39:02,周1~周5 早上9點至晚上7點周6周日早上10點到晚上9點
5903220114,鄧博士藥局,臺中市中區中山路３２５號１樓,120.6756,24.14434,(04)22256851,羅氏家用新冠病毒抗原自我檢測套組,78,2022/05/01 09:39:02,政府快篩 星期日下午6點開始 如果貨運有來
5903220196,日安藥局,臺中市中區臺灣大道一段３３０號１樓,120.6801,24.1422,(04)22234246,羅氏家用新冠病毒抗原自我檢測套組,59,2022/05/01 09:39:02,無
5903230192,康是美藥局東英店,臺中市東區十甲路４５０號１樓,120.7097,24.14406,(04)22139034,羅氏家用新冠病毒抗原自我檢測套組,78,2022/05/01 09:39:02,無
5903230209,東京藥師藥局,臺中市東區復興路五段１４９號１樓,120.6893,24.14543,(04)22132278,羅氏家用新冠病毒抗原自我檢測套組,78,2022/05/01 09:39:02,無
5903230236,佳境藥局,臺中市東區大智路１－１號１樓,120.6881,24.13635,(04)22211395,羅氏家用新冠病毒抗原自我檢測套組,78,2022/05/01 09:39:02,下午14:00開始販售實名制快篩
5903240170,美村全成藥局,臺中市西區美村路１段２２２號１樓,120.6615,24.14875,(04)23014006,羅氏家用新冠病毒抗原自我檢測套組,78,2022/05/01 09:39:02,快篩販賣時段為 早上10:00開始   售完為止. 請自備500元
5903240198,鑫祐藥局,臺中市西區民權路３０２－５號,120.67,24.14767,(04)23027778,羅氏家用新冠病毒抗原自我檢測套組,135,2022/05/01 09:39:02,快篩早上09:00開始販售，1人1卡，週一至週六早上銷售，週日停售
5903240385,喆星藥局,臺中市西區精誠路４２２號,120.655,24.14522,(04)24715301,羅氏家用新冠病毒抗原自我檢測套組,78,2022/05/01 09:39:02,快篩試劑下午2點現場排隊領號碼牌，售完為止
5903240447,大樹五權藥局,臺中市西區五權路９７－１號１樓,120.6717,24.14626,(04)22022910,羅氏家用新冠病毒抗原自我檢測套組,78,2022/05/01 09:39:02,快篩實名制，每天16:00開始販售，售完為止。
5903240474,佑全台中向上藥局,臺中市西區向上路一段３８６、３８８號１樓,120.6559,24.14688,(04)23204732,羅氏家用新冠病毒抗原自我檢測套組,78,2022/05/01 09:39:02,因政府配貨時間不一，依照門市現場公告時間為主
5903240483,名華藥局,臺中市西區中華路一段７號１樓,120.6732,24.14209,(04)22231187,羅氏家用新冠病毒抗原自我檢測套組,78,2022/05/01 09:39:02,無
5903250103,忠孝德侑健保藥局,臺中市南區正義街１５９號,120.6806,24.12919,(04)22851400,羅氏家用新冠病毒抗原自我檢測套組,78,2022/05/01 09:39:02,實明制快篩:早上九點販售（售完為止）售完須在等下一輪配送
5903250318,全太藥局,臺中市南區復興路一段４４７號,120.6572,24.11699,(04)22600068,羅氏家用新冠病毒抗原自我檢測套組,78,2022/05/01 09:39:02,實名制快篩周一至周五早上9點30分，周六早上10點30分開賣，售完為止
5903250381,大樹美村藥局,臺中市南區美村南路１２４號,120.667,24.11499,(04)22621113,羅氏家用新冠病毒抗原自我檢測套組,78,2022/05/01 09:39:02,口罩販售時間：14:00 - 16:00
5903250550,旭康藥局,臺中市南區台中路３８０號１樓,120.6841,24.12652,(04)22857372,羅氏家用新冠病毒抗原自我檢測套組,78,2022/05/01 09:39:02,實名制快篩每天下午3點販售
5903250612,杏一南區台中藥局,臺中市南區台中路６６、６８號１樓,120.683,24.1339,(04)22220652,羅氏家用新冠病毒抗原自我檢測套組,78,2022/05/01 09:39:02,每日早上10點開始販售實名制快篩，售完為止。
5903260341,台中漢口藥局,臺中市北區漢口路３段１８３號,120.6711,24.16703,(04)22936166,羅氏家用新冠病毒抗原自我檢測套組,78,2022/05/01 09:39:02,實名制快篩販售時間：下午2點
5903260476,康媞藥局,臺中市北區北平路二段１２８號１樓,120.6774,24.17124,(04)22925388,羅氏家用新冠病毒抗原自我檢測套組,78,2022/05/01 09:39:02,無
5903260681,昭德藥師藥局,臺中市北區西屯路一段３４５號,120.6654,24.16007,(04)23235655,羅氏家用新冠病毒抗原自我檢測套組,78,2022/05/01 09:39:02,早上八點至下午十一點營業，上午九點至下午九點現場排隊過卡買口罩，售完為止
5903260734,立得藥局,臺中市北區忠太西路１１號１樓,120.6678,24.15997,(04)22080013,羅氏家用新冠病毒抗原自我檢測套組,78,2022/05/01 09:39:02,固定周一到周六，早上9:00開始販賣防疫口罩
5903260743,黎明安德藥局,臺中市北區中清路１段８５２號１樓,120.6718,24.17295,(04)22956098,羅氏家用新冠病毒抗原自我檢測套組,78,2022/05/01 09:39:02,禮拜四公休、禮拜日下午2點開始營業，下午3點開始販賣快篩
5903260814,杏一北區文心藥局,臺中市北區文心路４段２１０－８號１、２樓,120.678,24.1729,(04)22993847,羅氏家用新冠病毒抗原自我檢測套組,78,2022/05/01 09:39:02,防疫口罩每日中午12時開始販售
5903260912,莒光藥局,臺中市北區錦南街１２號１樓,120.6886,24.15399,(04)22336663,羅氏家用新冠病毒抗原自我檢測套組,78,2022/05/01 09:39:02,4／30 下午2點開賣 78份售完為止
5903260930,大西洋藥局,臺中市北區北平路２段２８號１樓,120.6726,24.17165,(04)22932469,羅氏家用新冠病毒抗原自我檢測套組,21,2022/05/01 09:39:02,無
5903261008,台中大樹藥局,臺中市北區漢口路三段２６１號,120.6726,24.16703,(04)22981113,羅氏家用新冠病毒抗原自我檢測套組,78,2022/05/01 09:39:02,快篩實名制，每天16:00開始販售，售完為止。
5903261017,多倫多藥局,臺中市北區太原路二段１１號１樓,120.6753,24.16558,(04)22980210,羅氏家用新冠病毒抗原自我檢測套組,78,2022/05/01 09:39:02,無
5903270061,青育藥師藥局,臺中市西屯區河南路２段３６２號１樓,120.6469,24.17368,(04)27068798,羅氏家用新冠病毒抗原自我檢測套組,78,2022/05/01 09:39:02,週一至週六早上9:00開始販賣口罩、週日早上10:00開始販售口罩
5903270310,弘福藥師藥局,臺中市西屯區西屯路３段１６６－２１號１樓,120.6159,24.18918,(04)24611916,羅氏家用新冠病毒抗原自我檢測套組,78,2022/05/01 09:39:02,每日15:00發放號碼牌，發完即開始販售（全年無休）
5903270347,甘肅安德藥局,臺中市西屯區甘肅路２０２－３號,120.6573,24.16838,(04)23165935,羅氏家用新冠病毒抗原自我檢測套組,78,2022/05/01 09:39:02,周一至五早上8:00，週六至周日早上9:00開始依序販售口罩及快篩，售完為止
5903270409,維恩藥局,臺中市西屯區甘肅路一段１９５號,120.6568,24.16846,(04)23174277,羅氏家用新冠病毒抗原自我檢測套組,78,2022/05/01 09:39:02,快篩實名制時間:星期一~星期五（0730-2200） 星期六（0730-2200）本周星期天快篩無配送休息
5903270516,中科何藥局,臺中市西屯區福康路４０號,120.6173,24.18421,(04)24612570,羅氏家用新冠病毒抗原自我檢測套組,78,2022/05/01 09:39:02,防疫快篩每日15:00開始販售。（全年無休）
5903270776,河南丁丁藥局,臺中市西屯區河南路４段１９１號,120.6367,24.15565,(04)22511658,羅氏家用新冠病毒抗原自我檢測套組,78,2022/05/01 09:39:02,周一至周日每天上午9:00開始販售口罩[有口罩庫存時]
5903270810,佑全福星藥局,臺中市西屯區黎明路三段３９５、３９７號,120.639,24.18251,(04)24527465,羅氏家用新冠病毒抗原自我檢測套組,78,2022/05/01 09:39:02,周一至週日下午2:00開始發放快篩實名制，售完為止
5903270847,分子藥局,臺中市西屯區惠來路二段２３６－１號,120.6421,24.16318,(04)22513080,羅氏家用新冠病毒抗原自我檢測套組,78,2022/05/01 09:39:02,口罩發放時間週一至週六早上10點起售完為止
5903270865,尚禾藥局,臺中市西屯區青海路一段６５號,120.6548,24.16438,(04)23147688,羅氏家用新冠病毒抗原自我檢測套組,156,2022/05/01 09:39:02,實名制快篩發放時間：第一時段中午12:30~14:00。第二時段20：30~22：30。第一時段若未發完，餘量將遞延至第二時段發放。
5903270909,元生藥局,臺中市西屯區大墩路９６０號,120.6516,24.15817,(04)23274539,羅氏家用新冠病毒抗原自我檢測套組,78,2022/05/01 09:39:02,口罩販售時段:9:00-21:00
5903271004,西屯青育藥師藥局,臺中市西屯區西屯路二段２９５－３號１樓,120.6425,24.17735,(04)27077898,羅氏家用新冠病毒抗原自我檢測套組,77,2022/05/01 09:39:02,無
5903271022,西屯藥局,臺中市西屯區西屯路三段１５０－４５號１樓,120.621,24.18716,(04)24621822,羅氏家用新冠病毒抗原自我檢測套組,156,2022/05/01 09:39:02,快篩實名制，每天16:00開始販售，售完為止。
5903271059,安德藥局,臺中市西屯區福康路１７號１樓,120.6165,24.1833,(04)24638302,羅氏家用新冠病毒抗原自我檢測套組,78,2022/05/01 09:39:02,實名制快篩下午2:00開始販售（請排隊自備現金不找零）
5903271068,西墩藥局,臺中市西屯區黎明路三段２７５、２７７號１樓,120.6373,24.17812,(04)24510770,羅氏家用新冠病毒抗原自我檢測套組,78,2022/05/01 09:39:02,快篩實名制，每天16:00開始販售，售完為止。
5903271086,常春藤藥局,臺中市西屯區福康路８０號１樓,120.618,24.18603,(04)24619296,羅氏家用新冠病毒抗原自我檢測套組,78,2022/05/01 09:39:02,每日下午兩點到四點、晚上七點到九點 販賣防疫家用快篩
5903271193,何安藥局,臺中市西屯區西屯路二段１０１號Ｂ棟１樓,120.6531,24.16616,(04)23161110,羅氏家用新冠病毒抗原自我檢測套組,78,2022/05/01 09:39:02,快篩實名制，每天16:00開始販售，售完為止。
5903271282,禾安藥局,臺中市西屯區西屯路二段１２６之８號,120.6518,24.16682,(04)23176162,羅氏家用新冠病毒抗原自我檢測套組,78,2022/05/01 09:39:02,無
5903271291,西屯長安藥局,臺中市西屯區成都路３６８號１樓,120.6641,24.17322,(04)22981221,羅氏家用新冠病毒抗原自我檢測套組,78,2022/05/01 09:39:02,快篩實名制，每天16:00開始販售，售完為止。
5903280067,博川健保藥局,臺中市南屯區大墩５街２９８號１樓,120.6486,24.14257,(04)24732995,羅氏家用新冠病毒抗原自我檢測套組,78,2022/05/01 09:39:02,實名制快篩12:00開始販售
5903280245,大墩何藥局,臺中市南屯區大敦南路４３１號１．２樓,120.6476,24.13497,(04)24710655,羅氏家用新冠病毒抗原自我檢測套組,78,2022/05/01 09:39:02,防疫用快篩試劑下午4點開始販售，售完為止
5903280325,亞洲連鎖大藥局,臺中市南屯區黎明路２段１３３、１３５號,120.6336,24.15977,(04)23812886,羅氏家用新冠病毒抗原自我檢測套組,78,2022/05/01 09:39:02,無
5903280521,百康健保藥局,臺中市南屯區黎明路二段３６３號,120.6353,24.15033,(04)22547776,羅氏家用新冠病毒抗原自我檢測套組,78,2022/05/01 09:39:02,營業每日上午8:30到晚上22:30!實名制快篩販售下午三點開始
5903280567,康總藥局,臺中市南屯區南屯路二段１０１號１樓,120.6524,24.13579,(04)24735285,羅氏家用新冠病毒抗原自我檢測套組,4,2022/05/01 09:39:02,周一到周日每日上午9:30開始販賣，賣完為止（營業時間到晚上10:00）。
5903280576,佑全黎明藥局,臺中市南屯區黎明路２段２６６號,120.6359,24.14816,(04)23805560,羅氏家用新冠病毒抗原自我檢測套組,78,2022/05/01 09:39:02,實名制快篩販售時間下午兩點
5903280763,全順藥局,臺中市南屯區永春東路３３９號１樓,120.6477,24.13447,(04)24730983,羅氏家用新冠病毒抗原自我檢測套組,78,2022/05/01 09:39:02,實名制口罩販賣時段-平日8：00~12:00，15:00~21:00，週六8點~13點，周日公休
5903280807,大樹南屯藥局,臺中市南屯區向上路一段６４３號１樓,120.6486,24.14659,(04)24758887,羅氏家用新冠病毒抗原自我檢測套組,78,2022/05/01 09:39:02,快篩實名制，每天16:00開始販售，售完為止。
5903280889,精科藥局,臺中市南屯區嶺東路３２１號１樓,120.6106,24.14513,(04)23806288,羅氏家用新冠病毒抗原自我檢測套組,78,2022/05/01 09:39:02,5／1發放時間待收到快篩時公告。
5903280898,佑全台中忠勇藥局,臺中市南屯區忠勇路５１－８號１樓,120.614,24.14376,(04)23803282,羅氏家用新冠病毒抗原自我檢測套組,78,2022/05/01 09:39:02,實名制快篩發放號碼牌13:50  販售14:00（限量78份）
5903280923,南屯丁丁藥局,臺中市南屯區五權西路二段２１８號１樓,120.6503,24.14035,(04)36015077,羅氏家用新冠病毒抗原自我檢測套組,64,2022/05/01 09:39:02,無
5903290045,康美得藥局,臺中市北屯區昌平路１段１０５－８號,120.6903,24.17373,(04)22467128,羅氏家用新冠病毒抗原自我檢測套組,78,2022/05/01 09:39:02,W日（5月1日）早上10點開始販售，請上（康美得藥局）臉書查詢
5903290661,康博中西健保藥局,臺中市北屯區后庄一街７號１樓,120.6644,24.1865,(04)24252468,羅氏家用新冠病毒抗原自我檢測套組,78,2022/05/01 09:39:02,快篩發放於下午01:00作業.週六.日及假日下午06:30開始
5903290803,英全藥局,臺中市北屯區北平路三段３４號,120.6803,24.17105,(04)22345179,羅氏家用新冠病毒抗原自我檢測套組,4,2022/05/01 09:39:02,營業時間早上8點到晚上11點  快篩購買時間早上九點
5903290876,北屯軍功藥局,臺中市北屯區軍功路一段７５２號,120.7193,24.17513,(04)24375111,羅氏家用新冠病毒抗原自我檢測套組,78,2022/05/01 09:39:02,快篩實名制，每天16:00開始販售，售完為止。
5903290929,微笑藥局,臺中市北屯區昌平路一段３１８號１樓,120.6907,24.17344,(04)22432699,羅氏家用新冠病毒抗原自我檢測套組,156,2022/05/01 09:39:02,【快篩試劑】下午2:30起~現場排隊~
5903290974,興安永佳藥局,臺中市北屯區興安路一段３３３號１樓,120.6944,24.17431,(04)22437876,羅氏家用新冠病毒抗原自我檢測套組,78,2022/05/01 09:39:02,下午2點發號碼牌，直接販賣口罩
5903290983,祥和藥局,臺中市北屯區太原路三段１４７號１樓,120.6901,24.16507,(04)22369603,羅氏家用新冠病毒抗原自我檢測套組,78,2022/05/01 09:39:02,快篩販售4／30後：下午2點開始
5903290992,益川健保藥局,臺中市北屯區昌平路二段４７－１號１樓,120.6829,24.1917,(04)24213696,羅氏家用新冠病毒抗原自我檢測套組,78,2022/05/01 09:39:02,快篩試劑早上10點現場販售，售完為止，星期日下午3點開始販售
5903291006,五和健保藥局,臺中市北屯區崇德路二段４６０號１樓,120.6863,24.18001,(04)22415533,羅氏家用新冠病毒抗原自我檢測套組,156,2022/05/01 09:39:02,週六公休 。周一至周五 14:30 發號碼牌 15:00販售； 週日 9:00發號碼牌 10:00販售
5903291079,富丘藥局,臺中市北屯區興安路二段７７號１樓,120.6947,24.17686,(04)22477301,羅氏家用新冠病毒抗原自我檢測套組,78,2022/05/01 09:39:02,實名制快篩試劑早上08:30販售
5903291104,惠登藥局,臺中市北屯區豐樂路３２之９號１樓,120.6897,24.19282,(04)24225682,羅氏家用新冠病毒抗原自我檢測套組,78,2022/05/01 09:39:02,無
5903291131,兩隻老虎藥局,臺中市北屯區崇德路２段１２號１樓,120.6855,24.16869,(04)22364635,羅氏家用新冠病毒抗原自我檢測套組,78,2022/05/01 09:39:02,營業時間早上九點到晚上九點半（快篩下午兩點開賣）
5903291140,興安藥局,臺中市北屯區興安路二段５２號１、２樓,120.6949,24.1762,(04)22460369,羅氏家用新冠病毒抗原自我檢測套組,76,2022/05/01 09:39:02,快篩實名制，每天16:00開始販售，售完為止。
5903291168,日初藥局,臺中市北屯區軍功路一段４８２－３號１樓,120.7188,24.17102,(04)24363150,羅氏家用新冠病毒抗原自我檢測套組,78,2022/05/01 09:39:02,無
5903291248,潔西卡大藥局,臺中市北屯區崇德路二段３１４號１樓,120.686,24.1765,(04)22416879,羅氏家用新冠病毒抗原自我檢測套組,78,2022/05/01 09:39:02,無
5903291257,新一代何藥局,臺中市北屯區環中東路二段２６６、２６８號１樓,120.7207,24.17576,(04)24364366,羅氏家用新冠病毒抗原自我檢測套組,78,2022/05/01 09:39:02,5／1（日）下午開賣
5903291266,佑全台中興安藥局,臺中市北屯區興安路一段２５３號,120.6941,24.17221,(04)22490355,羅氏家用新冠病毒抗原自我檢測套組,78,2022/05/01 09:39:02,無
5905010036,橘子藥局,臺南市新營區民權路１１８之２號,120.312,23.30989,(06)6351881,羅氏家用新冠病毒抗原自我檢測套組,78,2022/05/01 09:39:02,快篩實名制10:00開始販售，會發號碼牌 ； 週一至週五10:00-19:00，週六及週日（若前一天有配送快篩才會開，10:00-12:00）
5905010250,大樹新營藥局,臺南市新營區民權路７４、７６、７８號１樓,120.3127,23.30615,(06)6328300,羅氏家用新冠病毒抗原自我檢測套組,78,2022/05/01 09:39:02,快篩實名制，每天16:00開始販售，售完為止。
5905010330,新進啄木鳥藥局,臺南市新營區新進路２段２５４號１樓,120.3056,23.30074,(06)6565303,羅氏家用新冠病毒抗原自我檢測套組,78,2022/05/01 09:39:02,無
5905020023,大樹鹽水藥局,臺南市鹽水區朝琴路１２６－３號１樓,120.271,23.32228,(06)6520432,羅氏家用新冠病毒抗原自我檢測套組,78,2022/05/01 09:39:02,快篩實名制，每天16:00開始販售，售完為止。
5905030010,美恩健保藥局,臺南市白河區永安里中山路８１號１樓,120.4153,23.35018,(06)6858865,羅氏家用新冠病毒抗原自我檢測套組,26,2022/05/01 09:39:02,無
5905030092,大樹白河藥局,臺南市白河區中山路１５３號１樓,120.417,23.35255,(06)6830006,羅氏家用新冠病毒抗原自我檢測套組,78,2022/05/01 09:39:02,快篩實名制，每天16:00開始販售，售完為止。
5905040123,麻豆啄木鳥藥局,臺南市麻豆區興國路５６－２２號１樓,120.2471,23.17712,(06)5714786,羅氏家用新冠病毒抗原自我檢測套組,78,2022/05/01 09:39:02,星期一~六  10:30–售完
5905040141,大樹麻豆藥局,臺南市麻豆區中山路４８、５０號１樓,120.2469,23.18382,(06)5716556,羅氏家用新冠病毒抗原自我檢測套組,78,2022/05/01 09:39:02,快篩實名制，每天16:00開始販售，售完為止。
5905050058,佳里啄木鳥藥局,臺南市佳里區延平路７６號１樓,120.1795,23.15507,(06)7236396,羅氏家用新冠病毒抗原自我檢測套組,78,2022/05/01 09:39:02,0900-售完為止
5905050192,復佑藥局,臺南市佳里區光復路３１５號１樓,120.1746,23.16289,(06)7222771,羅氏家用新冠病毒抗原自我檢測套組,78,2022/05/01 09:39:02,每日早上10點開始販售:防疫家用快篩試劑
5905050209,大樹佳里藥局,臺南市佳里區延平路２３７號１樓,120.1783,23.1599,(06)7231323,羅氏家用新冠病毒抗原自我檢測套組,78,2022/05/01 09:39:02,快篩實名制，每天16:00開始販售，售完為止。
5905060161,和德藥局新化店,臺南市新化區清水里中山路４２０號１樓,120.3047,23.0359,(06)5802518,羅氏家用新冠病毒抗原自我檢測套組,78,2022/05/01 09:39:02,快篩販售時間:星期一~星期六 一人限2 張卡下午3點~售完
5905060198,大樹新化藥局,臺南市新化區中正路５３１號１樓,120.3072,23.03764,(06)5901331,羅氏家用新冠病毒抗原自我檢測套組,78,2022/05/01 09:39:02,快篩實名制，每天16:00開始販售，售完為止。
5905070121,大樹善化藥局,臺南市善化區民權路５４、５６、５８號１樓,120.3034,23.1322,(06)5830550,羅氏家用新冠病毒抗原自我檢測套組,78,2022/05/01 09:39:02,快篩實名制，每天16:00開始販售，售完為止。
5905070201,善化啄木鳥藥局,臺南市善化區中山路１８１號１、２樓,120.3006,23.13256,(06)5853585,羅氏家用新冠病毒抗原自我檢測套組,78,2022/05/01 09:39:02,無
5905080056,大樹學甲藥局,臺南市學甲區中正路１３５號１樓,120.1793,23.23029,(06)7820001,羅氏家用新冠病毒抗原自我檢測套組,78,2022/05/01 09:39:02,快篩實名制，每天16:00開始販售，售完為止。
5905090061,安安藥局柳營店,臺南市柳營區福安一街５０號１樓,120.3126,23.27711,(06)6220585,羅氏家用新冠病毒抗原自我檢測套組,78,2022/05/01 09:39:02,快篩實名制早上8點開始販售，請帶健保卡，現場排隊!
5905130024,人大藥局,臺南市六甲區中山路７號,120.3513,23.23059,(06)6988802,羅氏家用新冠病毒抗原自我檢測套組,76,2022/05/01 09:39:02,口罩販售時間：星期一-日07:30-售完
5905130051,唯安健保藥局,臺南市六甲區中正路４７７號１樓,120.3511,23.22957,(06)6980550,羅氏家用新冠病毒抗原自我檢測套組,78,2022/05/01 09:39:02,無
5905140039,安安藥局隆田店,臺南市官田區中山路一段１５號１樓,120.3186,23.1927,(06)5795705,羅氏家用新冠病毒抗原自我檢測套組,70,2022/05/01 09:39:02,全日口罩販賣
5905160013,長榮藥局,臺南市西港區新興街１２巷１４號１樓,120.2019,23.12005,(06)7952617,羅氏家用新冠病毒抗原自我檢測套組,78,2022/05/01 09:39:02,實名制快篩，早上十點開始販售
5905200085,大樹新市藥局,臺南市新市區中正路４９、５１號１樓,120.2916,23.07223,(06)5892552,羅氏家用新冠病毒抗原自我檢測套組,78,2022/05/01 09:39:02,快篩實名制，每天16:00開始販售，售完為止。
5905210027,愛心藥師藥局,臺南市安定區港南里港口１４７號,120.233,23.09041,(06)5935104,羅氏家用新冠病毒抗原自我檢測套組,78,2022/05/01 09:39:02,春節營業時間請電洽或依現場公告
5905270041,仁德市安藥師藥局,臺南市仁德區中正西路２５號,120.2244,22.91814,(06)2661933,羅氏家用新冠病毒抗原自我檢測套組,78,2022/05/01 09:39:02,口罩販賣：星期一至星期日09:15~售完，現場制不發號碼牌，售完為止。
5905270176,大樹仁德藥局,臺南市仁德區中正路二段１１５２號１樓,120.2519,22.97062,(06)2797466,羅氏家用新冠病毒抗原自我檢測套組,78,2022/05/01 09:39:02,快篩實名制，每天16:00開始販售，售完為止。
5905280109,大樹青青藥局,臺南市歸仁區中山路三段１２號,120.2875,22.96765,(06)2300301,羅氏家用新冠病毒抗原自我檢測套組,78,2022/05/01 09:39:02,快篩實名制，每天16:00開始販售，售完為止。
5905280136,悅橙歸仁藥局,臺南市歸仁區大通路４３號１樓,120.296,22.9676,(06)2396660,羅氏家用新冠病毒抗原自我檢測套組,156,2022/05/01 09:39:02,8:30開始現場販售
5905280154,喜樂藥局,臺南市歸仁區辜厝里中正南路一段１１４號１樓,120.293,22.96419,(06)2305101,羅氏家用新冠病毒抗原自我檢測套組,77,2022/05/01 09:39:02,無
5905280163,歸仁丁丁藥局,臺南市歸仁區中山路三段７３號１樓,120.2861,22.96753,(06)2300767,羅氏家用新冠病毒抗原自我檢測套組,78,2022/05/01 09:39:02,快篩實名制早上9點販售，發號碼牌
5905290034,大樹關廟藥局,臺南市關廟區中央路２６３號１樓,120.3272,22.96109,(06)5965889,羅氏家用新冠病毒抗原自我檢測套組,78,2022/05/01 09:39:02,快篩實名制，每天16:00開始販售，售完為止。
5905310157,信仁藥局,臺南市永康區中華西街１４９號,120.2257,23.01581,(06)2337755,羅氏家用新冠病毒抗原自我檢測套組,49,2022/05/01 09:39:02,實名制快篩販售時間 : 9:30起至售完為止
5905310264,仁安藥師藥局,臺南市永康區崑山里大仁街６１號,120.2566,23.00183,(06)2056055,羅氏家用新冠病毒抗原自我檢測套組,21,2022/05/01 09:39:02,快篩實名制中午12點開始販售
5905310326,美德生醫藥局,臺南市永康區復國一路４９６號１樓,120.245,23.01514,(06)2030463,羅氏家用新冠病毒抗原自我檢測套組,78,2022/05/01 09:39:02,口罩販售時間：星期一~星期日 09:30~售完
5905310344,昱賢藥師藥局中正店,臺南市永康區中正路１４１、１４３號１樓,120.2375,23.04097,(06)2021535,羅氏家用新冠病毒抗原自我檢測套組,78,2022/05/01 09:39:02,快篩販售時間：星期一~星期日每天14點購買快篩
5905310817,永大啄木鳥藥局,臺南市永康區永大路二段３９７號１樓,120.2632,23.01227,(06)2071575,羅氏家用新冠病毒抗原自我檢測套組,78,2022/05/01 09:39:02,快篩販售星期一~星期日15:00~售完
5905310933,樂馨藥局,臺南市永康區中山路８５號１樓,120.2561,23.02984,(06)2038100,羅氏家用新冠病毒抗原自我檢測套組,78,2022/05/01 09:39:02,固定周一至周六9:00開始現場排隊依序販售口罩，售完為止
5905311001,和德藥局復國店,臺南市永康區復國里復國一路３３９之７號１樓,120.2464,23.01155,(06)2038728,羅氏家用新冠病毒抗原自我檢測套組,78,2022/05/01 09:39:02,每日／星期日 下午3:00-5:00購買快篩  限一人2張卡
5905311010,樂丞藥局,臺南市永康區中正北路６０號１樓,120.2406,23.04138,(06)2433319,羅氏家用新冠病毒抗原自我檢測套組,78,2022/05/01 09:39:02,快篩販售時間：晚上七點開賣至售完
5905311038,莉志藥局,臺南市永康區建國里復國路８７巷３號１樓,120.2459,23.00103,(06)3123090,羅氏家用新冠病毒抗原自我檢測套組,78,2022/05/01 09:39:02,實名制快篩販售，周一至六整天皆可購買，營業時間早上8點販售至售完；周日公休
5905311074,中華長億藥局,臺南市永康區中華路７３４、７３６號１樓,120.2288,23.0167,(06)3022322,羅氏家用新冠病毒抗原自我檢測套組,78,2022/05/01 09:39:02,快篩實名制，每天16:00開始販售，售完為止。
5905311092,永大丁丁藥局,臺南市永康區永大路二段１５１６號１樓,120.2611,23.02493,(06)2013690,羅氏家用新冠病毒抗原自我檢測套組,78,2022/05/01 09:39:02,無
5905311127,台南永康藥局,臺南市永康區中山南路８１６、８１６─１、２、３號１樓,120.2471,23.02099,(06)2020201,羅氏家用新冠病毒抗原自我檢測套組,79,2022/05/01 09:39:02,快篩實名制，每天16:00開始販售，售完為止。
5905311145,慈惠中西藥局,臺南市永康區北興里北興路３５８號１樓,120.2709,23.01289,(06)2050956,羅氏家用新冠病毒抗原自我檢測套組,78,2022/05/01 09:39:02,快篩實名制：週一至週日14:00開始販售（以實際到貨時間為主）
5905311190,和德藥局大灣店,臺南市永康區崑山里永大路二段９號１樓,120.2595,23.00127,(06)2735049,羅氏家用新冠病毒抗原自我檢測套組,78,2022/05/01 09:39:02,快篩販售時間14:30-17:00
5905320466,佑全中華藥局,臺南市東區中華東路三段２１５號,120.2253,22.97603,(06)2906386,羅氏家用新冠病毒抗原自我檢測套組,77,2022/05/01 09:39:02,星期一-六08:00-21:00
5905320475,美生藥局,臺南市東區德高里自由路一段１６１號１樓,120.2367,22.96862,(06)2670035,羅氏家用新冠病毒抗原自我檢測套組,78,2022/05/01 09:39:02,週一到週六早上8:00開賣
5905320608,中華台安藥局,臺南市東區中華東路一段４號１樓,120.2344,22.99818,(06)2092622,羅氏家用新冠病毒抗原自我檢測套組,109,2022/05/01 09:39:02,固定週一至周五13點-16點販售口罩，售完為止，現場為主
5905320635,晉大藥局,臺南市東區東光里東興路２６４號１樓,120.2298,22.99522,(06)2092580,羅氏家用新冠病毒抗原自我檢測套組,78,2022/05/01 09:39:02,快篩實名制下午3點開始販售
5905320706,悅橙藥局,臺南市東區崇明路４５９號１樓,120.2247,22.97311,(06)2605168,羅氏家用新冠病毒抗原自我檢測套組,78,2022/05/01 09:39:02,無
5905320779,安麗兒藥局仁和店,臺南市東區仁和路１０５－１號１樓,120.2329,22.97181,(06)2908000,羅氏家用新冠病毒抗原自我檢測套組,78,2022/05/01 09:39:02,快篩實名制同營業時間  領藥者優先領藥
5905320797,大樹自由藥局,臺南市東區自由路三段３８２號１樓,120.2373,22.98241,(06)2890800,羅氏家用新冠病毒抗原自我檢測套組,78,2022/05/01 09:39:02,快篩實名制，每天16:00開始販售，售完為止。
5905320804,大樹大同藥局,臺南市東區大同路二段２２７、２２９號１樓,120.2143,22.97567,(06)2158700,羅氏家用新冠病毒抗原自我檢測套組,78,2022/05/01 09:39:02,快篩實名制，每天16:00開始販售，售完為止。
5905320868,大樹東寧藥局,臺南市東區東寧路４３６號１樓,120.2291,22.9895,(06)2360006,羅氏家用新冠病毒抗原自我檢測套組,78,2022/05/01 09:39:02,快篩實名制，每天16:00開始販售，售完為止。
5905320886,中華崇德藥局,臺南市東區中華東路三段１８１、１８３號１樓,120.2259,22.97667,(06)2880800,羅氏家用新冠病毒抗原自我檢測套組,78,2022/05/01 09:39:02,快篩實名制，每天16:00開始販售，售完為止。
5905320911,大樹崇道藥局,臺南市東區崇道路６３號１樓,120.2272,22.97227,(06)2680456,羅氏家用新冠病毒抗原自我檢測套組,79,2022/05/01 09:39:02,快篩實名制，每天16:00開始販售，售完為止。
5905320948,崇明台安藥局,臺南市東區崇明路３０４號１樓,120.2198,22.97762,(06)2900350,羅氏家用新冠病毒抗原自我檢測套組,78,2022/05/01 09:39:02,無
5905330159,勝一藥局,臺南市南區省躬里灣裡路９０號１樓,120.1807,22.93114,(06)2626168,羅氏家用新冠病毒抗原自我檢測套組,156,2022/05/01 09:39:02,快篩實名制時間:下午2點~售完
5905330275,太子藥局大同店,臺南市南區大同路二段３４８號１樓,120.2138,22.97574,(06)2158339,羅氏家用新冠病毒抗原自我檢測套組,22,2022/05/01 09:39:02,快篩實名制：星期一至星期日，9:00起至售完為止。
5905330284,大樹佳華藥局,臺南市南區金華路二段１２９號１樓,120.1911,22.98035,(06)2641238,羅氏家用新冠病毒抗原自我檢測套組,78,2022/05/01 09:39:02,快篩實名制，每天16:00開始販售，售完為止。
5905330337,千薏台安藥局,臺南市南區金華路二段２號１樓,120.1912,22.97556,(06)2638265,羅氏家用新冠病毒抗原自我檢測套組,78,2022/05/01 09:39:02,快篩試劑每天下午兩點開始銷售
5905330417,明興啄木鳥藥局,臺南市南區明興路５１號１樓,120.1883,22.95974,(06)2620793,羅氏家用新冠病毒抗原自我檢測套組,78,2022/05/01 09:39:02,每日10:30開始賣實名制快篩
5905340235,人人藥局,臺南市中西區和緯路５段１９７號１樓,120.1845,23.00393,(06)3583668,羅氏家用新冠病毒抗原自我檢測套組,78,2022/05/01 09:39:02,快篩，每日下午兩點開始過卡販售。
5905350133,大昌藥局,臺南市北區北安路１段１３２號１樓,120.2127,23.01481,(06)2519121,羅氏家用新冠病毒抗原自我檢測套組,78,2022/05/01 09:39:02,下午3點開賣快篩
5905350268,宸安藥局,臺南市北區光民里成功路４３６號１樓,120.1981,23.00093,(06)2238679,羅氏家用新冠病毒抗原自我檢測套組,78,2022/05/01 09:39:02,9:00-23:00
5905350366,千多藥局,臺南市北區金華路五段１號,120.1962,23.0016,(06)2228641,羅氏家用新冠病毒抗原自我檢測套組,78,2022/05/01 09:39:02,晚上6點開始銷售實名制快篩試劑，賣完為止
5905350428,大正藥局,臺南市北區公園南路３２４號１樓,120.2033,23.00268,(06)2226899,羅氏家用新冠病毒抗原自我檢測套組,78,2022/05/01 09:39:02,快篩試劑下午13:30發放~售完
5905350482,大欣藥局,臺南市北區公園路２０３號１樓,120.2077,22.99941,(06)2236828,羅氏家用新冠病毒抗原自我檢測套組,79,2022/05/01 09:39:02,快篩實名制早上9點開始販售
5905350535,開元台安藥局,臺南市北區開元路２８８號１樓,120.2226,23.00852,(06)2818061,羅氏家用新冠病毒抗原自我檢測套組,156,2022/05/01 09:39:02,4／30停賣快篩
5905370073,宜康藥局同安店,臺南市安南區同安路２３５號１樓,120.1921,23.0425,(06)2470720,羅氏家用新冠病毒抗原自我檢測套組,78,2022/05/01 09:39:02,星期一~星期日08:10~23:00
5905370304,大樹安南藥局,臺南市安南區安和路四段５５７號１樓,120.2185,23.06181,(06)3563370,羅氏家用新冠病毒抗原自我檢測套組,78,2022/05/01 09:39:02,口罩販賣時段：14:00 - 16:00
5905370331,草湖寮王藥局,臺南市安南區梅花里安中路一段６３３號１樓,120.1977,23.04163,(06)2465859,羅氏家用新冠病毒抗原自我檢測套組,78,2022/05/01 09:39:02,5／1  快篩尚未到貨，到貨即開賣
5905370466,大樹北安藥局,臺南市安南區北安路三段１５８號１樓,120.2036,23.04256,(06)2553633,羅氏家用新冠病毒抗原自我檢測套組,78,2022/05/01 09:39:02,快篩實名制，每天16:00開始販售，售完為止。
5905380097,宜康永華藥局,臺南市安平區國平里永華路二段７８５號１樓,120.1701,22.99098,(06)2930119,羅氏家用新冠病毒抗原自我檢測套組,78,2022/05/01 09:39:02,快篩販售:星期一~日:15~16點， 備妥剛好金額
5905380239,怡家藥局,臺南市安平區國平里華平路１４６─５號１樓,120.174,22.98438,(06)2970519,羅氏家用新冠病毒抗原自我檢測套組,78,2022/05/01 09:39:02,本週日5／1（08:00-10:00售完為止）特地加開發售公費快篩
5905380293,人仁藥局,臺南市安平區怡平里慶平路２８１號１樓,120.1763,22.99668,(06)2998667,羅氏家用新冠病毒抗原自我檢測套組,78,2022/05/01 09:39:02,快篩每日下午2點開賣.現場排隊無號碼牌
5905380408,永華啄木鳥藥局,臺南市安平區永華路二段３６９號１樓,120.1806,22.98956,(06)2985173,羅氏家用新冠病毒抗原自我檢測套組,78,2022/05/01 09:39:02,快篩暫定於每日早上10點30分販售
5905380426,好朋友藥師藥局,臺南市安平區建平七街６８３號１樓,120.1692,22.98999,(06)2997907,羅氏家用新冠病毒抗原自我檢測套組,78,2022/05/01 09:39:02,無
5907010150,育英藥局文德店,高雄市鳳山區文德路２９號,120.3527,22.63836,(07)7777059,羅氏家用新冠病毒抗原自我檢測套組,78,2022/05/01 09:39:02,營業時間上午12:00~下午10:00藥局發口罩時間為下午:12:00售完為止
5907010203,新富丁丁藥局,高雄市鳳山區新富路９５號,120.3361,22.6127,(07)7156198,羅氏家用新冠病毒抗原自我檢測套組,78,2022/05/01 09:39:02,自2020／12／31日，營業日09:00開始，販賣口罩時間上午09:00，售完為止
5907010730,鳳山啄木鳥藥局,高雄市鳳山區善美里保泰路３３６號１樓,120.3348,22.60287,(07)7162314,羅氏家用新冠病毒抗原自我檢測套組,78,2022/05/01 09:39:02,營業日08:50發號碼牌，發完立即販售，售完為止
5907011040,伊甸藥師藥局文化店,高雄市鳳山區文福里文化西路１１號１樓,120.3494,22.63475,(07)7776002,羅氏家用新冠病毒抗原自我檢測套組,78,2022/05/01 09:39:02,自2／11日~2／29日，營業日09:00開始販賣口罩，售完為止。
5907011095,鳳山五甲藥局,高雄市鳳山區正義里五甲二路１３９號１樓,120.3409,22.6014,(07)7269899,羅氏家用新冠病毒抗原自我檢測套組,78,2022/05/01 09:39:02,快篩實名制，每天16:00開始販售，售完為止。
5907011111,壹然藥局,高雄市鳳山區中正里瑞興路４６２號１樓,120.3713,22.63084,(07)7014755,羅氏家用新冠病毒抗原自我檢測套組,78,2022/05/01 09:39:02,今日已停止營業販售，明日5／1（日）早上8:30開始販賣，剩餘22，其餘須等政府當日配售，時間不定
5907011148,大樹國泰藥局,高雄市鳳山區興仁里五甲一路２９２號,120.3539,22.61698,(07)7407234,羅氏家用新冠病毒抗原自我檢測套組,78,2022/05/01 09:39:02,快篩實名制，每天16:00開始販售，售完為止。
5907011175,鳳西藥局,高雄市鳳山區忠義里中山西路２３８號１樓,120.3471,22.62831,(07)7902717,羅氏家用新冠病毒抗原自我檢測套組,78,2022/05/01 09:39:02,快篩實名制，每天16:00開始販售，售完為止。
5907011193,新高橋藥局新富店,高雄市鳳山區新泰里新富路４２８號１樓,120.3451,22.61288,(07)9630233,羅氏家用新冠病毒抗原自我檢測套組,78,2022/05/01 09:39:02,早上10:00開始販售口罩
5907011228,鳳山青年藥局,高雄市鳳山區文德里青年路二段３９９號１樓,120.3513,22.64292,(07)7678383,羅氏家用新冠病毒抗原自我檢測套組,78,2022/05/01 09:39:02,口罩販售時間：14:00 - 16:00
5907011291,桂林活力藥師藥局鳳山店,高雄市鳳山區中正里瑞興路４８８號１樓,120.3719,22.63089,(07)7012827,羅氏家用新冠病毒抗原自我檢測套組,106,2022/05/01 09:39:02,自營業日販售口罩時間：早上8點半至晚上十點
5907011317,凱旋藥局,高雄市鳳山區國隆里新富路３７３號１樓,120.3475,22.61494,(07)7671181,羅氏家用新冠病毒抗原自我檢測套組,78,2022/05/01 09:39:02,快篩實名制，每天16:00開始販售，售完為止。
5907011362,佑全鳳山藥局,高雄市鳳山區文德里青年路二段４６３號１－２樓,120.3498,22.64513,(07)7801568,羅氏家用新冠病毒抗原自我檢測套組,78,2022/05/01 09:39:02,無
5907011371,大樹五甲藥局,高雄市鳳山區福祥里五甲三路２４號１－２樓．２６號１－２樓,120.3278,22.59317,(07)8224926,羅氏家用新冠病毒抗原自我檢測套組,78,2022/05/01 09:39:02,快篩實名制，每天16:00開始販售，售完為止。
5907020085,大德藥局,高雄市岡山區大德一路９８號,120.3025,22.79689,(07)6221456,羅氏家用新冠病毒抗原自我檢測套組,78,2022/05/01 09:39:02,快篩實名制，每天16:00開始販售，售完為止。
5907020094,大樹岡山藥局,高雄市岡山區岡山路１３６號,120.2967,22.78913,(07)6219477,羅氏家用新冠病毒抗原自我檢測套組,78,2022/05/01 09:39:02,快篩實名制，每天16:00開始販售，售完為止。
5907030134,旗山啄木鳥藥局,高雄市旗山區中華路１０５０號,120.4828,22.87904,(07)6625728,羅氏家用新冠病毒抗原自我檢測套組,78,2022/05/01 09:39:02,發口罩時間:09:00-19:00
5907030152,旗山藥局,高雄市旗山區中華路２３號,120.4841,22.88027,(07)6621158,羅氏家用新冠病毒抗原自我檢測套組,78,2022/05/01 09:39:02,快篩實名制，每天16:00開始販售，售完為止。
5907040014,寶樹藥局,高雄市美濃區中山路１段８８號,120.5393,22.90148,(07)6812323,羅氏家用新冠病毒抗原自我檢測套組,42,2022/05/01 09:39:02,自4／28 起，營業日08:00~19:00為販賣快篩試劑時間，售完為止
5907050010,新朋友藥師連鎖藥局,高雄市林園區東林東路４４號,120.3971,22.50389,(07)6460588,羅氏家用新冠病毒抗原自我檢測套組,156,2022/05/01 09:39:02,快篩於每日下午3:30，開始發放
5907050092,林園啄木鳥藥局,高雄市林園區鳳林路二段８０３號１樓,120.3957,22.5135,(07)6414772,羅氏家用新冠病毒抗原自我檢測套組,78,2022/05/01 09:39:02,春節只有休除夕3個小時（9:00~18:00）
5907050109,林園藥局,高雄市林園區仁愛路１３號１樓,120.3928,22.50418,(07)6425855,羅氏家用新冠病毒抗原自我檢測套組,78,2022/05/01 09:39:02,快篩實名制，每天16:00開始販售，售完為止。
5907060034,化春藥師藥局,高雄市大寮區中庄里中庄路３７號,120.3964,22.63453,(07)7037275,羅氏家用新冠病毒抗原自我檢測套組,78,2022/05/01 09:39:02,快篩實名制星期一至星期五早上8:00開始，六.日9:00開始
5907060043,永成專業藥師藥局,高雄市大寮區中興里鳳林四路６２號,120.3878,22.6152,(07)7816221,羅氏家用新冠病毒抗原自我檢測套組,78,2022/05/01 09:39:02,新冠快篩試劑到貨.星期1-5.早上8點半.星期六.日早上10點.售完為止
5907060098,佳和健保藥局,高雄市大寮區鳳林三路５１２號,120.3954,22.60616,(07)7821500,羅氏家用新冠病毒抗原自我檢測套組,78,2022/05/01 09:39:02,自2／11日~2／29日，營業日8:30~12:00、15:00-21:00為販賣口罩時間，售完為止。
5907060230,華思中西藥局,高雄市大寮區永芳里進學路１２２號１樓,120.3933,22.60468,(07)7835567,羅氏家用新冠病毒抗原自我檢測套組,78,2022/05/01 09:39:02,星期一~星期六 下午四點販售實名制快篩  星期天店休
5907060258,杏合藥局,高雄市大寮區後庄里民族路２７０號１樓,120.3917,22.63746,(07)7023620,羅氏家用新冠病毒抗原自我檢測套組,78,2022/05/01 09:39:02,實名制快篩：週一~週五8:00，週六日9:00開始販售或領取號碼牌
5907060267,加嘉藥局,高雄市大寮區山頂里內厝路１９１號１樓,120.3901,22.60793,(07)7860683,羅氏家用新冠病毒抗原自我檢測套組,78,2022/05/01 09:39:02,無
5907070012,舒康藥師藥局,高雄市大樹區久堂路１２９號,120.4167,22.65781,(07)6520268,羅氏家用新冠病毒抗原自我檢測套組,78,2022/05/01 09:39:02,14:00~18:00若提前售完，銷售時間提前結束。
5907070030,久堂藥局,高雄市大樹區久堂里久堂路１３６號１樓,120.4178,22.65813,(07)6512800,羅氏家用新冠病毒抗原自我檢測套組,78,2022/05/01 09:39:02,快篩實名制，每天16:00開始販售，售完為止。
5907080125,仁武丁丁藥局,高雄市仁武區仁和里鳳仁路２１之８號,120.3558,22.6802,(07)3721896,羅氏家用新冠病毒抗原自我檢測套組,78,2022/05/01 09:39:02,自4月1日~4月30日，營業日9:00起為販賣口罩時間，售完為止。
5907080214,新高橋藥局八德中店,高雄市仁武區八卦里八德中路８６、８８、９０號,120.3393,22.68489,(07)3485857,羅氏家用新冠病毒抗原自我檢測套組,78,2022/05/01 09:39:02,早上09:30開始販售口罩至晚間21:30
5907080223,新高橋藥局仁雄店,高雄市仁武區赤山里仁雄路８９－３號,120.3457,22.67722,(07)3485857,羅氏家用新冠病毒抗原自我檢測套組,78,2022/05/01 09:39:02,早上10:00開始販售口罩
5907080232,大樹仁武藥局,高雄市仁武區赤山里仁雄路８０－９號,120.3469,22.67811,(07)3744777,羅氏家用新冠病毒抗原自我檢測套組,78,2022/05/01 09:39:02,快篩實名制，每天16:00開始販售，售完為止。
5907080330,文武藥局,高雄市仁武區文武里中華路３５３號,120.3535,22.7011,(07)3733551,羅氏家用新冠病毒抗原自我檢測套組,78,2022/05/01 09:39:02,快篩實名制，每天16:00開始販售，售完為止。
5907090023,金元發藥局,高雄市大社區中山路１９９號,120.3471,22.73215,(07)3542200,羅氏家用新冠病毒抗原自我檢測套組,78,2022/05/01 09:39:02,快篩實名制：08:00~21:30售完為止
5907090032,上鼎藥師健保藥局,高雄市大社區中山路４２３號,120.3526,22.73146,(07)3531053,羅氏家用新冠病毒抗原自我檢測套組,78,2022/05/01 09:39:02,每日9:30開放民眾購買快篩，售完為止。
5907090087,安泰專業藥師藥局,高雄市大社區中山路２６７號１樓,120.3492,22.73194,(07)3553715,羅氏家用新冠病毒抗原自我檢測套組,78,2022/05/01 09:39:02,快篩每日下午2點20分發號碼牌，2點30分準時發放
5907090167,大樹大社藥局,高雄市大社區中山路３０８號１樓,120.3503,22.73145,(07)3531682,羅氏家用新冠病毒抗原自我檢測套組,78,2022/05/01 09:39:02,快篩實名制，每天16:00開始販售，售完為止。
5907100088,本館藥局,高雄市鳥松區大華里本館路１９０號１樓,120.3361,22.65556,(07)3707655,羅氏家用新冠病毒抗原自我檢測套組,78,2022/05/01 09:39:02,營業時間每日09:00-22:00  實名制快篩販賣時間15:00-20:00
5907110048,和德藥局橋頭店,高雄市橋頭區橋南路１１６－１號,120.3125,22.75441,(07)6113580,羅氏家用新冠病毒抗原自我檢測套組,78,2022/05/01 09:39:02,快篩下午15:00開賣  售完為止
5907120017,和德藥局燕巢店,高雄市燕巢區西燕里中民路６２８號,120.3612,22.79345,(07)6143499,羅氏家用新冠病毒抗原自我檢測套組,78,2022/05/01 09:39:02,5／1 因物流無配送快篩試劑，無法確定到貨時間，故早上9:00暫停發放，造成不便請見諒!!
5907150257,大樹大立藥局,高雄市路竹區國昌路５１號,120.26,22.85409,(07)6961663,羅氏家用新冠病毒抗原自我檢測套組,78,2022/05/01 09:39:02,快篩實名制，每天16:00開始販售，售完為止。
5907160093,保生藥局,高雄市湖內區葉厝里保生路３４０．３４２號,120.2195,22.90733,(07)6990800,羅氏家用新冠病毒抗原自我檢測套組,78,2022/05/01 09:39:02,快篩實名制，每天16:00開始販售，售完為止。
5907200047,永恒健康生活藥局,高雄市梓官區智蚵里通安路１７６號１樓,120.252,22.7307,(07)6102755,羅氏家用新冠病毒抗原自我檢測套組,78,2022/05/01 09:39:02,自05／01日起，營業日8:30~21:30為販賣口罩時間，售完為止
5907200065,復安堂藥局,高雄市梓官區信蚵里廣澤路２號１樓,120.2553,22.7297,(07)6103147,羅氏家用新冠病毒抗原自我檢測套組,78,2022/05/01 09:39:02,W一-五0830~1200，1500~1800，1900~2100，W六08:30~12:00，週日1800（實名制快篩試劑每天早上0830開始販售，售完為止）
5907280036,七賢藥局,高雄市鹽埕區七賢三路１６２號１樓,120.2829,22.62712,(07)5330616,羅氏家用新冠病毒抗原自我檢測套組,78,2022/05/01 09:39:02,快篩實名制，每天16:00開始販售，售完為止。
5907290023,明倫藥局,高雄市鼓山區明倫路１５０號１樓,120.2979,22.66507,(07)5520736,羅氏家用新冠病毒抗原自我檢測套組,78,2022/05/01 09:39:02,快篩星期一到六，早上9:50發號碼牌，10:00開始販售快篩
5907290158,美館久億藥局,高雄市鼓山區美術東二路２４５、２４７號,120.2883,22.66526,(07)5227762,羅氏家用新冠病毒抗原自我檢測套組,78,2022/05/01 09:39:02,星期一至星期天快篩發放，以物流實際到貨時間開始發放，請持續注意快篩地圖
5907290265,新美館藥局,高雄市鼓山區中華一路９７２號,120.2919,22.65513,(07)5522006,羅氏家用新冠病毒抗原自我檢測套組,78,2022/05/01 09:39:02,無
5907290274,明誠丁丁藥局,高雄市鼓山區明誠三路４６５號,120.3011,22.66097,(07)5520120,羅氏家用新冠病毒抗原自我檢測套組,78,2022/05/01 09:39:02,口罩代售時間自09:00
5907290309,鼓山藥局,高雄市鼓山區華榮路１０號,120.2973,22.66156,(07)5520017,羅氏家用新冠病毒抗原自我檢測套組,78,2022/05/01 09:39:02,快篩實名制，每天16:00開始販售，售完為止。
5907290336,丁丁藥局,高雄市鼓山區美術東二路７號,120.2877,22.65167,(07)3854991,羅氏家用新冠病毒抗原自我檢測套組,7,2022/05/01 09:39:02,無
5907290354,文昇藥局,高雄市鼓山區慶豐街１２５號,120.2942,22.66724,(07)5525314,羅氏家用新冠病毒抗原自我檢測套組,64,2022/05/01 09:39:02,無
5907300088,神農健保藥局,高雄市左營區重和路１１７號,120.3121,22.68463,(07)3418228,羅氏家用新冠病毒抗原自我檢測套組,156,2022/05/01 09:39:02,星期一到六每天14點購買快篩，星期天公休
5907300239,左野藥局,高雄市左營區崇德路２２２號,120.3052,22.675,(07)3486883,羅氏家用新冠病毒抗原自我檢測套組,78,2022/05/01 09:39:02,每日營業．實名制快篩販售時間15:00-20:00售完為止! 14:50發號碼牌
5907300631,大樹孟子藥局,高雄市左營區孟子路２２６、２２８號,120.3112,22.67415,(07)3461772,羅氏家用新冠病毒抗原自我檢測套組,78,2022/05/01 09:39:02,快篩實名制，每天16:00開始販售，售完為止。
5907300686,左營自由藥局,高雄市左營區自由二路３５０、３５０－１號,120.3091,22.66599,(07)5589991,羅氏家用新冠病毒抗原自我檢測套組,78,2022/05/01 09:39:02,快篩實名制，每天16:00開始販售，售完為止。
5907300711,富元聯合健康藥局,高雄市左營區博愛三路３７號,120.3038,22.67145,(07)3488585,羅氏家用新冠病毒抗原自我檢測套組,78,2022/05/01 09:39:02,無
5907300819,志全藥局,高雄市左營區富國路１６８號１樓,120.3068,22.66075,(07)5568217,羅氏家用新冠病毒抗原自我檢測套組,78,2022/05/01 09:39:02,藥局販售口罩時間，依藥局門口公告時間為主（售完為止）
5907300908,明自丁丁藥局,高雄市左營區自由二路１５２號１樓,120.3089,22.66223,(07)5568902,羅氏家用新冠病毒抗原自我檢測套組,78,2022/05/01 09:39:02,無
5907300926,高鐵藥局,高雄市左營區華夏路１３２２．１３２６號,120.312,22.68587,(07)3452797,羅氏家用新冠病毒抗原自我檢測套組,78,2022/05/01 09:39:02,快篩實名制，每天16:00開始販售，售完為止。
5907300944,左營藥局,高雄市左營區華夏路３２５號,120.2972,22.67167,(07)5501017,羅氏家用新冠病毒抗原自我檢測套組,78,2022/05/01 09:39:02,快篩實名制，每天16:00開始販售，售完為止。
5907300980,大路藥局,高雄市左營區左營大路５５－２號１樓,120.2877,22.6813,(07)5851001,羅氏家用新冠病毒抗原自我檢測套組,78,2022/05/01 09:39:02,快篩實名制，每天16:00開始販售，售完為止。
5907301049,新高橋藥局裕誠店,高雄市左營區裕誠路２９１號１樓,120.3078,22.66511,(07)5573857,羅氏家用新冠病毒抗原自我檢測套組,78,2022/05/01 09:39:02,無
5907310262,大樹楠梓藥局,高雄市楠梓區軍校路９０８號,120.2919,22.71246,(07)3632322,羅氏家用新冠病毒抗原自我檢測套組,78,2022/05/01 09:39:02,快篩實名制，每天16:00開始販售，售完為止。
5907310342,楠梓久億藥局,高雄市楠梓區德祥路２２１號,120.3075,22.72657,(07)3657099,羅氏家用新冠病毒抗原自我檢測套組,77,2022/05/01 09:39:02,每日78份實名制快篩販售時間10AM-3PM，提早售完即截止。
5907310360,百康藥局,高雄市楠梓區右昌街４１６號,120.2884,22.71571,(07)3601281,羅氏家用新冠病毒抗原自我檢測套組,78,2022/05/01 09:39:02,賣快篩時間：周一至週六早上09:00起買快篩，至晚上10:00，周日依前日未購完之數量可續購
5907310388,宸實藥局,高雄市楠梓區後昌路４７巷２３－１號,120.3129,22.71975,(07)3642142,羅氏家用新冠病毒抗原自我檢測套組,78,2022/05/01 09:39:02,5／2公休_5／1快篩尚未到貨。
5907310404,藍田藥局,高雄市楠梓區藍田路１號,120.2953,22.72643,(07)3601236,羅氏家用新冠病毒抗原自我檢測套組,78,2022/05/01 09:39:02,快篩實名制，每天16:00開始販售，售完為止。
5907310468,黃藥局,高雄市楠梓區建楠路１８６號１樓,120.3261,22.72716,(07)3515700,羅氏家用新冠病毒抗原自我檢測套組,78,2022/05/01 09:39:02,快篩實名制中午1點開始販售
5907320133,莊敬藥局,高雄市三民區大昌一路３２號１樓,120.3278,22.65307,(07)3976079,羅氏家用新冠病毒抗原自我檢測套組,78,2022/05/01 09:39:02,早上9點發號碼牌，12點之後可買快篩試劑
5907320259,明誠藥局,高雄市三民區明誠一路１７２號,120.3273,22.65994,(07)3108636,羅氏家用新冠病毒抗原自我檢測套組,78,2022/05/01 09:39:02,星期一到星期六早上9點售快篩.星期日下午3點售快篩
5907320375,聖一健保藥局,高雄市三民區鼎山街３６３號,120.322,22.65771,(07)3959300,羅氏家用新冠病毒抗原自我檢測套組,78,2022/05/01 09:39:02,無
5907320428,東京藥局,高雄市三民區建工路６８５號,120.3173,22.6478,(07)3874567,羅氏家用新冠病毒抗原自我檢測套組,78,2022/05/01 09:39:02,實名制快篩販售時間: 每日15:00-晚上20:00
5907320697,鄰好藥師藥局,高雄市三民區褒揚街２８７號,120.3398,22.64097,(07)3909589,羅氏家用新冠病毒抗原自我檢測套組,78,2022/05/01 09:39:02,購買實名制快篩時間下午14:00-16:00，各類防疫用品販售中
5907320811,力生藥局,高雄市三民區鼎中路１６８號１樓,120.3194,22.6622,(07)3105231,羅氏家用新冠病毒抗原自我檢測套組,78,2022/05/01 09:39:02,營業日星期一~星期五11點起、星期六~星期日晚上6點 開始販賣（實名制快篩）.售完為止
5907320848,仕康健保藥妝藥局,高雄市三民區建興路２２２號,120.325,22.6447,(07)3845050,羅氏家用新冠病毒抗原自我檢測套組,156,2022/05/01 09:39:02,下午3點販售，現場排隊
5907320875,耀美麗藥局,高雄市三民區中華三路２８３號,120.2931,22.63585,(07)2153885,羅氏家用新冠病毒抗原自我檢測套組,78,2022/05/01 09:39:02,中午12:00販售現場排隊（仕康健保藥局）
5907320893,大樹天祥藥局,高雄市三民區天祥一路１６７號,120.3191,22.66737,(07)3429902,羅氏家用新冠病毒抗原自我檢測套組,79,2022/05/01 09:39:02,快篩實名制，每天16:00開始販售，售完為止。
5907320900,大昌藥局,高雄市三民區大昌二路３９７號,120.3317,22.64915,(07)3961396,羅氏家用新冠病毒抗原自我檢測套組,78,2022/05/01 09:39:02,快篩實名制，每天16:00開始販售，售完為止。
5907320964,森心藥局,高雄市三民區自強一路２１６號１樓,120.2917,22.63527,(07)2818580,羅氏家用新冠病毒抗原自我檢測套組,78,2022/05/01 09:39:02,快篩領取時間星期一至五早上9點至晚上九點半.週六早上及晚上. 周日早上0
5907321032,三民明誠藥局,高雄市三民區明誠一路５００號１－２Ｆ及５０２號,120.3223,22.66046,(07)3493137,羅氏家用新冠病毒抗原自我檢測套組,78,2022/05/01 09:39:02,營業時間早上9點至晚上10點
5907321069,桂林活力藥局九如店,高雄市三民區懷安街１１２號１樓,120.3176,22.64095,(07)3981009,羅氏家用新冠病毒抗原自我檢測套組,78,2022/05/01 09:39:02,每天15:30發號碼牌，於18:00前兌換完畢，逾期棄權，剩餘則繼續發放
5907321103,自由藥局,高雄市三民區自由一路７８號,120.3089,22.64422,(07)3223113,羅氏家用新冠病毒抗原自我檢測套組,78,2022/05/01 09:39:02,快篩實名制，每天16:00開始販售，售完為止。
5907321158,窩窩香藥局,高雄市三民區明哲路４２－１號１樓,120.312,22.66176,(07)3505883,羅氏家用新冠病毒抗原自我檢測套組,78,2022/05/01 09:39:02,快篩配送時間尚未固定，依FB公告販售時間為主
5907330040,維康藥局,高雄市新興區中正三路６５號,120.3078,22.63077,(07)2615396,羅氏家用新冠病毒抗原自我檢測套組,78,2022/05/01 09:39:02,快篩代售時間:星期一至星期六15:00-18:00，星期日9:00-12:00
5907330200,新興復興藥局,高雄市新興區復興一路７６號１樓,120.3085,22.63312,(07)2352550,羅氏家用新冠病毒抗原自我檢測套組,78,2022/05/01 09:39:02,快篩實名制，每天16:00開始販售，售完為止。
5907350195,健順藥局,高雄市苓雅區自強三路１４０號,120.2986,22.61724,(07)2695832,羅氏家用新冠病毒抗原自我檢測套組,78,2022/05/01 09:39:02,自2／6起，營業日0830~22:00為口罩販售時間，售完為止
5907350220,仁愛藥師藥局,高雄市苓雅區中正一路２３０號,120.3296,22.62921,(07)7222300,羅氏家用新冠病毒抗原自我檢測套組,84,2022/05/01 09:39:02,快篩販售一到五10:30開始，紅字假日12:30開始
5907350300,辰安藥局,高雄市苓雅區青年一路１８５－２號,120.3069,22.62138,(07)5365545,羅氏家用新冠病毒抗原自我檢測套組,78,2022/05/01 09:39:02,自3／1日~3／31日，星期一至五09:00開始販售口罩.售完為止 六日11點開賣
5907350499,鑫美健保特約藥局,高雄市苓雅區光華一路１４８－５８號１樓,120.3158,22.62389,(07)7715088,羅氏家用新冠病毒抗原自我檢測套組,78,2022/05/01 09:39:02,09:00開賣實名制快篩，依照配送狀況販售
5907350506,大樹苓雅藥局,高雄市苓雅區中華四路１５３號,120.3001,22.61783,(07)5353111,羅氏家用新冠病毒抗原自我檢測套組,78,2022/05/01 09:39:02,快篩實名制，每天16:00開始販售，售完為止。
5907350551,大樹武廟藥局,高雄市苓雅區武廟路４３、４５號１樓,120.3314,22.63005,(07)7222268,羅氏家用新冠病毒抗原自我檢測套組,78,2022/05/01 09:39:02,快篩實名制，每天16:00開始販售，售完為止。
5907350560,成功合豐藥局,高雄市苓雅區成功一路１７０號１樓,120.2972,22.61595,(07)2695657,羅氏家用新冠病毒抗原自我檢測套組,78,2022/05/01 09:39:02,早上9點開始賣口罩~晚上9點   售完為止
5907350631,三多藥局,高雄市苓雅區三多二路２９２號１樓,120.3173,22.61838,(07)3365889,羅氏家用新冠病毒抗原自我檢測套組,78,2022/05/01 09:39:02,快篩實名制，每天16:00開始販售，售完為止。
5907360146,好芳鄰藥局,高雄市前鎮區光華二路２５７號,120.3179,22.61398,(07)3318657,羅氏家用新冠病毒抗原自我檢測套組,75,2022/05/01 09:39:02,4／28日起.上午08:20~11:00 為販賣快篩時間.售完為止（其餘時間不販賣）
5907360324,有承中西藥局,高雄市前鎮區德昌路２５７號１樓,120.3155,22.5849,(07)8120880,羅氏家用新冠病毒抗原自我檢測套組,78,2022/05/01 09:39:02,配合政府實名制快篩， 販售時間依政府配送時間滾動式調整
5907360379,金服安藥局,高雄市前鎮區鎮興路１９１號,120.3115,22.59249,(07)8150061,羅氏家用新冠病毒抗原自我檢測套組,78,2022/05/01 09:39:02,每日下午2-4點販賣快篩試劑
5907360413,益源藥局,高雄市前鎮區草衙二路４１８號,120.3226,22.57903,(07)8412120,羅氏家用新冠病毒抗原自我檢測套組,78,2022/05/01 09:39:02,無
5907360440,隆德藥局,高雄市前鎮區前鎮街１７０號１樓,120.3073,22.59003,(07)8216030,羅氏家用新冠病毒抗原自我檢測套組,58,2022/05/01 09:39:02,每天營業
5907360459,聯合藥局,高雄市前鎮區一心一路２８１號１樓,120.3141,22.60955,(07)3391535,羅氏家用新冠病毒抗原自我檢測套組,115,2022/05/01 09:39:02,上午9:30分開賣快篩
5907360655,民權丁丁藥局,高雄市前鎮區民權二路３４５號１－３樓,120.3128,22.61005,(07)9650177,羅氏家用新冠病毒抗原自我檢測套組,76,2022/05/01 09:39:02,快篩實名制早上9點開始販售
5907360664,忠純藥局,高雄市前鎮區中華五路１００９號１樓,120.3056,22.60341,(07)3366886,羅氏家用新冠病毒抗原自我檢測套組,78,2022/05/01 09:39:02,快篩實名制，每天16:00開始販售，售完為止。
5907360673,前鎮大樹藥局,高雄市前鎮區瑞隆路４７２號１樓,120.3291,22.60547,(07)7137171,羅氏家用新冠病毒抗原自我檢測套組,78,2022/05/01 09:39:02,快篩實名制，每天16:00開始販售，售完為止。
5907370053,瑞康藥師藥局,高雄市旗津區中洲三路５９７號,120.2724,22.60775,(07)5718985,羅氏家用新冠病毒抗原自我檢測套組,78,2022/05/01 09:39:02,藥局販售口罩時間，依藥局門口公告時間為主（售完為止）
5907380184,桂林活力藥師藥局孔鳳店,高雄市小港區孔鳳路５６１號１樓,120.3586,22.58393,(07)7912331,羅氏家用新冠病毒抗原自我檢測套組,104,2022/05/01 09:39:02,無
5907380264,大樹孔鳳藥局,高雄市小港區孔鳳路５１９、５２１號,120.3587,22.5828,(07)7918521,羅氏家用新冠病毒抗原自我檢測套組,78,2022/05/01 09:39:02,快篩實名制，每天16:00開始販售，售完為止。
5907380291,富康活力藥局小港店,高雄市小港區二苓路２０４號１樓,120.3488,22.56552,(07)8020333,羅氏家用新冠病毒抗原自我檢測套組,78,2022/05/01 09:39:02,實名制快篩販售時間: 星期一至五早上8點，星期六日早上9點，售完為止。
5907380353,桂林活力藥師藥局漢民店,高雄市小港區漢民路６９１－１及６９１－２號１樓,120.3614,22.56762,(07)8010636,羅氏家用新冠病毒抗原自我檢測套組,103,2022/05/01 09:39:02,無
5907380399,百鴻藥局,高雄市小港區康莊路１１５號,120.3549,22.56888,(07)8024141,羅氏家用新冠病毒抗原自我檢測套組,78,2022/05/01 09:39:02,無
5907380424,大樹小港藥局,高雄市小港區康莊路７５號１樓,120.3559,22.56853,(07)8068328,羅氏家用新冠病毒抗原自我檢測套組,78,2022/05/01 09:39:02,快篩實名制，每天16:00開始販售，售完為止。
5911010015,喬寶藥局,基隆市中正區義二路６６號１樓,121.7461,25.13187,(02)24202827,羅氏家用新冠病毒抗原自我檢測套組,78,2022/05/01 09:39:02,下午2點開賣
5911011450,文裕藥局,基隆市中正區八斗街１０號,121.7962,25.13991,(02)24691239,羅氏家用新冠病毒抗原自我檢測套組,78,2022/05/01 09:39:02,早上8:10開始販售快篩
5911011478,天康新豐藥局,基隆市中正區新豐街２５１巷４弄９號１樓,121.7885,25.13594,(02)24695168,羅氏家用新冠病毒抗原自我檢測套組,78,2022/05/01 09:39:02,無
5911011512,八斗子東亞藥局,基隆市中正區北寧路３７８號,121.7958,25.13944,(02)24698829,羅氏家用新冠病毒抗原自我檢測套組,78,2022/05/01 09:39:02,中午12點鐘開賣實名制快篩，售完為止
5911011594,禾新藥局,基隆市中正區新豐街２０５巷７號,121.7895,25.138,(02)24698940,羅氏家用新冠病毒抗原自我檢測套組,78,2022/05/01 09:39:02,快篩實名制販售時間:下午3點開始
5911011601,義一啄木鳥藥局,基隆市中正區義一路１１１號１、２樓,121.7471,25.13536,(02)24271456,羅氏家用新冠病毒抗原自我檢測套組,78,2022/05/01 09:39:02,國定假日無提供調劑業務，早上10:00到晚上09:50，每天10:30開始發快篩
5911011638,中正藥局,基隆市中正區新豐街３８５號１、２樓,121.7856,25.13537,(02)24690660,羅氏家用新冠病毒抗原自我檢測套組,78,2022/05/01 09:39:02,快篩實名制，每天16:00開始販售，售完為止。
5911030026,欣華藥局,基隆市暖暖區源遠路１９７號,121.7517,25.09843,(02)24576741,羅氏家用新冠病毒抗原自我檢測套組,78,2022/05/01 09:39:02,10
5911030035,陸記藥局,基隆市暖暖區源遠路２４１號,121.7543,25.09882,(02)24576712,羅氏家用新冠病毒抗原自我檢測套組,78,2022/05/01 09:39:02,每日下午兩點販售快篩試劑
5911031318,安安藥局,基隆市暖暖區源遠路１６８號,121.7492,25.09815,(02)24585577,羅氏家用新冠病毒抗原自我檢測套組,78,2022/05/01 09:39:02,每週六公休，每日08:30販售快篩
5911031327,百福暖暖專業藥局,基隆市暖暖區暖暖街１８９號１樓,121.7357,25.09904,(02)24596999,羅氏家用新冠病毒抗原自我檢測套組,78,2022/05/01 09:39:02,無
5911040228,大田大藥局,基隆市仁愛區仁二路５號,121.7507,25.12744,(02)24258762,羅氏家用新冠病毒抗原自我檢測套組,156,2022/05/01 09:39:02,下午2:00發號碼牌並販售
5911041350,何房藥局,基隆市仁愛區忠三路８１號,121.7389,25.12931,(02)24222978,羅氏家用新冠病毒抗原自我檢測套組,78,2022/05/01 09:39:02,無
5911041618,永樂藥局,基隆市仁愛區忠二路２２號,121.7401,25.13013,(02)24214878,羅氏家用新冠病毒抗原自我檢測套組,78,2022/05/01 09:39:02,無
5911041878,天康大藥局,基隆市仁愛區南榮路１４９號,121.743,25.12454,(02)77091122,羅氏家用新冠病毒抗原自我檢測套組,120,2022/05/01 09:39:02,無
5911041958,百福仁愛專業藥局,基隆市仁愛區仁四路５０號１樓,121.7413,25.12829,(02)24266699,羅氏家用新冠病毒抗原自我檢測套組,78,2022/05/01 09:39:02,4／30起，早上8:00販售快篩
5911050037,吉安藥局,基隆市中山區安一路３２號,121.7369,25.1316,(02)24260229,羅氏家用新冠病毒抗原自我檢測套組,78,2022/05/01 09:39:02,上午8:30分開賣快篩
5911050064,日星藥局,基隆市中山區安一路２５號,121.7369,25.13137,(02)24222090,羅氏家用新冠病毒抗原自我檢測套組,76,2022/05/01 09:39:02,十二點開始販賣
5911050153,隆泰藥局,基隆市中山區西定路１２號,121.7355,25.13184,(02)24225889,羅氏家用新冠病毒抗原自我檢測套組,78,2022/05/01 09:39:02,無
5911050162,錦泰藥局,基隆市中山區中山二路４３號,121.7405,25.13786,(02)24228523,羅氏家用新冠病毒抗原自我檢測套組,78,2022/05/01 09:39:02,快篩販賣時間星期一至五晚上7點，星期六，星期日休息
5911051267,親親藥局,基隆市中山區復興路１８１號,121.7264,25.14587,(02)24378323,羅氏家用新冠病毒抗原自我檢測套組,78,2022/05/01 09:39:02,無
5911051365,大慶大藥局,基隆市中山區中和路１６８巷３弄２０號,121.717,25.14982,(02)24378640,羅氏家用新冠病毒抗原自我檢測套組,78,2022/05/01 09:39:02,無
5911051392,寶慷藥局,基隆市中山區復興路１９１號１樓,121.7263,25.14611,(02)24362338,羅氏家用新冠病毒抗原自我檢測套組,78,2022/05/01 09:39:02,無
5911051490,大哈密藥局,基隆市中山區中山二路５號,121.741,25.13678,(02)24285368,羅氏家用新冠病毒抗原自我檢測套組,62,2022/05/01 09:39:02,發放快篩時間 9:30 至12:00
5911051543,復興藥局,基隆市中山區復興路１２８、１３０、１３２、１３４號１、２樓,121.7262,25.1446,(02)24362566,羅氏家用新冠病毒抗原自我檢測套組,78,2022/05/01 09:39:02,快篩實名制，每天16:00開始販售，售完為止。
5911061370,佑全基隆麥金藥局,基隆市安樂區麥金路２０１號地下１樓之１,121.7211,25.12158,(02)24347816,羅氏家用新冠病毒抗原自我檢測套組,78,2022/05/01 09:39:02,實名制快篩下午兩點開買，營業時間09:00-21:00
5911070011,信安藥局,基隆市信義區信二路９９號,121.7548,25.12912,(02)24238551,羅氏家用新冠病毒抗原自我檢測套組,78,2022/05/01 09:39:02,無
5911071572,元登藥局,基隆市信義區深溪路１４９號,121.7826,25.13475,(02)24663826,羅氏家用新冠病毒抗原自我檢測套組,78,2022/05/01 09:39:02,無
5911071590,基隆藥局,基隆市信義區東信路１６６、１６８號１、２樓,121.7646,25.12821,(02)24680955,羅氏家用新冠病毒抗原自我檢測套組,106,2022/05/01 09:39:02,快篩實名制，每天16:00開始販售，售完為止。
5911071607,家安藥師藥局,基隆市信義區信二路２５７、２５９號１樓,121.7478,25.1301,(02)24223917,羅氏家用新冠病毒抗原自我檢測套組,78,2022/05/01 09:39:02,星期一 ~ 星期五13:30開始銷售。
5912010528,華安中西藥局,新竹市東區振興里南大路６４８號一樓,120.9627,24.79286,(03)5610088,羅氏家用新冠病毒抗原自我檢測套組,78,2022/05/01 09:39:02,早上8:30販售快篩試劑
5912012531,三立藥局,新竹市東區新源街１００號,120.9929,24.80172,(03)5740112,羅氏家用新冠病毒抗原自我檢測套組,78,2022/05/01 09:39:02,實名制快篩販售時間:週一~~週日:07:30開始到售完為止
5912012620,新康藥局,新竹市東區林森路１８８號,120.9641,24.79907,(03)5256938,羅氏家用新冠病毒抗原自我檢測套組,78,2022/05/01 09:39:02,快篩因配送不及，本周六、日皆為下午04:00開始發放
5912012737,婷婷藥局,新竹市東區明湖路965號,120.9669,24.77371,(03)5290999,羅氏家用新冠病毒抗原自我檢測套組,78,2022/05/01 09:39:02,5／1星期日下午17點賣快篩
5912012862,佑信大藥局,新竹市東區新莊里光復路一段３６２─１３號,121.0157,24.78419,(03)6663578,羅氏家用新冠病毒抗原自我檢測套組,78,2022/05/01 09:39:02,快篩實際販售時間:13:00-15:00
5912012933,新芳鄰藥局,新竹市東區南大路４０２號,120.9695,24.79764,(03)5622183,羅氏家用新冠病毒抗原自我檢測套組,82,2022/05/01 09:39:02,快篩販賣 : 週一至週六8:00 ， 週日9:00  （隨時依政府快篩送達時間做滾動式調整）
5912013216,宏禎藥局,新竹市東區建新路４０號１樓,120.9971,24.79818,(03)5750238,羅氏家用新冠病毒抗原自我檢測套組,78,2022/05/01 09:39:02,口罩販賣時段:平日與假日上午8:00起現場排隊至售完為止
5912013261,禾心藥局,新竹市東區民生路２３１號１樓,120.9754,24.81199,(03)5332403,羅氏家用新冠病毒抗原自我檢測套組,78,2022/05/01 09:39:02,無
5912013458,佑全新竹自由藥局,新竹市東區自由路１０７號１、２樓,120.9798,24.81395,(03)5428497,羅氏家用新冠病毒抗原自我檢測套組,78,2022/05/01 09:39:02,實名制快篩依指揮中心公告每日販售時間以當日到貨時間為主，無固定時間。門市營業時間0900-2100
5912013494,田美藥局,新竹市東區田美三街３５之１號１樓,120.9767,24.81572,(03)5350233,羅氏家用新冠病毒抗原自我檢測套組,78,2022/05/01 09:39:02,快篩實名制，每天16:00開始販售，售完為止。
5912013547,佑全新竹光復藥局,新竹市東區仙水里光復路１段３５３號１樓,121.0176,24.78315,(03)6661826,羅氏家用新冠病毒抗原自我檢測套組,78,2022/05/01 09:39:02,（因快篩配送作業不及，快篩開賣時間可能會有所調整，請依現場公告為主）原則上為上午9:30開賣，9:20發號碼牌
5912013609,丁丁藥局,新竹市東區中華路二段９１號,120.9812,24.80794,(03)6117888,羅氏家用新冠病毒抗原自我檢測套組,78,2022/05/01 09:39:02,無
5912013627,合康連鎖藥局食品店,新竹市東區食品路１４０號１樓,120.977,24.79771,(03)5621111,羅氏家用新冠病毒抗原自我檢測套組,78,2022/05/01 09:39:02,實名快篩販售時間：下午17:00
5912013672,關東藥局,新竹市東區光復路１段３３２、３３４號１至２樓,121.0187,24.78289,(03)5777077,羅氏家用新冠病毒抗原自我檢測套組,78,2022/05/01 09:39:02,快篩實名制，每天16:00開始販售，售完為止。
5912042664,永沛藥局,新竹市北區湳雅街２０９號,120.9741,24.82093,(03)5328563,羅氏家用新冠病毒抗原自我檢測套組,78,2022/05/01 09:39:02,05／01星期日 早上10:20開賣
5912042717,好鄰居健保藥局,新竹市北區西門街１２３號（１樓）,120.9635,24.80146,(03)5400538,羅氏家用新冠病毒抗原自我檢測套組,65,2022/05/01 09:39:02,9:00~售完
5912042771,悅橙藥局,新竹市北區延平路１段１６１巷４３號１樓,120.9561,24.80333,(03)5250805,羅氏家用新冠病毒抗原自我檢測套組,78,2022/05/01 09:39:02,快篩販賣時間：08：30-10：00；營業時段；8:30-12:00、14:00-17:00、18:00-21:00
5912042815,合康連鎖藥局西大店,新竹市北區西大路６３６、６３８號１樓,120.9585,24.8101,(03)5233111,羅氏家用新冠病毒抗原自我檢測套組,78,2022/05/01 09:39:02,09:00
5912042940,新竹北門藥局,新竹市北區中正路３６０、３６２號１樓,120.9629,24.81414,(03)5333234,羅氏家用新冠病毒抗原自我檢測套組,156,2022/05/01 09:39:02,無
5912042968,大樹新竹藥局,新竹市北區西大路５４０、５４２號１、２樓,120.9619,24.80676,(03)5250388,羅氏家用新冠病毒抗原自我檢測套組,78,2022/05/01 09:39:02,快篩實名制，每天16:00開始販售，售完為止。
5912051421,牛埔丁丁藥局,新竹市香山區牛埔東路２４７號１樓,120.9442,24.79613,(03)5384612,羅氏家用新冠病毒抗原自我檢測套組,1,2022/05/01 09:39:02,無
5912051430,三姓藥局,新竹市香山區中華路四段５７６號１、２樓,120.9297,24.78886,(03)5385886,羅氏家用新冠病毒抗原自我檢測套組,78,2022/05/01 09:39:02,快篩實名制，每天16:00開始販售，售完為止。
5912051467,健佑藥局,新竹市香山區大庄路４５巷２、６號,120.9284,24.78931,(03)5306555,羅氏家用新冠病毒抗原自我檢測套組,78,2022/05/01 09:39:02,快篩試劑下午兩點開始販售
5917010126,永大藥局,臺中市中區錦上里民族路１２２號,120.6786,24.14054,(04)22210180,羅氏家用新冠病毒抗原自我檢測套組,87,2022/05/01 09:39:02,09:00開始代售口罩，人多會發號碼牌 （周日休息）
5917020060,來安藥局,臺中市東區十甲東路４８８號１樓,120.7073,24.13824,(04)22116977,羅氏家用新冠病毒抗原自我檢測套組,78,2022/05/01 09:39:02,發快篩時間早上8點
5917020211,何藥局,臺中市東區精武路１８０號１樓,120.691,24.14765,(04)23605435,羅氏家用新冠病毒抗原自我檢測套組,78,2022/05/01 09:39:02,快篩下午4:00開始販售，現場排隊，直接返售，售完為止。
5917021718,中大藥局,臺中市東區十甲路５０５號,120.7109,24.14466,(04)22131348,羅氏家用新冠病毒抗原自我檢測套組,78,2022/05/01 09:39:02,無
5917030128,太信藥局,臺中市西區三民路一段９５－１號１樓,120.6698,24.13322,(04)23718318,羅氏家用新冠病毒抗原自我檢測套組,78,2022/05/01 09:39:02,請早上09:00→健保卡&快篩
5917030146,新永富藥局,臺中市西區吉龍里美村路一段６７０號,120.6615,24.13555,(04)23766127,羅氏家用新冠病毒抗原自我檢測套組,78,2022/05/01 09:39:02,每日中午12:00~13:00 販售..健保卡實名制快篩 請自備500元／份
5917030271,國良藥局,臺中市西區西屯路１段２２０號,120.6707,24.15344,(04)22018772,羅氏家用新冠病毒抗原自我檢測套組,78,2022/05/01 09:39:02,快篩試劑，下午2點開始販售，售完為止。
5917030842,向上中西藥局,臺中市西區向上路一段３５９號１樓,120.6561,24.1465,(04)24756688,羅氏家用新冠病毒抗原自我檢測套組,78,2022/05/01 09:39:02,週一至週六上午08:30開始販售快篩，售完為止
5917030995,麗新健保大藥局,臺中市西區向上路一段１６２號,120.6612,24.1469,(04)23017100,羅氏家用新冠病毒抗原自我檢測套組,78,2022/05/01 09:39:02,週一至週日下午15:00至售完為止
5917032293,祥鶴大藥局,臺中市西區美村路一段六七三號一樓,120.6618,24.13561,(04)23710969,羅氏家用新冠病毒抗原自我檢測套組,78,2022/05/01 09:39:02,固定周一至周日早上8:00依序販售口罩至售完
5917032382,中港大藥局,臺中市西區臺灣大道２段１３２號,120.6714,24.14995,(04)22080708,羅氏家用新冠病毒抗原自我檢測套組,138,2022/05/01 09:39:02,無
5917032471,銘津藥局,臺中市西區民生路３９０號１樓,120.6611,24.14444,(04)23021314,羅氏家用新冠病毒抗原自我檢測套組,78,2022/05/01 09:39:02,每日上午10:00至13:00，下午3:00至21:00 現場排隊，星期日下午休息
5917032613,向日睽藥局,臺中市西區林森路９８－２號１樓,120.6707,24.1379,(04)23731893,羅氏家用新冠病毒抗原自我檢測套組,78,2022/05/01 09:39:02,每日早上9點開始當場販售口罩.星期日也賣
5917032739,婕康藥妝藥局,臺中市西區民生路１５９號１樓,120.671,24.14272,(04)22298777,羅氏家用新冠病毒抗原自我檢測套組,78,2022/05/01 09:39:02,每日下午3-5點 當場販售口罩
5917032800,壹藥局,臺中市西區美村路１段７７５號１樓,120.6618,24.13306,(04)23721998,羅氏家用新冠病毒抗原自我檢測套組,78,2022/05/01 09:39:02,星期一到星期日每天下午二點開始販售快篩試劑售完為止謝謝
5917032891,中山福倫藥局,臺中市西區中山路４８３號１、２樓,120.6728,24.14668,(04)22026818,羅氏家用新冠病毒抗原自我檢測套組,156,2022/05/01 09:39:02,實名制快篩試劑中午12:15開賣，每月每人1卡1份（5入）
5917032908,佑恩藥師藥局,臺中市西區精誠路６７號１樓,120.6553,24.15224,(04)23100058,羅氏家用新冠病毒抗原自我檢測套組,78,2022/05/01 09:39:02,實名制快篩周一到周六，早上9:00，周日下午2:10開始販賣
5917040099,義興配藥局,臺中市南區西川里忠明南路６２８號,120.6571,24.13072,(04)23751551,羅氏家用新冠病毒抗原自我檢測套組,78,2022/05/01 09:39:02,週一至週日上午9點販賣防疫口罩
5917040106,侑民藥局,臺中市南區興大路３９６巷４９號１樓,120.6712,24.11564,(04)22860146,羅氏家用新冠病毒抗原自我檢測套組,78,2022/05/01 09:39:02,週一至週五上午9點販賣防疫口罩，週六、日口罩停止販賣，2／8、2／15、2／22有販賣口罩，2／28有販賣口罩
5917040302,元聖藥局,臺中市南區積善里五權南路６５０號１樓,120.6702,24.11416,(04)22627468,羅氏家用新冠病毒抗原自我檢測套組,78,2022/05/01 09:39:02,週一至週日上午9點販賣防疫口罩
5917040464,陳信安藥局,臺中市南區永興里高工路３４９號,120.6665,24.11425,(04)22619560,羅氏家用新冠病毒抗原自我檢測套組,78,2022/05/01 09:39:02,實名制快篩 周一至六14:00開賣，庫存依現場為準，周日依政府配送調整
5917041765,荃大藥局,臺中市南區臺中路１５４號,120.6843,24.13114,(04)22858850,羅氏家用新冠病毒抗原自我檢測套組,78,2022/05/01 09:39:02,防疫口罩銷售時間:早上9:15~12:00止.（星期日無防疫口罩）.
5917041836,健康人生藥局,臺中市南區美村南路１３１號,120.6666,24.11725,(04)22633936,羅氏家用新冠病毒抗原自我檢測套組,78,2022/05/01 09:39:02,因政府配貨時間不一，依照門市現場公告時間為主!
5917050424,中心藥局,臺中市北區五權路２７９號１樓,120.6777,24.15169,(04)22012985,羅氏家用新冠病毒抗原自我檢測套組,24,2022/05/01 09:39:02,口罩每日上午8:00發放號碼牌，依序販售。全年無休。
5917050880,欣康藥局,臺中市北區館前路２１號,120.6657,24.15543,(04)23226837,羅氏家用新冠病毒抗原自我檢測套組,78,2022/05/01 09:39:02,週一至週六上午9時開始發放號碼牌，週日上午10時開始發放號碼牌。
5917051010,匯平藥局,臺中市北區北平路二段８２號,120.6746,24.17138,(04)22975556,羅氏家用新冠病毒抗原自我檢測套組,77,2022/05/01 09:39:02,上午10時開始發號碼牌，中午12時開始領口罩
5917051056,育光中西藥局,臺中市北區健行里梅亭街６６０號１樓,120.6655,24.16055,(04)22037520,羅氏家用新冠病毒抗原自我檢測套組,78,2022/05/01 09:39:02,上午9時開始發號碼牌（週日發放時間請電話洽詢）
5917053756,中心旗艦藥局,臺中市北區五權路４０４號,120.6821,24.15288,(04)22068113,羅氏家用新冠病毒抗原自我檢測套組,78,2022/05/01 09:39:02,固定周一到周日，下午2:00開始販賣防疫口罩
5917060055,德維中西藥局,臺中市西屯區西屯路三段１６４－１３號,120.6174,24.18855,(04)24611579,羅氏家用新冠病毒抗原自我檢測套組,78,2022/05/01 09:39:02,週一~週日 8:45販售，售完為止
5917060064,揚善藥局,臺中市西屯區中清路二段１３８６巷７６號,120.6587,24.19602,(04)24251242,羅氏家用新冠病毒抗原自我檢測套組,78,2022/05/01 09:39:02,周一到周六上午 9:00-22:30發售，售完為止
5917060204,宏光藥局,臺中市西屯區何安里西屯路二段９５之２３號,120.656,24.16535,(04)23137278,羅氏家用新冠病毒抗原自我檢測套組,78,2022/05/01 09:39:02,星期一至六早上8:10分開始販賣口罩（免號碼牌，依序隨到隨售，售完為止。）
5917062620,東亞藥師藥局,臺中市西屯區河南路２段３５０號１樓,120.6472,24.17387,(04)27022702,羅氏家用新冠病毒抗原自我檢測套組,44,2022/05/01 09:39:02,快篩販賣時段 09:30~12:00
5917062988,廣安大藥局,臺中市西屯區青海路一段一Ｏ一、一Ｏ三號,120.6536,24.16485,(04)23118572,羅氏家用新冠病毒抗原自我檢測套組,78,2022/05/01 09:39:02,週一~日10AM販售口罩售完為止，無發放號碼牌.
5917063065,達康藥局,臺中市西屯區中工三路１３９號,120.6186,24.17779,(04)23586332,羅氏家用新冠病毒抗原自我檢測套組,78,2022/05/01 09:39:02,週一~周日下午2點販售快篩售完為止，無發放號碼牌.
5917063350,天立專業藥師藥局,臺中市西屯區太原路１段２０７號１樓,120.6617,24.16318,(04)23160455,羅氏家用新冠病毒抗原自我檢測套組,78,2022/05/01 09:39:02,週一~週六快篩9:00售完為止，週日中午12：00售完為止
5917063725,永旭大藥局,臺中市西屯區逢甲路９２號１樓,120.6439,24.17883,(04)27087952,羅氏家用新冠病毒抗原自我檢測套組,78,2022/05/01 09:39:02,星期一到六每日10:00開始販售。星期日中午12點開始販售，售完為止
5917070186,濟安堂藥局,臺中市南屯區南屯路二段７８８號,120.6378,24.14028,(04)23899603,羅氏家用新冠病毒抗原自我檢測套組,78,2022/05/01 09:39:02,政府配送時間不一定....快篩販售時間都固定每天早上7點40分（現場排隊.不發號碼牌）
5917070355,承諭藥局,臺中市南屯區黎明路２段１９９號,120.636,24.14698,(04)23849128,羅氏家用新冠病毒抗原自我檢測套組,78,2022/05/01 09:39:02,快篩實名制周一、二、四、五早上10:30；周三、六晚上7:00
5917070382,得安藥局,臺中市南屯區溝墘里大墩路５９６號,120.6495,24.15136,(04)23234168,羅氏家用新冠病毒抗原自我檢測套組,78,2022/05/01 09:39:02,早上10:00開始現場購買快篩試劑，售完為止。
5917070462,長映藥局,臺中市南屯區黎明路二段４３２號１樓,120.6355,24.15166,(04)22510951,羅氏家用新冠病毒抗原自我檢測套組,78,2022/05/01 09:39:02,營業時間周一到周日，早上8:30-晚上10:30
5917071727,大愛藥局,臺中市南屯區向心南路９６２．９６４號１樓,120.644,24.13718,(04)24733646,羅氏家用新冠病毒抗原自我檢測套組,78,2022/05/01 09:39:02,無
5917072251,五六藥局,臺中市南屯區南屯路２段２４０號,120.6493,24.13696,(04)24757156,羅氏家用新冠病毒抗原自我檢測套組,78,2022/05/01 09:39:02,19 : 30 開始販售， 售完為止. （不發號碼牌）
5917072564,恒安藥局,臺中市南屯區南屯路２段１１９號,120.652,24.13585,(04)24722887,羅氏家用新冠病毒抗原自我檢測套組,80,2022/05/01 09:39:02,4／30下午3:00開始販售快篩
5917072577,睦林藥局,臺中市南屯區黎明路一段１１５５號,120.6381,24.14089,(04)23818218,羅氏家用新冠病毒抗原自我檢測套組,78,2022/05/01 09:39:02,快篩銷售時間：8:00至22:00，售完為止
5917072644,全成藥局,臺中市南屯區大墩６街２２３號,120.6464,24.14254,(04)24712897,羅氏家用新冠病毒抗原自我檢測套組,78,2022/05/01 09:39:02,實名制快篩每日15:00開始販售-售完為止（庫存以現場為主）
5917080262,寶麒藥局,臺中市北屯區旅順路２段１５０號,120.6895,24.174,(04)22433918,羅氏家用新冠病毒抗原自我檢測套組,78,2022/05/01 09:39:02,周一~周六每天下午1:00開始販售實名制快篩試劑，售完為止5／1，周日有營業。
5917080619,永佳藥局,臺中市北屯區昌平路１段１０５－５號１樓,120.6904,24.17362,(04)22438886,羅氏家用新冠病毒抗原自我檢測套組,78,2022/05/01 09:39:02,無
5917080744,早安藥局,臺中市北屯區崇德二路一段１９９號１樓,120.693,24.17641,(04)22439411,羅氏家用新冠病毒抗原自我檢測套組,78,2022/05/01 09:39:02,5月起周一至周六09:00開始販售快篩試劑，週日全天休息
5917082444,杏城藥局,臺中市北屯區崇德路２段２９２、２９４號,120.686,24.17596,(04)22464676,羅氏家用新冠病毒抗原自我檢測套組,67,2022/05/01 09:39:02,雙周的星期日休息，快篩開賣時間9點，假日10點
5917082800,美得康藥局,臺中市北屯區平德路１２２巷１號,120.6703,24.18501,(04)22924710,羅氏家用新冠病毒抗原自我檢測套組,78,2022/05/01 09:39:02,無
5917083021,吉士康樂活藥局,臺中市北屯區昌平路２段８－１６號,120.6902,24.17986,(04)22410108,羅氏家用新冠病毒抗原自我檢測套組,156,2022/05/01 09:39:02,每日12:00開始販售快篩試劑.售完為止.；星期日營業至晚上8:00；國定假日照常營業
5917083049,你好聯合藥局,臺中市北屯區陳平一街８８號,120.6663,24.18637,(04)22925759,羅氏家用新冠病毒抗原自我檢測套組,78,2022/05/01 09:39:02,星期日停售，   星期一下午4點發售
5917083101,北屯德康藥局,臺中市北屯區四平路４６９號１樓,120.681,24.19161,(04)24223378,羅氏家用新冠病毒抗原自我檢測套組,78,2022/05/01 09:39:02,每天早上9點30分發售口罩；前往領藥前先電話洽詢
5917083334,瑞東大藥局,臺中市北屯區東山路一段２４６之３號,120.7179,24.17542,(04)24373799,羅氏家用新冠病毒抗原自我檢測套組,121,2022/05/01 09:39:02,5／1今日快篩有發放，現場排隊，發完為止
5917083343,豋盛藥局,臺中市北屯區北平路三段１０７號,120.6827,24.17117,(04)22373863,羅氏家用新冠病毒抗原自我檢測套組,78,2022/05/01 09:39:02,實名制快篩販賣時間:4／30下午1點30分開賣
5921010072,統一藥局,臺南市東區中西里東門路１段２９１號,120.2186,22.98683,(06)2376638,羅氏家用新冠病毒抗原自我檢測套組,78,2022/05/01 09:39:02,早上9點到晚間9點半  星期日休假
5921010223,王藥局,臺南市東區小東里小東路１９０－１號,120.2276,22.99976,(06)2378697,羅氏家用新冠病毒抗原自我檢測套組,78,2022/05/01 09:39:02,週一 至 週日，下午 2:00 ~ 晚上9:00 （ 需健保卡 ）
5921010232,大家藥局,臺南市東區大同路二段１７５號,120.214,22.97682,(06)2153777,羅氏家用新冠病毒抗原自我檢測套組,78,2022/05/01 09:39:02,快篩實名制:星期一到星期日早上8:30開始 售完為止
5921010625,益丞藥局,臺南市東區裕農路３４８號,120.2294,22.98681,(06)2359865,羅氏家用新冠病毒抗原自我檢測套組,78,2022/05/01 09:39:02,無
5921010689,億安大藥局,臺南市東區大福里大同路２段２６５號,120.2145,22.97486,(06)2159881,羅氏家用新冠病毒抗原自我檢測套組,78,2022/05/01 09:39:02,防疫口罩週一至週六09:00~售完；現場制不發號碼牌
5921010992,光明宜康保健藥局,臺南市東區光明街３６之２號１樓,120.2282,22.9989,(06)2376448,羅氏家用新冠病毒抗原自我檢測套組,78,2022/05/01 09:39:02,快篩劑販售時間：星期一~六上午07：30至售完，星期日不營業；採現場排隊無號碼牌
5921012085,台安藥局,臺南市東區大同路一段１６３號,120.2113,22.98503,(06)2150011,羅氏家用新冠病毒抗原自我檢測套組,78,2022/05/01 09:39:02,快篩下午四點開始銷售
5921012530,早安藥師藥局,臺南市東區裕學路１１２號,120.2358,22.98502,(06)3350535,羅氏家用新冠病毒抗原自我檢測套組,78,2022/05/01 09:39:02,營業時間:8:30~23:30   快篩試劑發放時間 : 星期一到日14:00開始售完為止
5921013206,和德藥局,臺南市東區崇德路４９７號,120.2272,22.97435,(06)2882789,羅氏家用新冠病毒抗原自我檢測套組,78,2022/05/01 09:39:02,實名制快篩試劑販售時間14:30~17:00，開賣前10分鐘發號碼牌，售完即止
5921020167,全民藥局,臺南市南區喜東里喜樹路７３之１８號,120.18,22.94471,(06)2625814,羅氏家用新冠病毒抗原自我檢測套組,78,2022/05/01 09:39:02,08:00-22:00
5921020185,安心藥局,臺南市南區喜東里喜樹路１５１巷３３號,120.18,22.94099,(06)2622570,羅氏家用新冠病毒抗原自我檢測套組,78,2022/05/01 09:39:02,快篩服務時間 星期一至星期五 上午8時至10時
5921020425,日大中西藥局,臺南市南區永興一街３２號,120.1927,22.9659,(06)2612817,羅氏家用新冠病毒抗原自我檢測套組,78,2022/05/01 09:39:02,每日08:00~21:30
5921020489,市安藥師藥局,臺南市南區國民路１４２號,120.2123,22.96755,(06)2882627,羅氏家用新冠病毒抗原自我檢測套組,47,2022/05/01 09:39:02,快篩星期一~日約09:15開始販售至售完
5921021708,為仁藥師藥局,臺南市南區大同路二段１０６號,120.2123,22.98022,(06)2139376,羅氏家用新冠病毒抗原自我檢測套組,74,2022/05/01 09:39:02,無
5921021780,國山健保特約藥局,臺南市南區大同路２段４７８號,120.2145,22.97307,(06)2159570,羅氏家用新冠病毒抗原自我檢測套組,78,2022/05/01 09:39:02,無
5921030289,星宗藥局,臺南市中西區新安里大勇街３７號,120.1942,22.9898,(06)2223453,羅氏家用新冠病毒抗原自我檢測套組,78,2022/05/01 09:39:02,11:00開始販售
5921040276,全一藥局,臺南市北區大豐里和緯路四段９５巷３８號,120.1912,23.0076,(06)2580021,羅氏家用新冠病毒抗原自我檢測套組,67,2022/05/01 09:39:02,快篩實名制，每天早上08:00開始販售（週日有）
5921040294,澄清堂藥局,臺南市北區勝利路４９５號,120.2185,23.00648,(06)2377224,羅氏家用新冠病毒抗原自我檢測套組,76,2022/05/01 09:39:02,星期一~六14:30~售完
5921040436,嘉洲藥局,臺南市北區文元里文賢路２４０號,120.1938,23.0153,(06)2583180,羅氏家用新冠病毒抗原自我檢測套組,61,2022/05/01 09:39:02,星期一~六早上8:30營業，星期日早上9:00
5921041924,芳鄰藥局,臺南市北區公園北路１５２號,120.2084,23.00521,(06)2811101,羅氏家用新冠病毒抗原自我檢測套組,78,2022/05/01 09:39:02,無
5921042252,佳愛藥局,臺南市北區西門路四段３４１巷２號,120.2097,23.01532,(06)2516697,羅氏家用新冠病毒抗原自我檢測套組,78,2022/05/01 09:39:02,平日08:30-12:00 16:00-20:00 週六0830-12:00 國定假日公休
5921042289,公園店菁安藥局,臺南市北區公園路６１１號,120.2132,23.01501,(06)2834488,羅氏家用新冠病毒抗原自我檢測套組,78,2022/05/01 09:39:02,星期一~日08:00~20:00（或售完）
5921050076,千代藥局,臺南市中西區民生路一段６０號１樓,120.2034,22.99337,(06)2256895,羅氏家用新冠病毒抗原自我檢測套組,78,2022/05/01 09:39:02,快篩試劑實名制下午一點開始販售
5921050423,吉仁大藥局,臺南市中西區白金里民權路２段８６號,120.2045,22.99468,(06)2263777,羅氏家用新冠病毒抗原自我檢測套組,78,2022/05/01 09:39:02,周ㄧ到周日09:00~10:00開始依序購買快篩，售完為止。
5921060072,翰昌藥局,臺南市安南區溪東里北安路二段１１９號,120.2046,23.0272,(06)2596372,羅氏家用新冠病毒抗原自我檢測套組,78,2022/05/01 09:39:02,無
5921060143,嘉庭藥局,臺南市安南區海佃里國安街１１８號,120.1887,23.0224,(06)2581618,羅氏家用新冠病毒抗原自我檢測套組,78,2022/05/01 09:39:02,禮拜一至禮拜六17:30~19:00
5921060205,建壽藥局,臺南市安南區海東里海佃路２段５７２號,120.1874,23.04221,(06)2555388,羅氏家用新冠病毒抗原自我檢測套組,78,2022/05/01 09:39:02,快篩實名制早上8點開始販售
5921061542,景惠藥局,臺南市安南區安中路４段２號,120.1735,23.05076,(06)2557060,羅氏家用新冠病毒抗原自我檢測套組,78,2022/05/01 09:39:02,口罩代售時間自早上9:30---售完為止
5922010147,普羅藥局,嘉義市東區民權路１１４號,120.458,23.48361,(05)2754836,羅氏家用新冠病毒抗原自我檢測套組,35,2022/05/01 09:39:02,快篩試劑實名制每日08:00開始銷售
5922010263,秉榮藥局,嘉義市東區東仁里中山路１８９號,120.4553,23.48162,(05)2224320,羅氏家用新冠病毒抗原自我檢測套組,78,2022/05/01 09:39:02,周一至周日上午8:00起，售鑿為止。
5922010361,壽生堂藥局,嘉義市東區府路里延平街２８０號,120.4502,23.47683,(05)2225058,羅氏家用新冠病毒抗原自我檢測套組,78,2022/05/01 09:39:02,周一至周日上午09:00起，至20:00或售鑿為止。
5922010405,信輝藥局,嘉義市東區安寮里吳鳳南路３５３號,120.4553,23.4643,(05)2252415,羅氏家用新冠病毒抗原自我檢測套組,78,2022/05/01 09:39:02,早上08:00開始販售~售完為止
5922010441,穎川保健藥局,嘉義市東區仁武里中山路２０４號,120.4517,23.48096,(05)2223609,羅氏家用新冠病毒抗原自我檢測套組,78,2022/05/01 09:39:02,固定周一到周日07:00開始快篩賣
5922012383,振安藥局,嘉義市東區王田里林森東路３００號１樓,120.464,23.48889,(05)2756541,羅氏家用新冠病毒抗原自我檢測套組,78,2022/05/01 09:39:02,實名制快篩:周一至周日14:00開始販售，售完為止
5922012712,誠泰藥師藥局,嘉義市東區安寮里興業東路５６號１樓,120.4555,23.46932,(05)2168905,羅氏家用新冠病毒抗原自我檢測套組,78,2022/05/01 09:39:02,快篩實名制早上8點開始販售
5922012856,民族弘安藥局,嘉義市東區朝陽里民族路１６５號,120.4571,23.47653,(05)2240101,羅氏家用新冠病毒抗原自我檢測套組,78,2022/05/01 09:39:02,周一至周日08:00開始依序販售快篩，至售完為止.周日未配送快篩.停售
5922012945,大明藥局,嘉義市東區大雅路二段６８２號,120.4663,23.47719,(05)2760958,羅氏家用新冠病毒抗原自我檢測套組,78,2022/05/01 09:39:02,4／30星期六9:00領號碼卡 10:00-11:00 販售 5／1 星期日 晚上8:00 快篩供應
5922013059,杏光藥局,嘉義市東區保健街１４７號附４,120.4492,23.50036,(05)2745642,羅氏家用新冠病毒抗原自我檢測套組,124,2022/05/01 09:39:02,停售政府健保防疫口罩
5922013068,佑全嘉義吳鳳南藥局,嘉義市東區吳鳳南路５８５、５８７號,120.459,23.45639,(05)2399311,羅氏家用新冠病毒抗原自我檢測套組,78,2022/05/01 09:39:02,領取快篩14:00
5922013102,後庄藥局,嘉義市東區吳鳳南路６４９號,120.4594,23.45511,(05)2391233,羅氏家用新冠病毒抗原自我檢測套組,78,2022/05/01 09:39:02,快篩實名制，每天16:00開始販售，售完為止。
5922013193,民權藥局,嘉義市東區民權路１５５號１樓、１５７號１樓,120.4604,23.48374,(05)2775322,羅氏家用新冠病毒抗原自我檢測套組,78,2022/05/01 09:39:02,快篩實名制，每天16:00開始販售，售完為止。
5922020125,照安藥局,嘉義市西區福全里博愛路２段３６１號,120.435,23.47573,(05)2332883,羅氏家用新冠病毒抗原自我檢測套組,61,2022/05/01 09:39:02,口罩代售時間於08：00開始販售；現場。
5922020634,利安藥局,嘉義市西區番社里中山路３４４號１樓,120.4473,23.47984,(05)2225756,羅氏家用新冠病毒抗原自我檢測套組,78,2022/05/01 09:39:02,無
5922020661,大正藥局,嘉義市西區書院里民族路７０２號,120.4435,23.47554,(05)2285812,羅氏家用新冠病毒抗原自我檢測套組,53,2022/05/01 09:39:02,早上8:00開始販售~售完為止 !
5922020821,明興藥局,嘉義市西區仁愛路２４７號１樓,120.4425,23.47149,(05)2365938,羅氏家用新冠病毒抗原自我檢測套組,78,2022/05/01 09:39:02,口罩:每天9點準時開賣
5922020858,大統藥局,嘉義市西區慶安里北興街１３６號,120.4421,23.48389,(05)2330230,羅氏家用新冠病毒抗原自我檢測套組,48,2022/05/01 09:39:02,周一至周日營業時間全天販售口罩
5922020867,庭一藥局,嘉義市西區文化路４４２號,120.4468,23.48856,(05)2325900,羅氏家用新冠病毒抗原自我檢測套組,78,2022/05/01 09:39:02,配送時間不定，無法確認何時開賣
5922020956,國同藥局,嘉義市西區八德路１０１號１樓,120.4305,23.48528,(05)2327336,羅氏家用新冠病毒抗原自我檢測套組,78,2022/05/01 09:39:02,上午9-12點，下午1-10點
5922020992,昭安藥局,嘉義市西區民生南路４７９號１樓,120.4437,23.45821,(05)2842240,羅氏家用新冠病毒抗原自我檢測套組,68,2022/05/01 09:39:02,無
5922028596,一安藥局,嘉義市西區福民里興業西路３１１號,120.4387,23.4677,(05)2859275,羅氏家用新冠病毒抗原自我檢測套組,70,2022/05/01 09:39:02,周一至周日早上9點至晚上10點半依發放號碼排依序售完
5922028863,益生堂藥局,嘉義市西區杭州三街３０號,120.4446,23.46678,(05)2861415,羅氏家用新冠病毒抗原自我檢測套組,78,2022/05/01 09:39:02,平日（W一~W六）09:00，星期日（W日）10:30
5922028881,中興中西藥局,嘉義市西區垂楊路５０１號,120.4422,23.47297,(05)2353096,羅氏家用新冠病毒抗原自我檢測套組,78,2022/05/01 09:39:02,周一至周五10點開始，周末下午5點開始，並依序販售快篩售完為止
592202A054,萬泰藥師藥局,嘉義市西區民族路４９４號,120.449,23.47605,(05)2168605,羅氏家用新冠病毒抗原自我檢測套組,68,2022/05/01 09:39:02,快篩實名制5／1（日）尚未到貨，請勿排隊
592202A349,力健藥局,嘉義市西區文化路５９１號,120.4443,23.49355,(05)2323217,羅氏家用新冠病毒抗原自我檢測套組,41,2022/05/01 09:39:02,營業時間為早上8:00至中午13:00，下午2:30至晚上9:30，口罩發放從早上8:30至售完為止
592202A465,廣元藥局,嘉義市西區民安里中正路６９７號,120.4421,23.47842,(05)2252733,羅氏家用新冠病毒抗原自我檢測套組,78,2022/05/01 09:39:02,4／30 快篩試劑未到貨，預計5／1 下午2點才開賣，售完為止!
5931010011,埔墘藥局,新北市板橋區中山路２段２２７號,121.477,25.01741,(02)29646705,羅氏家用新冠病毒抗原自我檢測套組,78,2022/05/01 09:39:02,實名制快篩每天14:30發放號碼牌
5931010066,翰林藥局,新北市板橋區中正路２４０號,121.4557,25.01906,(02)29602748,羅氏家用新冠病毒抗原自我檢測套組,78,2022/05/01 09:39:02,早上8：00─晚上11：00
5931010217,皇安藥局,新北市板橋區中山路２段２４１號,121.4772,25.01757,(02)29524089,羅氏家用新冠病毒抗原自我檢測套組,4,2022/05/01 09:39:02,營業時間早上八點至晚上十一點
5931010342,宏達大藥局,新北市板橋區莒光路１７號,121.47,25.02478,(02)22572345,羅氏家用新冠病毒抗原自我檢測套組,156,2022/05/01 09:39:02,快篩 晚上20:00開始販售! 不要打電話來 問題這麼多就到現場 也不給你問
5931010397,正成藥師藥局,新北市板橋區三民路２段１５４巷７號,121.4787,25.01515,(02)29512760,羅氏家用新冠病毒抗原自我檢測套組,156,2022/05/01 09:39:02,無
5931010726,賜您康大藥局,新北市板橋區國泰街５０號,121.4679,25.00668,(02)29513166,羅氏家用新冠病毒抗原自我檢測套組,77,2022/05/01 09:39:02,口罩配發時間，平日一~五:11:00~13:00，假日六、日:12:00~14:00，口罩售完為止，其他時間不配發口罩。無發碼牌請自行排隊。
5931011161,全國藥局,新北市板橋區四川路１段２３１號,121.4601,25.00297,(02)29511212,羅氏家用新冠病毒抗原自我檢測套組,78,2022/05/01 09:39:02,健保口罩發放時間:星期一到星期六早上9:00~晚上10:00歡迎大家來領喔!
5931011241,利安藥局,新北市板橋區南雅東路１０８號,121.4535,25.00815,(02)29696295,羅氏家用新冠病毒抗原自我檢測套組,156,2022/05/01 09:39:02,口罩發放時段 週一至週六下午13:00-15:00
5931011330,戴安藥局,新北市板橋區溪北路５４號,121.4276,24.98982,(02)26818663,羅氏家用新冠病毒抗原自我檢測套組,78,2022/05/01 09:39:02,無
5931011438,萬壽藥局,新北市板橋區四川路１段２５１號,121.4599,25.00256,(02)29617476,羅氏家用新冠病毒抗原自我檢測套組,78,2022/05/01 09:39:02,快篩販售時間:星期一~星期六早上9:00~晚上10:00 星期日視物流到貨為準
5931012140,南雅藥局,新北市板橋區南雅南路１段５巷２２號,121.4563,25.00532,(02)22725358,羅氏家用新冠病毒抗原自我檢測套組,78,2022/05/01 09:39:02,口罩全天皆有販售 08:00~23:00
5931012239,信昌藥局,新北市板橋區三民路２段２０２－９號,121.4789,25.0142,(02)29510784,羅氏家用新冠病毒抗原自我檢測套組,78,2022/05/01 09:39:02,防疫口罩服務時間：平日下午2點至晚上4點（週日無銷售）
5931013389,谷全藥局,新北市板橋區裕民街４９號,121.4613,25.02851,(02)22561856,羅氏家用新冠病毒抗原自我檢測套組,28,2022/05/01 09:39:02,無
5931013692,合泰藥局,新北市板橋區忠孝路１９號１樓,121.4604,25.002,(02)29572437,羅氏家用新冠病毒抗原自我檢測套組,78,2022/05/01 09:39:02,無
5931014046,欣安藥局,新北市板橋區懷德街１０９號１樓,121.4786,25.03147,(02)82570296,羅氏家用新冠病毒抗原自我檢測套組,78,2022/05/01 09:39:02,每天快篩劑發號碼牌時間AM10:00販賣時間AM10:00售完為止
5931014420,萬泰藥局,新北市板橋區信義路２２１之１號,121.4597,24.99145,(02)89645570,羅氏家用新冠病毒抗原自我檢測套組,78,2022/05/01 09:39:02,無
5931014555,廣益藥局,新北市板橋區自由路２１號,121.4654,25.02296,(02)22545726,羅氏家用新冠病毒抗原自我檢測套組,78,2022/05/01 09:39:02,無
5931014635,健全藥局,新北市板橋區實踐路１２５號１樓,121.4642,25.00488,(02)89533330,羅氏家用新冠病毒抗原自我檢測套組,78,2022/05/01 09:39:02,無
5931014831,詠濟藥局,新北市板橋區幸福路２３號,121.4618,25.02023,(02)22536951,羅氏家用新冠病毒抗原自我檢測套組,78,2022/05/01 09:39:02,無
5931015301,利安中西藥局,新北市板橋區板新路１４３號,121.4702,25.01544,(02)29644745,羅氏家用新冠病毒抗原自我檢測套組,156,2022/05/01 09:39:02,快篩每日下午三點開（周六還未到貨
5931015605,僑中藥師藥局,新北市板橋區僑中１街１０２巷５弄１５號１樓,121.4439,25.01262,(02)29692547,羅氏家用新冠病毒抗原自我檢測套組,78,2022/05/01 09:39:02,無
5931015909,向康藥局,新北市板橋區實踐路１４７號１樓,121.4643,25.00437,(02)29637248,羅氏家用新冠病毒抗原自我檢測套組,78,2022/05/01 09:39:02,下午2點開始販售實名制快篩
5931015972,德豐健保藥局,新北市板橋區四川路２段４７巷３弄１號１樓,121.4543,24.99479,(02)89675880,羅氏家用新冠病毒抗原自我檢測套組,1,2022/05/01 09:39:02,無
5931015981,立安中西藥局,新北市板橋區後埔街８３號１樓,121.4607,25.00523,(02)29582241,羅氏家用新冠病毒抗原自我檢測套組,78,2022/05/01 09:39:02,無
5931016273,湯明藥局,新北市板橋區中山路２段３１９號１樓,121.479,25.01866,(02)29571980,羅氏家用新冠病毒抗原自我檢測套組,1,2022/05/01 09:39:02,無
5931016326,楓康藥局,新北市板橋區新海路１１９號１樓,121.461,25.0229,(02)82582246,羅氏家用新冠病毒抗原自我檢測套組,78,2022/05/01 09:39:02,無
5931016335,康匯藥局,新北市板橋區實踐路１６７號（１樓）,121.4644,25.00394,(02)29512610,羅氏家用新冠病毒抗原自我檢測套組,45,2022/05/01 09:39:02,★★★每天都有 現領不用等★★★
5931016719,王林藥局,新北市板橋區忠孝路２４巷１５號（１樓）,121.4602,25.00135,(02)29636775,羅氏家用新冠病毒抗原自我檢測套組,65,2022/05/01 09:39:02,表列調劑時間才有販售快篩試劑，週六及國定假日只有早上  ， 下午及晚上休息
5931016880,漢民藥局,新北市板橋區漢生東路３４６號（１樓）,121.472,25.00734,(02)29598168,羅氏家用新冠病毒抗原自我檢測套組,59,2022/05/01 09:39:02,藥世界0930實名制快篩
5931016924,裕苠藥局,新北市板橋區裕民街６號,121.4624,25.02921,(02)22535227,羅氏家用新冠病毒抗原自我檢測套組,78,2022/05/01 09:39:02,春節期間看診時段請電洽
5931017001,聯康藥局,新北市板橋區南雅南路２段１３６號（１樓）,121.4518,24.99656,(02)89674888,羅氏家用新冠病毒抗原自我檢測套組,111,2022/05/01 09:39:02,無
5931017010,醫安藥局,新北市板橋區南雅南路１段１１號１樓及２樓,121.4565,25.00706,(02)29692588,羅氏家用新冠病毒抗原自我檢測套組,88,2022/05/01 09:39:02,無
5931017047,永欣藥師藥局,新北市板橋區龍興街４６號１樓,121.4433,25.00094,(02)29687120,羅氏家用新冠病毒抗原自我檢測套組,78,2022/05/01 09:39:02,無
5931017172,順儷府中藥局,新北市板橋區中山路１段９６號（１樓）,121.4622,25.01016,(02)29541199,羅氏家用新冠病毒抗原自我檢測套組,36,2022/05/01 09:39:02,無
5931017289,板橋大樹藥局,新北市板橋區忠孝路２８號（１樓）,121.4603,25.00176,(02)29555551,羅氏家用新冠病毒抗原自我檢測套組,78,2022/05/01 09:39:02,快篩實名制，每天16:00開始販售，售完為止。
5931017449,順儷長安藥局,新北市板橋區長安街１３８巷１弄５２號（１樓）,121.474,25.0101,(02)29509615,羅氏家用新冠病毒抗原自我檢測套組,78,2022/05/01 09:39:02,無
5931017529,埔全藥局,新北市板橋區忠孝路３３號（１樓）,121.4608,25.00206,(02)29567309,羅氏家用新冠病毒抗原自我檢測套組,78,2022/05/01 09:39:02,實名快篩 早上10點39份／晚上7點39份 賣完為止
5931017556,光鹽藥局,新北市板橋區中山路２段８４之２號（２樓）,121.4748,25.0161,(02)29552167,羅氏家用新冠病毒抗原自我檢測套組,78,2022/05/01 09:39:02,無
5931017636,福澤藥局,新北市板橋區南雅南路１段８５號（１樓）,121.4556,25.00543,(02)29690013,羅氏家用新冠病毒抗原自我檢測套組,78,2022/05/01 09:39:02,口罩代售9:00-23:00
5931017645,松立藥局,新北市板橋區四川路２段９９之１０號（１樓）,121.4521,24.99448,(02)89670100,羅氏家用新冠病毒抗原自我檢測套組,78,2022/05/01 09:39:02,無
5931017681,浣熊藥局,新北市板橋區中正路３０１號（１樓）,121.4552,25.01954,(02)29650355,羅氏家用新冠病毒抗原自我檢測套組,78,2022/05/01 09:39:02,無
5931017770,光環藥局,新北市板橋區光環路２段１６號１樓,121.4822,25.01476,(02)89520920,羅氏家用新冠病毒抗原自我檢測套組,78,2022/05/01 09:39:02,無
5931017789,明翠藥局,新北市板橋區四維路１４６、１４８號１、２樓,121.4651,25.02555,(02)22550201,羅氏家用新冠病毒抗原自我檢測套組,78,2022/05/01 09:39:02,快篩實名制，每天16:00開始販售，售完為止。
5931017805,利安藥師藥局,新北市板橋區南雅西路２段１１７號１樓、１１９號１樓,121.4524,25.01085,(02)29666951,羅氏家用新冠病毒抗原自我檢測套組,78,2022/05/01 09:39:02,快篩每日下午三點依現場順序販售，售完為止
5931017841,莊敬健康人生藥局,新北市板橋區莊敬路８７號１樓,121.4728,25.02645,(02)22570028,羅氏家用新冠病毒抗原自我檢測套組,156,2022/05/01 09:39:02,實名快篩:周一~五下午2:30發放號碼牌及販售（!!六日不販售!!）
5931017921,順儷民權藥局,新北市板橋區民權路２３４號１樓,121.4586,25.01453,(02)29609555,羅氏家用新冠病毒抗原自我檢測套組,78,2022/05/01 09:39:02,無
5931017985,松柏藥局,新北市板橋區松柏街９４號（１樓）,121.4767,25.03065,(02)82585223,羅氏家用新冠病毒抗原自我檢測套組,78,2022/05/01 09:39:02,快篩實名制，每天16:00開始販售，售完為止。
5931017994,後埔藥局,新北市板橋區華興街９號（１樓）,121.459,25.00457,(02)89510306,羅氏家用新冠病毒抗原自我檢測套組,25,2022/05/01 09:39:02,5／1看物流配送快篩試劑時間發放號碼牌每天78份當天不限時間領取完畢（過卡時間差異剩餘數量僅供參考）
5931018026,莊敬藥局,新北市板橋區莊敬路１６３號（１樓）,121.4715,25.02456,(02)22551105,羅氏家用新冠病毒抗原自我檢測套組,78,2022/05/01 09:39:02,快篩實名制，每天16:00開始販售，售完為止。
