醫事機構代碼,醫事機構名稱,醫事機構地址,經度,緯度,醫事機構電話,廠牌項目,快篩試劑截至目前結餘存貨數量,來源資料時間,備註
2340170016,嘉義縣大埔鄉衛生所,嘉義縣大埔鄉大埔村５３－１號,120.5928,23.29397,(05)2521214,羅氏家用新冠病毒抗原自我檢測套組,78,2022/05/08 18:54:02,無
2342270019,高雄市那瑪夏區衛生所,高雄市那瑪夏區瑪雅里６鄰平和巷２５２號,120.7024,23.24708,(07)6701142,羅氏家用新冠病毒抗原自我檢測套組,61,2022/05/08 18:54:02,春節期間正常門診
2343320018,屏東縣獅子鄉衛生所,屏東縣獅子鄉楓林村楓林二巷３１號,120.7057,22.18402,(08)8771324,羅氏家用新冠病毒抗原自我檢測套組,1,2022/05/08 18:54:02,特休日：每年農曆除夕、初一
2344011036,澎湖縣馬公市第三衛生所,澎湖縣馬公市西文里１１８之２號,119.5836,23.56813,(06)9211723,羅氏家用新冠病毒抗原自我檢測套組,106,2022/05/08 18:54:02,本所快篩試劑只提供離島衛生室（虎井、桶盤）販售，時間週一至週五08:30-17:00售完為止，星期六、日國定假日09:00-12:00。
2344030022,澎湖縣白沙鄉鳥嶼衛生所,澎湖縣白沙鄉鳥嶼村漁港新村３號,119.6599,23.66008,(06)9916092,羅氏家用新冠病毒抗原自我檢測套組,60,2022/05/08 18:54:02,非上班時間提供急診服務
2344030031,澎湖縣白沙鄉吉貝衛生所,澎湖縣白沙鄉吉貝村８－１３號,119.6138,23.74056,(06)9911430,羅氏家用新冠病毒抗原自我檢測套組,188,2022/05/08 18:54:02,無
2344050024,澎湖縣望安鄉將軍衛生所,澎湖縣望安鄉將軍村１２鄰將軍澳１之３號,119.5216,23.3615,(06)9902066,羅氏家用新冠病毒抗原自我檢測套組,60,2022/05/08 18:54:02,24小時急診
5901100333,明美藥局,臺北市中山區長春路６９號,121.5266,25.05502,(02)25365419,羅氏家用新冠病毒抗原自我檢測套組,3,2022/05/08 18:54:02,口罩周一至周五，16:30-18:30販售
5901103629,十二願藥局,臺北市中山區林森北路３０９號,121.5256,25.05588,(02)25311223,羅氏家用新冠病毒抗原自我檢測套組,72,2022/05/08 18:54:02,快篩晚上8點開始發放.營業時間下午1點至凌晨3點
5901113018,桔子藥局,臺北市內湖區內湖路２段３３３號,121.5917,25.08319,(02)27930052,羅氏家用新冠病毒抗原自我檢測套組,78,2022/05/08 18:54:02,早0900-1200，午1400-1700，晚1900-2100
5901150548,田倉藥局,臺北市士林區士東路１２４號,121.5302,25.11219,(02)88662188,羅氏家用新冠病毒抗原自我檢測套組,1,2022/05/08 18:54:02,每日19:00（傍晚7點）開始販售.
5901153825,太和堂中西藥局,臺北市士林區大東路７４號（實際使用：１樓）,121.5257,25.09037,(02)28814122,羅氏家用新冠病毒抗原自我檢測套組,1,2022/05/08 18:54:02,上午8:30現場領號碼牌。週日公休
5901170406,鼎泰藥局,臺北市信義區基隆路１段１５５號１樓,121.5653,25.04222,(02)27620617,羅氏家用新冠病毒抗原自我檢測套組,156,2022/05/08 18:54:02,周一至周五 9：30-21：30 （9:30 開始發快篩） 5／1 有營業
5901173872,柏愛藥局,臺北市信義區基隆路２段１３１之９號,121.5567,25.02788,(02)27325472,羅氏家用新冠病毒抗原自我檢測套組,1,2022/05/08 18:54:02,國定假日營業時間為09:30-17:30；實名制快篩09:30開賣
5901174011,寶春藥局,臺北市信義區虎林街１１９之１９號１樓,121.5771,25.04112,(02)27566501,羅氏家用新冠病毒抗原自我檢測套組,67,2022/05/08 18:54:02,實名制快篩每日19:00現場排隊販售
5902092910,健家藥局,高雄市前鎮區二聖二路４５號,120.3165,22.61293,(07)3389986,羅氏家用新冠病毒抗原自我檢測套組,1,2022/05/08 18:54:02,早上9:30營業，售完為止
5903160097,安昌藥局,臺中市大肚區遊園路二段１７６號１樓,120.5808,24.17289,(04)26913890,羅氏家用新冠病毒抗原自我檢測套組,4,2022/05/08 18:54:02,每天晚上19:00點開始現場排隊販賣快篩試劑.
5903190522,聖康佳禾藥局,臺中市太平區光興路８３１號,120.7307,24.1121,(04)22772065,羅氏家用新冠病毒抗原自我檢測套組,78,2022/05/08 18:54:02,周一到周六1130點開始發放  周日下午7點半
5903290661,康博中西健保藥局,臺中市北屯區后庄一街７號１樓,120.6644,24.1865,(04)24252468,羅氏家用新冠病毒抗原自我檢測套組,33,2022/05/08 18:54:02,快篩下午01:00發售53份；晚上06:00銷售25份.週六.日及假日下午06:30開始依配送滾動調整
5907160093,保生藥局,高雄市湖內區葉厝里保生路３４０．３４２號,120.2195,22.90733,(07)6990800,羅氏家用新冠病毒抗原自我檢測套組,1,2022/05/08 18:54:02,快篩實名制，每天16:00開始販售，售完為止。
5907300800,元大藥師健保藥局,高雄市左營區榮德街３２７號,120.3211,22.68636,(07)3507531,羅氏家用新冠病毒抗原自我檢測套組,3,2022/05/08 18:54:02,無
5907310360,百康藥局,高雄市楠梓區右昌街４１６號,120.2884,22.71571,(07)3601281,羅氏家用新冠病毒抗原自我檢測套組,35,2022/05/08 18:54:02,賣快篩：周一至週日早上8:45拿號碼牌早上09:00起賣快篩至晚上5:00，5／8實名制快篩，延至晚上6:00直接販賣
5912013494,田美藥局,新竹市東區田美三街３５之１號１樓,120.9767,24.81572,(03)5350233,羅氏家用新冠病毒抗原自我檢測套組,2,2022/05/08 18:54:02,快篩實名制，每天16:00開始販售，售完為止。
5917011945,正三吉藥局,臺中市中區臺灣大道一段９５號,120.6831,24.13911,(04)22207700,羅氏家用新冠病毒抗原自我檢測套組,78,2022/05/08 18:54:02,快篩販售時間 14:00~17:00
5917072724,百芳大藥局,臺中市南屯區向上路二段４２１號,120.6377,24.1469,(04)23818307,羅氏家用新冠病毒抗原自我檢測套組,44,2022/05/08 18:54:02,晚上7:00開始販賣快篩，不發號碼牌。
5931017994,後埔藥局,新北市板橋區華興街９號（１樓）,121.459,25.00457,(02)89510306,羅氏家用新冠病毒抗原自我檢測套組,1,2022/05/08 18:54:02,5／8 快篩試劑今日已完售*確保作業流暢請自備500元*每天 78 份晚上10 點以前領取完畢（過卡時間差異剩餘數量僅供參考）
5931025987,忠孝德榮藥局,新北市三重區忠孝路２段９７號１樓,121.4842,25.07005,(02)29800297,羅氏家用新冠病毒抗原自我檢測套組,62,2022/05/08 18:54:02,現場排隊不發號碼牌*實名制快篩* 週一至週日晚間19:00開始代售.
5931032759,友辰藥局,新北市永和區中正路３８０號１樓,121.5177,25.00123,(02)29267131,羅氏家用新冠病毒抗原自我檢測套組,2,2022/05/08 18:54:02,無
5931034146,亮點藥局,新北市永和區竹林路７１號１樓,121.5186,25.01355,(02)89253895,羅氏家用新冠病毒抗原自我檢測套組,53,2022/05/08 18:54:02,快篩發放時段 下午16:30-18:00
5931044884,壹品藥局,新北市中和區福祥路５５號１樓,121.4992,25.00474,(02)22481818,羅氏家用新冠病毒抗原自我檢測套組,78,2022/05/08 18:54:02,實名制快篩下午1點發放號碼牌
5931060342,十安藥局,新北市新莊區中港路３１６號,121.4524,25.04544,(02)29922859,羅氏家用新冠病毒抗原自我檢測套組,2,2022/05/08 18:54:02,自111／04／01起不再販賣實名制口罩
5932023889,華勛藥局,桃園市中壢區華勛街１１２、１１４號,121.2597,24.95065,(03)4161881,羅氏家用新冠病毒抗原自我檢測套組,1,2022/05/08 18:54:02,快篩實名制，每天16:00開始販售，售完為止。
5932024260,新資生福州大藥局,桃園市中壢區福州二街４０９號,121.232,24.96789,(03)3606180,羅氏家用新冠病毒抗原自我檢測套組,2,2022/05/08 18:54:02,營業時間：星期六 日 上午0900至下午1000
5932031578,宜暉健保藥局,桃園市大溪區介壽路７１８號,121.2849,24.90544,(03)3806695,羅氏家用新冠病毒抗原自我檢測套組,54,2022/05/08 18:54:02,9:00-22:00／端午.中秋.除夕~初三休息／快篩販賣時間18:40發號碼牌，售完為止
5932052979,南崁藥局,桃園市蘆竹區中正路２５１、２５３、２５５號,121.2921,25.04695,(03)3522022,羅氏家用新冠病毒抗原自我檢測套組,157,2022/05/08 18:54:02,快篩實名制，每天16:00開始販售，售完為止。
5932077305,全興藥局,桃園市龜山區光峰路１５３號１樓,121.3427,25.0026,(03)3597901,羅氏家用新冠病毒抗原自我檢測套組,2,2022/05/08 18:54:02,上午8:30開始販售實名制快篩試劑，禮拜日公休。
5932077510,左外野藥局,桃園市龜山區文光街６號１樓,121.3802,25.05471,(03)3271503,羅氏家用新冠病毒抗原自我檢測套組,75,2022/05/08 18:54:02,快篩販售:晚上19:30至20:30（週五公休）*不發號碼牌 請直接排隊購買
5932077529,泰麟大藥局,桃園市龜山區自強西路２３８號１樓,121.3325,24.99625,(03)2133728,羅氏家用新冠病毒抗原自我檢測套組,30,2022/05/08 18:54:02,無
5932100210,福澤中豐藥局,桃園市平鎮區中豐路３４５號,121.2116,24.91034,(03)4283805,羅氏家用新冠病毒抗原自我檢測套組,3,2022/05/08 18:54:02,家用快篩販賣時段15:30至售完為止
5932101137,平鎮延平藥局,桃園市平鎮區延平路二段４３０巷７９—１６號,121.206,24.94458,(03)4918187,羅氏家用新冠病毒抗原自我檢測套組,166,2022/05/08 18:54:02,周一~周六，下午1點~3點販售公費快篩，12:58發放號碼牌，每日30份，請自備500元，不找零
5932109973,新英藥局,桃園市平鎮區中豐路208號1樓,121.2163,24.94219,(03)4687729,羅氏家用新冠病毒抗原自我檢測套組,65,2022/05/08 18:54:02,快篩銷售時段:5月6日起每日早上8點15分開賣  週日晚上8點到9點 售完為止  祝大家平安健康
5933061767,合康藥局湖口,新竹縣湖口鄉民族街１２６號,121.0456,24.90316,(03)6992365,羅氏家用新冠病毒抗原自我檢測套組,1,2022/05/08 18:54:02,星期一~日 16:30發放號碼牌，17:00~19:00領取完畢（無領取到號碼牌則無法購買快篩）
5934012366,熊賀大藥局,宜蘭縣宜蘭市女中路３段２６號,121.7421,24.74576,(03)9352950,羅氏家用新冠病毒抗原自我檢測套組,78,2022/05/08 18:54:02,快篩 星期一至日 晚上7:00開賣 現場排隊
5935030171,立安藥局,苗栗縣通霄鎮信義路１０７號,120.6804,24.48877,(037)760100,羅氏家用新冠病毒抗原自我檢測套組,1,2022/05/08 18:54:02,快篩實名制 週一到週六下午15:00開始販售  售完為止
5936171386,國際大藥局,臺中市龍井區藝術街６號,120.5954,24.18751,(04)26522118,羅氏家用新冠病毒抗原自我檢測套組,1,2022/05/08 18:54:02,無
5936192134,樹德大藥局,臺中市太平區樹德路１０２號１樓,120.7115,24.15386,(04)23981782,羅氏家用新冠病毒抗原自我檢測套組,4,2022/05/08 18:54:02,下午3點開始領號碼牌，分流領取，請勿依賴網站庫存
593620B138,聯生中西健保藥局,臺中市大里區現岱路１５８巷１１號,120.6919,24.10295,(04)24834058,羅氏家用新冠病毒抗原自我檢測套組,9,2022/05/08 18:54:02,早上八點半領號碼牌下午四點到六點領口罩W6W日早七點
5937013570,彰化藥局,彰化縣彰化市永安街２７８、２８０號,120.5438,24.08977,(04)7287877,羅氏家用新冠病毒抗原自我檢測套組,78,2022/05/08 18:54:02,快篩實名制，每天16:00開始販售，售完為止。
5937052264,醫聯藥師藥局,彰化縣員林市三條里員東路二段４１０號１樓,120.5811,23.95898,(04)8360617,羅氏家用新冠病毒抗原自我檢測套組,8,2022/05/08 18:54:02,無
5937061727,溪湖藥局,彰化縣溪湖鎮西環路３６５、３７１號１樓,120.4771,23.96099,(04)8818617,羅氏家用新冠病毒抗原自我檢測套組,61,2022/05/08 18:54:02,5／8今日實名制快篩因電腦系統關係以發放號碼牌方式，目前號碼牌已經發放完畢
5939031576,良方藥局,雲林縣虎尾鎮中山路５７號,120.4344,23.70764,(05)6312106,羅氏家用新冠病毒抗原自我檢測套組,78,2022/05/08 18:54:02,周日休息.5／9（一）上午8點開賣78份，另下午2點半開賣78份.現場排隊!!
5939051238,天愛藥局,雲林縣土庫鎮中山路８０號,120.3903,23.6749,(05)6629923,羅氏家用新冠病毒抗原自我檢測套組,71,2022/05/08 18:54:02,無
5939171093,和平藥局,雲林縣元長鄉下寮村東興路３３號,120.334,23.61849,(05)7862551,羅氏家用新冠病毒抗原自我檢測套組,15,2022/05/08 18:54:02,販賣口罩時間：0800開賣，賣完為止
5940040170,健安藥局,嘉義縣民雄鄉興南村頭橋４５號,120.439,23.52336,(05)2211797,羅氏家用新冠病毒抗原自我檢測套組,15,2022/05/08 18:54:02,營業:上午9點至下午9點.週日休-下午6點售快篩
5940131283,一心藥局,嘉義縣中埔鄉富收村頂中下街３１、３１－１號１樓,120.4885,23.45077,(05)2303553,羅氏家用新冠病毒抗原自我檢測套組,109,2022/05/08 18:54:02,無
5940141305,東義藥局,嘉義縣竹崎鄉獅埜村東義２０－１８號,120.4898,23.51273,(05)2110957,羅氏家用新冠病毒抗原自我檢測套組,5,2022/05/08 18:54:02,無
5941080016,世酆藥局,臺南市學甲區仁得里成功路１１－１號,120.1805,23.23176,(06)7838779,羅氏家用新冠病毒抗原自我檢測套組,49,2022/05/08 18:54:02,口罩販售時間：07:30-120 份  15:00-80份
5941270163,太子藥局,臺南市仁德區太子里太子路３３８號,120.2577,22.99146,(06)2729906,羅氏家用新冠病毒抗原自我檢測套組,1,2022/05/08 18:54:02,5／8快篩.已售完.
5943031735,愛樂活藥局,屏東縣東港鎮長春一路１１３－１號,120.4594,22.47111,(08)8312388,羅氏家用新冠病毒抗原自我檢測套組,78,2022/05/08 18:54:02,快篩販賣時間: 週一，二，四，五，日 晚上7點開賣，週三，六（有夜市）下午3點開賣 （星期日公休 晚上才會開門喔）
5945051726,安康藥局,花蓮縣吉安鄉中山路３段３８４號,121.5689,23.97907,(03)8513951,羅氏家用新冠病毒抗原自我檢測套組,7,2022/05/08 18:54:02,週一至週五下午03:00，周六早上08:00與周日18:00開賣快篩，售完為止
