醫事機構代碼,醫事機構名稱,醫事機構地址,經度,緯度,醫事機構電話,廠牌項目,快篩試劑截至目前結餘存貨數量,來源資料時間,備註
2343270013,屏東縣霧台鄉衛生所,屏東縣霧台鄉霧台村神山巷６８號,120.7261,22.74989,(08)7902232,羅氏家用新冠病毒抗原自我檢測套組,125,2022/05/01 17:20:02,無
5901012963,綠之家藥局,臺北市松山區延壽街４２８號,121.5562,25.0562,(02)25289595,羅氏家用新冠病毒抗原自我檢測套組,78,2022/05/01 17:20:02,禮拜日不販售快篩
5901020689,四維藥局,臺北市大安區復興南路２段１５１巷４３號１樓,121.5454,25.02846,(02)27094222,羅氏家用新冠病毒抗原自我檢測套組,36,2022/05/01 17:20:02,假日可先打電話聯絡
5901025031,中力信義藥局,臺北市大安區信義路４段５１號（１樓）,121.545,25.03354,(02)23250266,羅氏家用新冠病毒抗原自我檢測套組,78,2022/05/01 17:20:02,下午一點到三點販售實名制快篩
5901090154,柯藥局,臺北市大同區重慶北路３段３３５巷６號,121.5144,25.07452,(02)25948515,羅氏家用新冠病毒抗原自我檢測套組,94,2022/05/01 17:20:02,库存已零如何歸零
5901100333,明美藥局,臺北市中山區長春路６９號,121.5266,25.05502,(02)25365419,羅氏家用新冠病毒抗原自我檢測套組,81,2022/05/01 17:20:02,口罩周一至周五，16:30-18:30販售
5901103352,美康正康藥局,臺北市中山區北安路６１６之１號、６１８號２樓之１,121.549,25.08243,(02)25323077,羅氏家用新冠病毒抗原自我檢測套組,78,2022/05/01 17:20:02,實名制快篩:14:30~售完
5901103629,十二願藥局,臺北市中山區林森北路３０９號,121.5256,25.05588,(02)25311223,羅氏家用新冠病毒抗原自我檢測套組,75,2022/05/01 17:20:02,快篩晚上8點開始發放.營業時間下午1點至凌晨3點
5901103807,專品龍江藥局,臺北市中山區龍江路３１１號１樓,121.5409,25.06127,(02)25178870,羅氏家用新冠病毒抗原自我檢測套組,1,2022/05/01 17:20:02,實名制快篩下午三點開始發號碼牌販售
5901112100,盧狄聯合藥局,臺北市內湖區康寧路３段１８９巷５７號,121.6129,25.07133,(02)26308897,羅氏家用新冠病毒抗原自我檢測套組,78,2022/05/01 17:20:02,營業時間早上9點至晚上8點，週六上半天 **快篩實名制08:00開賣 **
5901112351,康信藥局,臺北市內湖區民權東路６段２９６巷２９號,121.6062,25.07203,(02)26342088,羅氏家用新冠病毒抗原自我檢測套組,78,2022/05/01 17:20:02,兒童口罩:全天供應.成人口罩發放時間:下午4:00.售完為止
5901150548,田倉藥局,臺北市士林區士東路１２４號,121.5302,25.11219,(02)88662188,羅氏家用新冠病毒抗原自我檢測套組,78,2022/05/01 17:20:02,每日19:00（傍晚7點）開始販售.
5901152453,家赫藥局,臺北市士林區忠義街８０號１樓,121.5317,25.10614,(02)28346453,羅氏家用新冠病毒抗原自我檢測套組,78,2022/05/01 17:20:02,5／1（19:00）有販售實名制快篩， 單雙號均可購買（1人1卡）
5901153665,康佑藥局,臺北市士林區延平北路５段１７６號,121.5103,25.08299,(02)28119981,羅氏家用新冠病毒抗原自我檢測套組,78,2022/05/01 17:20:02,實名制快篩9點開始
5901154135,誠泰中西藥局,臺北市士林區永平街１３號１樓,121.5051,25.08996,(02)88112352,羅氏家用新冠病毒抗原自我檢測套組,72,2022/05/01 17:20:02,5月1日晚上7:00開賣實名制快篩
5901160099,進春藥局,臺北市北投區明德路１５１號,121.5206,25.11086,(02)28216938,羅氏家用新冠病毒抗原自我檢測套組,149,2022/05/01 17:20:02,無休 上午九點開始販售，現場排隊。（依現場公告為主）
5901160197,川秀藥局,臺北市北投區石牌路２段９９巷９號１樓,121.5166,25.11792,(02)28270702,羅氏家用新冠病毒抗原自我檢測套組,78,2022/05/01 17:20:02,5／1快篩已賣完，明日二點開買
5901160400,世全藥局,臺北市北投區知行路２７３號,121.4672,25.12134,(02)28585378,羅氏家用新冠病毒抗原自我檢測套組,78,2022/05/01 17:20:02,早0000-0100，午1300-1600，晚1600-2400
5901162119,祐鄰藥局,臺北市北投區尊賢街２５０號,121.5073,25.11707,(02)28281232,羅氏家用新冠病毒抗原自我檢測套組,1,2022/05/01 17:20:02,無
5901163250,關渡松藥局,臺北市北投區知行路２４７號,121.4671,25.12074,(02)28584824,羅氏家用新冠病毒抗原自我檢測套組,78,2022/05/01 17:20:02,口罩時段: 星期一至星期五早上9:00及晚上18:30，星期六日為下午15:00
5901163296,天禧大藥局,臺北市北投區實踐街３５號,121.5087,25.11521,(02)28213558,羅氏家用新冠病毒抗原自我檢測套組,2,2022/05/01 17:20:02,實名制快篩下午1:30現場販售
5901163545,天康大藥局,臺北市北投區中央南路１段５７號,121.5014,25.13192,(02)28914265,羅氏家用新冠病毒抗原自我檢測套組,1,2022/05/01 17:20:02,實名制快篩下午1:30現場販售
5901170059,必欣藥局,臺北市信義區松仁路２６４號,121.5696,25.02425,(02)27225060,羅氏家用新冠病毒抗原自我檢測套組,78,2022/05/01 17:20:02,實名制快篩販售時間：星期一至星期日晚上20：00開始
5901172924,躍獅松仁藥局,臺北市信義區松仁路２３３號（實際營業地址：１樓）,121.5688,25.02617,(02)27238626,羅氏家用新冠病毒抗原自我檢測套組,3,2022/05/01 17:20:02,快篩販售時段:下午13:30開始售完至晚上19:00前
5901184473,中力藥局,臺北市中正區襄陽路１３之５號、１５號,121.5155,25.04349,(02)23313768,羅氏家用新冠病毒抗原自我檢測套組,78,2022/05/01 17:20:02,實名制快篩 販售時間：09:30~售完為止
5901190177,信昌藥局,臺北市萬華區長泰街３６號１樓,121.5007,25.02336,(02)23054898,羅氏家用新冠病毒抗原自我檢測套組,78,2022/05/01 17:20:02,快篩實名制販售時間:週一~週日9:00起售完為止
5901190668,聯慶大藥局,臺北市萬華區萬大路３０６號１樓,121.5003,25.02495,(02)23039850,羅氏家用新冠病毒抗原自我檢測套組,1,2022/05/01 17:20:02,無
5901192448,健誠大藥局,臺北市萬華區環河南路２段１８５號,121.4919,25.03246,(02)23042223,羅氏家用新冠病毒抗原自我檢測套組,78,2022/05/01 17:20:02,口罩販售：週六早上10點開始， 其他日早上9點開始， 周日休息
5901202841,欣安景美藥局,臺北市文山區景文街７７號,121.5414,24.99126,(02)29316008,羅氏家用新冠病毒抗原自我檢測套組,58,2022/05/01 17:20:02,今日快篩劑AM10：00發號碼牌PM17:00開始販賣售完為止
5902020012,永松藥局,高雄市鼓山區鼓山三路１３０－１５號,120.2802,22.66454,(07)5810657,羅氏家用新冠病毒抗原自我檢測套組,9,2022/05/01 17:20:02,周一到周日早上9點開始賣口罩，到晚上10點.
5902022801,裕康中西大藥局,高雄市鼓山區裕誠路１５１９號,120.2951,22.66479,(07)5555352,羅氏家用新冠病毒抗原自我檢測套組,80,2022/05/01 17:20:02,藥局販售口罩時間，依藥局門口公告時間為主（售完為止）
5902031999,平安藥局,高雄市左營區中華一路５之１號,120.287,22.66961,(07)5833688,羅氏家用新冠病毒抗原自我檢測套組,53,2022/05/01 17:20:02,無
5902042563,天健藥局,高雄市楠梓區後昌路１０８７號,120.2922,22.71718,(07)3634179,羅氏家用新冠病毒抗原自我檢測套組,72,2022/05/01 17:20:02,早上九點販售口罩
5902057484,永勝藥局,高雄市三民區褒忠街１１４號,120.334,22.64262,(07)3814643,羅氏家用新冠病毒抗原自我檢測套組,32,2022/05/01 17:20:02,新冠檢測組代售時間14:00--16:00.週日休
5902060025,連作藥局,高雄市新興區大同一路２０３－１號,120.3003,22.62856,(07)2154716,羅氏家用新冠病毒抗原自我檢測套組,54,2022/05/01 17:20:02,快篩試紙領用時間為每日下午2點  5／1日周日加班 快篩貨未到店 中午再詢問
5902080465,廣德泰藥局,高雄市苓雅區苓雅二路７６號,120.2997,22.61762,(07)3340769,羅氏家用新冠病毒抗原自我檢測套組,156,2022/05/01 17:20:02,早上8點開始快篩實名制，售完為止一人限購買一份
5902085228,永森藥局,高雄市苓雅區建國一路２９０號,120.3262,22.63308,(07)7163087,羅氏家用新冠病毒抗原自我檢測套組,24,2022/05/01 17:20:02,快篩代售時間:營業時間
5902100033,旗后藥局,高雄市旗津區中洲三路７１５號,120.2705,22.61096,(07)5715838,羅氏家用新冠病毒抗原自我檢測套組,25,2022/05/01 17:20:02,快篩每日下午1點開賣，售完為止.
5902110628,悅是康藥局,高雄市小港區漢民路２７６號,120.3536,22.56665,(07)8010012,羅氏家用新冠病毒抗原自我檢測套組,1,2022/05/01 17:20:02,4／30下午3:30開賣
5902111670,桂林活力藥師藥局,高雄市小港區桂陽路４０號,120.3575,22.58194,(07)7931248,羅氏家用新冠病毒抗原自我檢測套組,2,2022/05/01 17:20:02,自2／11日~2／29日，營業日08:30及13:00各50份為販賣口罩時間.售完為止
5903090143,佳福藥局,臺中市潭子區中山路１段４３－１號,120.7023,24.19138,(04)25332982,羅氏家用新冠病毒抗原自我檢測套組,78,2022/05/01 17:20:02,每日中午12:00至下午3:00休息，星期六公休
5903150153,溪南藥局,臺中市烏日區溪南路一段５６５號１樓,120.6431,24.07523,(04)23353666,羅氏家用新冠病毒抗原自我檢測套組,1,2022/05/01 17:20:02,快篩實名制，每天16:00開始販售，售完為止。
5903190693,維肯藥局,臺中市太平區中興路７８－１號１樓,120.7163,24.12783,(04)23512198,羅氏家用新冠病毒抗原自我檢測套組,78,2022/05/01 17:20:02,實名制快篩 星期一~六早上九點開始發放
5903200372,國光丁丁藥局,臺中市大里區國光路２段５５１－１號１樓,120.6788,24.11241,(04)24069711,羅氏家用新冠病毒抗原自我檢測套組,1,2022/05/01 17:20:02,星期一至星期日早上9點依排隊順序直接領取
5903200621,德芳東榮藥局,臺中市大里區東榮路８號,120.6893,24.1102,(04)24863898,羅氏家用新冠病毒抗原自我檢測套組,78,2022/05/01 17:20:02,快篩販售時間：下午3點~6點，現場排隊，完售即停
5903260814,杏一北區文心藥局,臺中市北區文心路４段２１０－８號１、２樓,120.678,24.1729,(04)22993847,羅氏家用新冠病毒抗原自我檢測套組,78,2022/05/01 17:20:02,防疫口罩每日中午12時開始販售
5903270865,尚禾藥局,臺中市西屯區青海路一段６５號,120.6548,24.16438,(04)23147688,羅氏家用新冠病毒抗原自我檢測套組,117,2022/05/01 17:20:02,實名制快篩發放時間：第一時段中午12:30~14:00。第二時段20：30~22：30。第一時段若未發完，餘量將遞延至第二時段發放。
5903271200,甘肅台安藥局,臺中市西屯區甘肅路一段１號１樓,120.6602,24.16453,(04)23160761,羅氏家用新冠病毒抗原自我檢測套組,18,2022/05/01 17:20:02,無
5903280067,博川健保藥局,臺中市南屯區大墩５街２９８號１樓,120.6486,24.14257,(04)24732995,羅氏家用新冠病毒抗原自我檢測套組,78,2022/05/01 17:20:02,實名制快篩12:00開始販售
5903280165,南屯福倫藥局,臺中市南屯區南屯路２段３１７號,120.6456,24.13754,(04)24758018,羅氏家用新冠病毒抗原自我檢測套組,78,2022/05/01 17:20:02,實名制快篩: 晚上6:00開始販售.售完為止
5903280567,康總藥局,臺中市南屯區南屯路二段１０１號１樓,120.6524,24.13579,(04)24735285,羅氏家用新冠病毒抗原自我檢測套組,4,2022/05/01 17:20:02,周一到周日每日上午9:30開始販賣，賣完為止（營業時間到晚上10:00）。快篩數量4為誤差
5903280763,全順藥局,臺中市南屯區永春東路３３９號１樓,120.6477,24.13447,(04)24730983,羅氏家用新冠病毒抗原自我檢測套組,78,2022/05/01 17:20:02,實名制口罩販賣時段-平日8：00~12:00，15:00~21:00，週六8點~13點，周日公休
5903290661,康博中西健保藥局,臺中市北屯區后庄一街７號１樓,120.6644,24.1865,(04)24252468,羅氏家用新冠病毒抗原自我檢測套組,78,2022/05/01 17:20:02,快篩發放於下午01:00作業.週六.日及假日下午06:30開始
5905010072,長壽藥局,臺南市新營區中山路２１９號,120.3146,23.30286,(06)6324001,羅氏家用新冠病毒抗原自我檢測套組,7,2022/05/01 17:20:02,口罩販售時間：8:00~售完
5905010143,啄木鳥藥師藥局,臺南市新營區新南里民治路２４２號,120.3041,23.30767,(06)6590248,羅氏家用新冠病毒抗原自我檢測套組,26,2022/05/01 17:20:02,5／2晚上6:00開賣
5905210027,愛心藥師藥局,臺南市安定區港南里港口１４７號,120.233,23.09041,(06)5935104,羅氏家用新冠病毒抗原自我檢測套組,1,2022/05/01 17:20:02,春節營業時間請電洽或依現場公告
5905310880,永東藥局,臺南市永康區中山路５５號１樓,120.2562,23.02921,(06)2318700,羅氏家用新冠病毒抗原自我檢測套組,38,2022/05/01 17:20:02,口罩販售時間：星期一~五09:45~11:45、16:00~18:00星期六08.30~10.30、16:00~18:00 星期日08:30~10:30
5905320706,悅橙藥局,臺南市東區崇明路４５９號１樓,120.2247,22.97311,(06)2605168,羅氏家用新冠病毒抗原自我檢測套組,1,2022/05/01 17:20:02,無
5905320911,大樹崇道藥局,臺南市東區崇道路６３號１樓,120.2272,22.97227,(06)2680456,羅氏家用新冠病毒抗原自我檢測套組,1,2022/05/01 17:20:02,快篩實名制，每天16:00開始販售，售完為止。
5905350366,千多藥局,臺南市北區金華路五段１號,120.1962,23.0016,(06)2228641,羅氏家用新冠病毒抗原自我檢測套組,78,2022/05/01 17:20:02,晚上6點開始銷售實名制快篩試劑，賣完為止
5907010150,育英藥局文德店,高雄市鳳山區文德路２９號,120.3527,22.63836,(07)7777059,羅氏家用新冠病毒抗原自我檢測套組,32,2022/05/01 17:20:02,營業時間上午12:00~下午10:00藥局發口罩時間為下午:12:00售完為止
5907011111,壹然藥局,高雄市鳳山區中正里瑞興路４６２號１樓,120.3713,22.63084,(07)7014755,羅氏家用新冠病毒抗原自我檢測套組,10,2022/05/01 17:20:02,今日已停止營業販售，明日5／1（日）早上8:30開始販賣，剩餘22，其餘須等政府當日配售，時間不定
5907011219,協康健保藥局,高雄市鳳山區瑞竹里博愛路２１５號１樓,120.3704,22.62887,(07)7199259,羅氏家用新冠病毒抗原自我檢測套組,78,2022/05/01 17:20:02,5／2實名制快篩於下午三點開賣
5907011371,大樹五甲藥局,高雄市鳳山區福祥里五甲三路２４號１－２樓．２６號１－２樓,120.3278,22.59317,(07)8224926,羅氏家用新冠病毒抗原自我檢測套組,1,2022/05/01 17:20:02,快篩實名制，每天16:00開始販售，售完為止。
5907120017,和德藥局燕巢店,高雄市燕巢區西燕里中民路６２８號,120.3612,22.79345,(07)6143499,羅氏家用新冠病毒抗原自我檢測套組,3,2022/05/01 17:20:02,5／1 因物流無配送快篩試劑，無法確定到貨時間，故早上9:00暫停發放，造成不便請見諒!!
5907200065,復安堂藥局,高雄市梓官區信蚵里廣澤路２號１樓,120.2553,22.7297,(07)6103147,羅氏家用新冠病毒抗原自我檢測套組,78,2022/05/01 17:20:02,W一-五0830~1200，1500~1800，1900~2100，W六08:30~12:00，週日1800（實名制快篩試劑每天早上0830開始販售，售完為止）
5907300088,神農健保藥局,高雄市左營區重和路１１７號,120.3121,22.68463,(07)3418228,羅氏家用新冠病毒抗原自我檢測套組,78,2022/05/01 17:20:02,星期一到六每天14點購買快篩，星期天公休
5907300944,左營藥局,高雄市左營區華夏路３２５號,120.2972,22.67167,(07)5501017,羅氏家用新冠病毒抗原自我檢測套組,1,2022/05/01 17:20:02,快篩實名制，每天16:00開始販售，售完為止。
5907310360,百康藥局,高雄市楠梓區右昌街４１６號,120.2884,22.71571,(07)3601281,羅氏家用新冠病毒抗原自我檢測套組,28,2022/05/01 17:20:02,賣快篩時間：周一至週六早上09:00起買快篩，至晚上10:00，周日依前日未購完之數量可續購
5907320893,大樹天祥藥局,高雄市三民區天祥一路１６７號,120.3191,22.66737,(07)3429902,羅氏家用新冠病毒抗原自我檢測套組,1,2022/05/01 17:20:02,快篩實名制，每天16:00開始販售，售完為止。
5907321069,桂林活力藥局九如店,高雄市三民區懷安街１１２號１樓,120.3176,22.64095,(07)3981009,羅氏家用新冠病毒抗原自我檢測套組,2,2022/05/01 17:20:02,每天15:30發號碼牌，於18:00前兌換完畢，逾期棄權，剩餘則繼續發放
5907380184,桂林活力藥師藥局孔鳳店,高雄市小港區孔鳳路５６１號１樓,120.3586,22.58393,(07)7912331,羅氏家用新冠病毒抗原自我檢測套組,84,2022/05/01 17:20:02,無
5907380353,桂林活力藥師藥局漢民店,高雄市小港區漢民路６９１－１及６９１－２號１樓,120.3614,22.56762,(07)8010636,羅氏家用新冠病毒抗原自我檢測套組,79,2022/05/01 17:20:02,無
5911011478,天康新豐藥局,基隆市中正區新豐街２５１巷４弄９號１樓,121.7885,25.13594,(02)24695168,羅氏家用新冠病毒抗原自我檢測套組,1,2022/05/01 17:20:02,無
5911041958,百福仁愛專業藥局,基隆市仁愛區仁四路５０號１樓,121.7413,25.12829,(02)24266699,羅氏家用新冠病毒抗原自我檢測套組,78,2022/05/01 17:20:02,4／30起，早上8:00販售快篩
5911050153,隆泰藥局,基隆市中山區西定路１２號,121.7355,25.13184,(02)24225889,羅氏家用新冠病毒抗原自我檢測套組,31,2022/05/01 17:20:02,無
5911050162,錦泰藥局,基隆市中山區中山二路４３號,121.7405,25.13786,(02)24228523,羅氏家用新冠病毒抗原自我檢測套組,2,2022/05/01 17:20:02,快篩販賣時間星期一至五晚上7點，星期六，星期日休息
5911051267,親親藥局,基隆市中山區復興路１８１號,121.7264,25.14587,(02)24378323,羅氏家用新冠病毒抗原自我檢測套組,78,2022/05/01 17:20:02,無
5911051392,寶慷藥局,基隆市中山區復興路１９１號１樓,121.7263,25.14611,(02)24362338,羅氏家用新冠病毒抗原自我檢測套組,78,2022/05/01 17:20:02,無
5911071607,家安藥師藥局,基隆市信義區信二路２５７、２５９號１樓,121.7478,25.1301,(02)24223917,羅氏家用新冠病毒抗原自我檢測套組,78,2022/05/01 17:20:02,星期一 ~ 星期五13:30開始銷售。
5912013216,宏禎藥局,新竹市東區建新路４０號１樓,120.9971,24.79818,(03)5750238,羅氏家用新冠病毒抗原自我檢測套組,78,2022/05/01 17:20:02,口罩販賣時段:平日與假日上午8:00起現場排隊至售完為止
5912013261,禾心藥局,新竹市東區民生路２３１號１樓,120.9754,24.81199,(03)5332403,羅氏家用新冠病毒抗原自我檢測套組,78,2022/05/01 17:20:02,無
5912013627,合康連鎖藥局食品店,新竹市東區食品路１４０號１樓,120.977,24.79771,(03)5621111,羅氏家用新冠病毒抗原自我檢測套組,44,2022/05/01 17:20:02,實名快篩販售時間：下午17:00
5912042815,合康連鎖藥局西大店,新竹市北區西大路６３６、６３８號１樓,120.9585,24.8101,(03)5233111,羅氏家用新冠病毒抗原自我檢測套組,56,2022/05/01 17:20:02,09:00
5917032382,中港大藥局,臺中市西區臺灣大道２段１３２號,120.6714,24.14995,(04)22080708,羅氏家用新冠病毒抗原自我檢測套組,1,2022/05/01 17:20:02,無
5917041765,荃大藥局,臺中市南區臺中路１５４號,120.6843,24.13114,(04)22858850,羅氏家用新冠病毒抗原自我檢測套組,78,2022/05/01 17:20:02,防疫口罩銷售時間:早上9:15~12:00止.（星期日無防疫口罩）.
5917071727,大愛藥局,臺中市南屯區向心南路９６２．９６４號１樓,120.644,24.13718,(04)24733646,羅氏家用新冠病毒抗原自我檢測套組,59,2022/05/01 17:20:02,無
5917072251,五六藥局,臺中市南屯區南屯路２段２４０號,120.6493,24.13696,(04)24757156,羅氏家用新冠病毒抗原自我檢測套組,78,2022/05/01 17:20:02,5 ／ 1 日售快篩，19 : 30 開始販售， 售完為止. （不發號碼牌）
5921010072,統一藥局,臺南市東區中西里東門路１段２９１號,120.2186,22.98683,(06)2376638,羅氏家用新冠病毒抗原自我檢測套組,40,2022/05/01 17:20:02,早上9點到晚間9點半  星期日休假
5921020185,安心藥局,臺南市南區喜東里喜樹路１５１巷３３號,120.18,22.94099,(06)2622570,羅氏家用新冠病毒抗原自我檢測套組,78,2022/05/01 17:20:02,快篩服務時間 星期一至星期五 上午8時至10時
5922012945,大明藥局,嘉義市東區大雅路二段６８２號,120.4663,23.47719,(05)2760958,羅氏家用新冠病毒抗原自我檢測套組,78,2022/05/01 17:20:02,4／30星期六9:00領號碼卡 10:00-11:00 販售 5／1 星期日 晚上8:00 快篩供應
5922028881,中興中西藥局,嘉義市西區垂楊路５０１號,120.4422,23.47297,(05)2353096,羅氏家用新冠病毒抗原自我檢測套組,23,2022/05/01 17:20:02,周一至周五10點開始，周末下午5點開始，並依序販售快篩售完為止
5931010342,宏達大藥局,新北市板橋區莒光路１７號,121.47,25.02478,(02)22572345,羅氏家用新冠病毒抗原自我檢測套組,156,2022/05/01 17:20:02,快篩 晚上20:00開始販售! 不要打電話來 問題這麼多就到現場 也不給你問
5931010397,正成藥師藥局,新北市板橋區三民路２段１５４巷７號,121.4787,25.01515,(02)29512760,羅氏家用新冠病毒抗原自我檢測套組,156,2022/05/01 17:20:02,無
5931014420,萬泰藥局,新北市板橋區信義路２２１之１號,121.4597,24.99145,(02)89645570,羅氏家用新冠病毒抗原自我檢測套組,78,2022/05/01 17:20:02,無
5931014831,詠濟藥局,新北市板橋區幸福路２３號,121.4618,25.02023,(02)22536951,羅氏家用新冠病毒抗原自我檢測套組,20,2022/05/01 17:20:02,無
5931015981,立安中西藥局,新北市板橋區後埔街８３號１樓,121.4607,25.00523,(02)29582241,羅氏家用新冠病毒抗原自我檢測套組,1,2022/05/01 17:20:02,無
5931017636,福澤藥局,新北市板橋區南雅南路１段８５號（１樓）,121.4556,25.00543,(02)29690013,羅氏家用新冠病毒抗原自我檢測套組,78,2022/05/01 17:20:02,口罩代售9:00-23:00
5931023581,大重仁藥局,新北市三重區重新路５段５９２號１樓,121.4694,25.04539,(02)29958283,羅氏家用新冠病毒抗原自我檢測套組,39,2022/05/01 17:20:02,無
5931023858,開元藥局,新北市三重區正義北路３２４號２樓,121.4949,25.07039,(02)29873976,羅氏家用新冠病毒抗原自我檢測套組,59,2022/05/01 17:20:02,無
5931025441,尚好藥局,新北市三重區力行路２段１４２號１樓,121.4823,25.07611,(02)22863232,羅氏家用新冠病毒抗原自我檢測套組,78,2022/05/01 17:20:02,星期一~星期六早上9點開賣實名制，星期日公休
5931030013,皇誼藥局,新北市永和區文化路３３號,121.5147,25.01499,(02)29278732,羅氏家用新冠病毒抗原自我檢測套組,78,2022/05/01 17:20:02,無
5931040215,華新藥局,新北市中和區華新街７３號,121.5082,24.98392,(02)29448345,羅氏家用新冠病毒抗原自我檢測套組,78,2022/05/01 17:20:02,無
5931043047,藥安藥局,新北市中和區廣福路１６號１樓,121.5052,25.00277,(02)22447066,羅氏家用新冠病毒抗原自我檢測套組,78,2022/05/01 17:20:02,星期日公休
5931043396,立健藥局,新北市中和區連城路３１７號１樓,121.4892,24.99607,(02)22230614,羅氏家用新冠病毒抗原自我檢測套組,78,2022/05/01 17:20:02,週一~週六營業時間均有口罩銷售 ，週日休假
5931044704,惠民藥局,新北市中和區中興街１５３號１樓,121.5001,24.99102,(02)22475303,羅氏家用新冠病毒抗原自我檢測套組,78,2022/05/01 17:20:02,口罩於8:40發放號碼牌，並同時開始領取。
5931045176,藥安連勝藥局,新北市中和區連勝街３７號１樓,121.4983,24.9977,(02)22425266,羅氏家用新冠病毒抗原自我檢測套組,78,2022/05/01 17:20:02,實名制快篩下午1點開始過卡配發
5931053178,長照藥局,新北市新店區如意街１６號１樓,121.4944,24.94838,(02)22153325,羅氏家用新冠病毒抗原自我檢測套組,78,2022/05/01 17:20:02,無
5931060342,十安藥局,新北市新莊區中港路３１６號,121.4524,25.04544,(02)29922859,羅氏家用新冠病毒抗原自我檢測套組,4,2022/05/01 17:20:02,自111／04／01起不再販賣實名制口罩
5931060557,一安藥局,新北市新莊區立德里新泰路２６８號,121.446,25.04029,(02)29941618,羅氏家用新冠病毒抗原自我檢測套組,78,2022/05/01 17:20:02,口罩發放時段，每日8:30~22:00 （發完為止）
5931060628,錄新藥局,新北市新莊區後港一路７６巷１０弄１號,121.427,25.02604,(02)22051849,羅氏家用新冠病毒抗原自我檢測套組,78,2022/05/01 17:20:02,無
5931068991,新莊健業藥局,新北市新莊區昌平街３７號１樓至２樓,121.4547,25.05221,(02)22798808,羅氏家用新冠病毒抗原自我檢測套組,78,2022/05/01 17:20:02,快篩實名制下午三點開始販售
5931069498,新杏藥局,新北市新莊區新泰路９９號１樓,121.449,25.03497,(02)22011012,羅氏家用新冠病毒抗原自我檢測套組,78,2022/05/01 17:20:02,固定週一至週日15:00開始發放號碼牌並依序販售口罩，售完為止。
593106B036,家嘉藥局,新北市新莊區自立街１０３號（１樓）,121.4553,25.04549,(02)89926488,羅氏家用新冠病毒抗原自我檢測套組,17,2022/05/01 17:20:02,無
593106B205,藥師佛藥局,新北市新莊區中正路８８１之４號１樓,121.4175,25.02544,(02)29016625,羅氏家用新冠病毒抗原自我檢測套組,80,2022/05/01 17:20:02,晚上7點開始賣快篩，會預留警察消防人員額度，所以民眾購買額度不會是78盒！七點後不接電話，不用再打來問了！
593106B349,騰康藥局,新北市新莊區富國路１８４號１樓,121.4245,25.02446,(02)26793069,羅氏家用新冠病毒抗原自我檢測套組,2,2022/05/01 17:20:02,無
5931070053,仁一藥局,新北市樹林區中正路６２２號,121.4102,25.016,(02)26893915,羅氏家用新冠病毒抗原自我檢測套組,78,2022/05/01 17:20:02,快篩代售時間自08:30；現場排隊 （周日均為公休日）
5931081547,信義健保藥局,新北市鶯歌區信義街６３號１樓,121.3534,24.95571,(02)86775563,羅氏家用新冠病毒抗原自我檢測套組,78,2022/05/01 17:20:02,4／30 晚上店休，暫不發放
5931092022,瑞達美藥局,新北市三峽區民權街１８０號１樓,121.3678,24.92983,(02)86741627,羅氏家用新冠病毒抗原自我檢測套組,78,2022/05/01 17:20:02,若政府有配送則早上9點10分開始發號碼牌，拿到號碼牌要離開請先寄卡付費，否則視同放棄
5931092095,禾雅藥局,新北市三峽區文化路１３０號（１樓）,121.3709,24.93626,(02)26718621,羅氏家用新冠病毒抗原自我檢測套組,20,2022/05/01 17:20:02,無
5931101973,良順藥局,新北市淡水區中山北路１段２４號１樓,121.4417,25.1751,(02)26218111,羅氏家用新冠病毒抗原自我檢測套組,78,2022/05/01 17:20:02,無
5931112136,汐芷藥局,新北市汐止區福德一路２５５號,121.6335,25.06447,(02)26924087,羅氏家用新冠病毒抗原自我檢測套組,4,2022/05/01 17:20:02,每日8:30現場發放號碼牌，12:00~20:00前憑牌領取.逾時不候
5931112234,安泰藥局,新北市汐止區連興街１１４號１樓,121.6537,25.06284,(02)26488486,羅氏家用新冠病毒抗原自我檢測套組,22,2022/05/01 17:20:02,實名制快篩每天下午5點開始作業，現場排隊不發號碼牌
5931113071,蒲公英藥局,新北市汐止區連興街１２６號（１樓）,121.6538,25.06188,(02)26907770,羅氏家用新冠病毒抗原自我檢測套組,4,2022/05/01 17:20:02,實名制快篩銷售時間:下午17:00-19:00（無發放號碼牌）
5931133546,宏林保健藥局,新北市土城區裕民路１３４號（１樓）,121.4515,24.98622,(02)82615919,羅氏家用新冠病毒抗原自我檢測套組,1,2022/05/01 17:20:02,無
5931151660,祐康藥師藥局,新北市五股區五福路３６號１樓,121.4339,25.08922,(02)82921335,羅氏家用新冠病毒抗原自我檢測套組,78,2022/05/01 17:20:02,口罩代售時間:一至六早上8:30開始販售， 星期日早上9:00
5931170129,麗園藥局,新北市林口區麗園一街６巷１－４號１Ｆ,121.3766,25.07012,(02)26009405,羅氏家用新冠病毒抗原自我檢測套組,78,2022/05/01 17:20:02,無
5931171411,康旭藥局,新北市林口區麗園一街６巷９號１樓－３,121.3751,25.07145,(02)26007808,羅氏家用新冠病毒抗原自我檢測套組,78,2022/05/01 17:20:02,口罩販賣時間：星期一到星期六08:00-17:30，售完為止。（星期日暫停販售）
5931171582,綠園藥局,新北市林口區仁愛路２段１０５號１樓,121.3843,25.07507,(02)86012258,羅氏家用新冠病毒抗原自我檢測套組,4,2022/05/01 17:20:02,上午8:30-12:00、下午2:30-18:00、晚上18:00-21:30
5931171779,全球忠孝藥局,新北市林口區忠孝路４９７號１樓,121.3708,25.07028,(02)26092139,羅氏家用新冠病毒抗原自我檢測套組,1,2022/05/01 17:20:02,營業時間:9:00-22:00
5931171822,榮昌藥局,新北市林口區仁愛路１段４１０號１樓,121.3867,25.07683,(02)26011312,羅氏家用新冠病毒抗原自我檢測套組,1,2022/05/01 17:20:02,實名制快篩15:00開賣唷！
5931171886,林口辰安藥局,新北市林口區文化三路１段１９１巷５號１樓,121.3619,25.07016,(02)26099151,羅氏家用新冠病毒抗原自我檢測套組,18,2022/05/01 17:20:02,快篩1600開始販售，現場排隊領取
5931181159,信東深坑北深藥局,新北市深坑區北深路３段１０３號１樓,121.6056,25.00171,(02)77092976,羅氏家用新冠病毒抗原自我檢測套組,78,2022/05/01 17:20:02,快篩代售時間自13:00 ； 現場排隊
5931250015,松南藥局,新北市雙溪區中華路２９號,121.8658,25.03728,(02)24931085,羅氏家用新冠病毒抗原自我檢測套組,24,2022/05/01 17:20:02,週一至週五營業至晚上21點.週六至20點週日至12點
5932011638,明光藥局,桃園市桃園區中山東路１１７之１號,121.317,24.9968,(03)3380427,羅氏家用新冠病毒抗原自我檢測套組,2,2022/05/01 17:20:02,口罩販賣時段：0900-1200--1400-1800
5932013338,合豐藥局,桃園市桃園區中山東路８２號,121.3176,24.99664,(03)3394007,羅氏家用新冠病毒抗原自我檢測套組,10,2022/05/01 17:20:02,口罩販售時間：週一至週日
5932013374,芳鄰藥局,桃園市桃園區昆明路３９號,121.3173,24.98372,(03)3679498,羅氏家用新冠病毒抗原自我檢測套組,78,2022/05/01 17:20:02,無
5932013436,和康藥局,桃園市桃園區三民路三段５６９號１樓,121.3076,24.98395,(03)3672399,羅氏家用新冠病毒抗原自我檢測套組,78,2022/05/01 17:20:02,快篩販售時間:周一至周六上午8:30發放號碼牌.
5932017112,全安藥師藥局,桃園市桃園區寶慶路４２９號,121.29,25.01915,(03)3023107,羅氏家用新冠病毒抗原自我檢測套組,75,2022/05/01 17:20:02,快篩實名制09:00~~售完為止（週日休息）
5932020360,日進藥局,桃園市中壢區中山東路二段１５６號,121.2394,24.95276,(03)4569132,羅氏家用新冠病毒抗原自我檢測套組,78,2022/05/01 17:20:02,營業時間:早上08:30至晚上09:30（周日下午休息）
5932021269,優良藥局,桃園市中壢區長春路２０號,121.2499,24.97907,(03)4612336,羅氏家用新冠病毒抗原自我檢測套組,1,2022/05/01 17:20:02,快篩販售時段：9:30-10:30
5932022257,星康生活藥局,桃園市中壢區中美路二段94號,121.2218,24.96005,(03)4252869,羅氏家用新冠病毒抗原自我檢測套組,31,2022/05/01 17:20:02,9:00開始發放，售完為止
5932022524,家佳聯合藥局,桃園市中壢區中光路１４號,121.2256,24.95717,(03)4273960,羅氏家用新冠病毒抗原自我檢測套組,78,2022/05/01 17:20:02,實名制快篩:12：00販賣，售完為止
5932023094,中壢民權藥局,桃園市中壢區民權路３２６、３２８號,121.2054,25.0001,(03)4014961,羅氏家用新冠病毒抗原自我檢測套組,1,2022/05/01 17:20:02,實聯制快篩每天78份週一至週六下午1350拿取號碼牌1400開始販售.依序入場販售.過號視同放棄
5932023996,青瑭藥局,桃園市中壢區民權路４段２７７號１樓,121.2022,25.00625,(03)2875901,羅氏家用新冠病毒抗原自我檢測套組,1,2022/05/01 17:20:02,無
5932024215,幸運星藥師藥局,桃園市中壢區龍東路４４號１樓,121.2502,24.9284,(03)4563356,羅氏家用新冠病毒抗原自我檢測套組,39,2022/05/01 17:20:02,快篩實名制，實際發售以官網及店公佈欄公告為主
5932028491,新典藥局,桃園市中壢區龍東路４２５號,121.2561,24.93391,(03)4371986,羅氏家用新冠病毒抗原自我檢測套組,78,2022/05/01 17:20:02,8:00-12:00；15:00-21:00；三節營業至12:00／口罩販賣時段：08：00發放號碼牌
5932031578,宜暉健保藥局,桃園市大溪區介壽路７１８號,121.2849,24.90544,(03)3806695,羅氏家用新冠病毒抗原自我檢測套組,156,2022/05/01 17:20:02,9:00-22:00／端午.中秋.除夕~初三休息／快篩販賣時間19:00發號碼牌，售完為止
5932040246,龍泰藥局,桃園市楊梅區民族路五段１４７巷２號,121.1736,24.9586,(03)4901525,羅氏家用新冠病毒抗原自我檢測套組,78,2022/05/01 17:20:02,口罩販售時間：08:00開賣至11:00
5932042679,得康美藥局,桃園市楊梅區環南路１２８號１樓,121.1466,24.90164,(03)4788128,羅氏家用新冠病毒抗原自我檢測套組,1,2022/05/01 17:20:02,口罩販售時段~A:10:00-11:00 B:15:30-16:30 C:19:30-20:30
5932043130,宜康美藥局,桃園市楊梅區環東路４５２號,121.1571,24.91005,(03)4883805,羅氏家用新冠病毒抗原自我檢測套組,20,2022/05/01 17:20:02,口罩販賣時段：早上09:30~10:30（100份）下午15:30~16:30（50份）晚上19:30~20:30（50份）
5932052540,南竹健保藥局,桃園市蘆竹區南竹路一段７６號１樓,121.2909,25.04691,(03)3526182,羅氏家用新冠病毒抗原自我檢測套組,1,2022/05/01 17:20:02,口罩販賣時段：週一至週日10-22點販售  晚上18-19交班用餐時間不販售
5932060088,銘方大藥局,桃園市大園區大園里中華路３２號,121.1982,25.06647,(03)3865077,羅氏家用新冠病毒抗原自我檢測套組,1,2022/05/01 17:20:02,快篩試劑販賣時段 : 早上 8:30 起至售完為止
5932077305,全興藥局,桃園市龜山區光峰路１５３號１樓,121.3427,25.0026,(03)3597901,羅氏家用新冠病毒抗原自我檢測套組,78,2022/05/01 17:20:02,上午8:30開始販售實名制快篩試劑，禮拜日公休。
5932077510,左外野藥局,桃園市龜山區文光街６號１樓,121.3802,25.05471,(03)3271503,羅氏家用新冠病毒抗原自我檢測套組,155,2022/05/01 17:20:02,快篩販售時間:19:30-20:30 （週五公休）
5932077645,美康萬壽藥局,桃園市龜山區萬壽路１段３２５號１、２樓,121.4024,25.0169,(02)82000001,羅氏家用新冠病毒抗原自我檢測套組,78,2022/05/01 17:20:02,5／1下午兩點開始發號碼牌販售公費快篩
5932083974,晨鴻藥師藥局,桃園市八德區桃鶯路７號１樓,121.3265,24.97179,(03)3764299,羅氏家用新冠病毒抗原自我檢測套組,78,2022/05/01 17:20:02,兒童口罩早上8:30領取號碼牌 一定發完 因為一天只有20個名額 ，請勿再打電話詢問 謝謝
5932084793,美康健保藥局,桃園市八德區桃鶯路９１號１、２樓,121.328,24.97036,(03)3613624,羅氏家用新冠病毒抗原自我檢測套組,78,2022/05/01 17:20:02,無
5932084864,阿寶藥局,桃園市八德區東勇一路６號,121.3064,24.96452,(03)3750060,羅氏家用新冠病毒抗原自我檢測套組,25,2022/05/01 17:20:02,實名制快篩詳細公告請參閱阿寶藥局官方臉書
5932099776,愛心藥局,桃園市龍潭區五福街１５巷３號,121.2177,24.86528,(03)4706717,羅氏家用新冠病毒抗原自我檢測套組,78,2022/05/01 17:20:02,口罩販賣時段：0800～售完
5932100210,福澤中豐藥局,桃園市平鎮區中豐路３４５號,121.2116,24.91034,(03)4283805,羅氏家用新冠病毒抗原自我檢測套組,1,2022/05/01 17:20:02,家用快篩販賣時段15:30至售完為止
5932100863,新昕藥局,桃園市平鎮區東社里龍南路９２號１樓,121.2463,24.92401,(03)4509616,羅氏家用新冠病毒抗原自我檢測套組,156,2022/05/01 17:20:02,快篩販售時間  下午2:00，目前六、日無販售
5932124096,松樹藥師藥局,桃園市觀音區中山路二段777號,121.1382,25.01172,(03)4988995,羅氏家用新冠病毒抗原自我檢測套組,78,2022/05/01 17:20:02,快篩販售時間：14:00~售完為止.
5933011196,高平堂藥局,新竹縣關西鎮正義路66號,121.1762,24.79269,(03)5872263,羅氏家用新冠病毒抗原自我檢測套組,1,2022/05/01 17:20:02,相關公告 請搜尋FB【高平堂藥局】
5933011267,關西藥局,新竹縣關西鎮中山路６８號,121.1764,24.79148,(03)5171121,羅氏家用新冠病毒抗原自我檢測套組,1,2022/05/01 17:20:02,快篩實名制，每天16:00開始販售，售完為止。
5933031652,合康藥局,新竹縣竹東鎮興農街１１號,121.0861,24.73988,(03)5103818,羅氏家用新冠病毒抗原自我檢測套組,25,2022/05/01 17:20:02,實名制快篩時段：下午17:00~22:30
5933052866,晶華藥局,新竹縣竹北市莊敬南路１１０號１樓,121.0203,24.81736,(03)5502107,羅氏家用新冠病毒抗原自我檢測套組,1,2022/05/01 17:20:02,4／28 14:00  販售公費快篩
5933052955,仁里藥局,新竹縣竹北市勝利二路１２５號,121.0278,24.82236,(03)6673878,羅氏家用新冠病毒抗原自我檢測套組,78,2022/05/01 17:20:02,口罩販賣時段：星期一~日10:00-12:00
5933053023,禾坊藥局,新竹縣竹北市科大一路８５號,121.0095,24.82142,(03)5588797,羅氏家用新冠病毒抗原自我檢測套組,78,2022/05/01 17:20:02,口罩販賣時段：09:00
5933053041,中一藥局,新竹縣竹北市文興路一段２４２號１樓,121.0287,24.81018,(03)6670827,羅氏家用新冠病毒抗原自我檢測套組,78,2022/05/01 17:20:02,更新:快篩販售時間下午16:00
5933053158,竹北啄木鳥藥局,新竹縣竹北市博愛街１８３號,121.0054,24.83222,(03)5539420,羅氏家用新冠病毒抗原自我檢測套組,1,2022/05/01 17:20:02,政府防疫口罩販售時段 : 10:00起至21:00為止
5933053381,佑全竹北中正藥局,新竹縣竹北市中正西路１７６、１７８號１樓,120.9991,24.84149,(03)5556235,羅氏家用新冠病毒抗原自我檢測套組,1,2022/05/01 17:20:02,實名制快篩每日14:00開賣 （13:40發號碼牌）
5933061463,如家藥師藥局,新竹縣湖口鄉工業區光復東路２４９號,121.0242,24.86913,(03)5972606,羅氏家用新冠病毒抗原自我檢測套組,78,2022/05/01 17:20:02,口罩販賣時段：星期一~五14:00-20:00／星期六、日19:00-21:00
5933061767,合康藥局湖口,新竹縣湖口鄉民族街１２６號,121.0456,24.90316,(03)6992365,羅氏家用新冠病毒抗原自我檢測套組,32,2022/05/01 17:20:02,星期一~六 16:30發放號碼牌，17:00開始領取，19:00之前領取完畢。
5933080119,建仁藥局,新竹縣新豐鄉建興路一段１２２號,120.9951,24.87287,(03)5595850,羅氏家用新冠病毒抗原自我檢測套組,2,2022/05/01 17:20:02,快篩販賣時段：每天早晨07:00開始.發號碼牌賣完為止
5934010013,永安藥局,宜蘭縣宜蘭市復興路６１號,121.7542,24.74964,(03)9332039,羅氏家用新冠病毒抗原自我檢測套組,78,2022/05/01 17:20:02,快篩販售時間，早上8:30-12:00下午2:30-9:00 （周六8:30-12:00）
5935012146,聯合藥師藥局,苗栗縣苗栗市社寮街１４５號,120.8248,24.56724,(037)264425,羅氏家用新冠病毒抗原自我檢測套組,78,2022/05/01 17:20:02,無
5935012360,心惠聯合藥局,苗栗縣苗栗市中山路１８８號１樓,120.8235,24.56541,(037)377389,羅氏家用新冠病毒抗原自我檢測套組,78,2022/05/01 17:20:02,口罩販賣時段：10:30-售完 週日預約制
5935021261,永信藥師藥局,苗栗縣苑裡鎮和平路７２－１號,120.6549,24.44096,(037)857069,羅氏家用新冠病毒抗原自我檢測套組,57,2022/05/01 17:20:02,無
5935041914,合康連鎖藥局,苗栗縣竹南鎮博愛街２７０號,120.8725,24.68724,(037)474987,羅氏家用新冠病毒抗原自我檢測套組,36,2022/05/01 17:20:02,販售快篩時間為下午17:00開始販售
5935091245,芳鄰藥局,苗栗縣公館鄉玉泉村玉泉３６８之１１號,120.8267,24.50749,(037)223727,羅氏家用新冠病毒抗原自我檢測套組,1,2022/05/01 17:20:02,口罩販賣時段：13:00~售完
5936151393,辰采藥局,臺中市烏日區學田路５８８號,120.6073,24.12307,(04)23372207,羅氏家用新冠病毒抗原自我檢測套組,78,2022/05/01 17:20:02,5／1快篩18:00~開賣時間以到貨時間為主，此處與藥局line帳號會公布當日發售時間
5936192134,樹德大藥局,臺中市太平區樹德路１０２號１樓,120.7115,24.15386,(04)23981782,羅氏家用新冠病毒抗原自我檢測套組,21,2022/05/01 17:20:02,下午3點開始領號碼牌，分流領取，請勿依賴網站庫存
5937012877,振安藥局,彰化縣彰化市民生里永安街７３號,120.5453,24.08422,(04)7261277,羅氏家用新冠病毒抗原自我檢測套組,52,2022/05/01 17:20:02,8:00開始賣快篩
5937021509,老信和藥局,彰化縣鹿港鎮頂番里鹿和路四段４０號,120.4811,24.08594,(04)7711098,羅氏家用新冠病毒抗原自我檢測套組,78,2022/05/01 17:20:02,周一至周五09:00~21:30周六09:00~12:00
5937041449,維德藥局,彰化縣北斗鎮復興路１８號,120.5284,23.87284,(04)8889033,羅氏家用新冠病毒抗原自我檢測套組,1,2022/05/01 17:20:02,星期日公休
5937052059,華衛藥局,彰化縣員林市惠來里南昌路９６號,120.5719,23.95464,(04)8397503,羅氏家用新冠病毒抗原自我檢測套組,82,2022/05/01 17:20:02,快篩販售時間8:20至09:50
5937052264,醫聯藥師藥局,彰化縣員林市三條里員東路二段４１０號１樓,120.5811,23.95898,(04)8360617,羅氏家用新冠病毒抗原自我檢測套組,6,2022/05/01 17:20:02,快篩實名制每天下午15:00開始販售，售完為止
5937052451,統信藥局,彰化縣員林市正興街３７２號,120.5722,23.95997,(04)8367089,羅氏家用新冠病毒抗原自我檢測套組,3,2022/05/01 17:20:02,無
5937052513,正光藥局員林店,彰化縣員林市三民東街３１０、３１２號,120.5814,23.96036,(04)8328765,羅氏家用新冠病毒抗原自我檢測套組,78,2022/05/01 17:20:02,實名制快篩下午13:30開始販售
5937081596,二林藥局,彰化縣二林鎮斗苑路五段３９號,120.3709,23.89951,(04)8950010,羅氏家用新冠病毒抗原自我檢測套組,1,2022/05/01 17:20:02,快篩實名制，每天16:00開始販售，售完為止。
5937161133,石埤藥局,彰化縣埔鹽鄉石埤村番金路８０之１６號,120.4225,23.98887,(04)8655146,羅氏家用新冠病毒抗原自我檢測套組,2,2022/05/01 17:20:02,週一至週日早上08:00開始販賣快篩.售完為止。
5938020079,仁和藥局,南投縣埔里鎮薰化里中山路三段９７號,120.9631,23.96619,(049)2985470,羅氏家用新冠病毒抗原自我檢測套組,8,2022/05/01 17:20:02,固定周一至周日上午8.00，下午21:00販售，售完為止
5938032515,草屯丁丁藥局,南投縣草屯鎮太平路二段１７９號,120.6831,23.97335,(049)2330058,羅氏家用新冠病毒抗原自我檢測套組,8,2022/05/01 17:20:02,5月1號 今日號碼牌已發完
5939031576,良方藥局,雲林縣虎尾鎮中山路５７號,120.4344,23.70764,(05)6312106,羅氏家用新冠病毒抗原自我檢測套組,78,2022/05/01 17:20:02,週一至週六營業時間販售，吃飯時間休息
5939032644,康是美虎尾藥局,雲林縣虎尾鎮中正路２５８．２５８－１號,120.4306,23.70567,(05)6328411,羅氏家用新冠病毒抗原自我檢測套組,44,2022/05/01 17:20:02,實名制快篩試劑每日不定時，依到貨時間滾動式販售（售完為止）
5939032724,虎尾藥局,雲林縣虎尾鎮林森路二段１１７、１１９號,120.4298,23.70595,(05)6336330,羅氏家用新冠病毒抗原自我檢測套組,312,2022/05/01 17:20:02,新開業，健保系統線路建置中，尚無法使用健保系統販售實名制快篩試劑。
5939050044,健康藥局,雲林縣土庫鎮順天里中正路１１號,120.388,23.6739,(05)6622889,羅氏家用新冠病毒抗原自我檢測套組,18,2022/05/01 17:20:02,代售口罩時間早上七點三十五分開始，現場排隊，售完為止
5939071276,慈生藥局,雲林縣古坑鄉麻園村平和２２號,120.5203,23.6351,(05)5828222,羅氏家用新冠病毒抗原自我檢測套組,55,2022/05/01 17:20:02,週三.四.六.日下午3-5點販售實名制快篩
5939191380,亞洲藥局,雲林縣口湖鄉崙東村中山路７８－２號,120.1649,23.6175,(05)7991108,羅氏家用新冠病毒抗原自我檢測套組,78,2022/05/01 17:20:02,1000（賣完為止）
5940031368,溝背藥局,嘉義縣大林鎮義和里三塊厝７－７號,120.4859,23.61441,(05)2955878,羅氏家用新冠病毒抗原自我檢測套組,78,2022/05/01 17:20:02,週日下午晚上休息
5940031402,信沅中西藥局,嘉義縣大林鎮西林里０１１鄰中正路４２０號,120.4528,23.60129,(05)2656377,羅氏家用新冠病毒抗原自我檢測套組,78,2022/05/01 17:20:02,5／1（日） 晚上七點開始賣
5940041435,嘉方藥局,嘉義縣民雄鄉中樂村昇平路５８號,120.4303,23.55781,(05)2066747,羅氏家用新冠病毒抗原自我檢測套組,54,2022/05/01 17:20:02,早上08:00開始販賣，賣完為止
5940090116,義竹全安藥局,嘉義縣義竹鄉六桂村４鄰２０９號,120.2448,23.33615,(05)3411611,羅氏家用新冠病毒抗原自我檢測套組,111,2022/05/01 17:20:02,無
5940111450,祥和藥局,嘉義縣太保市太保二路１４９號１樓,120.2951,23.45484,(05)3623006,羅氏家用新冠病毒抗原自我檢測套組,78,2022/05/01 17:20:02,周一至周六早上八點開始販售快篩，周六僅上午營業
5940120137,德安藥局,嘉義縣水上鄉南和村後寮２６之６號,120.362,23.41007,(05)2688835,羅氏家用新冠病毒抗原自我檢測套組,85,2022/05/01 17:20:02,星期日公休
5940121394,水上藥局,嘉義縣水上鄉水頭村中興路２６６號,120.4029,23.43014,(05)2601121,羅氏家用新冠病毒抗原自我檢測套組,1,2022/05/01 17:20:02,快篩實名制，每天16:00開始販售，售完為止。
5940131283,一心藥局,嘉義縣中埔鄉富收村頂中下街３１、３１－１號１樓,120.4885,23.45077,(05)2303553,羅氏家用新冠病毒抗原自我檢測套組,7,2022/05/01 17:20:02,無
5940131363,和睦藥局,嘉義縣中埔鄉中山路５段８２１號１樓,120.4618,23.45158,(05)2395283,羅氏家用新冠病毒抗原自我檢測套組,48,2022/05/01 17:20:02,無
5940141305,東義藥局,嘉義縣竹崎鄉獅埜村東義２０－１８號,120.4898,23.51273,(05)2110957,羅氏家用新冠病毒抗原自我檢測套組,131,2022/05/01 17:20:02,無
5941041322,紘信藥局,臺南市麻豆區民生路３６之７號１樓,120.2541,23.18173,(06)5711289,羅氏家用新冠病毒抗原自我檢測套組,75,2022/05/01 17:20:02,1／1 休診一天
5941061173,杏安藥局,臺南市新化區武安里信義路３２０號,120.3063,23.03475,(06)5801081,羅氏家用新冠病毒抗原自我檢測套組,78,2022/05/01 17:20:02,週一至週六早8點開快篩販賣販賣
5941270163,太子藥局,臺南市仁德區太子里太子路３３８號,120.2577,22.99146,(06)2729906,羅氏家用新冠病毒抗原自我檢測套組,78,2022/05/01 17:20:02,5／1快篩 晚上8點 開始販賣
5942013411,長喜藥局,高雄市鳳山區大明路７６號,120.342,22.60811,(07)7671007,羅氏家用新冠病毒抗原自我檢測套組,78,2022/05/01 17:20:02,固定周一至周六09:00-22:00  周日14:00-17:00購買快篩
5942013699,新怡安藥局,高雄市鳳山區海洋里新富路５１２號,120.3474,22.61403,(07)7633565,羅氏家用新冠病毒抗原自我檢測套組,2,2022/05/01 17:20:02,自2／11日~2／29日，營業日09:00~22:30為販賣口罩時間，售完為止，
5942013804,長喜連鎖藥局,高雄市鳳山區鳳甲路４９２號,120.3462,22.59758,(07)7961070,羅氏家用新冠病毒抗原自我檢測套組,78,2022/05/01 17:20:02,一.週日執業時間公休.
5943012892,立健藥局,屏東縣屏東市勝利里廣東路９６２號,120.4862,22.68773,(08)7328039,羅氏家用新冠病毒抗原自我檢測套組,78,2022/05/01 17:20:02,營業日週一至週五09:00~21:00、
5943031735,愛樂活藥局,屏東縣東港鎮長春一路１１３－１號,120.4594,22.47111,(08)8312388,羅氏家用新冠病毒抗原自我檢測套組,78,2022/05/01 17:20:02,快篩販賣時間: 週一，二，四，五晚上7點開賣，週三，六（有夜市）下午3點開賣
5945013057,富強健康藥局,花蓮縣花蓮市國裕里２２鄰富強路１２８號,121.5971,23.99707,(03)8571839,羅氏家用新冠病毒抗原自我檢測套組,1,2022/05/01 17:20:02,營業時間: 上午 8:30~13:00 下午 17:30~21:30 公休日:另行通知。
5945021086,安康鳳林藥局,花蓮縣鳳林鎮仁愛街１０號１樓,121.4503,23.74937,(03)8762227,羅氏家用新冠病毒抗原自我檢測套組,7,2022/05/01 17:20:02,快篩發放時間，依現場公告為主，售完為止。
5945051726,安康藥局,花蓮縣吉安鄉中山路３段３８４號,121.5689,23.97907,(03)8513951,羅氏家用新冠病毒抗原自我檢測套組,78,2022/05/01 17:20:02,口罩販售時間同營業時間
5945091113,瑞安藥局,花蓮縣瑞穗鄉中山路１段６號,121.3771,23.49752,(03)8876616,羅氏家用新冠病毒抗原自我檢測套組,78,2022/05/01 17:20:02,口罩販賣時間：每天上午8點開始販售，賣完為止。
5946012205,欣華藥局,臺東縣臺東市更生路７７號１樓,121.1486,22.75825,(089)320676,羅氏家用新冠病毒抗原自我檢測套組,78,2022/05/01 17:20:02,口罩販賣時間早上8:30到售完為止（星期ㄖ早上8:30售完為止）
5946012312,仁愛藥局,臺東縣臺東市光明路４０號,121.1539,22.75747,(089)350360,羅氏家用新冠病毒抗原自我檢測套組,78,2022/05/01 17:20:02,快篩實名制販售時間為8:00-9:00
