醫事機構代碼,醫事機構名稱,醫事機構地址,經度,緯度,醫事機構電話,廠牌項目,快篩試劑截至目前結餘存貨數量,來源資料時間,備註
2338070010,南投縣鹿谷鄉衛生所,南投縣鹿谷鄉中正路二段２０號,120.7542,23.74488,(049)2752002,羅氏家用新冠病毒抗原自我檢測套組,18,2022/05/06 14:30:02,快篩試劑販售時間 上班日（星期一至星期五）14:00~16:00
2340170016,嘉義縣大埔鄉衛生所,嘉義縣大埔鄉大埔村５３－１號,120.5928,23.29397,(05)2521214,羅氏家用新冠病毒抗原自我檢測套組,78,2022/05/06 14:30:02,無
2342130010,高雄市田寮區衛生所,高雄市田寮區南安里崗北路３２號,120.3594,22.87301,(07)6361504,羅氏家用新冠病毒抗原自我檢測套組,77,2022/05/06 14:30:02,巡迴醫療:每星期一、四下午及每月第一個有上班的星期三下午巡迴醫療
2342250017,高雄市茂林區衛生所,高雄市茂林區茂林里茂林巷８－４號,120.6641,22.88641,(07)6801046,羅氏家用新冠病毒抗原自我檢測套組,60,2022/05/06 14:30:02,夜間急診，請先撥電話07-6801046
2342260013,高雄市桃源區衛生所,高雄市桃源區桃源里南進巷１８８－１號,120.7642,23.15845,(07)6861126,羅氏家用新冠病毒抗原自我檢測套組,98,2022/05/06 14:30:02,IDS提供24小時服務
2342270019,高雄市那瑪夏區衛生所,高雄市那瑪夏區瑪雅里６鄰平和巷２５２號,120.7024,23.24708,(07)6701142,羅氏家用新冠病毒抗原自我檢測套組,275,2022/05/06 14:30:02,春節期間正常門診
2343260017,屏東縣三地門鄉衛生所,屏東縣三地門鄉三地村行政街４號,120.653,22.71477,(08)7991284,羅氏家用新冠病毒抗原自我檢測套組,25,2022/05/06 14:30:02,5／6快篩販售時間因上午兒童預防注射改為1400~1700賣完為
2343270013,屏東縣霧台鄉衛生所,屏東縣霧台鄉霧台村神山巷６８號,120.7261,22.74989,(08)7902232,羅氏家用新冠病毒抗原自我檢測套組,4,2022/05/06 14:30:02,5／6 20份販售於禮納里公共服務中心一樓（下午2~4點）
2344011036,澎湖縣馬公市第三衛生所,澎湖縣馬公市西文里１１８之２號,119.5836,23.56813,(06)9211723,羅氏家用新冠病毒抗原自我檢測套組,24,2022/05/06 14:30:02,本所快篩試劑只提供離島衛生室（虎井、桶盤）販售，時間週一至週五08:30-17:00售完為止，星期六、日國定假日09:00-12:00。
2344030022,澎湖縣白沙鄉鳥嶼衛生所,澎湖縣白沙鄉鳥嶼村漁港新村３號,119.6599,23.66008,(06)9916092,羅氏家用新冠病毒抗原自我檢測套組,90,2022/05/06 14:30:02,非上班時間提供急診服務
2344030031,澎湖縣白沙鄉吉貝衛生所,澎湖縣白沙鄉吉貝村８－１３號,119.6138,23.74056,(06)9911430,羅氏家用新冠病毒抗原自我檢測套組,68,2022/05/06 14:30:02,無
2344050015,澎湖縣望安鄉衛生所,澎湖縣望安鄉西安村３６－７號,119.4972,23.36161,(06)9991036,羅氏家用新冠病毒抗原自我檢測套組,143,2022/05/06 14:30:02,夜間急診。口罩、快篩試劑販售時間為:每日08:00-12:00、13:30-17:30售完為止，如有餘數為離島未售出（東嶼坪、花嶼）。
2344050024,澎湖縣望安鄉將軍衛生所,澎湖縣望安鄉將軍村１２鄰將軍澳１之３號,119.5216,23.3615,(06)9902066,羅氏家用新冠病毒抗原自我檢測套組,156,2022/05/06 14:30:02,24小時急診
2344060011,澎湖縣七美鄉衛生所,澎湖縣七美鄉中和村埔內５４號,119.431,23.2041,(06)9971005,羅氏家用新冠病毒抗原自我檢測套組,77,2022/05/06 14:30:02,無
2345120016,花蓮縣萬榮鄉衛生所,花蓮縣萬榮鄉萬榮村１鄰１６號,121.4092,23.71558,(03)8751651,羅氏家用新冠病毒抗原自我檢測套組,163,2022/05/06 14:30:02,快篩試劑代售時間：週一至週五下午2點至下午4點，販售為止。
2391030016,連江縣莒光鄉西莒衛生所,連江縣莒光鄉青帆村１４－１號,119.9331,25.97157,(083)689122,羅氏家用新冠病毒抗原自我檢測套組,332,2022/05/06 14:30:02,防疫口罩星期一至五09:00-17:00、（六）09:00-12:00現場購買
2391030026,連江縣莒光鄉東莒衛生所,連江縣莒光鄉大坪村３０－１號,119.9731,25.96113,(083)689038,羅氏家用新冠病毒抗原自我檢測套組,469,2022/05/06 14:30:02,防疫口罩星期一至星期日上午10:00-12:00收取健保卡，下午3:30至本所領取口罩。
5901012570,予志藥局,臺北市松山區富錦街５２１號,121.5649,25.06119,(02)27623522,羅氏家用新冠病毒抗原自我檢測套組,78,2022/05/06 14:30:02,實名制快篩星期一到三下午2點、星期四到六晚上8點、星期日停售
5901012598,婕登藥局,臺北市松山區八德路４段６９９號,121.5766,25.05021,(02)27482893,羅氏家用新冠病毒抗原自我檢測套組,6,2022/05/06 14:30:02,今天快篩已經發送完畢（電腦庫存不準）
5901012632,晨安藥局,臺北市松山區八德路３段１５５巷２０弄２號,121.5553,25.04914,(02)25798460,羅氏家用新冠病毒抗原自我檢測套組,78,2022/05/06 14:30:02,快篩實名制販售時間:平日下午3點-假日下午1點；現場販售，不抽號碼牌。
5901012749,躍獅松和藥局,臺北市松山區八德路四段６６６－１號,121.5761,25.04979,(02)27492569,羅氏家用新冠病毒抗原自我檢測套組,78,2022/05/06 14:30:02,實名制快篩販售時段，每日下午4點販售，售完為止
5901013095,康采藥局,臺北市松山區南京東路５段２９１巷１７－２號,121.5663,25.05236,(02)27670271,羅氏家用新冠病毒抗原自我檢測套組,25,2022/05/06 14:30:02,（已完售，庫存不準）快篩試劑每日16點販售，週日沒有販售
5901013200,專品南京藥局,臺北市松山區南京東路４段７３號,121.5532,25.05185,(02)25147685,羅氏家用新冠病毒抗原自我檢測套組,74,2022/05/06 14:30:02,無
5901013399,一安正昇藥局,臺北市松山區南京東路５段３０９號,121.5667,25.05155,(02)27680993,羅氏家用新冠病毒抗原自我檢測套組,1,2022/05/06 14:30:02,快篩發放時間  下午14:30
5901013442,松山八德藥局,臺北市松山區八德路２段４００號,121.5466,25.04804,(02)27782773,羅氏家用新冠病毒抗原自我檢測套組,78,2022/05/06 14:30:02,快篩實名制，每天16:00開始販售，售完為止。
5901013693,民生盛康藥局,臺北市松山區民生東路５段２０４號１樓,121.5648,25.05826,(02)27460758,羅氏家用新冠病毒抗原自我檢測套組,153,2022/05/06 14:30:02,【每日70分】每日早上9:00發號碼牌，14:00~20:00拿號碼牌回來領取，每人限1張號碼牌，逾時不候
5901013737,全欣藥局,臺北市松山區復興北路７３號２樓,121.5442,25.05104,(02)87729066,羅氏家用新冠病毒抗原自我檢測套組,39,2022/05/06 14:30:02,9:00am開始販售30人份15:00販售30人份:18:00販售17人份；週六:9:00販售39人份；週日:15:00販售39人份....排隊人數滿會先發號碼
5901023411,長虹藥局,臺北市大安區忠孝東路４段２１６巷 ６３號,121.5531,25.0382,(02)27210232,羅氏家用新冠病毒抗原自我檢測套組,52,2022/05/06 14:30:02,2:30pm 發實名制快篩（現場排隊領號碼牌，依序購買，過號請重新排隊）
5901023831,康乃馨藥局,臺北市大安區建國南路１段３２７號,121.5382,25.03481,(02)23257097,羅氏家用新冠病毒抗原自我檢測套組,18,2022/05/06 14:30:02,週一至週六09:00-21:00、快篩代售時間自09:00；現場排隊
5901024114,好安心藥局,臺北市大安區和平東路２段９８之２號,121.5415,25.02493,(02)23772166,羅氏家用新冠病毒抗原自我檢測套組,64,2022/05/06 14:30:02,快篩發放: 週一至週六 15:30現場開始販售，不發號碼牌。
5901024347,博大藥局,臺北市大安區安和路２段６５號,121.5526,25.03063,(02)27027858,羅氏家用新冠病毒抗原自我檢測套組,46,2022/05/06 14:30:02,若有配給．下午兩點開始販售。
5901024490,明星大藥局,臺北市大安區光復南路４３０之１號,121.5574,25.03618,(02)27023747,羅氏家用新冠病毒抗原自我檢測套組,73,2022/05/06 14:30:02,無
5901024516,博昱師大藥局,臺北市大安區羅斯福路３段１８９號,121.5281,25.02109,(02)23696966,羅氏家用新冠病毒抗原自我檢測套組,32,2022/05/06 14:30:02,實名制快篩販售時間為下午14:00~15:30
5901024678,大安健康人生藥局,臺北市大安區信義路４段３４號,121.5447,25.03316,(02)27025553,羅氏家用新冠病毒抗原自我檢測套組,78,2022/05/06 14:30:02,快篩發放時間:下午3點開始發放號碼牌，並依序入場購買，請協助自備紙鈔
5901024687,博昱大藥局,臺北市大安區樂業街１４８號、１５０號,121.5529,25.01998,(02)23776199,羅氏家用新冠病毒抗原自我檢測套組,78,2022/05/06 14:30:02,快篩發放為周一至周五1600開始發放
5901024918,康祥藥局,臺北市大安區忠孝東路４段２１６巷２１號,121.5531,25.04025,(02)27817891,羅氏家用新冠病毒抗原自我檢測套組,78,2022/05/06 14:30:02,星期天11:00-19:00
5901025059,博醫仁愛藥局,臺北市大安區仁愛路４段８巷２號１樓,121.5443,25.0375,(02)27019107,羅氏家用新冠病毒抗原自我檢測套組,9,2022/05/06 14:30:02,每天11:30發號碼牌，12:00~15:00憑號碼牌與健保卡購買實名制快篩
5901025077,敦南春天藥局,臺北市大安區敦化南路２段８１巷６３號１樓,121.5513,25.03002,(02)27553266,羅氏家用新冠病毒抗原自我檢測套組,75,2022/05/06 14:30:02,快篩待售時間:週一至週日15:00現場排隊購買，售完為止。（物流配送不及則例外，以門市公告為主）
5901090341,正中藥局,臺北市大同區民族西路２１３號,121.5142,25.06874,(02)25976937,羅氏家用新冠病毒抗原自我檢測套組,64,2022/05/06 14:30:02,無
5901091857,佳禾藥局,臺北市大同區大龍街２６２號,121.5158,25.07061,(02)25953806,羅氏家用新冠病毒抗原自我檢測套組,78,2022/05/06 14:30:02,無
5901092112,酒泉春天藥局,臺北市大同區酒泉街９４號、９４號２樓,121.5146,25.07193,(02)25977932,羅氏家用新冠病毒抗原自我檢測套組,78,2022/05/06 14:30:02,無
5901092130,大同民生藥局,臺北市大同區民生西路１２８號１樓、２樓及１３０號１樓、２樓,121.5191,25.05734,(02)25558886,羅氏家用新冠病毒抗原自我檢測套組,78,2022/05/06 14:30:02,快篩實名制，每天16:00開始販售，售完為止。
5901101321,文德藥局,臺北市中山區龍江路３５６巷１９號１樓,121.5401,25.06607,(02)25181178,羅氏家用新冠病毒抗原自我檢測套組,31,2022/05/06 14:30:02,無
5901101509,永直藥局,臺北市中山區北安路５９５巷２弄６號,121.5483,25.08192,(02)85098059,羅氏家用新冠病毒抗原自我檢測套組,275,2022/05/06 14:30:02,今日號碼牌（5／6）已發完，周一至周六早上8點發號碼牌，下午2點到晚上8點販售（拿號碼牌來買）
5901101992,大愛藥師藥局,臺北市中山區吉林路２５５號１樓,121.5304,25.06165,(02)25424723,羅氏家用新冠病毒抗原自我檢測套組,87,2022/05/06 14:30:02,週一~週五13:55發放號碼牌14:00發放快篩，週六、週日休息
5901102444,啟美藥師藥局,臺北市中山區錦州街２８２號,121.5352,25.06024,(02)25178032,羅氏家用新冠病毒抗原自我檢測套組,78,2022/05/06 14:30:02,快篩 販售時間 20點開賣到21點，星期六日公休
5901102597,德惠藥局,臺北市中山區德惠街１２２號,121.53,25.06652,(02)25971131,羅氏家用新冠病毒抗原自我檢測套組,78,2022/05/06 14:30:02,每日下午3點30分開始販售快篩實名制
5901103192,昶青林森藥局,臺北市中山區林森北路１１９巷５２號,121.5269,25.05018,(02)25639939,羅氏家用新冠病毒抗原自我檢測套組,12,2022/05/06 14:30:02,口罩代售平日10:30-20:00，例假日13:30-18:00 售完為止
5901103414,元宏藥局,臺北市中山區北安路４５８巷４１弄４９號,121.5465,25.0794,(02)25339728,羅氏家用新冠病毒抗原自我檢測套組,75,2022/05/06 14:30:02,快篩試劑若有送達，則於下午2:30販售，不提供號碼牌，現場排隊。
5901103423,農安藥局,臺北市中山區農安街１８之１號,121.5248,25.06483,(02)25959293,羅氏家用新冠病毒抗原自我檢測套組,11,2022/05/06 14:30:02,快篩2點發號碼牌 3點後來拿
5901103629,十二願藥局,臺北市中山區林森北路３０９號,121.5256,25.05588,(02)25311223,羅氏家用新冠病毒抗原自我檢測套組,71,2022/05/06 14:30:02,快篩晚上8點開始發放.營業時間下午1點至凌晨3點
5901103656,大樹龍江藥局,臺北市中山區龍江路２４２號,121.5406,25.05889,(02)25035666,羅氏家用新冠病毒抗原自我檢測套組,78,2022/05/06 14:30:02,國定假日仍執行調劑業務
5901110311,永安藥局,臺北市內湖區文德路２１０巷３０弄４８號,121.5852,25.07723,(02)26586658,羅氏家用新冠病毒抗原自我檢測套組,1,2022/05/06 14:30:02,口罩販售時間早上10點開始發號碼牌  同時販售
5901110393,明湖藥局,臺北市內湖區東湖路７巷２７號１Ｆ,121.6125,25.0697,(02)26313515,羅氏家用新冠病毒抗原自我檢測套組,20,2022/05/06 14:30:02,快篩實名制，下午2點半販售。
5901112995,昇龍藥局,臺北市內湖區東湖路１５１號,121.6174,25.0681,(02)26316783,羅氏家用新冠病毒抗原自我檢測套組,6,2022/05/06 14:30:02,營業時間為早上8點到晚上10點；實名制快篩於每日下午一點前領取，​但若排隊人數已超過數量，將視情況提早發放。
5901113018,桔子藥局,臺北市內湖區內湖路２段３３３號,121.5917,25.08319,(02)27930052,羅氏家用新冠病毒抗原自我檢測套組,78,2022/05/06 14:30:02,早0900-1200，午1400-1700，晚1900-2100
5901113705,富康活力湖光藥局,臺北市內湖區康寧路１段２５號１樓,121.5914,25.08062,(02)87927999,羅氏家用新冠病毒抗原自我檢測套組,2,2022/05/06 14:30:02,視快篩實際到貨時間販售（通常是下午2:00）**Line社群搜尋[[富康活力湖光藥局]]，會有第一線消息唷**
5901113723,杏一港墘藥局,臺北市內湖區港墘路８３號（１樓）,121.5781,25.08078,(02)87978746,羅氏家用新冠病毒抗原自我檢測套組,78,2022/05/06 14:30:02,無
5901121734,湳港藥局,臺北市南港區研究院路１段１０１巷１２號,121.6167,25.05175,(02)27892200,羅氏家用新冠病毒抗原自我檢測套組,78,2022/05/06 14:30:02,週一至週日，2:30開賣（政府有配送的況狀下）（沒有發放號碼牌），售完為止
5901121823,儀安健保藥局,臺北市南港區同德路７４號,121.5853,25.0457,(02)27859893,羅氏家用新冠病毒抗原自我檢測套組,77,2022/05/06 14:30:02,實名制快篩下午三點開賣，無發放號碼牌（只有週日為晚上六點）
5901122080,成福大藥局,臺北市南港區成福路８號,121.5859,25.04578,(02)27859221,羅氏家用新冠病毒抗原自我檢測套組,107,2022/05/06 14:30:02,無
5901122115,上丞藥師藥局,臺北市南港區成福路１０號１樓,121.5859,25.04574,(02)26535589,羅氏家用新冠病毒抗原自我檢測套組,78,2022/05/06 14:30:02,實名制快篩下午三點開賣，無發放號碼牌
5901150235,杏城藥局,臺北市士林區天母東路２４號,121.5322,25.11764,(02)28725144,羅氏家用新冠病毒抗原自我檢測套組,8,2022/05/06 14:30:02,週一至週五下午2:00 週六上午10:00販售實名制快篩試劑 週日公休 每人限一卡
5901150342,士林三安藥局,臺北市士林區大南路１１號,121.526,25.08898,(02)28812631,羅氏家用新冠病毒抗原自我檢測套組,73,2022/05/06 14:30:02,無
5901150548,田倉藥局,臺北市士林區士東路１２４號,121.5302,25.11219,(02)88662188,羅氏家用新冠病毒抗原自我檢測套組,78,2022/05/06 14:30:02,每日19:00（傍晚7點）開始販售.
5901152079,資生堂藥局,臺北市士林區承德路４段４０巷１７號１Ｆ,121.522,25.08107,(02)28857588,羅氏家用新冠病毒抗原自我檢測套組,78,2022/05/06 14:30:02,5／7周六快篩發下午一點
5901152471,得安藥局,臺北市士林區文林路１４０號,121.5267,25.08878,(02)28836336,羅氏家用新冠病毒抗原自我檢測套組,78,2022/05/06 14:30:02,星期三五六下午3:30---10:00   星期二 四日下午5:00--10:00
5901152659,和樹藥局,臺北市士林區後港街４５巷１號１樓,121.5228,25.08444,(02)28821188,羅氏家用新冠病毒抗原自我檢測套組,78,2022/05/06 14:30:02,實名制快篩發放時間 依到貨時間發售
5901152793,信光藥局,臺北市士林區文昌路６８號,121.5214,25.09619,(02)28366277,羅氏家用新冠病毒抗原自我檢測套組,60,2022/05/06 14:30:02,下午三點發放快篩
5901153272,光榮藥局,臺北市士林區社中街１１８號,121.5103,25.0899,(02)28136060,羅氏家用新冠病毒抗原自我檢測套組,78,2022/05/06 14:30:02,實名制快篩販售時間~下午兩點半（14:30）開始販售~另外若當日未收到快篩無法販售會公告，謝謝大家~
5901153432,大南春天生活藥局,臺北市士林區大南路３１７、３１９號,121.518,25.08888,(02)28882196,羅氏家用新冠病毒抗原自我檢測套組,78,2022/05/06 14:30:02,本藥局可領慢箋 快篩是下午3點開始販售 售完為止（物流無配送&配送不及例外）
5901153674,愛佳藥局,臺北市士林區承德路４段２２２之１號,121.5215,25.0885,(02)28811199,羅氏家用新冠病毒抗原自我檢測套組,156,2022/05/06 14:30:02,實名制快篩平日一~五下午5:00販售，假日（六、日）不販售
5901153683,安奕藥局,臺北市士林區葫蘆街３０巷１２號,121.5099,25.08034,(02)28133289,羅氏家用新冠病毒抗原自我檢測套組,72,2022/05/06 14:30:02,週日休。快篩劑開賣時間，依現場公告。
5901153941,士東藥局,臺北市士林區士東路９１巷３號,121.5291,25.11256,(02)28760588,羅氏家用新冠病毒抗原自我檢測套組,78,2022/05/06 14:30:02,快篩實名制，每天16:00開始販售，售完為止。
5901154028,向宇藥局,臺北市士林區德行東路２１７號１樓,121.5328,25.10935,(02)88661101,羅氏家用新冠病毒抗原自我檢測套組,84,2022/05/06 14:30:02,無
5901154082,德行盛康藥局,臺北市士林區德行東路２０６之１號１樓,121.532,25.1089,(02)28348756,羅氏家用新冠病毒抗原自我檢測套組,8,2022/05/06 14:30:02,無
5901154108,藥本家藥局,臺北市士林區中山北路７段１４巷２６號１樓,121.5328,25.11884,(02)28766682,羅氏家用新冠病毒抗原自我檢測套組,17,2022/05/06 14:30:02,無
5901160222,新祥藥局,臺北市北投區知行路２０８號－１,121.4668,25.11935,(02)28582551,羅氏家用新冠病毒抗原自我檢測套組,1,2022/05/06 14:30:02,實名制快篩下午1:30分發放號碼牌，隨後依照號碼牌發售，周日休息
5901160428,九福藥局,臺北市北投區公館路２３６號,121.5081,25.12612,(02)28953009,羅氏家用新冠病毒抗原自我檢測套組,51,2022/05/06 14:30:02,★週日店休未營業. 快篩下午1點發號碼牌
5901161890,良興藥局,臺北市北投區中和街２８６號,121.5004,25.14047,(02)28933360,羅氏家用新冠病毒抗原自我檢測套組,53,2022/05/06 14:30:02,18點30分點開始營業
5901161934,康揚藥局,臺北市北投區中和街３２２號,121.4998,25.14108,(02)28946520,羅氏家用新冠病毒抗原自我檢測套組,22,2022/05/06 14:30:02,（ 實名制快篩發放時間: 14:00~16:00）5／3貨尚未配送，視當日情況而定。
5901162477,長宜藥局,臺北市北投區自強街１１２號,121.5155,25.11074,(02)28216605,羅氏家用新冠病毒抗原自我檢測套組,1,2022/05/06 14:30:02,實名制快篩試劑發放時間:14:00~售完為止，會依政府配送狀況調整
5901162833,維康藥局,臺北市北投區石牌路２段１９１．１９３號,121.5184,25.11874,(02)28206343,羅氏家用新冠病毒抗原自我檢測套組,78,2022/05/06 14:30:02,快篩發放時間為每日下午3點排隊，現場購賣
5901163394,致遠春天藥局,臺北市北投區致遠一路１段１３２號１、２樓,121.5149,25.11051,(02)28253258,羅氏家用新冠病毒抗原自我檢測套組,78,2022/05/06 14:30:02,15:30開始發放號碼牌15:30開始販售口罩
5901163527,理得藥局,臺北市北投區石牌路１段１５０號,121.5131,25.11426,(02)28289680,羅氏家用新冠病毒抗原自我檢測套組,30,2022/05/06 14:30:02,每日13:30發放號碼牌 14:00開賣，售完為止。
5901163643,致遠盛康藥局,臺北市北投區致遠二路１４１號１樓,121.5128,25.1173,(02)28263580,羅氏家用新冠病毒抗原自我檢測套組,13,2022/05/06 14:30:02,快篩試劑下午2點開始發放號碼牌
5901170059,必欣藥局,臺北市信義區松仁路２６４號,121.5696,25.02425,(02)27225060,羅氏家用新冠病毒抗原自我檢測套組,10,2022/05/06 14:30:02,實名制快篩販售時間：星期一至星期日下午13：30開始
5901170139,福華藥局,臺北市信義區吳興街２８１巷３號１樓,121.5643,25.02656,(02)27208527,羅氏家用新冠病毒抗原自我檢測套組,78,2022/05/06 14:30:02,現階段下午1:30配合政府發售快篩試劑
5901170915,杏仁藥局,臺北市信義區大道路１３５號,121.5834,25.03901,(02)27262541,羅氏家用新冠病毒抗原自我檢測套組,57,2022/05/06 14:30:02,實名制快篩:週一至週五下午3點販售，週六週日無販售
5901172820,安心藥局,臺北市信義區永吉路３０巷１４８弄４之１號,121.5685,25.04266,(02)27474992,羅氏家用新冠病毒抗原自我檢測套組,1,2022/05/06 14:30:02,快篩代售時間14:00起現場排隊
5901173283,上禾藥師藥局,臺北市信義區林口街２７號,121.5792,25.03741,(02)27592686,羅氏家用新冠病毒抗原自我檢測套組,1,2022/05/06 14:30:02,無
5901173587,新興健保藥局,臺北市信義區永吉路３０巷１１３號,121.5689,25.04324,(02)27494892,羅氏家用新冠病毒抗原自我檢測套組,17,2022/05/06 14:30:02,快篩試劑下午二點開始販售
5901173710,專品光復藥局,臺北市信義區光復南路４６７之１號,121.5577,25.03384,(02)27586682,羅氏家用新冠病毒抗原自我檢測套組,72,2022/05/06 14:30:02,禮拜一到六下午三點販售口罩
5901173818,博亞藥局,臺北市信義區莊敬路４６２號,121.5677,25.02672,(02)27580506,羅氏家用新冠病毒抗原自我檢測套組,40,2022/05/06 14:30:02,平日早上8:30、晚上8:00；假日早上8:30，發放號碼牌，持號碼牌購買!
5901174057,詠晴中西藥局,臺北市信義區松山路４８４之４號（１樓含夾層）,121.5778,25.0389,(02)27266890,羅氏家用新冠病毒抗原自我檢測套組,4,2022/05/06 14:30:02,實名制快篩 - 16:30領號碼牌.當天取貨即可.避免群聚風險
5901174066,愛維喜藥局,臺北市信義區莊敬路２７８號１樓,121.5627,25.02882,(02)27586989,羅氏家用新冠病毒抗原自我檢測套組,72,2022/05/06 14:30:02,快篩周一至周五下午3:30開賣.約3:00收健保卡現金500元1張.發號碼牌
5901183789,佑康大藥局,臺北市中正區汀州路２段６４號,121.5184,25.02513,(02)23683602,羅氏家用新冠病毒抗原自我檢測套組,42,2022/05/06 14:30:02,快篩下午2點開賣
5901183798,佳和藥局,臺北市中正區黎明里公園路３０號,121.5169,25.04448,(02)23117102,羅氏家用新冠病毒抗原自我檢測套組,78,2022/05/06 14:30:02,無
5901184080,活力健康藥妝藥局,臺北市中正區中華路２段３１５巷１號,121.5062,25.02795,(02)23392625,羅氏家用新冠病毒抗原自我檢測套組,7,2022/05/06 14:30:02,快篩14:00-15:00， 建議提早排隊
5901184179,保德中華藥局,臺北市中正區中華路２段１５９號,121.5042,25.03101,(02)23027720,羅氏家用新冠病毒抗原自我檢測套組,78,2022/05/06 14:30:02,快篩下午三點開始發號碼牌及販售，限當日購買
5901184213,71恩典藥局,臺北市中正區信義路２段７１號,121.5264,25.03466,(02)23223371,羅氏家用新冠病毒抗原自我檢測套組,82,2022/05/06 14:30:02,快篩販售時間：◆週一到週五19:00 ◆週六17:00，十分鐘前發號碼牌
5901184366,宏越藥局,臺北市中正區中華路２段３１３巷４號,121.5061,25.02813,(02)23050880,羅氏家用新冠病毒抗原自我檢測套組,74,2022/05/06 14:30:02,代售實名制快篩時間 每日下午14:30開始  售完即停止  可關注FB公告當日是否代售
5901184491,躍獅南門藥局,臺北市中正區中華路２段３９巷１０號,121.5074,25.03484,(02)23141111,羅氏家用新冠病毒抗原自我檢測套組,78,2022/05/06 14:30:02,口罩販售時段：成人早上9點及晚上7點各200個
5901184553,珍忻藥局,臺北市中正區南昌路１段６５號,121.5174,25.03107,(02)23965115,羅氏家用新冠病毒抗原自我檢測套組,12,2022/05/06 14:30:02,健保快篩發放:13:20及18:20分兩梯次發號碼牌
5901184633,躍獅東門藥局,臺北市中正區金山南路１段１０８之１號（１樓）,121.5273,25.03538,(02)23920339,羅氏家用新冠病毒抗原自我檢測套組,35,2022/05/06 14:30:02,5／5銷售時間已結束。5／6下午兩點開始販售，不提早發放號碼牌
5901190033,世欣藥局,臺北市萬華區東園街１７３號１Ｆ,121.4973,25.02419,(02)23074263,羅氏家用新冠病毒抗原自我檢測套組,28,2022/05/06 14:30:02,防疫快篩劑服務時間週一至五14:00-16:00週六10:00-12:00
5901190426,皇祥藥局,臺北市萬華區萬青街１６５號１樓,121.5016,25.02279,(02)23375676,羅氏家用新冠病毒抗原自我檢測套組,2,2022/05/06 14:30:02,無
5901190668,聯慶大藥局,臺北市萬華區萬大路３０６號１樓,121.5003,25.02495,(02)23039850,羅氏家用新冠病毒抗原自我檢測套組,1,2022/05/06 14:30:02,無
5901192180,康之友藥局,臺北市萬華區青年路２０號,121.5055,25.02592,(02)23011598,羅氏家用新冠病毒抗原自我檢測套組,4,2022/05/06 14:30:02,下午兩點發號碼牌
5901192546,躍獅西園藥局,臺北市萬華區西園路２段２６０號,121.4946,25.02784,(02)23094063,羅氏家用新冠病毒抗原自我檢測套組,12,2022/05/06 14:30:02,快篩販售時段：下午2點至售完為止（政府正常配貨的情況下，現場排隊）
5901193221,正盛藥局,臺北市萬華區中華路２段４３４－１號,121.5064,25.02708,(02)23050386,羅氏家用新冠病毒抗原自我檢測套組,60,2022/05/06 14:30:02,1.快篩一~六20點，周日不賣 2.目前排隊人潮多，建議7點左右提前候位 3.詳情請看門口公告或板橋正康總店臉書
5901193301,富安藥局,臺北市萬華區萬大路４２６號,121.4981,25.02096,(02)23377878,羅氏家用新冠病毒抗原自我檢測套組,78,2022/05/06 14:30:02,快篩實名制：一人一卡，現場排隊，售完為止。【5／3早上暫停販售，販售時間待更新！】
5901193338,艾米力藥師藥局,臺北市萬華區西藏路１０７－２號１樓,121.5035,25.02955,(02)23036583,羅氏家用新冠病毒抗原自我檢測套組,74,2022/05/06 14:30:02,實名制快篩：周一~周五 晚上7:00販售；周末（六日）早上9:00販售
5901193365,企鵝藥局,臺北市萬華區西昌街１７５號（１樓）,121.5007,25.03886,(02)23884691,羅氏家用新冠病毒抗原自我檢測套組,2,2022/05/06 14:30:02,公費快篩試劑，下午2點發號碼牌
5901200490,永明大藥局,臺北市文山區興隆路１段２９７號１樓,121.5449,24.99875,(02)29314428,羅氏家用新冠病毒抗原自我檢測套組,156,2022/05/06 14:30:02,每日下午2點50發放號碼牌，3點進行快篩販售，6點前未領取視同放棄，限一人一卡一份。
5901201568,康宜庭生活藥局,臺北市文山區興隆路４段６４號,121.5613,24.98514,(02)29385363,羅氏家用新冠病毒抗原自我檢測套組,8,2022/05/06 14:30:02,實名快篩14:00開賣 現場排隊
5901201835,巧康藥局,臺北市文山區木新路３段２６２、２６４號,121.5585,24.98132,(02)29372061,羅氏家用新冠病毒抗原自我檢測套組,36,2022/05/06 14:30:02,每日下午2點發放號碼牌，2點15進行快篩販售。請勿離場，離場視同放棄。
5901202654,康宜庭萬隆藥局,臺北市文山區羅斯福路５段２０２號,121.5384,25.00322,(02)29348662,羅氏家用新冠病毒抗原自我檢測套組,2,2022/05/06 14:30:02,實名快篩中午才到貨   每日下午14:00準時開賣（建議13:00來排隊）
5901202841,欣安景美藥局,臺北市文山區景文街７７號,121.5414,24.99126,(02)29316008,羅氏家用新冠病毒抗原自我檢測套組,49,2022/05/06 14:30:02,今日快篩劑PM:14:00販賣售完為止
5901202949,萬隆大藥局,臺北市文山區羅斯福路５段２１８巷１５號,121.538,25.00203,(02)29334580,羅氏家用新冠病毒抗原自我檢測套組,93,2022/05/06 14:30:02,9：00~23：00
5901202958,杏一萬安藥局,臺北市文山區萬安街１５號,121.5706,25.00139,(02)22302126,羅氏家用新冠病毒抗原自我檢測套組,1,2022/05/06 14:30:02,營業時間0900-2200
5901203080,杏一木柵藥局,臺北市文山區木柵路３段９８號,121.5674,24.98861,(02)29371839,羅氏家用新冠病毒抗原自我檢測套組,78,2022/05/06 14:30:02,無
5901203106,光明大藥局,臺北市文山區忠順街１段６６號,121.5607,24.98426,(02)29390275,羅氏家用新冠病毒抗原自我檢測套組,12,2022/05/06 14:30:02,無
5901203400,富康活力睦新藥局,臺北市文山區木新路３段２１６號,121.5595,24.98153,(02)29393666,羅氏家用新冠病毒抗原自我檢測套組,16,2022/05/06 14:30:02,無
5901203419,康宜庭興隆藥局,臺北市文山區興隆路３段２００號１樓,121.559,24.99779,(02)22304866,羅氏家用新冠病毒抗原自我檢測套組,2,2022/05/06 14:30:02,無
5901203464,大愛幸福藥局,臺北市文山區木新路２段２２１號１樓,121.5675,24.98344,(02)29379977,羅氏家用新冠病毒抗原自我檢測套組,65,2022/05/06 14:30:02,無
5901203482,健康家藥局,臺北市文山區興隆路２段１３３號１樓,121.5481,25.00011,(02)29330858,羅氏家用新冠病毒抗原自我檢測套組,3,2022/05/06 14:30:02,實名制快篩下午一點開始販售，5／1店休
5902020012,永松藥局,高雄市鼓山區鼓山三路１３０－１５號,120.2802,22.66454,(07)5810657,羅氏家用新冠病毒抗原自我檢測套組,78,2022/05/06 14:30:02,無
5902022874,康爾喜藥局,高雄市鼓山區慶豐街５０號,120.2935,22.66647,(07)5222650,羅氏家用新冠病毒抗原自我檢測套組,2,2022/05/06 14:30:02,快篩試劑 午。週日不發
5902042661,元春中西藥師藥局,高雄市楠梓區後昌路８３７巷３７號,120.294,22.71109,(07)3605656,羅氏家用新冠病毒抗原自我檢測套組,78,2022/05/06 14:30:02,下午16.00開始為快篩領取時間，售完為止
5902050565,澄和藥局,高雄市三民區澄和路６６號,120.3445,22.64474,(07)3923111,羅氏家用新冠病毒抗原自我檢測套組,9,2022/05/06 14:30:02,快篩試劑- 販售時間自下午14:00起至售完為止
5902050636,嘉益藥局,高雄市三民區重慶街３０號,120.302,22.64223,(07)3110157,羅氏家用新冠病毒抗原自我檢測套組,43,2022/05/06 14:30:02,快篩實名制下午15：00開始販售.
5902050903,皇安藥局,高雄市三民區九如一路４６１號,120.3296,22.63865,(07)3866779,羅氏家用新冠病毒抗原自我檢測套組,1,2022/05/06 14:30:02,營業日0900可先領取號碼牌，上午9:00-12:00及下午3:00~10:.00為販賣快篩時間，售完為止
5902056638,柏仁藥局,高雄市三民區覺民路５０４號,120.3317,22.64092,(07)3976016,羅氏家用新冠病毒抗原自我檢測套組,50,2022/05/06 14:30:02,實名制快篩下午3點開賣，現場排隊，售完為止
5902080545,柏松藥局,高雄市苓雅區輔仁路１７５號,120.3332,22.63065,(07)7119786,羅氏家用新冠病毒抗原自我檢測套組,68,2022/05/06 14:30:02,實名制快篩試劑.5／4.起.16:00開賣......售完為止!!
5902085308,幸福藥師藥局,高雄市苓雅區青年一路１６７－３號,120.3079,22.62172,(07)5368701,羅氏家用新冠病毒抗原自我檢測套組,5,2022/05/06 14:30:02,1: 自111／5／1起：快篩販售時間為14:00開始。2: 販售方式依現場公告為主，售完為止。
5902090827,博平藥局,高雄市前鎮區草衙二路３７７號,120.3224,22.57808,(07)8311814,羅氏家用新冠病毒抗原自我檢測套組,4,2022/05/06 14:30:02,下午2點開始販售快篩.售完為止
5902110093,鳳明中西大藥局,高雄市小港區二苓路２４７號,120.3477,22.56534,(07)8011846,羅氏家用新冠病毒抗原自我檢測套組,20,2022/05/06 14:30:02,實名制快篩 :星期1 到 星期6 下午2點開賣
5903010127,友誠藥局,臺中市豐原區豐東路４０１號１樓,120.7336,24.25457,(04)25132371,羅氏家用新冠病毒抗原自我檢測套組,22,2022/05/06 14:30:02,禮拜一至禮拜日快篩發放時間下午兩點開始販售，售完為止。
5903010261,豐原西勢藥局,臺中市豐原區西勢路２００號１樓,120.7067,24.24379,(04)25262330,羅氏家用新冠病毒抗原自我檢測套組,2,2022/05/06 14:30:02,今日快篩下午2:00開賣，1:50發號碼牌，因疫情無法店內排隊。若遇下雨請自備雨具，不便之處敬請見諒。
5903010501,佑全豐原圓環東藥局,臺中市豐原區圓環東路５４８、５５０、５５２、５５４號１樓,120.7275,24.24948,(04)25246069,羅氏家用新冠病毒抗原自我檢測套組,3,2022/05/06 14:30:02,營業時間9:00-21:00，今日實名制1:50發號碼牌2:00開賣，售完為止
5903010547,佑全豐原中正藥局,臺中市豐原區中正路２２３、２２５號１、２樓,120.7175,24.25179,(04)25152886,羅氏家用新冠病毒抗原自我檢測套組,1,2022/05/06 14:30:02,實名制快篩販售時間:下午2點開始（13:50發號碼牌）
5903010556,升禾和大藥局,臺中市豐原區育英路２６號１樓,120.7163,24.24346,(04)25293099,羅氏家用新冠病毒抗原自我檢測套組,78,2022/05/06 14:30:02,快篩試劑1800領取.採現場排隊.售完為止
5903010583,林居藥局,臺中市豐原區源豐路１１４號１樓,120.7173,24.25367,(04)25159168,羅氏家用新冠病毒抗原自我檢測套組,9,2022/05/06 14:30:02,快篩依當天物流送貨時間， 會在 FB林居藥局 公告販售時間， 謝謝
5903040036,得康藥局,臺中市清水區高美路１１７號,120.5753,24.27879,(04)26260622,羅氏家用新冠病毒抗原自我檢測套組,78,2022/05/06 14:30:02,5／6下午14:40開始販售
5903040107,佑全清水中山三藥局,臺中市清水區中山路２４、２６、２８號１樓,120.572,24.26043,(04)26224469,羅氏家用新冠病毒抗原自我檢測套組,21,2022/05/06 14:30:02,5／6實名制快篩發放時間下午2:00開始，1:50發放號碼牌，請關注本藥局臉書隨時公告最新訊息。慢箋牙科箋領藥全年無休。
5903050274,鹿寮藥局,臺中市沙鹿區中山路４６１、４６１－１號１、２樓,120.5615,24.24387,(04)26630677,羅氏家用新冠病毒抗原自我檢測套組,78,2022/05/06 14:30:02,快篩實名制，每天16:00開始販售，售完為止。
5903060092,佑全梧棲文化藥局,臺中市梧棲區文化路二段１５０號１樓,120.531,24.25526,(04)26566433,羅氏家用新冠病毒抗原自我檢測套組,14,2022/05/06 14:30:02,實名制快篩，下午1:50發號碼牌，14:00開始販售
5903070098,祐恩藥局,臺中市后里區甲后路一段４７８號１樓,120.6819,24.3157,(04)25587518,羅氏家用新冠病毒抗原自我檢測套組,78,2022/05/06 14:30:02,實名制快篩試劑每日15:00開始販售。週日休息。
5903070169,佑全后里甲后藥局,臺中市后里區甲后路一段７２８號１、２樓,120.7193,24.30951,(04)25583116,羅氏家用新冠病毒抗原自我檢測套組,36,2022/05/06 14:30:02,實名制快篩每日14:00販售。13:50發放號碼牌。
5903080094,灃洲大藥局,臺中市神岡區豐洲路４６６－３號１樓,120.7045,24.26179,(04)25150169,羅氏家用新冠病毒抗原自我檢測套組,6,2022/05/06 14:30:02,星期日公休，實名制快篩販售時間為每日下午兩點
5903090429,佑全潭子中山藥局,臺中市潭子區中山路一段９之１號,120.7023,24.18847,(04)25356140,羅氏家用新冠病毒抗原自我檢測套組,27,2022/05/06 14:30:02,營業時間:09:00-21:00／健保實聯制購買時間:14:00開始販售，13:50開始發號碼牌，售完為止。
5903100206,民生藥局,臺中市大雅區民生路一段２２１號１樓,120.6512,24.22789,(04)25662229,羅氏家用新冠病毒抗原自我檢測套組,78,2022/05/06 14:30:02,快篩實名制，每天16:00開始販售，售完為止。
5903100215,佑全大雅雅環藥局,臺中市大雅區雅環路二段８８號１樓,120.653,24.22634,(04)25605942,羅氏家用新冠病毒抗原自我檢測套組,19,2022/05/06 14:30:02,營業時間:09:00~21:00；實名制快篩於每日13:50發放號碼牌，14:00開始販售。
5903150135,全品藥局,臺中市烏日區公園路２４０之１號１樓,120.6254,24.10234,(04)23362690,羅氏家用新冠病毒抗原自我檢測套組,2,2022/05/06 14:30:02,因近期快篩配貨時間不定，早上如有配送 下午2:00販售，售完為止
5903150153,溪南藥局,臺中市烏日區溪南路一段５６５號１樓,120.6431,24.07523,(04)23353666,羅氏家用新冠病毒抗原自我檢測套組,78,2022/05/06 14:30:02,快篩實名制，每天16:00開始販售，售完為止。
5903160042,大肚新庄藥局,臺中市大肚區遊園路２段２２１－３號１樓,120.5808,24.17376,(04)26912119,羅氏家用新冠病毒抗原自我檢測套組,78,2022/05/06 14:30:02,每天下午3點開始排隊販賣，賣完為止
5903160097,安昌藥局,臺中市大肚區遊園路二段１７６號１樓,120.5808,24.17289,(04)26913890,羅氏家用新冠病毒抗原自我檢測套組,78,2022/05/06 14:30:02,每天晚上19:00點開始現場排隊販賣快篩試劑.
5903180142,峰正藥局,臺中市霧峰區中正路８３０號１樓,120.6987,24.06244,(04)23303353,羅氏家用新冠病毒抗原自我檢測套組,78,2022/05/06 14:30:02,快篩實名制，每天16:00開始販售，售完為止。
5903190148,亞洲藥師連鎖大藥局,臺中市太平區中山路２段４５８號,120.7253,24.14984,(04)23921681,羅氏家用新冠病毒抗原自我檢測套組,75,2022/05/06 14:30:02,實名制快篩，每天14:30開賣，一人一卡，請自備500元
5903190362,太平中山藥局,臺中市太平區中山路４段１１號,120.7139,24.14931,(04)23959200,羅氏家用新冠病毒抗原自我檢測套組,78,2022/05/06 14:30:02,快篩實名制，每天16:00開始販售，售完為止。
5903190497,太平惠民藥師藥局,臺中市太平區東平路３６８號１樓,120.7267,24.13433,(04)22768799,羅氏家用新冠病毒抗原自我檢測套組,29,2022/05/06 14:30:02,實名制快篩:每日下午2點開賣，一人一卡，請自備500元，不找零
5903200229,信元藥局,臺中市大里區益民路２段３７２號１樓,120.684,24.11545,(04)24876051,羅氏家用新冠病毒抗原自我檢測套組,49,2022/05/06 14:30:02,下午5點發號碼牌並依序販賣
5903200514,大明永欣藥局,臺中市大里區大明路５３９號１樓、５４１號１樓,120.6735,24.11478,(04)24068864,羅氏家用新冠病毒抗原自我檢測套組,18,2022/05/06 14:30:02,實名制快篩每天下午2點開始發號碼牌
5903200541,大里康媞藥局,臺中市大里區塗城路４９４號,120.7024,24.08867,(04)24966627,羅氏家用新冠病毒抗原自我檢測套組,11,2022/05/06 14:30:02,快篩下午兩點開始
5903200596,大樹大里藥局,臺中市大里區中興路二段１０１號,120.6885,24.10305,(04)24861133,羅氏家用新冠病毒抗原自我檢測套組,78,2022/05/06 14:30:02,快篩實名制，每天16:00開始販售，售完為止。
5903200658,德芳成功藥局,臺中市大里區成功路５３５－３號１樓,120.7033,24.0913,(04)24920298,羅氏家用新冠病毒抗原自我檢測套組,115,2022/05/06 14:30:02,快篩販售時間:下午3點~6點
5903200685,塗城藥局,臺中市大里區中興路一段１８７、１８９、１９１號１樓,120.6933,24.09008,(04)24967234,羅氏家用新冠病毒抗原自我檢測套組,78,2022/05/06 14:30:02,快篩實名制，每天16:00開始販售，售完為止。
5903200701,大益藥局,臺中市大里區益民路二段３３５號１、２樓,120.6837,24.11311,(04)24811551,羅氏家用新冠病毒抗原自我檢測套組,78,2022/05/06 14:30:02,快篩實名制，每天16:00開始販售，售完為止。
5903200756,佑全大里大明藥局,臺中市大里區大明路３６０、３６２號,120.6787,24.11511,(04)24818633,羅氏家用新冠病毒抗原自我檢測套組,37,2022/05/06 14:30:02,實名制快篩，開賣時間:下午14:00，售完為止
5903220178,佑全台中中華藥局,臺中市中區中華路一段１６２號１樓,120.6779,24.14605,(04)22291556,羅氏家用新冠病毒抗原自我檢測套組,20,2022/05/06 14:30:02,下午01:40開始發放號碼牌!! 售完為止!! 一人一卡一盒
5903220196,日安藥局,臺中市中區臺灣大道一段３３０號１樓,120.6801,24.1422,(04)22234246,羅氏家用新冠病毒抗原自我檢測套組,19,2022/05/06 14:30:02,郵差送達後，開始販售快篩!!!
5903230209,東京藥師藥局,臺中市東區復興路五段１４９號１樓,120.6893,24.14543,(04)22132278,羅氏家用新冠病毒抗原自我檢測套組,4,2022/05/06 14:30:02,無
5903240143,利民藥局,臺中市西區四維街２３號１樓,120.6758,24.13714,(04)22292931,羅氏家用新冠病毒抗原自我檢測套組,71,2022/05/06 14:30:02,平日營業時間10-20，周六10-15，周日休。實名制快篩下午2點半現場排隊販售至售完或營業結束。
5903240410,德芳美村藥局,臺中市西區美村路一段６８１、６８３號１樓,120.6618,24.13545,(04)23782848,羅氏家用新冠病毒抗原自我檢測套組,74,2022/05/06 14:30:02,周一到周五下午3點~6點
5903240474,佑全台中向上藥局,臺中市西區向上路一段３８６、３８８號１樓,120.6559,24.14688,(04)23204732,羅氏家用新冠病毒抗原自我檢測套組,12,2022/05/06 14:30:02,因政府配貨時間不一，依照門市現場公告時間為主
5903240492,好好誠美藥局,臺中市西區向上北路１８６號１樓,120.6611,24.14797,(04)23022838,羅氏家用新冠病毒抗原自我檢測套組,4,2022/05/06 14:30:02,快篩販售時間下午兩點
5903250381,大樹美村藥局,臺中市南區美村南路１２４號,120.667,24.11499,(04)22621113,羅氏家用新冠病毒抗原自我檢測套組,78,2022/05/06 14:30:02,口罩販售時間：14:00 - 16:00
5903250443,千美台安藥局,臺中市南區美村南路２６３號,120.6666,24.11426,(04)22602101,羅氏家用新冠病毒抗原自我檢測套組,70,2022/05/06 14:30:02,周一到周日，下午2:30開始販售居家快篩
5903250505,心安藥局,臺中市南區國光路２４１號１樓,120.6794,24.12676,(04)22858773,羅氏家用新冠病毒抗原自我檢測套組,77,2022/05/06 14:30:02,每天下午三點排隊開賣，一人一卡，週日公休下次是5／6號.5／5已售完.
5903250658,田園藥局,臺中市南區學府路１６０號１樓,120.6742,24.12909,(04)22220605,羅氏家用新冠病毒抗原自我檢測套組,54,2022/05/06 14:30:02,每週三公休。每天13:30 開始販售，一人限一卡，依到貨數量販售
5903260341,台中漢口藥局,臺中市北區漢口路３段１８３號,120.6711,24.16703,(04)22936166,羅氏家用新冠病毒抗原自我檢測套組,14,2022/05/06 14:30:02,實名制快篩販售時間：下午2點
5903260476,康媞藥局,臺中市北區北平路二段１２８號１樓,120.6774,24.17124,(04)22925388,羅氏家用新冠病毒抗原自我檢測套組,27,2022/05/06 14:30:02,無
5903260501,瑞鋒藥師藥局,臺中市北區育德路１６號,120.6795,24.15763,(04)22020786,羅氏家用新冠病毒抗原自我檢測套組,77,2022/05/06 14:30:02,依排班人力，周一至周六早上10點半或下午2點發號碼牌
5903260912,莒光藥局,臺中市北區錦南街１２號１樓,120.6886,24.15399,(04)22336663,羅氏家用新冠病毒抗原自我檢測套組,78,2022/05/06 14:30:02,每日下午3點開賣 78份售完為止 星期日另外公告 臉書搜尋莒光藥局
5903261008,台中大樹藥局,臺中市北區漢口路三段２６１號,120.6726,24.16703,(04)22981113,羅氏家用新冠病毒抗原自我檢測套組,78,2022/05/06 14:30:02,快篩實名制，每天16:00開始販售，售完為止。
5903270392,瑞德大藥局,臺中市西屯區中清西二街８４號,120.6671,24.17511,(04)22939820,羅氏家用新冠病毒抗原自我檢測套組,2,2022/05/06 14:30:02,固定周一至周日早上9:00開始販售口罩.售完為止
5903270614,至善德侑藥局,臺中市西屯區至善路６０號,120.6395,24.17141,(04)24518729,羅氏家用新冠病毒抗原自我檢測套組,13,2022/05/06 14:30:02,實名制快篩下午14:00開始發號碼牌.14:15開始販售
5903270749,大墩藥局,臺中市西屯區大墩１９街６８號１樓,120.6518,24.15734,(04)23209602,羅氏家用新冠病毒抗原自我檢測套組,78,2022/05/06 14:30:02,每天下午三點開賣，請提早來排隊（視排隊狀況會提早發售）
5903270810,佑全福星藥局,臺中市西屯區黎明路三段３９５、３９７號,120.639,24.18251,(04)24527465,羅氏家用新冠病毒抗原自我檢測套組,24,2022/05/06 14:30:02,因政府實名制快篩配貨時間不一，依照門市現場公告時間為主
5903270865,尚禾藥局,臺中市西屯區青海路一段６５號,120.6548,24.16438,(04)23147688,羅氏家用新冠病毒抗原自我檢測套組,39,2022/05/06 14:30:02,實名制快篩發放：時段一中午12:30~14:00。時段二20：30~22：30。時段一若未發完，餘量將遞延至時段二發放。周日停售。
5903270874,熊健康藥局,臺中市西屯區太原路一段２３２號,120.6632,24.16394,(04)23163505,羅氏家用新冠病毒抗原自我檢測套組,70,2022/05/06 14:30:02,快篩實名制14:30開始販售，售完為止。 星期日公休。
5903270883,祥和大藥局,臺中市西屯區青海路二段２４０－９號,120.6418,24.17323,(04)27000122,羅氏家用新冠病毒抗原自我檢測套組,11,2022/05/06 14:30:02,快篩販售時間：每日下午5點至夜間10點。
5903270918,全成西屯藥局,臺中市西屯區黎明路三段２２１、２２３號1樓,120.6373,24.17723,(04)24512290,羅氏家用新冠病毒抗原自我檢測套組,73,2022/05/06 14:30:02,星期一至星期六15點開始販售實名制快篩
5903271022,西屯藥局,臺中市西屯區西屯路三段１５０－４５號１樓,120.621,24.18716,(04)24621822,羅氏家用新冠病毒抗原自我檢測套組,78,2022/05/06 14:30:02,快篩實名制，每天16:00開始販售，售完為止。
5903271031,美十樂中科藥局,臺中市西屯區西屯路三段１６６－６５號１樓,120.6129,24.19035,(04)24610219,羅氏家用新冠病毒抗原自我檢測套組,468,2022/05/06 14:30:02,醫事人員卡片損壞，暫時無法販賣快篩
5903271068,西墩藥局,臺中市西屯區黎明路三段２７５、２７７號１樓,120.6373,24.17812,(04)24510770,羅氏家用新冠病毒抗原自我檢測套組,78,2022/05/06 14:30:02,快篩實名制，每天16:00開始販售，售完為止。
5903271193,何安藥局,臺中市西屯區西屯路二段１０１號Ｂ棟１樓,120.6531,24.16616,(04)23161110,羅氏家用新冠病毒抗原自我檢測套組,78,2022/05/06 14:30:02,快篩實名制，每天16:00開始販售，售完為止。
5903271291,西屯長安藥局,臺中市西屯區成都路３６８號１樓,120.6641,24.17322,(04)22981221,羅氏家用新冠病毒抗原自我檢測套組,78,2022/05/06 14:30:02,快篩實名制，每天16:00開始販售，售完為止。
5903280067,博川健保藥局,臺中市南屯區大墩５街２９８號１樓,120.6486,24.14257,(04)24732995,羅氏家用新冠病毒抗原自我檢測套組,75,2022/05/06 14:30:02,每日指揮中心發送量為78份，多餘之庫存為系統異常；因目前配送時間不固定，送達即開始販售
5903280245,大墩何藥局,臺中市南屯區大敦南路４３１號１．２樓,120.6476,24.13497,(04)24710655,羅氏家用新冠病毒抗原自我檢測套組,78,2022/05/06 14:30:02,防疫用快篩試劑下午4點開始販售，售完為止
5903280325,亞洲連鎖大藥局,臺中市南屯區黎明路２段１３３、１３５號,120.6336,24.15977,(04)23812886,羅氏家用新冠病毒抗原自我檢測套組,17,2022/05/06 14:30:02,下午1 : 50 前發放號碼牌， 2:00 開始發放快篩， 售完為止!
5903280576,佑全黎明藥局,臺中市南屯區黎明路２段２６６號,120.6359,24.14816,(04)23805560,羅氏家用新冠病毒抗原自我檢測套組,16,2022/05/06 14:30:02,實名制快篩販售時間下午兩點
5903280656,熊大心藥局,臺中市南屯區河南路四段３７６號,120.6369,24.15208,(04)22516252,羅氏家用新冠病毒抗原自我檢測套組,50,2022/05/06 14:30:02,app庫存錯誤。周一至周六，15:00-16:00售實名制快篩
5903280898,佑全台中忠勇藥局,臺中市南屯區忠勇路５１－８號１樓,120.614,24.14376,(04)23803282,羅氏家用新冠病毒抗原自我檢測套組,16,2022/05/06 14:30:02,實名制快篩發放號碼牌13:50  販售14:00（限量78份）
5903290607,敦化小林健保藥局,臺中市北屯區敦化路１段６６８號,120.6643,24.18593,(04)24261881,羅氏家用新冠病毒抗原自我檢測套組,2,2022/05/06 14:30:02,每日早上8:00領號碼牌，16:30再回藥局領口罩（全年無休）
5903290689,大德安藥局,臺中市北屯區景賢路２３６號,120.7241,24.16701,(04)24378351,羅氏家用新冠病毒抗原自我檢測套組,1,2022/05/06 14:30:02,口罩代售時間從週一到週六09:00~現場排隊售完為止星期日早上10:00起至售完為止
5903290750,長幼藥局,臺中市北屯區崇德路二路二段１５７號１樓,120.6853,24.17329,(04)22426767,羅氏家用新冠病毒抗原自我檢測套組,78,2022/05/06 14:30:02,採現場排隊無號碼牌，快篩地圖與庫存餘量會有誤差，敬請見諒
5903290803,英全藥局,臺中市北屯區北平路三段３４號,120.6803,24.17105,(04)22345179,羅氏家用新冠病毒抗原自我檢測套組,7,2022/05/06 14:30:02,營業時間早上8點到晚上11點  快篩購買時間下午14點
5903290849,新盛藥局,臺中市北屯區松竹路二段１５７號１樓,120.6959,24.18312,(04)22467779,羅氏家用新冠病毒抗原自我檢測套組,40,2022/05/06 14:30:02,下午2:30至8:30賣快篩試劑週一至週六
5903290876,北屯軍功藥局,臺中市北屯區軍功路一段７５２號,120.7193,24.17513,(04)24375111,羅氏家用新冠病毒抗原自我檢測套組,78,2022/05/06 14:30:02,快篩實名制，每天16:00開始販售，售完為止。
5903290929,微笑藥局,臺中市北屯區昌平路一段３１８號１樓,120.6907,24.17344,(04)22432699,羅氏家用新冠病毒抗原自我檢測套組,78,2022/05/06 14:30:02,【快篩試劑】下午2:30起~現場排隊~
5903290947,德寶健保藥局,臺中市北屯區熱河路一段７０號１樓,120.687,24.1674,(04)22325511,羅氏家用新冠病毒抗原自我檢測套組,6,2022/05/06 14:30:02,下午二點開始販賣快篩試劑
5903290965,崇德藥局,臺中市北屯區崇德路二段３１號,120.685,24.16962,(04)22361331,羅氏家用新冠病毒抗原自我檢測套組,78,2022/05/06 14:30:02,快篩實名制，每天16:00開始販售，售完為止。
5903290992,益川健保藥局,臺中市北屯區昌平路二段４７－１號１樓,120.6829,24.1917,(04)24213696,羅氏家用新冠病毒抗原自我檢測套組,41,2022/05/06 14:30:02,快篩試劑下午2點20現場販售，售完為止，星期日下午3點開始販售
5903291042,全成北屯藥局,臺中市北屯區北屯路４３９－１１號１樓,120.7004,24.17913,(04)22463518,羅氏家用新冠病毒抗原自我檢測套組,64,2022/05/06 14:30:02,快篩每日下午3:00開始販售
5903291060,大樹北屯藥局,臺中市北屯區松竹路二段４１１號１樓,120.6895,24.18192,(04)22422262,羅氏家用新冠病毒抗原自我檢測套組,78,2022/05/06 14:30:02,快篩實名制，每天16:00開始販售，售完為止。
5903291131,兩隻老虎藥局,臺中市北屯區崇德路２段１２號１樓,120.6855,24.16869,(04)22364635,羅氏家用新冠病毒抗原自我檢測套組,20,2022/05/06 14:30:02,營業時間早上九點到晚上九點半（快篩下午兩點開賣）
5903291140,興安藥局,臺中市北屯區興安路二段５２號１、２樓,120.6949,24.1762,(04)22460369,羅氏家用新冠病毒抗原自我檢測套組,78,2022/05/06 14:30:02,快篩實名制，每天16:00開始販售，售完為止。
5903291211,愛樂芬兒童藥局,臺中市北屯區松竹路一段９２９號１樓,120.7131,24.18216,(04)24363660,羅氏家用新冠病毒抗原自我檢測套組,43,2022/05/06 14:30:02,因配送時間不固定，預定下午三點開始販售
5903291257,新一代何藥局,臺中市北屯區環中東路二段２６６、２６８號１樓,120.7207,24.17576,(04)24364366,羅氏家用新冠病毒抗原自我檢測套組,78,2022/05/06 14:30:02,因應配送時間不一 ，販賣時間改為下午四點
5905010143,啄木鳥藥師藥局,臺南市新營區新南里民治路２４２號,120.3041,23.30767,(06)6590248,羅氏家用新冠病毒抗原自我檢測套組,77,2022/05/06 14:30:02,每天下午4:00開始販售，售完為止
5905010250,大樹新營藥局,臺南市新營區民權路７４、７６、７８號１樓,120.3127,23.30615,(06)6328300,羅氏家用新冠病毒抗原自我檢測套組,78,2022/05/06 14:30:02,快篩實名制，每天16:00開始販售，售完為止。
5905020023,大樹鹽水藥局,臺南市鹽水區朝琴路１２６－３號１樓,120.271,23.32228,(06)6520432,羅氏家用新冠病毒抗原自我檢測套組,78,2022/05/06 14:30:02,快篩實名制，每天16:00開始販售，售完為止。
5905030092,大樹白河藥局,臺南市白河區中山路１５３號１樓,120.417,23.35255,(06)6830006,羅氏家用新冠病毒抗原自我檢測套組,78,2022/05/06 14:30:02,快篩實名制，每天16:00開始販售，售完為止。
5905050058,佳里啄木鳥藥局,臺南市佳里區延平路７６號１樓,120.1795,23.15507,(06)7236396,羅氏家用新冠病毒抗原自我檢測套組,9,2022/05/06 14:30:02,1400-售完為止
5905050165,德昌藥局佳里店,臺南市佳里區光復路２３３號,120.1746,23.16095,(06)7232388,羅氏家用新冠病毒抗原自我檢測套組,78,2022/05/06 14:30:02,固定周一至周六14:30開始販售口罩，售完為止
5905060198,大樹新化藥局,臺南市新化區中正路５３１號１樓,120.3072,23.03764,(06)5901331,羅氏家用新冠病毒抗原自我檢測套組,78,2022/05/06 14:30:02,快篩實名制，每天16:00開始販售，售完為止。
5905070050,晶德昌藥局,臺南市善化區文光里中山路８５號,120.3034,23.13298,(06)5856141,羅氏家用新冠病毒抗原自我檢測套組,69,2022/05/06 14:30:02,14:30-16:00.依號碼牌售完為止
5905070112,健登藥局,臺南市善化區大成路２１２號１樓,120.3004,23.13021,(06)5831133,羅氏家用新冠病毒抗原自我檢測套組,20,2022/05/06 14:30:02,快篩實名制販售 : 週一~六 下午兩點開始 週日不販售
5905070121,大樹善化藥局,臺南市善化區民權路５４、５６、５８號１樓,120.3034,23.1322,(06)5830550,羅氏家用新冠病毒抗原自我檢測套組,78,2022/05/06 14:30:02,快篩實名制，每天16:00開始販售，售完為止。
5905070158,南科健登藥局,臺南市善化區龍目井路４１３號１樓,120.3058,23.10922,(06)5836266,羅氏家用新冠病毒抗原自我檢測套組,18,2022/05/06 14:30:02,快篩實名制販售 : 週一~六 下午兩點開始 週日不販售
5905070185,宇康藥局,臺南市善化區蓮潭里蓮潭南街１５０號１樓,120.3077,23.11199,(06)5830963,羅氏家用新冠病毒抗原自我檢測套組,19,2022/05/06 14:30:02,周一至周五快篩販售時間下午2-3點，售完為止
5905070201,善化啄木鳥藥局,臺南市善化區中山路１８１號１、２樓,120.3006,23.13256,(06)5853585,羅氏家用新冠病毒抗原自我檢測套組,78,2022/05/06 14:30:02,快篩實名制，15:30-售完
5905200030,新和德健保藥局,臺南市新市區中正路３１９－１號,120.2939,23.07958,(06)5997603,羅氏家用新冠病毒抗原自我檢測套組,36,2022/05/06 14:30:02,快篩實名制每日14:15發號碼牌；14:30開始販售，售完為止
5905200058,欣和德藥局,臺南市新市區中正路２００號,120.2916,23.07516,(06)5895658,羅氏家用新冠病毒抗原自我檢測套組,64,2022/05/06 14:30:02,快篩實名制每日14:15發號碼牌；14:30開始販售，售完為止
5905200085,大樹新市藥局,臺南市新市區中正路４９、５１號１樓,120.2916,23.07223,(06)5892552,羅氏家用新冠病毒抗原自我檢測套組,78,2022/05/06 14:30:02,快篩實名制，每天16:00開始販售，售完為止。
5905270176,大樹仁德藥局,臺南市仁德區中正路二段１１５２號１樓,120.2519,22.97062,(06)2797466,羅氏家用新冠病毒抗原自我檢測套組,78,2022/05/06 14:30:02,快篩實名制，每天16:00開始販售，售完為止。
5905280163,歸仁丁丁藥局,臺南市歸仁區中山路三段７３號１樓,120.2861,22.96753,(06)2300767,羅氏家用新冠病毒抗原自我檢測套組,50,2022/05/06 14:30:02,快篩實名制「每天早上9點發放號碼牌」開始販售，如未到貨可關注丁丁藥局歸仁店FB，到貨通知（憑號碼牌購買）
5905310755,德昌藥局永康店,臺南市永康區中華路４６２號,120.2327,23.01082,(06)3020628,羅氏家用新冠病毒抗原自我檢測套組,75,2022/05/06 14:30:02,快篩販售時間：星期一~星期日14:30~16:00
5905311127,台南永康藥局,臺南市永康區中山南路８１６、８１６─１、２、３號１樓,120.2471,23.02099,(06)2020201,羅氏家用新冠病毒抗原自我檢測套組,78,2022/05/06 14:30:02,快篩實名制，每天16:00開始販售，售完為止。
5905320135,安麗兒藥局裕農店,臺南市東區裕農路１００號１樓,120.2268,22.9857,(06)2377378,羅氏家用新冠病毒抗原自我檢測套組,57,2022/05/06 14:30:02,實名制快篩販售時間:星期一到星期日下午三點~售完
5905320466,佑全中華藥局,臺南市東區中華東路三段２１５號,120.2253,22.97603,(06)2906386,羅氏家用新冠病毒抗原自我檢測套組,6,2022/05/06 14:30:02,星期一-六08:00-21:00
5905320635,晉大藥局,臺南市東區東平路１３４號１樓,120.2298,22.99522,(06)2092580,羅氏家用新冠病毒抗原自我檢測套組,65,2022/05/06 14:30:02,快篩實名制下午3點開始販售
5905320797,大樹自由藥局,臺南市東區自由路三段３８２號１樓,120.2373,22.98241,(06)2890800,羅氏家用新冠病毒抗原自我檢測套組,78,2022/05/06 14:30:02,快篩實名制，每天16:00開始販售，售完為止。
5905320804,大樹大同藥局,臺南市東區大同路二段２２７、２２９號１樓,120.2143,22.97567,(06)2158700,羅氏家用新冠病毒抗原自我檢測套組,78,2022/05/06 14:30:02,快篩實名制，每天16:00開始販售，售完為止。
5905320868,大樹東寧藥局,臺南市東區東寧路４３６號１樓,120.2291,22.9895,(06)2360006,羅氏家用新冠病毒抗原自我檢測套組,78,2022/05/06 14:30:02,快篩實名制，每天16:00開始販售，售完為止。
5905330159,勝一藥局,臺南市南區省躬里灣裡路９０號１樓,120.1807,22.93114,(06)2626168,羅氏家用新冠病毒抗原自我檢測套組,19,2022/05/06 14:30:02,快篩實名制時間:下午2點~售完
5905330284,大樹佳華藥局,臺南市南區金華路二段１２９號１樓,120.1911,22.98035,(06)2641238,羅氏家用新冠病毒抗原自我檢測套組,78,2022/05/06 14:30:02,快篩實名制，每天16:00開始販售，售完為止。
5905340173,賜安大藥局,臺南市中西區光賢里武聖路９號,120.1932,23.00517,(06)3589600,羅氏家用新冠病毒抗原自我檢測套組,26,2022/05/06 14:30:02,快篩 代售時段 星期一-六 下午2點~6點
5905340235,人人藥局,臺南市中西區和緯路５段１９７號１樓,120.1845,23.00393,(06)3583668,羅氏家用新冠病毒抗原自我檢測套組,17,2022/05/06 14:30:02,快篩，每日下午兩點開始過卡販售。
5905350366,千多藥局,臺南市北區金華路五段１號,120.1962,23.0016,(06)2228641,羅氏家用新冠病毒抗原自我檢測套組,78,2022/05/06 14:30:02,晚上6點開始銷售實名制快篩試劑，賣完為止
5905350393,和緯啄木鳥藥局,臺南市北區和緯路２段１７６號,120.2074,23.01231,(06)2519805,羅氏家用新冠病毒抗原自我檢測套組,33,2022/05/06 14:30:02,實名制快篩販售時間：周一~周五14:00，周六~周日11:00（若有變更，敬請見諒）    門市另有販售非實名制快篩，歡迎洽詢。
5905370180,安南啄木鳥藥局,臺南市安南區安和路一段１０７號,120.2143,23.02826,(06)2821265,羅氏家用新冠病毒抗原自我檢測套組,4,2022/05/06 14:30:02,無
5905370224,上振藥局,臺南市安南區安中路三段４３號１樓,120.1828,23.04721,(06)2551061,羅氏家用新冠病毒抗原自我檢測套組,5,2022/05/06 14:30:02,星期一~星期六 14:00~售完
5905370304,大樹安南藥局,臺南市安南區安和路四段５５７號１樓,120.2185,23.06181,(06)3563370,羅氏家用新冠病毒抗原自我檢測套組,78,2022/05/06 14:30:02,快篩實名制，每天16:00開始販售，售完為止。
5905370484,安中台安藥局,臺南市安南區北安路２段３６３之２４號１樓,120.2022,23.039,(06)2470015,羅氏家用新冠病毒抗原自我檢測套組,41,2022/05/06 14:30:02,實名制快篩劑:周1-周日下午:2:30開賣（如遇物流供貨異動，請電話詢問.不便處請見諒）
5905380408,永華啄木鳥藥局,臺南市安平區永華路二段３６９號１樓,120.1806,22.98956,(06)2985173,羅氏家用新冠病毒抗原自我檢測套組,41,2022/05/06 14:30:02,5／6暫定是下午2點半，5／7暫定是早上10點半
5907010141,維安社區藥局,高雄市鳳山區國富路２５-１號,120.3497,22.61517,(07)7630980,羅氏家用新冠病毒抗原自我檢測套組,42,2022/05/06 14:30:02,代售口罩及快篩試劑開始時間為下午2點.現場排隊，售完為止
5907010178,華美藥局,高雄市鳳山區建國路三段１６１號,120.3535,22.6367,(07)7452732,羅氏家用新冠病毒抗原自我檢測套組,7,2022/05/06 14:30:02,若有患者領藥優先處理領藥，快篩08-12，14-1730，1830-2050販售，售完為止
5907010187,人人好藥局,高雄市鳳山區五甲三路１０巷７號１樓,120.3278,22.59336,(07)8151566,羅氏家用新冠病毒抗原自我檢測套組,202,2022/05/06 14:30:02,上午0830-1330下午1530-2100， 自2／11-2／29口罩販售周一三四五日，時間:9:00-12:00售完為止
5907010212,北京藥局中崙店,高雄市鳳山區中崙四路１６號１樓,120.3519,22.59971,(07)7550655,羅氏家用新冠病毒抗原自我檢測套組,78,2022/05/06 14:30:02,營業時間上午08:00~下午11:00，下午3點開始販售快篩，售完為止。
5907010427,好郝藥局鳳林店,高雄市鳳山區誠智里鳳林路２９０號,120.3779,22.62216,(07)7869188,羅氏家用新冠病毒抗原自我檢測套組,78,2022/05/06 14:30:02,健保快篩周一到周日下午三點開始現場販售，售完為止
5907010927,元元鳳山藥局,高雄市鳳山區一甲里五甲二路３４８之１號１樓,120.3377,22.59955,(07)7529595,羅氏家用新冠病毒抗原自我檢測套組,155,2022/05/06 14:30:02,現場排隊，自備500元不找零!一至五下午3-6點。星期六下午2-5點。星期日公休
5907011086,閤康藥局,高雄市鳳山區忠義里中山西路３７６－７號１樓,120.3412,22.62897,(07)7197787,羅氏家用新冠病毒抗原自我檢測套組,18,2022/05/06 14:30:02,5／5-5／7快篩販售時間 下午2點開始.售完為止!
5907011095,鳳山五甲藥局,高雄市鳳山區正義里五甲二路１３９號１樓,120.3409,22.6014,(07)7269899,羅氏家用新冠病毒抗原自我檢測套組,78,2022/05/06 14:30:02,快篩實名制，每天16:00開始販售，售完為止。
5907011148,大樹國泰藥局,高雄市鳳山區興仁里五甲一路２９２號,120.3539,22.61698,(07)7407234,羅氏家用新冠病毒抗原自我檢測套組,78,2022/05/06 14:30:02,快篩實名制，每天16:00開始販售，售完為止。
5907011362,佑全鳳山藥局,高雄市鳳山區文德里青年路二段４６３號１－２樓,120.3498,22.64513,(07)7801568,羅氏家用新冠病毒抗原自我檢測套組,13,2022/05/06 14:30:02,實名制快篩14:00~18:00
5907011371,大樹五甲藥局,高雄市鳳山區福祥里五甲三路２４號１－２樓．２６號１－２樓,120.3278,22.59317,(07)8224926,羅氏家用新冠病毒抗原自我檢測套組,78,2022/05/06 14:30:02,快篩實名制，每天16:00開始販售，售完為止。
5907020030,鑫德昌藥局,高雄市岡山區溪東路３８號１樓,120.2915,22.79249,(07)6233338,羅氏家用新冠病毒抗原自我檢測套組,50,2022/05/06 14:30:02,實名制快篩 販售時間 14:30-16:00
5907020085,大德藥局,高雄市岡山區大德一路９８號,120.3025,22.79689,(07)6221456,羅氏家用新冠病毒抗原自我檢測套組,78,2022/05/06 14:30:02,快篩實名制，每天16:00開始販售，售完為止。
5907020094,大樹岡山藥局,高雄市岡山區岡山路１３６號,120.2967,22.78913,(07)6219477,羅氏家用新冠病毒抗原自我檢測套組,78,2022/05/06 14:30:02,快篩實名制，每天16:00開始販售，售完為止。
5907030072,旗美藥局,高雄市旗山區東平里延平二路４１號,120.4933,22.882,(07)6629839,羅氏家用新冠病毒抗原自我檢測套組,19,2022/05/06 14:30:02,實名制快篩劑購買時間為下午14:00~20:00
5907030090,睛好活力藥局,高雄市旗山區湄洲里中山路１２７號,120.482,22.88873,(07)6625119,羅氏家用新冠病毒抗原自我檢測套組,3,2022/05/06 14:30:02,無
5907030152,旗山藥局,高雄市旗山區中華路２３號,120.4841,22.88027,(07)6621158,羅氏家用新冠病毒抗原自我檢測套組,78,2022/05/06 14:30:02,快篩實名制，每天16:00開始販售，售完為止。
5907050092,林園啄木鳥藥局,高雄市林園區鳳林路二段８０３號１樓,120.3957,22.5135,(07)6414772,羅氏家用新冠病毒抗原自我檢測套組,1,2022/05/06 14:30:02,快篩實名制領取時間 下午2點
5907050109,林園藥局,高雄市林園區仁愛路１３號１樓,120.3928,22.50418,(07)6425855,羅氏家用新冠病毒抗原自我檢測套組,78,2022/05/06 14:30:02,快篩實名制，每天16:00開始販售，售完為止。
5907060230,華思中西藥局,高雄市大寮區永芳里進學路１２２號１樓,120.3933,22.60468,(07)7835567,羅氏家用新冠病毒抗原自我檢測套組,78,2022/05/06 14:30:02,星期一~星期六 下午四點販售實名制快篩到售完為止   星期天店休
5907080189,德昌藥局仁雄店,高雄市仁武區灣內里仁雄路３８、３８－１、３８－２號,120.3506,22.68074,(07)3749166,羅氏家用新冠病毒抗原自我檢測套組,66,2022/05/06 14:30:02,固定週一至週日14:30~16:00開始發放號碼牌並依序販售快篩.售完為止
5907080269,興德昌藥局,高雄市仁武區文武里中華路２３２號,120.3516,22.69985,(07)3757005,羅氏家用新冠病毒抗原自我檢測套組,63,2022/05/06 14:30:02,固定週一至週日14:30~16:00開始發放號碼牌並依序販售快篩.售完為止
5907080303,群邦藥局,高雄市仁武區八德東路１８０號１樓,120.3422,22.68538,(07)3745985,羅氏家用新冠病毒抗原自我檢測套組,5,2022/05/06 14:30:02,每日下午2:00開始販售公費快篩（售完為止），星期日藥局早上8:30-9:30賣公費快篩
5907090087,安泰專業藥師藥局,高雄市大社區中山路２６７號１樓,120.3492,22.73194,(07)3553715,羅氏家用新冠病毒抗原自我檢測套組,63,2022/05/06 14:30:02,快篩每日14:20發號碼牌，14:30準時發放 請準備現金500元 不找錢
5907090167,大樹大社藥局,高雄市大社區中山路３０８號１樓,120.3503,22.73145,(07)3531682,羅氏家用新冠病毒抗原自我檢測套組,78,2022/05/06 14:30:02,快篩實名制，每天16:00開始販售，售完為止。
5907140108,德昌藥局阿蓮店,高雄市阿蓮區阿蓮里中正路４５６號,120.3321,22.88075,(07)6318868,羅氏家用新冠病毒抗原自我檢測套組,71,2022/05/06 14:30:02,固定周一至周日14:30-16:00販售快篩，售完為止
5907160093,保生藥局,高雄市湖內區葉厝里保生路３４０．３４２號,120.2195,22.90733,(07)6990800,羅氏家用新冠病毒抗原自我檢測套組,79,2022/05/06 14:30:02,快篩實名制，每天16:00開始販售，售完為止。
5907280036,七賢藥局,高雄市鹽埕區七賢三路１６２號１樓,120.2829,22.62712,(07)5330616,羅氏家用新冠病毒抗原自我檢測套組,78,2022/05/06 14:30:02,快篩實名制，每天16:00開始販售，售完為止。
5907290158,美館久億藥局,高雄市鼓山區美術東二路２４５、２４７號,120.2883,22.66526,(07)5227762,羅氏家用新冠病毒抗原自我檢測套組,1,2022/05/06 14:30:02,星期一至星期天快篩發放，以物流實際到貨時間開始發放，請持續注意快篩地圖
5907290309,鼓山藥局,高雄市鼓山區華榮路１０號,120.2973,22.66156,(07)5520017,羅氏家用新冠病毒抗原自我檢測套組,78,2022/05/06 14:30:02,快篩實名制，每天16:00開始販售，售完為止。
5907300168,金元藥局,高雄市左營區重愛路２２０號,120.3156,22.68562,(07)3458378,羅氏家用新冠病毒抗原自我檢測套組,1,2022/05/06 14:30:02,快篩試劑郵差配送，約10點至11點左右會送到藥局，即開始販售，星期四，六營業時間至中午12點
5907300239,左野藥局,高雄市左營區崇德路２２２號,120.3052,22.675,(07)3486883,羅氏家用新冠病毒抗原自我檢測套組,70,2022/05/06 14:30:02,每日9時開始營業．實名制快篩販售時間15:00-20:00售完為止! 14:50發號碼牌
5907300319,士凱藥局,高雄市左營區孟子路１７８號,120.3126,22.67387,(07)3430257,羅氏家用新冠病毒抗原自我檢測套組,42,2022/05/06 14:30:02,快篩實名制，每天14:30開始販售，售完為止。
5907300631,大樹孟子藥局,高雄市左營區孟子路２２６、２２８號,120.3112,22.67415,(07)3461772,羅氏家用新冠病毒抗原自我檢測套組,78,2022/05/06 14:30:02,快篩實名制，每天16:00開始販售，售完為止。
5907300711,富元聯合健康藥局,高雄市左營區博愛三路３７號,120.3038,22.67145,(07)3488585,羅氏家用新冠病毒抗原自我檢測套組,18,2022/05/06 14:30:02,快篩於下午兩點販售
5907300944,左營藥局,高雄市左營區華夏路３２５號,120.2972,22.67167,(07)5501017,羅氏家用新冠病毒抗原自我檢測套組,78,2022/05/06 14:30:02,快篩實名制，每天16:00開始販售，售完為止。
5907300980,大路藥局,高雄市左營區左營大路５５－２號１樓,120.2877,22.6813,(07)5851001,羅氏家用新冠病毒抗原自我檢測套組,78,2022/05/06 14:30:02,快篩實名制，每天16:00開始販售，售完為止。
5907301021,杏一左營自由藥局,高雄市左營區自由二路３９７號,120.3084,22.66541,(07)5509511,羅氏家用新冠病毒抗原自我檢測套組,156,2022/05/06 14:30:02,周一-周六販賣時間:15點；週日無提供快篩實聯制服務
5907310262,大樹楠梓藥局,高雄市楠梓區軍校路９０８號,120.2919,22.71246,(07)3632322,羅氏家用新冠病毒抗原自我檢測套組,78,2022/05/06 14:30:02,快篩實名制，每天16:00開始販售，售完為止。
5907310351,惠民楠梓藥局,高雄市楠梓區建楠路２１７號,120.3248,22.72689,(07)3521896,羅氏家用新冠病毒抗原自我檢測套組,16,2022/05/06 14:30:02,平常二點開始發，發完為止；記得備防疫包，增強免疫力
5907310404,藍田藥局,高雄市楠梓區藍田路１號,120.2953,22.72643,(07)3601236,羅氏家用新冠病毒抗原自我檢測套組,78,2022/05/06 14:30:02,快篩實名制，每天16:00開始販售，售完為止。
5907320428,東京藥局,高雄市三民區建工路６８５號,120.3173,22.6478,(07)3874567,羅氏家用新冠病毒抗原自我檢測套組,57,2022/05/06 14:30:02,實名制快篩販售時間: 每日15:00-晚上20:00
5907320697,鄰好藥師藥局,高雄市三民區褒揚街２８７號,120.3398,22.64097,(07)3909589,羅氏家用新冠病毒抗原自我檢測套組,6,2022/05/06 14:30:02,購買實名制快篩時間下午14:00-16:00，各類防疫用品販售中
5907320768,心樂保健藥局,高雄市三民區光裕路７８號１樓,120.3331,22.63789,(07)3855377,羅氏家用新冠病毒抗原自我檢測套組,7,2022/05/06 14:30:02,星期一到星期四上午8:30-12:00（快篩售完為止）. 星期五下午14:00-17:00，18:00-20:30（售完為止）
5907320893,大樹天祥藥局,高雄市三民區天祥一路１６７號,120.3191,22.66737,(07)3429902,羅氏家用新冠病毒抗原自我檢測套組,78,2022/05/06 14:30:02,快篩實名制，每天16:00開始販售，售完為止。
5907320919,心寬福藥局,高雄市三民區大順二路７１８號一樓,120.3193,22.65359,(07)3832366,羅氏家用新冠病毒抗原自我檢測套組,5,2022/05/06 14:30:02,快篩試劑依政府滾動式配送實際發放時間依現場為主，週日公休。
5907320946,熊安心藥局,高雄市三民區陽明路４０８號,120.3429,22.64609,(07)3815212,羅氏家用新冠病毒抗原自我檢測套組,70,2022/05/06 14:30:02,週一 ~ 週六快篩分兩梯次販售，14:00有63份，19:00有15份
5907321041,鼎安健保藥局,高雄市三民區鼎中路４１８號１樓,120.3199,22.66719,(07)3509939,羅氏家用新冠病毒抗原自我檢測套組,17,2022/05/06 14:30:02,無
5907321069,桂林活力藥局九如店,高雄市三民區懷安街１１２號１樓,120.3176,22.64095,(07)3981009,羅氏家用新冠病毒抗原自我檢測套組,78,2022/05/06 14:30:02,每天15:30發號碼牌，於18:00前兌換完畢，逾期棄權，剩餘則繼續發放
5907321103,自由藥局,高雄市三民區自由一路７８號,120.3089,22.64422,(07)3223113,羅氏家用新冠病毒抗原自我檢測套組,78,2022/05/06 14:30:02,快篩實名制，每天16:00開始販售，售完為止。
5907350113,英祥藥局,高雄市苓雅區英祥街１９號,120.3257,22.61678,(07)7522786,羅氏家用新冠病毒抗原自我檢測套組,70,2022/05/06 14:30:02,無
5907350177,佳康藥局,高雄市苓雅區建國一路３３４號,120.3247,22.63293,(07)2266685,羅氏家用新冠病毒抗原自我檢測套組,109,2022/05/06 14:30:02,快篩代售時間:一至四8:30-21:00、五六8:30-16:30
5907350346,武廟幸福藥局,高雄市苓雅區武廟路３５號,120.3316,22.62999,(07)7170085,羅氏家用新冠病毒抗原自我檢測套組,2,2022/05/06 14:30:02,1: 自111／5／1起：快篩販售時間為13:40開始。2: 販售方式依現場公告為主，售完為止。
5907350506,大樹苓雅藥局,高雄市苓雅區中華四路１５３號,120.3001,22.61783,(07)5353111,羅氏家用新冠病毒抗原自我檢測套組,78,2022/05/06 14:30:02,快篩實名制，每天16:00開始販售，售完為止。
5907350551,大樹武廟藥局,高雄市苓雅區武廟路４３、４５號１樓,120.3314,22.63005,(07)7222268,羅氏家用新冠病毒抗原自我檢測套組,78,2022/05/06 14:30:02,快篩實名制，每天16:00開始販售，售完為止。
5907360379,金服安藥局,高雄市前鎮區鎮興路１９１號,120.3115,22.59249,(07)8150061,羅氏家用新冠病毒抗原自我檢測套組,1,2022/05/06 14:30:02,每日下午2-4點販賣快篩試劑
5907360413,益源藥局,高雄市前鎮區草衙二路４１８號,120.3226,22.57903,(07)8412120,羅氏家用新冠病毒抗原自我檢測套組,67,2022/05/06 14:30:02,無
5907360584,聖名健保藥局,高雄市前鎮區復興三路２４６號１樓,120.312,22.61558,(07)3319431,羅氏家用新冠病毒抗原自我檢測套組,1,2022/05/06 14:30:02,無
5907360673,前鎮大樹藥局,高雄市前鎮區瑞隆路４７２號１樓,120.3291,22.60547,(07)7137171,羅氏家用新冠病毒抗原自我檢測套組,78,2022/05/06 14:30:02,快篩實名制，每天16:00開始販售，售完為止。
5907380264,大樹孔鳳藥局,高雄市小港區孔鳳路５１９、５２１號,120.3587,22.5828,(07)7918521,羅氏家用新冠病毒抗原自我檢測套組,78,2022/05/06 14:30:02,快篩實名制，每天16:00開始販售，售完為止。
5907380399,百鴻藥局,高雄市小港區康莊路１１５號,120.3549,22.56888,(07)8024141,羅氏家用新冠病毒抗原自我檢測套組,16,2022/05/06 14:30:02,無
5907380424,大樹小港藥局,高雄市小港區康莊路７５號１樓,120.3559,22.56853,(07)8068328,羅氏家用新冠病毒抗原自我檢測套組,78,2022/05/06 14:30:02,快篩實名制，每天16:00開始販售，售完為止。
5911010015,喬寶藥局,基隆市中正區義二路６６號１樓,121.7461,25.13187,(02)24202827,羅氏家用新冠病毒抗原自我檢測套組,21,2022/05/06 14:30:02,下午2點開賣
5911011325,永好藥局,基隆市中正區北寧路３１５號１樓,121.7951,25.13981,(02)24697639,羅氏家用新冠病毒抗原自我檢測套組,76,2022/05/06 14:30:02,快篩星期一*三*五是單號 二*四雙號 下午14:30販售 星期六星期日休息
5911011478,天康新豐藥局,基隆市中正區新豐街２５１巷４弄９號１樓,121.7885,25.13594,(02)24695168,羅氏家用新冠病毒抗原自我檢測套組,13,2022/05/06 14:30:02,無
5911011594,禾新藥局,基隆市中正區新豐街２０５巷７號,121.7895,25.138,(02)24698940,羅氏家用新冠病毒抗原自我檢測套組,78,2022/05/06 14:30:02,快篩實名制販售時間:下午3點開始
5911011638,中正藥局,基隆市中正區新豐街３８５號１、２樓,121.7856,25.13537,(02)24690660,羅氏家用新冠病毒抗原自我檢測套組,78,2022/05/06 14:30:02,快篩實名制，每天16:00開始販售，售完為止。
5911021170,康蘋藥局,基隆市七堵區開元路５９－２號２樓,121.7139,25.09623,(02)24558150,羅氏家用新冠病毒抗原自我檢測套組,49,2022/05/06 14:30:02,10／108:00~12:00
5911021438,正心藥局,基隆市七堵區南興路１０號１樓,121.7149,25.09755,(02)24563378,羅氏家用新冠病毒抗原自我檢測套組,83,2022/05/06 14:30:02,每日限量78盒， 星期一~六下午13:30發號碼牌，14:00開始販賣，星期日上午9:00發號碼牌，9:30開始販賣，12:00停止領取
5911030035,陸記藥局,基隆市暖暖區源遠路２４１號,121.7543,25.09882,(02)24576712,羅氏家用新冠病毒抗原自我檢測套組,6,2022/05/06 14:30:02,每日下午兩點販售快篩試劑
5911031238,碇內東亞藥師藥局,基隆市暖暖區源遠路３１９號１樓,121.7574,25.09941,(02)24590033,羅氏家用新冠病毒抗原自我檢測套組,78,2022/05/06 14:30:02,周一至周六下午三點發放快篩試劑
5911041403,佑昌藥局,基隆市仁愛區南榮路１７號,121.7423,25.12697,(02)24293309,羅氏家用新冠病毒抗原自我檢測套組,65,2022/05/06 14:30:02,無
5911041690,佑聖藥局,基隆市仁愛區仁二路１８８號,121.7451,25.12864,(02)24201762,羅氏家用新冠病毒抗原自我檢測套組,77,2022/05/06 14:30:02,即日起口罩販售時間由下午兩點開始，周日公休
5911041958,百福仁愛專業藥局,基隆市仁愛區仁四路５０號１樓,121.7413,25.12829,(02)24266699,羅氏家用新冠病毒抗原自我檢測套組,1,2022/05/06 14:30:02,4／30起，早上8:00販售快篩
5911051409,順豐藥局,基隆市中山區中華路４號,121.7388,25.14545,(02)24369176,羅氏家用新冠病毒抗原自我檢測套組,18,2022/05/06 14:30:02,家用快篩每日下午2點起隨到隨領售完為止。
5911060015,福泰藥局,基隆市安樂區麥金路４３３號,121.7194,25.12511,(02)24311631,羅氏家用新冠病毒抗原自我檢測套組,78,2022/05/06 14:30:02,下午2點發號碼牌  3點領快篩試劑
5911060051,濟生藥局,基隆市安樂區基金三路８２－２號,121.6956,25.15706,(02)24310884,羅氏家用新冠病毒抗原自我檢測套組,7,2022/05/06 14:30:02,無
5911071572,元登藥局,基隆市信義區深溪路１４９號,121.7826,25.13475,(02)24663826,羅氏家用新冠病毒抗原自我檢測套組,2,2022/05/06 14:30:02,無
5911071590,基隆藥局,基隆市信義區東信路１６６、１６８號１、２樓,121.7646,25.12821,(02)24680955,羅氏家用新冠病毒抗原自我檢測套組,78,2022/05/06 14:30:02,快篩實名制，每天16:00開始販售，售完為止。
5911071607,家安藥師藥局,基隆市信義區信二路２５７、２５９號１樓,121.7478,25.1301,(02)24223917,羅氏家用新冠病毒抗原自我檢測套組,4,2022/05/06 14:30:02,星期一 ~ 星期六14:00開始銷售。
5912012120,仁美藥局,新竹市東區振興里振興路５２號,120.9625,24.79493,(03)5625398,羅氏家用新冠病毒抗原自我檢測套組,78,2022/05/06 14:30:02,快篩試劑~晚上六點販售~（周日店休）不發號碼牌!沒有自費快篩，請不要問我要幾點排隊，我只是小藥師不是台灣神童!
5912012433,安安大藥局,新竹市東區金山里光復路一段１６３巷２號,121.0223,24.78144,(03)5772655,羅氏家用新冠病毒抗原自我檢測套組,59,2022/05/06 14:30:02,快篩實名制 預計14:30販售
5912012737,婷婷藥局,新竹市東區明湖路965號,120.9669,24.77371,(03)5290999,羅氏家用新冠病毒抗原自我檢測套組,1,2022/05/06 14:30:02,5／6星期五下午14點賣快篩
5912012979,哈佛藥局,新竹市東區北大路７２－１號,120.971,24.81178,(03)5326777,羅氏家用新冠病毒抗原自我檢測套組,78,2022/05/06 14:30:02,快篩販售時間：週一至週六14:50 週日08:00 有顯示庫存量 也要等販售時間才可買 請準備好不用找的錢 感謝
5912013494,田美藥局,新竹市東區田美三街３５之１號１樓,120.9767,24.81572,(03)5350233,羅氏家用新冠病毒抗原自我檢測套組,78,2022/05/06 14:30:02,快篩實名制，每天16:00開始販售，售完為止。
5912013707,信安藥師藥局,新竹市東區南大路８４２號１樓,120.9669,24.78819,(03)5623101,羅氏家用新冠病毒抗原自我檢測套組,20,2022/05/06 14:30:02,下午2點開賣快篩試劑  週日無販售實名制快篩
5912040222,保健藥局,新竹市北區中山路１５３號１樓,120.9635,24.80324,(03)5242088,羅氏家用新冠病毒抗原自我檢測套組,20,2022/05/06 14:30:02,快篩販賣時段：下午2:00現場排隊至售完為止。
5912042664,永沛藥局,新竹市北區湳雅街２０９號,120.9741,24.82093,(03)5328563,羅氏家用新冠病毒抗原自我檢測套組,78,2022/05/06 14:30:02,快篩:周一~周六 15:00開賣 現場排隊 請別再打電話來問  PS:請自帶一張500鈔票，不收其他面額
5912042897,立新藥師藥局,新竹市北區延平路一段２４５號１樓,120.9532,24.80494,(03)5228968,羅氏家用新冠病毒抗原自我檢測套組,28,2022/05/06 14:30:02,周一~周六PM2:00販售快篩。周日不販售。ps.請自備500元，不找錢
5912042940,新竹北門藥局,新竹市北區中正路３６０、３６２號１樓,120.9629,24.81414,(03)5333234,羅氏家用新冠病毒抗原自我檢測套組,78,2022/05/06 14:30:02,無
5912051350,高晟藥師藥局,新竹市香山區大庄路59號,120.9279,24.78964,(03)5306645,羅氏家用新冠病毒抗原自我檢測套組,35,2022/05/06 14:30:02,下午2點銷售快篩
5917011847,郭藥局,臺中市中區平等街一二四號,120.682,24.1426,(04)22200005,羅氏家用新冠病毒抗原自我檢測套組,30,2022/05/06 14:30:02,周一至周六每日上午11點至12點販賣快篩
5917011934,一安堂藥局,臺中市中區臺灣大道一段２０號１樓,120.6847,24.13819,(04)22259616,羅氏家用新冠病毒抗原自我檢測套組,10,2022/05/06 14:30:02,14:00開始領取實名制快篩劑
5917030995,麗新健保大藥局,臺中市西區向上路一段１６２號,120.6612,24.1469,(04)23017100,羅氏家用新冠病毒抗原自我檢測套組,54,2022/05/06 14:30:02,週一至週日下午15:00至售完為止
5917032382,中港大藥局,臺中市西區臺灣大道２段１３２號,120.6714,24.14995,(04)22080708,羅氏家用新冠病毒抗原自我檢測套組,24,2022/05/06 14:30:02,無
5917032800,壹藥局,臺中市西區美村路１段７７５號１樓,120.6618,24.13306,(04)23721998,羅氏家用新冠病毒抗原自我檢測套組,42,2022/05/06 14:30:02,星期一到星期日每天下午二點開始販售快篩試劑售完為止謝謝
5917040464,陳信安藥局,臺中市南區永興里高工路３４９號,120.6665,24.11425,(04)22619560,羅氏家用新冠病毒抗原自我檢測套組,4,2022/05/06 14:30:02,實名制快篩 周一至六14:00開賣，庫存依現場為準，周日依政府配送調整
5917053649,博森藥局,臺中市北區健行路４９３號,120.6778,24.15905,(04)22068589,羅氏家用新冠病毒抗原自我檢測套組,42,2022/05/06 14:30:02,固定週一到週六，下午2:00到下午4:00以現場排隊方式販售防疫家用快篩。
5917053756,中心旗艦藥局,臺中市北區五權路４０４號,120.6821,24.15288,(04)22068113,羅氏家用新冠病毒抗原自我檢測套組,6,2022/05/06 14:30:02,每日下午2:00開始賣快篩（實名制）.周一至周日都有營業
5917060108,博新藥局,臺中市西屯區福安里中工三路２２０號,120.6153,24.17541,(04)23583412,羅氏家用新冠病毒抗原自我檢測套組,45,2022/05/06 14:30:02,星期一至六 下午2:30分 開始販賣快篩劑  無號碼牌 星期日休營
5917063065,達康藥局,臺中市西屯區中工三路１３９號,120.6186,24.17779,(04)23586332,羅氏家用新冠病毒抗原自我檢測套組,1,2022/05/06 14:30:02,週一~周日下午2點販售快篩售完為止，無發放號碼牌.
5917070382,得安藥局,臺中市南屯區溝墘里大墩路５９６號,120.6495,24.15136,(04)23234168,羅氏家用新冠病毒抗原自我檢測套組,35,2022/05/06 14:30:02,下午2:00開始現場購買快篩試劑，售完為止。
5917070462,長映藥局,臺中市南屯區黎明路二段４３２號１樓,120.6355,24.15166,(04)22510951,羅氏家用新冠病毒抗原自我檢測套組,20,2022/05/06 14:30:02,實名制快篩每日下午2點開賣，售完為止（庫存以現場為主）
5917072644,全成藥局,臺中市南屯區大墩６街２２３號,120.6464,24.14254,(04)24712897,羅氏家用新冠病毒抗原自我檢測套組,78,2022/05/06 14:30:02,實名制快篩每日15:00開始販售-售完為止（庫存以現場為主）
5917072699,博仕健保藥局,臺中市南屯區大墩１１街４４５號,120.638,24.14862,(04)23817009,羅氏家用新冠病毒抗原自我檢測套組,3,2022/05/06 14:30:02,星期一至星期五14:00開賣，星期六11:00開賣，現場排隊販售
5921012085,台安藥局,臺南市東區大同路一段１６３號,120.2113,22.98503,(06)2150011,羅氏家用新冠病毒抗原自我檢測套組,41,2022/05/06 14:30:02,快篩下午四點開始銷售
5921012334,家庭藥局,臺南市東區崇文里生產路３６９─３號,120.2278,22.96502,(06)2607298,羅氏家用新冠病毒抗原自我檢測套組,5,2022/05/06 14:30:02,快篩銷售時間:星期一至星期六下午2點~售完為止.
5921013206,和德藥局,臺南市東區崇德路４９７號,120.2272,22.97435,(06)2882789,羅氏家用新冠病毒抗原自我檢測套組,58,2022/05/06 14:30:02,實名制快篩試劑販售時間14:30~17:00，開賣前10分鐘發號碼牌，售完即止
5921020489,市安藥師藥局,臺南市南區國民路１４２號,120.2123,22.96755,(06)2882627,羅氏家用新冠病毒抗原自我檢測套組,29,2022/05/06 14:30:02,5／6星期五快篩販賣~以貨運配送抵達時間再決定販售時間 暫定14:00開始販售
5921040294,澄清堂藥局,臺南市北區勝利路４９５號,120.2185,23.00648,(06)2377224,羅氏家用新冠病毒抗原自我檢測套組,1,2022/05/06 14:30:02,星期一至星期六早上09:00開始賣~賣完
5921040301,永生藥局,臺南市北區六甲里公園路４８１號,120.2079,23.00898,(06)2813681,羅氏家用新冠病毒抗原自我檢測套組,16,2022/05/06 14:30:02,每日販賣快篩劑下午2時起至售完為止／星期日休息
5921040623,惠光藥局,臺南市北區文亢里文賢路２３６號,120.1938,23.0042,(06)2586316,羅氏家用新冠病毒抗原自我檢測套組,78,2022/05/06 14:30:02,快篩代售:5／6，下午4:00販售，星期日公休
5921051582,丞功藥局,臺南市中西區成功路３１號,120.2095,22.99747,(06)2287641,羅氏家用新冠病毒抗原自我檢測套組,1,2022/05/06 14:30:02,星期一-六08:00-售完
5921060321,慈安藥局,臺南市安南區大安街５３號,120.1919,23.03148,(06)2551117,羅氏家用新冠病毒抗原自我檢測套組,80,2022/05/06 14:30:02,下午2:00
5921061720,康悅健藥師藥局,臺南市安南區安和路５段１４９-２號,120.2179,23.0659,(06)3556382,羅氏家用新冠病毒抗原自我檢測套組,1,2022/05/06 14:30:02,快篩-星期一-五13:00-售完   星期六-日15:00-售完
5922012392,維康藥局,嘉義市東區短竹里大雅路二段５６７號１樓,120.4663,23.47685,(05)2757663,羅氏家用新冠病毒抗原自我檢測套組,56,2022/05/06 14:30:02,＜領購快篩＞ 星期一  ~ 星期五 下午 2:00~5:00 。假日國定假日停售。
5922012945,大明藥局,嘉義市東區大雅路二段６８２號,120.4663,23.47719,(05)2760958,羅氏家用新冠病毒抗原自我檢測套組,8,2022/05/06 14:30:02,5／6 號碼卡已發完（星期一至六：11點發號碼牌12-14點開始販售）
5922013068,佑全嘉義吳鳳南藥局,嘉義市東區吳鳳南路５８５、５８７號,120.459,23.45639,(05)2399311,羅氏家用新冠病毒抗原自我檢測套組,14,2022/05/06 14:30:02,領取快篩14:00
5922013111,富善藥局,嘉義市東區新生路２３４號,120.4609,23.48419,(05)2759559,羅氏家用新冠病毒抗原自我檢測套組,20,2022/05/06 14:30:02,5／13、14休假，實名制快篩早上9:10-12:00下午3:10-5:00
5922013166,忠孝啄木鳥藥局,嘉義市東區忠孝北街１８５號,120.444,23.51618,(05)2204948,羅氏家用新冠病毒抗原自我檢測套組,21,2022/05/06 14:30:02,有收到配量即每日下午2:00販售
5922013184,軍輝啄木鳥藥局,嘉義市東區軍輝路２２２號,120.4588,23.455,(05)2395963,羅氏家用新冠病毒抗原自我檢測套組,78,2022/05/06 14:30:02,週一~日下午4:00開始
5922013193,民權藥局,嘉義市東區民權路１５５號１樓、１５７號１樓,120.4604,23.48374,(05)2775322,羅氏家用新冠病毒抗原自我檢測套組,78,2022/05/06 14:30:02,快篩實名制，每天16:00開始販售，售完為止。
5922020509,全德藥局,嘉義市西區福民里興業西路２８９號,120.4392,23.46776,(05)2854263,羅氏家用新冠病毒抗原自我檢測套組,65,2022/05/06 14:30:02,營業時間請電話洽詢  販售：19 :30~20:30
5922020858,大統藥局,嘉義市西區慶安里北興街１３６號,120.4421,23.48389,(05)2330230,羅氏家用新冠病毒抗原自我檢測套組,21,2022/05/06 14:30:02,5月6日預約登記已滿.有預約的民眾請於上午9:00點後領取
5922020894,平良藥局,嘉義市西區致遠里興業西路８４號１樓,120.4443,23.46856,(05)2235220,羅氏家用新冠病毒抗原自我檢測套組,63,2022/05/06 14:30:02,下午3點開賣快篩
5922020992,昭安藥局,嘉義市西區民生南路４７９號１樓,120.4437,23.45821,(05)2842240,羅氏家用新冠病毒抗原自我檢測套組,2,2022/05/06 14:30:02,無
5922021006,竹圍藥局,嘉義市西區友愛路２７０、２７２號,120.4339,23.4837,(05)2811233,羅氏家用新冠病毒抗原自我檢測套組,78,2022/05/06 14:30:02,快篩實名制，每天16:00開始販售，售完為止。
5931010235,友祥藥局,新北市板橋區裕民街１０７號,121.4599,25.02773,(02)22544666,羅氏家用新冠病毒抗原自我檢測套組,1,2022/05/06 14:30:02,無
5931010397,正成藥師藥局,新北市板橋區三民路２段１５４巷７號,121.4787,25.01515,(02)29512760,羅氏家用新冠病毒抗原自我檢測套組,79,2022/05/06 14:30:02,無
5931011161,全國藥局,新北市板橋區四川路１段２３１號,121.4601,25.00297,(02)29511212,羅氏家用新冠病毒抗原自我檢測套組,5,2022/05/06 14:30:02,健保快篩發放時間:星期一到星期六下午2點發放號碼牌~歡迎大家來領喔!
5931011947,長弘藥局,新北市板橋區龍泉街１１０號,121.4568,25.02454,(02)22558789,羅氏家用新冠病毒抗原自我檢測套組,36,2022/05/06 14:30:02,勿打電話 快篩地圖不準 下午五點開始販售 若排隊人數超過庫存人數會提前販賣
5931013692,合泰藥局,新北市板橋區忠孝路１９號１樓,121.4604,25.002,(02)29572437,羅氏家用新冠病毒抗原自我檢測套組,23,2022/05/06 14:30:02,無
5931013781,佳和藥局,新北市板橋區文化路１段３８７巷５號１樓,121.4667,25.02193,(02)22589598,羅氏家用新冠病毒抗原自我檢測套組,38,2022/05/06 14:30:02,快篩週一 至五均分早上8:30 和下午3:00販售- 週六早上售完為止. 週日休
5931014046,欣安藥局,新北市板橋區懷德街１０９號１樓,121.4786,25.03147,(02)82570296,羅氏家用新冠病毒抗原自我檢測套組,3,2022/05/06 14:30:02,目前快篩送貨時間不定，發放時間依現場公告為主。
5931014224,大峰藥局,新北市板橋區莒光路１６８號１樓,121.4741,25.02314,(02)22510338,羅氏家用新冠病毒抗原自我檢測套組,78,2022/05/06 14:30:02,AM8:00起發放防疫口罩
5931014555,廣益藥局,新北市板橋區自由路２１號,121.4654,25.02296,(02)22545726,羅氏家用新冠病毒抗原自我檢測套組,78,2022/05/06 14:30:02,無
5931015687,正康健保藥局,新北市板橋區大觀路２段６５號１樓,121.4467,25.00246,(02)22756681,羅氏家用新冠病毒抗原自我檢測套組,78,2022/05/06 14:30:02,下午13:30依現場順序開始販售快篩，快篩配送絮亂庫存不準!!
5931015749,品品藥局,新北市板橋區中山路２段４０２號〈１樓〉,121.4827,25.02073,(02)29647917,羅氏家用新冠病毒抗原自我檢測套組,78,2022/05/06 14:30:02,星期六9:30-15:30.連假上班9:30-15:30（半天）快篩每日下午4點發.
5931015909,向康藥局,新北市板橋區實踐路１４７號１樓,121.4643,25.00437,(02)29637248,羅氏家用新冠病毒抗原自我檢測套組,11,2022/05/06 14:30:02,下午2點開始販售實名制快篩
5931016273,湯明藥局,新北市板橋區中山路２段３１９號１樓,121.479,25.01866,(02)29571980,羅氏家用新冠病毒抗原自我檢測套組,45,2022/05/06 14:30:02,週一到週五 下午四點  六日時間未定 排隊不發號碼
5931016433,利安社區藥局,新北市板橋區德興街３７巷１４號（１樓）,121.4538,24.99382,(02)89671551,羅氏家用新冠病毒抗原自我檢測套組,1,2022/05/06 14:30:02,無
5931016577,廣泰藥師藥局,新北市板橋區館前西路１５０號１樓,121.4556,25.00843,(02)89698381,羅氏家用新冠病毒抗原自我檢測套組,78,2022/05/06 14:30:02,無
5931016611,民川藥局,新北市板橋區四川路１段９７號１樓,121.4598,25.00544,(02)29520090,羅氏家用新冠病毒抗原自我檢測套組,40,2022/05/06 14:30:02,星期一~星期六（快篩上午9:00販售38份下午3:00販售40份）
5931017289,板橋大樹藥局,新北市板橋區忠孝路２８號（１樓）,121.4603,25.00176,(02)29555551,羅氏家用新冠病毒抗原自我檢測套組,78,2022/05/06 14:30:02,快篩實名制，每天16:00開始販售，售完為止。
5931017341,台安藥局,新北市板橋區中正路２０４號１樓、２樓、３樓,121.4561,25.01804,(02)29663600,羅氏家用新冠病毒抗原自我檢測套組,60,2022/05/06 14:30:02,無
5931017387,華安藥局,新北市板橋區永豐街３２號（１樓）,121.4746,25.01727,(02)29581608,羅氏家用新冠病毒抗原自我檢測套組,1,2022/05/06 14:30:02,快篩平日下午兩點／週六一點 現場開賣 無號碼牌
5931017618,新埔健保藥局,新北市板橋區自由路２號１樓,121.4654,25.02222,(02)22558878,羅氏家用新冠病毒抗原自我檢測套組,39,2022/05/06 14:30:02,無
5931017636,福澤藥局,新北市板橋區南雅南路１段８５號（１樓）,121.4556,25.00543,(02)29690013,羅氏家用新冠病毒抗原自我檢測套組,152,2022/05/06 14:30:02,口罩代售9:00-23:00
5931017645,松立藥局,新北市板橋區四川路２段９９之１０號（１樓）,121.4521,24.99448,(02)89670100,羅氏家用新冠病毒抗原自我檢測套組,3,2022/05/06 14:30:02,無
5931017707,上嘉藥局,新北市板橋區四維路２９６號１樓,121.4628,25.02936,(02)22582278,羅氏家用新冠病毒抗原自我檢測套組,68,2022/05/06 14:30:02,無
5931017752,泓泰藥局,新北市板橋區館前西路１４０號２樓,121.4563,25.0081,(02)29686559,羅氏家用新冠病毒抗原自我檢測套組,69,2022/05/06 14:30:02,無
5931017770,光環藥局,新北市板橋區光環路２段１６號１樓,121.4822,25.01476,(02)89520920,羅氏家用新冠病毒抗原自我檢測套組,58,2022/05/06 14:30:02,無
5931017789,明翠藥局,新北市板橋區四維路１４６、１４８號１、２樓,121.4651,25.02555,(02)22550201,羅氏家用新冠病毒抗原自我檢測套組,78,2022/05/06 14:30:02,快篩實名制，每天16:00開始販售，售完為止。
5931017832,躍獅莒光藥局,新北市板橋區莒光路５８號１樓,121.4709,25.02421,(02)22556743,羅氏家用新冠病毒抗原自我檢測套組,77,2022/05/06 14:30:02,實名制快篩5／5已發完   5／6下午2:50發號碼牌（78份）
5931017841,莊敬健康人生藥局,新北市板橋區莊敬路８７號１樓,121.4728,25.02645,(02)22570028,羅氏家用新冠病毒抗原自我檢測套組,78,2022/05/06 14:30:02,實名快篩下午2:30發放號碼牌及販售，營業時間10:00-21:00
5931017869,躍獅國慶藥局,新北市板橋區國慶路１７９號（１樓）,121.4626,24.99636,(02)29641548,羅氏家用新冠病毒抗原自我檢測套組,158,2022/05/06 14:30:02,快篩實名制，每天14:00開始販售，售完為止
5931017994,後埔藥局,新北市板橋區華興街９號（１樓）,121.459,25.00457,(02)89510306,羅氏家用新冠病毒抗原自我檢測套組,23,2022/05/06 14:30:02,5／6  下午2點發放號碼牌*確保作業流暢請自備500元*每天 78 份晚上10 點以前領取完畢（過卡時間差異剩餘數量僅供參考）
5931020044,唯安藥局,新北市三重區五華街１３０號,121.4916,25.08358,(02)29875750,羅氏家用新冠病毒抗原自我檢測套組,78,2022/05/06 14:30:02,無
5931020866,裕福藥局,新北市三重區長壽西街１４４號,121.4939,25.06661,(02)29831769,羅氏家用新冠病毒抗原自我檢測套組,1,2022/05/06 14:30:02,快篩代售等貨到才販售；現場排隊
5931021532,龍門藥局,新北市三重區龍門路１８９號,121.4996,25.07322,(02)29756141,羅氏家用新冠病毒抗原自我檢測套組,138,2022/05/06 14:30:02,實名制快篩販售時間~星期一至星期六下午3點
5931023447,安泰藥局,新北市三重區正義北路３００－３號２樓,121.4953,25.06978,(02)89815379,羅氏家用新冠病毒抗原自我檢測套組,78,2022/05/06 14:30:02,5／2只有早上8:30--12:00營業下午.及晚上休息
5931024088,美滿藥局,新北市三重區中華路１６號,121.4834,25.0606,(02)89824272,羅氏家用新冠病毒抗原自我檢測套組,78,2022/05/06 14:30:02,滾動式調整
5931024631,德榮藥局,新北市三重區中華路９１號１樓,121.4836,25.06302,(02)29717291,羅氏家用新冠病毒抗原自我檢測套組,78,2022/05/06 14:30:02,政府快篩販售時間星期一至星期六晚間19:00整現場販售..謝謝
5931024971,欽勝藥局,新北市三重區重陽路４段６號２樓,121.4906,25.06894,(02)29857389,羅氏家用新冠病毒抗原自我檢測套組,75,2022/05/06 14:30:02,販售快篩需現場排隊，無預約無號碼牌，販售時間依到貨時間為主。
5931025290,康新藥局,新北市三重區正義北路１８５號２樓,121.4964,25.06783,(02)29865982,羅氏家用新冠病毒抗原自我檢測套組,5,2022/05/06 14:30:02,實名制代售時段：下午2點到4點。請自備零錢，恕不找零。.
5931025914,仁美藥局,新北市三重區慈愛街５１號１、２樓,121.4861,25.07908,(02)22805150,羅氏家用新冠病毒抗原自我檢測套組,78,2022/05/06 14:30:02,快篩實名制，每天16:00開始販售，售完為止。
5931025932,永吉藥局,新北市三重區車路頭街９１號１樓,121.4844,25.07422,(02)22860432,羅氏家用新冠病毒抗原自我檢測套組,78,2022/05/06 14:30:02,快篩實名制，每天16:00開始販售，售完為止。
5931026064,五華春天生活藥局,新北市三重區五華街７３號１、２樓,121.4925,25.08291,(02)29876838,羅氏家用新冠病毒抗原自我檢測套組,78,2022/05/06 14:30:02,快篩代售時間：週一至週日15：00，現場排隊購買，售完為止。（物流配送不及則例外，以門市公告為主）
5931026082,大有藥局,新北市三重區中正北路２１３號１、２樓及２１５號１、２樓,121.4763,25.07013,(02)29885771,羅氏家用新冠病毒抗原自我檢測套組,78,2022/05/06 14:30:02,快篩實名制，每天16:00開始販售，售完為止。
5931026091,重新藥局,新北市三重區重新路４段１２號１樓,121.4888,25.05775,(02)29742700,羅氏家用新冠病毒抗原自我檢測套組,78,2022/05/06 14:30:02,快篩實名制，每天16:00開始販售，售完為止。
5931032133,宸安藥局,新北市永和區得和路３８５號１樓,121.5251,24.99943,(02)22328274,羅氏家用新冠病毒抗原自我檢測套組,1,2022/05/06 14:30:02,星期一至六 實名制快篩  PM2:00-3；00； 星期日公休
5931032811,華特健康藥局,新北市永和區永貞路３６２號１樓,121.5102,25.00667,(02)29264391,羅氏家用新冠病毒抗原自我檢測套組,7,2022/05/06 14:30:02,快篩販賣時間13:00-15:00
5931033087,康宏安藥局,新北市永和區保福路２段７８號１樓,121.5106,25.01331,(02)29288118,羅氏家用新冠病毒抗原自我檢測套組,78,2022/05/06 14:30:02,無
5931033201,級立健保藥局,新北市永和區保平路１３９號１樓,121.5102,25.00608,(02)29299995,羅氏家用新冠病毒抗原自我檢測套組,78,2022/05/06 14:30:02,快篩代售時間為下午15:00，週日不銷售
5931033541,大欣安藥局,新北市永和區得和路３７０號１樓,121.5244,24.99928,(02)29450808,羅氏家用新冠病毒抗原自我檢測套組,5,2022/05/06 14:30:02,5／3起快篩試劑PAM14:00開始發號碼牌跟販售
5931033774,台化藥局,新北市永和區勵行街１１９號１樓,121.5175,25.01202,(02)22318585,羅氏家用新冠病毒抗原自我檢測套組,9,2022/05/06 14:30:02,無
5931033809,新禾藥局,新北市永和區中和路５３７號１樓,121.5114,25.00318,(02)29208877,羅氏家用新冠病毒抗原自我檢測套組,78,2022/05/06 14:30:02,無
5931033863,欣安大藥局,新北市永和區福和路２２１號１樓,121.5189,25.00749,(02)22326685,羅氏家用新冠病毒抗原自我檢測套組,1,2022/05/06 14:30:02,快篩試劑pm13:30發號碼牌暨銷售，售完為止。
5931034119,仁愛陽光藥局,新北市永和區仁愛路１４３號１樓,121.5114,25.01293,(02)89213691,羅氏家用新冠病毒抗原自我檢測套組,11,2022/05/06 14:30:02,快篩代售時段14:00，售完為止...
5931034146,亮點藥局,新北市永和區竹林路７１號１樓,121.5186,25.01355,(02)89253895,羅氏家用新冠病毒抗原自我檢測套組,92,2022/05/06 14:30:02,快篩發放時段 下午16:30-18:00
5931043565,一安藥妝藥局,新北市中和區中和路９號１.２樓,121.4998,25.00221,(02)22483778,羅氏家用新冠病毒抗原自我檢測套組,82,2022/05/06 14:30:02,下午3點開始發號碼牌販售快篩
5931043798,永成藥局,新北市中和區景平路１５６號１樓,121.5176,24.99222,(02)29407619,羅氏家用新冠病毒抗原自我檢測套組,78,2022/05/06 14:30:02,實名制快篩，下午三點領取號碼並開始販售（每日78份）
5931043921,良安藥局,新北市中和區連城路４７７巷１號１樓,121.4833,24.99555,(02)22225798,羅氏家用新冠病毒抗原自我檢測套組,42,2022/05/06 14:30:02,週六日不開店，實名制快篩，晚上9:00開始販售
5931043976,詠邑藥局,新北市中和區南華路４３號１樓,121.5038,24.99671,(02)22445630,羅氏家用新冠病毒抗原自我檢測套組,16,2022/05/06 14:30:02,無
5931044419,喬登藥局,新北市中和區景平路６９７號１樓,121.4965,25.00337,(02)22470273,羅氏家用新冠病毒抗原自我檢測套組,17,2022/05/06 14:30:02,無
5931044848,和霖生活藥局,新北市中和區復興路２８９號１樓,121.5018,24.99015,(02)22458227,羅氏家用新冠病毒抗原自我檢測套組,19,2022/05/06 14:30:02,無
5931045032,朝安藥局,新北市中和區復興路２６２號１樓,121.5035,24.99038,(02)31511269,羅氏家用新冠病毒抗原自我檢測套組,21,2022/05/06 14:30:02,實名制快篩下午2點過卡販售，每人限持一卡，不發號碼牌。（任何異動依現場公告為準）
5931045069,禾昌藥局,新北市中和區中安街１７８巷２號１樓,121.5109,24.99954,(02)29267330,羅氏家用新冠病毒抗原自我檢測套組,10,2022/05/06 14:30:02,實名制快篩14:00開始販售／醫護警消優先
5931045130,四維藥局,新北市中和區四維街３７巷２號１樓,121.5124,24.98679,(02)86681345,羅氏家用新冠病毒抗原自我檢測套組,78,2022/05/06 14:30:02,快篩實名制，每天16:00開始販售，售完為止。
5931045309,杏一中和雙和藥局,新北市中和區圓通路２９５之３號１樓,121.4946,24.99191,(02)22436116,羅氏家用新冠病毒抗原自我檢測套組,78,2022/05/06 14:30:02,5／1 下午2:30發號碼牌 3:00開始販賣 售完為止
5931052215,三民藥局,新北市新店區三民路７８號１樓－１,121.5348,24.97257,(02)89146301,羅氏家用新冠病毒抗原自我檢測套組,33,2022/05/06 14:30:02,實名制快篩試劑下午2點開始現場販售並同步發號碼牌周日休息
5931052608,佑成藥局,新北市新店區民權路１０１號１樓,121.537,24.98281,(02)86673537,羅氏家用新冠病毒抗原自我檢測套組,78,2022/05/06 14:30:02,下午四點發快篩
5931052724,合康大藥局,新北市新店區中正路２６３－２號１樓,121.5384,24.97367,(02)29109888,羅氏家用新冠病毒抗原自我檢測套組,33,2022/05/06 14:30:02,快篩14:00開始（有事先發號碼牌）網上還有數量是拿到號碼牌還沒來領的，拜託別再問了
5931053070,美康中正藥局,新北市新店區中正路２１５號１、２樓,121.5397,24.97284,(02)29112669,羅氏家用新冠病毒抗原自我檢測套組,78,2022/05/06 14:30:02,無號牌.自主排隊.自主管理.快篩 1430-2200 唷~
5931053178,長照藥局,新北市新店區如意街１６號１樓,121.4944,24.94838,(02)22153325,羅氏家用新冠病毒抗原自我檢測套組,54,2022/05/06 14:30:02,請注意丫5／06篩劑2:00開賣
5931053203,巧新藥局,新北市新店區北宜路１段８４號１樓,121.5386,24.9556,(02)29183565,羅氏家用新冠病毒抗原自我檢測套組,78,2022/05/06 14:30:02,15:00 依序領取快篩，不發號碼牌，勿打電話詢問
5931053347,健詮藥局,新北市新店區建國路１１９號１樓,121.5398,24.97777,(02)29116312,羅氏家用新冠病毒抗原自我檢測套組,12,2022/05/06 14:30:02,11點發號碼牌，12點半-3點過卡買快篩。最新消息會公佈在臉書「健詮藥局」
5931060342,十安藥局,新北市新莊區中港路３１６號,121.4524,25.04544,(02)29922859,羅氏家用新冠病毒抗原自我檢測套組,3,2022/05/06 14:30:02,自111／04／01起不再販賣實名制口罩
5931060619,蘇藥局,新北市新莊區中平路６巷３７號,121.446,25.04284,(02)29917818,羅氏家用新冠病毒抗原自我檢測套組,78,2022/05/06 14:30:02,販售快篩時間  固定每日下午3點發放!!!售完為止
5931067403,建嘉藥局,新北市新莊區中誠街４２號１樓,121.4513,25.04812,(02)29925261,羅氏家用新冠病毒抗原自我檢測套組,78,2022/05/06 14:30:02,無
5931068464,健安藥局,新北市新莊區光和里民安西路２０９號１樓,121.4261,25.0147,(02)22043765,羅氏家用新冠病毒抗原自我檢測套組,78,2022/05/06 14:30:02,無
5931068599,建昌藥局,新北市新莊區福營里中正路５５７號,121.435,25.03254,(02)29015422,羅氏家用新冠病毒抗原自我檢測套組,56,2022/05/06 14:30:02,快篩代售時間:週一至週日14:30現場排隊購買，售完為止。（物流配送不及則例外，以門市公告為主）
5931068759,森活藥局,新北市新莊區民安路２２０－１號,121.426,25.02259,(02)22027927,羅氏家用新冠病毒抗原自我檢測套組,74,2022/05/06 14:30:02,實名快篩15點開賣
5931068819,東京大藥局,新北市新莊區民安路１７６號１樓,121.4251,25.02392,(02)22063806,羅氏家用新冠病毒抗原自我檢測套組,75,2022/05/06 14:30:02,口罩代售時間為9:30開始現場排隊販售
5931069505,陽光連鎖藥局,新北市新莊區中信街４０號１樓,121.4498,25.05089,(02)22774300,羅氏家用新冠病毒抗原自我檢測套組,78,2022/05/06 14:30:02,周一到週六下午三點賣快篩
5931069603,中信藥師藥局,新北市新莊區中信街８０號１樓,121.448,25.05311,(02)29969811,羅氏家用新冠病毒抗原自我檢測套組,78,2022/05/06 14:30:02,AM 07:30 開始
5931069792,宏泰藥局,新北市新莊區自信街３７號１樓,121.4543,25.04863,(02)29964649,羅氏家用新冠病毒抗原自我檢測套組,127,2022/05/06 14:30:02,無
593106A039,大仁藥局,新北市新莊區公園一路３２號１樓,121.4435,25.03531,(02)22776023,羅氏家用新冠病毒抗原自我檢測套組,78,2022/05/06 14:30:02,快篩販售時間:週一至週五 （16：30-17：30）， 週六（20：30-21：30）、週日公休
593106A388,元大藥局,新北市新莊區富國路２０４號１、２樓,121.4249,25.02427,(02)22020082,羅氏家用新冠病毒抗原自我檢測套組,3,2022/05/06 14:30:02,無
593106A977,丹鳳藥局,新北市新莊區中正路７４５、７４７號（１樓）,121.4227,25.0288,(02)29065755,羅氏家用新冠病毒抗原自我檢測套組,77,2022/05/06 14:30:02,快篩實名制，每天16:00開始販售，售完為止。
593106B036,家嘉藥局,新北市新莊區自立街１０３號（１樓）,121.4553,25.04549,(02)89926488,羅氏家用新冠病毒抗原自我檢測套組,41,2022/05/06 14:30:02,號碼牌預計於快篩到貨後開始發放 依現場公告為主
593106B090,依都勇藥局,新北市新莊區自信街６３號（１樓）,121.4554,25.04829,(02)29901516,羅氏家用新冠病毒抗原自我檢測套組,12,2022/05/06 14:30:02,無
593106B116,來福中西健保藥局,新北市新莊區中港路５１２號１樓,121.4518,25.05182,(02)29961615,羅氏家用新冠病毒抗原自我檢測套組,9,2022/05/06 14:30:02,無
593106B152,福原藥局,新北市新莊區中原東路７０號（１樓）,121.4632,25.05461,(02)85216190,羅氏家用新冠病毒抗原自我檢測套組,36,2022/05/06 14:30:02,下午2點發放號碼牌
593106B189,美康頭前藥局,新北市新莊區化成路３７３之５號１樓,121.4412,25.03785,(02)85219638,羅氏家用新冠病毒抗原自我檢測套組,78,2022/05/06 14:30:02,無
593106B232,新康健保藥局,新北市新莊區自立街１７２號１樓,121.4557,25.04537,(02)29962558,羅氏家用新冠病毒抗原自我檢測套組,35,2022/05/06 14:30:02,無
593106B287,盛弘藥局,新北市新莊區中平路２９５號１樓,121.4447,25.05099,(02)22763336,羅氏家用新冠病毒抗原自我檢測套組,12,2022/05/06 14:30:02,政府快篩於平日下午13:50發放號碼牌，下午14:00準時販售，假日視政府配量（販售時間相同）
593106B321,大樹幸福藥局,新北市新莊區幸福路６７２號１樓,121.4509,25.0493,(02)29981066,羅氏家用新冠病毒抗原自我檢測套組,78,2022/05/06 14:30:02,快篩實名制，每天16:00開始販售，售完為止。
5931070366,聖和藥局,新北市樹林區太元街５０號,121.4183,24.97967,(02)86866609,羅氏家用新冠病毒抗原自我檢測套組,78,2022/05/06 14:30:02,中午12:30分開始發放快篩
5931071881,盛立藥局,新北市樹林區大雅路２８５號１樓,121.3795,24.94735,(02)35018218,羅氏家用新冠病毒抗原自我檢測套組,1,2022/05/06 14:30:02,政府快篩平日下午1:50發號碼牌，下午2:00準時販售，假日視政府配量（販售時間相同）
5931071934,樹新藥局,新北市樹林區樹新路３０－３號１樓,121.4272,24.99462,(02)26821080,羅氏家用新冠病毒抗原自我檢測套組,3,2022/05/06 14:30:02,無
5931071970,保康藥局,新北市樹林區保安街１段３６４號,121.4176,24.99856,(02)86875503,羅氏家用新冠病毒抗原自我檢測套組,74,2022/05/06 14:30:02,無
5931072137,保安健保藥局,新北市樹林區保安街２段２１１號１樓,121.4133,25.00399,(02)26898179,羅氏家用新冠病毒抗原自我檢測套組,17,2022/05/06 14:30:02,下午2點直接過卡發放，以現場到貨為準，週日休
5931072459,健康人生藥局,新北市樹林區博愛一街２６號１樓,121.4256,24.99091,(02)26814394,羅氏家用新冠病毒抗原自我檢測套組,14,2022/05/06 14:30:02,實名制快篩販售時間下午2點起.售完為止
5931072584,佳園藥局,新北市樹林區佳園路一段４１巷２０號１樓,121.3941,24.97095,(02)26685056,羅氏家用新冠病毒抗原自我檢測套組,3,2022/05/06 14:30:02,快篩實名制早上9點10分販售，發號碼牌，帶500元／健保卡
5931080031,林政德西藥局,新北市鶯歌區建國路２５６號１樓,121.3477,24.95354,(02)26781412,羅氏家用新冠病毒抗原自我檢測套組,10,2022/05/06 14:30:02,春節期間看診時段請電洽
5931081289,唯新示範藥局,新北市鶯歌區建國路１６１號１樓,121.3503,24.95345,(02)86775363,羅氏家用新冠病毒抗原自我檢測套組,76,2022/05/06 14:30:02,實名制快篩購買時段下午2:50-4:00
5931081510,鶯歌藥局,新北市鶯歌區鶯桃路２段１１號１樓,121.3258,24.97205,(02)86778778,羅氏家用新冠病毒抗原自我檢測套組,78,2022/05/06 14:30:02,口罩販售時間：14:00 - 16:00
5931081547,信義健保藥局,新北市鶯歌區信義街６３號１樓,121.3534,24.95571,(02)86775563,羅氏家用新冠病毒抗原自我檢測套組,38,2022/05/06 14:30:02,5／6 早9:30 快篩限量40組發放
5931091481,盛加藥局,新北市三峽區民生街４９號,121.3755,24.9362,(02)26739797,羅氏家用新冠病毒抗原自我檢測套組,2,2022/05/06 14:30:02,政府快篩平日下午1:50發號碼牌，下午2:00準時販售，假日視政府配量（販售時間相同）
5931091865,大新藥局,新北市三峽區大義路２５９號１樓,121.3774,24.94638,(02)86713204,羅氏家用新冠病毒抗原自我檢測套組,77,2022/05/06 14:30:02,實名制快篩下午2:50開始發號碼牌 3:00販售
5931091874,盛台藥局,新北市三峽區大學路１０８號１、２樓,121.375,24.9438,(02)26722730,羅氏家用新冠病毒抗原自我檢測套組,4,2022/05/06 14:30:02,政府快篩平日13:50發號碼牌，14:00準時販售。假日視政府配量販售（販售時間相同）。
5931091892,三峽藥局,新北市三峽區介壽路１段２７號１樓,121.3757,24.93321,(02)26738868,羅氏家用新冠病毒抗原自我檢測套組,78,2022/05/06 14:30:02,快篩實名制，每天16:00開始販售，售完為止。
5931100154,尚運藥局,新北市淡水區學府路５１巷１弄２０號,121.4473,25.16892,(02)26225149,羅氏家用新冠病毒抗原自我檢測套組,261,2022/05/06 14:30:02,無
5931101633,吉利安健保藥師藥局,新北市淡水區中山北路１段１００號１樓,121.4426,25.17639,(02)26295693,羅氏家用新冠病毒抗原自我檢測套組,42,2022/05/06 14:30:02,若有送貨則當日14:00準時開賣售完為止
5931101937,文川藥局,新北市淡水區中山北路１段９３號１樓,121.4423,25.17631,(02)86319033,羅氏家用新冠病毒抗原自我檢測套組,78,2022/05/06 14:30:02,星期一-六下午14:50開始販售快篩試劑:星期日早上8:30開始販售
5931101955,伯宇藥局,新北市淡水區新春街１０３號－８,121.4401,25.1823,(02)26236006,羅氏家用新冠病毒抗原自我檢測套組,78,2022/05/06 14:30:02,實名制快篩14:30開始販售（5／1無販售）
5931102103,四季寶健保藥局,新北市淡水區新市一路３段１１７－１號（含夾層）,121.4468,25.18314,(02)26283199,羅氏家用新冠病毒抗原自我檢測套組,78,2022/05/06 14:30:02,無
5931102292,佑全淡水淡金藥局,新北市淡水區淡金路５５號、５７號１樓,121.4559,25.16127,(02)26228040,羅氏家用新冠病毒抗原自我檢測套組,33,2022/05/06 14:30:02,實名制快篩每日兩點開賣（售完為止）
5931102407,躍獅淡水長照藥局,新北市淡水區學府路７７號１樓,121.4484,25.17003,(02)26295603,羅氏家用新冠病毒抗原自我檢測套組,78,2022/05/06 14:30:02,無
5931102461,淡水藥局,新北市淡水區中山路１２７號（１、２樓）,121.4414,25.17107,(02)86313663,羅氏家用新冠病毒抗原自我檢測套組,78,2022/05/06 14:30:02,快篩實名制，每天16:00開始販售，售完為止。
5931112083,裕和藥局,新北市汐止區宜興街４號１樓,121.6211,25.04126,(02)26609119,羅氏家用新冠病毒抗原自我檢測套組,135,2022/05/06 14:30:02,晚上9.00領實名制快篩時間
5931112145,汐止健康人生藥局,新北市汐止區忠孝東路２６９號,121.6633,25.06809,(02)86421820,羅氏家用新冠病毒抗原自我檢測套組,27,2022/05/06 14:30:02,快篩代售時間 14:00~售完為止 ；現場排隊
5931112789,富康東科藥局,新北市汐止區新台五路１段９６號Ｃ棟１樓Ｃ１５號,121.6483,25.06047,(02)26969222,羅氏家用新冠病毒抗原自我檢測套組,2,2022/05/06 14:30:02,每日九點至下午六點開放購買口罩，周六周日公休
5931113071,蒲公英藥局,新北市汐止區連興街１２６號（１樓）,121.6538,25.06188,(02)26907770,羅氏家用新冠病毒抗原自我檢測套組,78,2022/05/06 14:30:02,實名制快篩銷售時間:下午17:00-19:00（無發放號碼牌）
5931113142,林美藥局,新北市汐止區康寧街４６５號１樓,121.6318,25.06839,(02)26935696,羅氏家用新冠病毒抗原自我檢測套組,28,2022/05/06 14:30:02,14:00販售實名制快篩，現場排隊 ，無號碼牌。禮拜天公休
5931113160,社后藥局,新北市汐止區康寧街４２４號１樓,121.6307,25.06801,(02)26956321,羅氏家用新冠病毒抗原自我檢測套組,78,2022/05/06 14:30:02,快篩實名制，每天16:00開始販售，售完為止。
5931113197,博昱忠孝藥局,新北市汐止區忠孝東路２７８號（１樓）,121.6637,25.06809,(02)86423838,羅氏家用新冠病毒抗原自我檢測套組,58,2022/05/06 14:30:02,下午兩點開始賣快篩
5931113204,富康活力忠孝藥局,新北市汐止區忠孝東路２７９號１樓,121.6638,25.06854,(02)26422666,羅氏家用新冠病毒抗原自我檢測套組,28,2022/05/06 14:30:02,無
5931121466,瑞芳藥局,新北市瑞芳區明燈路３段５９之１及５９之２號,121.8057,25.10812,(02)24966588,羅氏家用新冠病毒抗原自我檢測套組,78,2022/05/06 14:30:02,快篩實名制，每天16:00開始販售，售完為止。
5931130152,博惠藥局,新北市土城區中央路１段２４９巷２０號,121.4463,24.98538,(02)22618337,羅氏家用新冠病毒抗原自我檢測套組,38,2022/05/06 14:30:02,14:00開始販售政府快篩，不發號碼牌
5931132263,立新藥局,新北市土城區光明街５號１樓,121.4421,24.97475,(02)82626111,羅氏家用新冠病毒抗原自我檢測套組,135,2022/05/06 14:30:02,快篩試劑下午3點開始銷售
5931132307,廣昇健保藥師藥局,新北市土城區明德路１段５３號,121.4653,24.98476,(02)22638300,羅氏家用新冠病毒抗原自我檢測套組,72,2022/05/06 14:30:02,無
5931132343,誠安藥局,新北市土城區中央路４段３６號１樓,121.4207,24.96088,(02)22677737,羅氏家用新冠病毒抗原自我檢測套組,156,2022/05/06 14:30:02,快篩代售時段：平日晚上8點，售完為止
5931132807,健業藥局,新北市土城區中央路２段２２３－１０號,121.4407,24.97312,(02)22704798,羅氏家用新冠病毒抗原自我檢測套組,78,2022/05/06 14:30:02,無
5931132950,美康藥妝藥局,新北市土城區延吉街２５４號１樓,121.4664,24.98465,(02)22616868,羅氏家用新冠病毒抗原自我檢測套組,78,2022/05/06 14:30:02,實名制快篩前一天若有到貨，則隔日三點販售
5931133331,城安大藥局,新北市土城區金城路３段４０號,121.4656,24.98639,(02)22646561,羅氏家用新冠病毒抗原自我檢測套組,6,2022/05/06 14:30:02,快篩代售時間晚上8:30
5931133340,大欣藥局,新北市土城區裕民路２５１號,121.4546,24.98305,(02)22653208,羅氏家用新冠病毒抗原自我檢測套組,5,2022/05/06 14:30:02,公費快篩販賣時段:下午2:00至售完為止
5931133500,菩提藥局,新北市土城區延和路１１４號１樓,121.4673,24.98988,(02)22624866,羅氏家用新冠病毒抗原自我檢測套組,78,2022/05/06 14:30:02,無
5931133546,宏林保健藥局,新北市土城區裕民路１３４號（１樓）,121.4515,24.98622,(02)82615919,羅氏家用新冠病毒抗原自我檢測套組,13,2022/05/06 14:30:02,無
5931141726,松展多利日式連鎖藥粧藥局,新北市蘆洲區民族路１６１號,121.4793,25.08817,(02)22882586,羅氏家用新冠病毒抗原自我檢測套組,22,2022/05/06 14:30:02,防疫物資每日下午02:00開始販售
5931142634,華安大藥局,新北市蘆洲區長安街４８號１樓,121.4633,25.07973,(02)22881168,羅氏家用新冠病毒抗原自我檢測套組,30,2022/05/06 14:30:02,無
5931143131,杏一蘆洲長安藥局,新北市蘆洲區長安街１２２號１樓,121.4606,25.08179,(02)82854278,羅氏家用新冠病毒抗原自我檢測套組,1,2022/05/06 14:30:02,快篩周一至周六下午兩點購買
5931143275,集賢藥局,新北市蘆洲區信義路２２２巷６１號１、２樓,121.4813,25.08535,(02)22882400,羅氏家用新冠病毒抗原自我檢測套組,78,2022/05/06 14:30:02,快篩實名制，每天16:00開始販售，售完為止。
5931143300,大樹蘆洲藥局,新北市蘆洲區民族路２６５號１樓,121.4762,25.09063,(02)22810747,羅氏家用新冠病毒抗原自我檢測套組,78,2022/05/06 14:30:02,無
5931151302,宏安藥局,新北市五股區成泰路２段１３６號,121.4382,25.08369,(02)22915932,羅氏家用新冠病毒抗原自我檢測套組,78,2022/05/06 14:30:02,口罩販售時間:每日08:15~23:00售完為止 星期日如果前一日還有庫存，當日照常販售
5931151615,陽光健保藥局,新北市五股區五福路５４號１樓,121.4335,25.08973,(02)22922400,羅氏家用新冠病毒抗原自我檢測套組,4,2022/05/06 14:30:02,今日由於人數眾多 1400開始販售
5931151713,五股藥局,新北市五股區成泰路１段２３５之２號（１樓）,121.4363,25.07968,(02)22951150,羅氏家用新冠病毒抗原自我檢測套組,78,2022/05/06 14:30:02,快篩實名制，每天16:00開始販售，售完為止。
5931161460,紅葉藥局,新北市泰山區楓江路８號２樓,121.4335,25.06244,(02)22960328,羅氏家用新冠病毒抗原自我檢測套組,71,2022/05/06 14:30:02,無
5931170067,宏宇藥局,新北市林口區中正路２８８號１樓,121.3887,25.07776,(02)26031948,羅氏家用新冠病毒抗原自我檢測套組,156,2022/05/06 14:30:02,實名制快篩販售時間:周一至周六 下午兩點，售完為止
5931171528,長康藥局,新北市林口區中山路１６６號１樓,121.3902,25.07894,(02)26012661,羅氏家用新冠病毒抗原自我檢測套組,1,2022/05/06 14:30:02,周日公休
5931171582,綠園藥局,新北市林口區仁愛路２段１０５號１樓,121.3843,25.07507,(02)86012258,羅氏家用新冠病毒抗原自我檢測套組,3,2022/05/06 14:30:02,上午8:30-12:00、下午2:30-18:00、晚上18:00-21:30
5931171680,一家好藥局,新北市林口區中山路５００號,121.3794,25.08303,(02)26028270,羅氏家用新冠病毒抗原自我檢測套組,70,2022/05/06 14:30:02,無
5931171813,力行藥局,新北市林口區文化３路１段４２３、４２５號１、２樓,121.3653,25.07438,(02)26080711,羅氏家用新冠病毒抗原自我檢測套組,2,2022/05/06 14:30:02,快篩實名制，每天16:00開始販售，售完為止。
5931171831,沐霖藥局,新北市林口區文化三路２段２８６號１樓,121.3775,25.08304,(02)26032086,羅氏家用新冠病毒抗原自我檢測套組,78,2022/05/06 14:30:02,無
5931171877,杏一林口仁愛藥局,新北市林口區仁愛路２段９１號１樓,121.3846,25.07532,(02)26016453,羅氏家用新冠病毒抗原自我檢測套組,34,2022/05/06 14:30:02,無
5931250015,松南藥局,新北市雙溪區中華路２９號,121.8658,25.03728,(02)24931085,羅氏家用新冠病毒抗原自我檢測套組,10,2022/05/06 14:30:02,週一至週五營業至晚上21點.週六至20點週日至12點
5931250042,信芳藥局,新北市雙溪區中華路５０號,121.866,25.03761,(02)24931301,羅氏家用新冠病毒抗原自我檢測套組,2,2022/05/06 14:30:02,無
5932010631,新華興清溪藥局,桃園市桃園區東門里中山東路１０號１樓,121.3136,24.99548,(03)3330011,羅氏家用新冠病毒抗原自我檢測套組,76,2022/05/06 14:30:02,實名制快篩週一~週日14:30，不發號碼牌請依序排隊購買
5932011870,永祥大藥局,桃園市桃園區永安路５２８號,121.2986,25.00181,(03)3337161,羅氏家用新冠病毒抗原自我檢測套組,4,2022/05/06 14:30:02,口罩販賣時段：週一至週六早上9點
5932013392,桃園中正藥局,桃園市桃園區中正路３７３號,121.3079,24.99955,(03)3381600,羅氏家用新冠病毒抗原自我檢測套組,13,2022/05/06 14:30:02,快篩實名制，每天16:00開始販售，售完為止。
5932013687,桃園春日藥局,桃園市桃園區春日路８７８號,121.3096,25.01561,(03)3580101,羅氏家用新冠病毒抗原自我檢測套組,79,2022/05/06 14:30:02,快篩實名制，每天16:00開始販售，售完為止。
5932013749,桃園寶山藥局,桃園市桃園區寶山街７２號,121.3175,25.01291,(03)3250562,羅氏家用新冠病毒抗原自我檢測套組,78,2022/05/06 14:30:02,快篩實名制，每天16:00開始販售，售完為止。
5932013883,桃園大有藥局,桃園市桃園區大有路５５６號,121.3181,25.01393,(03)3460793,羅氏家用新冠病毒抗原自我檢測套組,3,2022/05/06 14:30:02,快篩星期一到星期日下午1:50發號碼牌；販賣時段：14:00~15:00
5932013972,合祥藥局,桃園市桃園區國際路二段８號１樓,121.2886,24.99044,(03)3703010,羅氏家用新冠病毒抗原自我檢測套組,69,2022/05/06 14:30:02,無
5932013990,福澤大業藥局,桃園市桃園區大業路１段４２２號１樓,121.3118,25.01473,(03)3563865,羅氏家用新冠病毒抗原自我檢測套組,71,2022/05/06 14:30:02,家用快篩販賣時段15:30至售完為止
5932014004,同德辰安藥局,桃園市桃園區同德十街２５號,121.294,25.01835,(03)3012028,羅氏家用新冠病毒抗原自我檢測套組,78,2022/05/06 14:30:02,實名制快篩試劑於下午4點開始販售，現場排隊，沒有發放號碼牌。
5932014013,力行藥局,桃園市桃園區力行路９８號,121.3027,25.00206,(03)3391368,羅氏家用新冠病毒抗原自我檢測套組,105,2022/05/06 14:30:02,每日14點開賣售78份為止不發號碼牌，若14點前沒來排隊，肯定買不到請別問了現場爆忙，若15點後還有庫存78以上是隔天賣
5932014059,桃園南平藥局,桃園市桃園區南平路３０２－１號１樓,121.2989,25.01855,(03)3165222,羅氏家用新冠病毒抗原自我檢測套組,78,2022/05/06 14:30:02,快篩實名制，每天16:00開始販售，售完為止。
5932014102,小飛象藥局,桃園市桃園區慈文路１９２號,121.3041,25.00907,(03)3552771,羅氏家用新冠病毒抗原自我檢測套組,78,2022/05/06 14:30:02,5／6 [21:30] 開賣78份，別再問了。不發放號碼牌，請自行計算人數。即日起本所有調劑確診者之視訊處方，請自保。
5932014111,鴻發藥師藥局,桃園市桃園區大有路５４３號,121.3171,25.0149,(03)3582468,羅氏家用新冠病毒抗原自我檢測套組,78,2022/05/06 14:30:02,實聯快篩:早上09:30發放號碼牌，限當日下午2~4點憑牌購買，逾時不候請見諒
5932014273,藝文藥局,桃園市桃園區大興西路１段１６５號,121.3049,25.01414,(03)3261789,羅氏家用新冠病毒抗原自我檢測套組,78,2022/05/06 14:30:02,快篩實名制，每天16:00開始販售，售完為止。
5932014326,闔新藥局,桃園市桃園區中正路５７６號１樓,121.3054,25.00388,(03)3317279,羅氏家用新冠病毒抗原自我檢測套組,36,2022/05/06 14:30:02,營業時間:9:00-21:00，實名制快篩領取時間14:30開始，現場排隊
5932014344,豐藝藥局,桃園市桃園區泰昌三街２３號１樓,121.2943,24.98954,(03)2200977,羅氏家用新冠病毒抗原自我檢測套組,78,2022/05/06 14:30:02,實名制快篩下午3點販售，依序排隊購買，售完為止。
5932014415,多多藥局,桃園市桃園區南平路１８３號１樓,121.3022,25.01946,(03)3162133,羅氏家用新冠病毒抗原自我檢測套組,78,2022/05/06 14:30:02,實名制快篩販售時段［下午3:00~3:30］
5932014424,桃園中山藥局,桃園市桃園區中山路７０７號,121.2914,24.99079,(03)2207168,羅氏家用新冠病毒抗原自我檢測套組,78,2022/05/06 14:30:02,快篩實名制，每天16:00開始販售，售完為止。
5932014442,新光藥局,桃園市桃園區大有路１７２號,121.3209,25.00752,(03)3310133,羅氏家用新冠病毒抗原自我檢測套組,51,2022/05/06 14:30:02,營業時間:週一至週五10:00-22:00；快篩下午2:00開始，賣完為止，不發號碼牌
5932014460,桃鶯藥局,桃園市桃園區桃鶯路１０２號,121.318,24.98516,(03)3675100,羅氏家用新冠病毒抗原自我檢測套組,78,2022/05/06 14:30:02,快篩實名制，每天16:00開始販售，售完為止。
5932018593,品一藥局,桃園市桃園區建新街７６號,121.3118,24.98261,(03)3638510,羅氏家用新冠病毒抗原自我檢測套組,7,2022/05/06 14:30:02,快篩販賣時間：週一至週五早上9：30；週六下午1：00（星期天休息），會發號碼牌（今天已發完）
5932019929,元氣藥局,桃園市桃園區民光東路一Ｏ九號,121.3183,25.0079,(03)3332201,羅氏家用新冠病毒抗原自我檢測套組,78,2022/05/06 14:30:02,現場排隊喔!，快篩試劑銷售時間:星期一三四六15:30，星期二五19:00，星期日無，12:00~15:00；18:00~18:30為休息時間
5932020548,生富藥師藥局,桃園市中壢區新明里中央西路二段７６號,121.2162,24.95848,(03)4941475,羅氏家用新冠病毒抗原自我檢測套組,24,2022/05/06 14:30:02,快篩劑販賣時段：
5932021036,廣怡藥局,桃園市中壢區華勛街２５６號,121.2603,24.94865,(03)4366885,羅氏家用新冠病毒抗原自我檢測套組,4,2022/05/06 14:30:02,口罩販賣時段：開賣時間周一~周六13:30~17:30 、  周日8:30~11:30
5932021689,立康專業藥局,桃園市中壢區莊敬路８６５號,121.2543,24.96376,(03)4553121,羅氏家用新冠病毒抗原自我檢測套組,4,2022/05/06 14:30:02,快篩實名制販售時間週一到週五下午14:00販售 週六週日早上10:00販售 現場排隊
5932021812,慧中健保藥局,桃園市中壢區成章二街１４１號１樓,121.2568,24.98025,(03)4556129,羅氏家用新冠病毒抗原自我檢測套組,1,2022/05/06 14:30:02,每日4:30開始領號碼牌販售快篩試劑
5932022051,正翰藥師藥局,桃園市中壢區龍東路４９８號,121.2569,24.93482,(03)4664171,羅氏家用新冠病毒抗原自我檢測套組,62,2022/05/06 14:30:02,週一至週五下午2:30現場排隊銷售實名制快篩（週六，週日中午12:00）上述均以實際到貨為主
5932022159,躍獅新明藥局,桃園市中壢區新明路６６號１樓,121.215,24.95868,(03)2813361,羅氏家用新冠病毒抗原自我檢測套組,64,2022/05/06 14:30:02,快篩販賣時段：14:00~售完為止，現場排隊 ， 星期天沒有販售快篩
5932023058,福澤健行藥局,桃園市中壢區健行路１３９號,121.2275,24.94943,(03)4681988,羅氏家用新冠病毒抗原自我檢測套組,78,2022/05/06 14:30:02,家用快篩販賣時段15:30至售完為止
5932023094,中壢民權藥局,桃園市中壢區民權路３２６、３２８號,121.2054,25.0001,(03)4014961,羅氏家用新冠病毒抗原自我檢測套組,2,2022/05/06 14:30:02,實聯制快篩每天78份週一至週六下午1350拿取號碼牌1400開始販售.依序入場販售.過號視同放棄
5932023110,長偕社區藥局,桃園市中壢區環中東路１６０號,121.2573,24.96472,(03)4631995,羅氏家用新冠病毒抗原自我檢測套組,78,2022/05/06 14:30:02,快篩販賣時段：周一到周六， 下午三點~售完
5932023647,樂謙藥師藥局,桃園市中壢區龍東路１３４號,121.2522,24.92929,(03)4662775,羅氏家用新冠病毒抗原自我檢測套組,109,2022/05/06 14:30:02,實名快篩每日下午2點、晚上6點 各發39份
5932023683,祥合藥局,桃園市中壢區中北路二段４３１號,121.2321,24.95431,(03)2841880,羅氏家用新冠病毒抗原自我檢測套組,60,2022/05/06 14:30:02,口罩販賣時段:16:00
5932023772,佑全中壢中正藥局,桃園市中壢區中正路１０８號１、２樓,121.2229,24.95498,(03)2807899,羅氏家用新冠病毒抗原自我檢測套組,6,2022/05/06 14:30:02,實名制快篩販售時間：下午1400-售完為止
5932023807,東興藥局,桃園市中壢區中北路２段３９號,121.224,24.95033,(03)4282611,羅氏家用新冠病毒抗原自我檢測套組,78,2022/05/06 14:30:02,快篩實名制，每天16:00開始販售，售完為止。
5932023914,內壢忠孝藥局,桃園市中壢區忠孝路３６號,121.2566,24.97338,(03)4636641,羅氏家用新冠病毒抗原自我檢測套組,78,2022/05/06 14:30:02,快篩實名制，每天16:00開始販售，售完為止。
5932023932,龍東藥局,桃園市中壢區龍東路２０５號,121.2523,24.92966,(03)4383088,羅氏家用新冠病毒抗原自我檢測套組,78,2022/05/06 14:30:02,快篩實名制，每天16:00開始販售，售完為止。
5932023996,青瑭藥局,桃園市中壢區民權路４段２７７號１樓,121.2022,25.00625,(03)2875901,羅氏家用新冠病毒抗原自我檢測套組,78,2022/05/06 14:30:02,無
5932024126,民生藥師藥局,桃園市中壢區興仁路２段２８９號１樓,121.2649,24.96438,(03)3555008,羅氏家用新冠病毒抗原自我檢測套組,78,2022/05/06 14:30:02,每日下午3點開始販售實名制快篩
5932024171,青園藥局,桃園市中壢區領航南路４段１９８號１樓,121.2239,25.01755,(03)2876386,羅氏家用新冠病毒抗原自我檢測套組,78,2022/05/06 14:30:02,營業時間上午0830至晚上2100
5932024279,中壢環東藥局,桃園市中壢區中山東路２段１９３號,121.2404,24.95171,(03)4562345,羅氏家用新冠病毒抗原自我檢測套組,78,2022/05/06 14:30:02,快篩實名制，每天16:00開始販售，售完為止。
593202A833,君安藥局,桃園市中壢區中北路二段３９０號,121.2318,24.95388,(03)4685484,羅氏家用新冠病毒抗原自我檢測套組,107,2022/05/06 14:30:02,快篩試劑販售時間，週一至週五晚上7點，週六週日早上9點，視現場狀況而定，前15至45分鐘發號碼牌，發完為止
593202A931,佳佑藥局,桃園市中壢區環中東路二四一號,121.2573,24.96345,(03)4356190,羅氏家用新冠病毒抗原自我檢測套組,11,2022/05/06 14:30:02,口罩販賣時段：09:00以後發號碼牌，售完為止
5932030080,吉壽藥局,桃園市大溪區員林路三段４２號,121.2648,24.88175,(03)3802049,羅氏家用新冠病毒抗原自我檢測套組,78,2022/05/06 14:30:02,快篩試劑販賣時段：星期一~五晚上7:00起及星期六、日上午8:30起。由於近日進貨庫存異常，另78份為隔日販售！請諒解。
5932031881,大溪藥局,桃園市大溪區康莊路１６０號,121.2886,24.8808,(03)3873873,羅氏家用新冠病毒抗原自我檢測套組,78,2022/05/06 14:30:02,快篩實名制，每天16:00開始販售，售完為止。
5932031890,福生藥局,桃園市大溪區民權東路１０３號１樓,121.2919,24.88209,(03)3873533,羅氏家用新冠病毒抗原自我檢測套組,78,2022/05/06 14:30:02,早上八點開始發放快篩試劑
5932040246,龍泰藥局,桃園市楊梅區民族路五段１４７巷２號,121.1736,24.9586,(03)4901525,羅氏家用新冠病毒抗原自我檢測套組,46,2022/05/06 14:30:02,快篩販售時間:早上7:30領號碼牌下午2點至4點領快篩（當日有效）
5932040308,弘大藥局,桃園市楊梅區大華街十三號,121.1452,24.9076,(03)4751858,羅氏家用新冠病毒抗原自我檢測套組,36,2022/05/06 14:30:02,實名制快篩 14:00發放號碼牌後開始販售至16:00為止，禮拜天無販售實名制快篩。
5932043130,宜康美藥局,桃園市楊梅區環東路４５２號,121.1571,24.91005,(03)4883805,羅氏家用新冠病毒抗原自我檢測套組,58,2022/05/06 14:30:02,快篩販賣時段：早上09:30~10:30（20份）下午15:30~16:30（38份）晚上19:30~20:30（20份）
5932043336,楊梅藥局,桃園市楊梅區大成路１４８、１５０號,121.1458,24.91148,(03)4880776,羅氏家用新冠病毒抗原自我檢測套組,78,2022/05/06 14:30:02,快篩實名制，每天16:00開始販售，售完為止。
5932043390,元森藥局,桃園市楊梅區瑞溪路２段１２５號１樓,121.1806,24.90875,(03)4311058,羅氏家用新冠病毒抗原自我檢測套組,69,2022/05/06 14:30:02,無
5932051472,康而美聖安藥師藥局,桃園市蘆竹區南山路一段二之一號,121.2916,25.04879,(03)3228753,羅氏家用新冠病毒抗原自我檢測套組,4,2022/05/06 14:30:02,暫停止販售
5932052479,宜家藥局,桃園市蘆竹區大竹里大新路１０３號,121.2561,25.02469,(03)3236008,羅氏家用新冠病毒抗原自我檢測套組,52,2022/05/06 14:30:02,快篩販賣時段：14:30開始（週日休息）
5932052755,大葉藥局,桃園市蘆竹區中山路１３２號１樓,121.2978,25.05699,(03)3125347,羅氏家用新冠病毒抗原自我檢測套組,78,2022/05/06 14:30:02,口罩販賣時段：以現場公告為主
5932052808,柏霖藥局,桃園市蘆竹區中正路３５９號２樓,121.291,25.04902,(03)2120284,羅氏家用新冠病毒抗原自我檢測套組,36,2022/05/06 14:30:02,快篩試劑販賣時間:18:00開始.售完為止
5932052835,悅兒藥局,桃園市蘆竹區忠孝西路１８６號,121.2892,25.04011,(03)3126967,羅氏家用新冠病毒抗原自我檢測套組,78,2022/05/06 14:30:02,快篩販賣時段：週一到週日 14:30 開賣
5932052853,奇安藥局,桃園市蘆竹區南昌路２６９號,121.2921,25.03999,(03)2120207,羅氏家用新冠病毒抗原自我檢測套組,78,2022/05/06 14:30:02,無
5932052924,青青藥師藥局,桃園市蘆竹區南山路三段３１３號１樓,121.2861,25.08533,(03)3240338,羅氏家用新冠病毒抗原自我檢測套組,24,2022/05/06 14:30:02,口罩販賣時段：週一至週日09:00起
5932052933,天康南崁藥局,桃園市蘆竹區南崁路２４５號,121.2933,25.04894,(03)2122569,羅氏家用新冠病毒抗原自我檢測套組,21,2022/05/06 14:30:02,快篩販賣：週一~日14:00開賣通常30分鐘就售完不用再打電話問
5932052979,南崁藥局,桃園市蘆竹區中正路２５１、２５３、２５５號,121.2921,25.04695,(03)3522022,羅氏家用新冠病毒抗原自我檢測套組,157,2022/05/06 14:30:02,快篩實名制，每天16:00開始販售，售完為止。
5932053047,桃園大竹藥局,桃園市蘆竹區大竹路３６５號,121.2652,25.01997,(03)3235959,羅氏家用新冠病毒抗原自我檢測套組,78,2022/05/06 14:30:02,快篩實名制，每天16:00開始販售，售完為止。
5932062484,園正藥局,桃園市大園區中正東路７５號,121.2003,25.06315,(03)3865250,羅氏家用新冠病毒抗原自我檢測套組,78,2022/05/06 14:30:02,快篩實名制，每天16:00開始販售，售完為止。
5932076255,安得福藥局,桃園市龜山區萬壽路一段２８１號,121.4035,25.01723,(02)82001467,羅氏家用新冠病毒抗原自我檢測套組,15,2022/05/06 14:30:02,口罩販賣時段：13：00開始發號碼牌排隊領取過號重排
5932076791,誠安生活藥局,桃園市龜山區文化七路７９之２號,121.3635,25.05166,(03)3271997,羅氏家用新冠病毒抗原自我檢測套組,180,2022/05/06 14:30:02,實名制快篩試劑每日下午三點啟售。5／1周日不販售
5932076844,帕米爾藥局,桃園市龜山區萬壽路二段９９１號,121.3369,24.99464,(03)3295522,羅氏家用新冠病毒抗原自我檢測套組,67,2022/05/06 14:30:02,星期一~六:家用快篩試劑販賣時段：14:30~售完。不發號碼牌，請直接排隊購買。
5932077056,桃園龜山藥局,桃園市龜山區萬壽路二段８９６號,121.3394,24.99586,(03)3203312,羅氏家用新冠病毒抗原自我檢測套組,78,2022/05/06 14:30:02,快篩實名制，每天16:00開始販售，售完為止。
5932077270,明昌藥局,桃園市龜山區中興里萬壽路二段１１９１－６號,121.3318,24.99291,(03)3501205,羅氏家用新冠病毒抗原自我檢測套組,3,2022/05/06 14:30:02,無
5932077529,泰麟大藥局,桃園市龜山區自強西路２３８號１樓,121.3325,24.99625,(03)2133728,羅氏家用新冠病毒抗原自我檢測套組,1,2022/05/06 14:30:02,無
5932077592,南崁南祥藥局,桃園市龜山區南祥路４６號,121.2975,25.04633,(03)2227733,羅氏家用新冠病毒抗原自我檢測套組,78,2022/05/06 14:30:02,快篩實名制，每天16:00開始販售，售完為止。
5932077627,文興藥局,桃園市龜山區復興一路１０２號１、２、３樓,121.368,25.0592,(03)3285330,羅氏家用新冠病毒抗原自我檢測套組,78,2022/05/06 14:30:02,快篩實名制，每天16:00開始販售，售完為止。
5932077645,美康萬壽藥局,桃園市龜山區萬壽路１段３２５號１、２樓,121.4024,25.0169,(02)82000001,羅氏家用新冠病毒抗原自我檢測套組,166,2022/05/06 14:30:02,下午兩點開始發號碼牌販售公費快篩
5932080035,慶昇藥局,桃園市八德區桃鶯路一Ｏ二號,121.3279,24.97006,(03)3648037,羅氏家用新冠病毒抗原自我檢測套組,3,2022/05/06 14:30:02,口罩販賣時段：9:00~12:00
5932080455,日鴻藥局,桃園市八德區義勇街１７５號,121.3065,24.96335,(03)3763304,羅氏家用新冠病毒抗原自我檢測套組,78,2022/05/06 14:30:02,口罩販賣時段：早上9:00 發號碼牌下午4:00~6:00領取
5932083081,壽德藥局,桃園市八德區桃德路八十四號,121.2947,24.96711,(03)3666350,羅氏家用新冠病毒抗原自我檢測套組,73,2022/05/06 14:30:02,健保快篩於下午3點開賣，若現場排隊人數達78人提早開賣，星期日休息
5932083509,上方藥局,桃園市八德區廣褔路一八八號,121.279,24.96204,(03)3635902,羅氏家用新冠病毒抗原自我檢測套組,76,2022/05/06 14:30:02,販賣快篩:於午間12:30~1:30發號碼牌，開賣時間下午3:00~4:30，賣完為止
5932083545,興豐藥局,桃園市八德區介壽路二段一一七五號,121.2975,24.93165,(03)3654229,羅氏家用新冠病毒抗原自我檢測套組,16,2022/05/06 14:30:02,無
5932083670,保健藥局,桃園市八德區介壽路一段８３３號２樓,121.3,24.96168,(03)3669486,羅氏家用新冠病毒抗原自我檢測套組,223,2022/05/06 14:30:02,無
5932083714,佳美大藥局,桃園市八德區介壽路一段六八八號,121.3006,24.96636,(03)3772239,羅氏家用新冠病毒抗原自我檢測套組,12,2022/05/06 14:30:02,營業時間:9:00-22:00，快篩14:00販售
5932083974,晨鴻藥師藥局,桃園市八德區桃鶯路７號１樓,121.3265,24.97179,(03)3764299,羅氏家用新冠病毒抗原自我檢測套組,83,2022/05/06 14:30:02,快篩為早上8:30跟晚上6:00領取號碼牌，因有送貨時間及短少的因素，所以快篩地圖數量參考就好，請勿再打電話詢問 謝謝
5932084248,佑兒康藥局,桃園市八德區永豐路５７０號,121.2718,24.97541,(03)3709680,羅氏家用新冠病毒抗原自我檢測套組,79,2022/05/06 14:30:02,快篩販售時間:  每週一.二.四.五.六 下午2:30 開始 ； 每週三.日 晚上8:50開始
5932084319,新寶樹藥局,桃園市八德區介壽路一段９６６號,121.2991,24.95818,(03)3770000,羅氏家用新冠病毒抗原自我檢測套組,78,2022/05/06 14:30:02,快篩試劑  禮拜一至六 1430開始販售，週日1500開始販售
5932084793,美康健保藥局,桃園市八德區桃鶯路９１號１、２樓,121.328,24.97036,(03)3613624,羅氏家用新冠病毒抗原自我檢測套組,78,2022/05/06 14:30:02,無
5932084828,阿爾富山藥局,桃園市八德區桃鶯路４號１樓,121.3261,24.97167,(03)3763350,羅氏家用新冠病毒抗原自我檢測套組,75,2022/05/06 14:30:02,本藥局實名制快篩於每日晚間7點以實際到貨數量發放，唯保留可視現場排隊人數額滿情況.酌情提前發號碼牌並受理購買!
5932084837,全球建國藥局,桃園市八德區建國路８６６號１樓,121.2912,24.95253,(03)3642147,羅氏家用新冠病毒抗原自我檢測套組,4,2022/05/06 14:30:02,營業時間09:00~22:00
5932084864,阿寶藥局,桃園市八德區東勇一路６號,121.3064,24.96452,(03)3750060,羅氏家用新冠病毒抗原自我檢測套組,48,2022/05/06 14:30:02,實名制快篩詳細公告請參閱阿寶藥局官方臉書
5932099383,龍星藥局,桃園市龍潭區中正路二八四號二樓,121.2175,24.86201,(03)4707390,羅氏家用新冠病毒抗原自我檢測套組,78,2022/05/06 14:30:02,無
5932099856,佳欣社區藥局,桃園市龍潭區中正路２６２號１樓,121.2173,24.86254,(03)4808717,羅氏家用新冠病毒抗原自我檢測套組,24,2022/05/06 14:30:02,無
5932099892,百年聯和藥局,桃園市龍潭區中豐路３００號,121.2119,24.87808,(03)4895268,羅氏家用新冠病毒抗原自我檢測套組,31,2022/05/06 14:30:02,快篩實名制：週一至週五14:30準時販售，週六週日12:30準時販售
5932099927,大心聯合藥局,桃園市龍潭區中興路３９０號,121.2313,24.87337,(03)4897998,羅氏家用新冠病毒抗原自我檢測套組,78,2022/05/06 14:30:02,快篩實名制：週一至週日下午15:30開始販售
5932099963,龍潭北龍藥局,桃園市龍潭區北龍路２７５號,121.2174,24.8681,(03)4893123,羅氏家用新冠病毒抗原自我檢測套組,78,2022/05/06 14:30:02,快篩實名制，每天16:00開始販售，售完為止。
5932100185,德聯藥師藥局,桃園市平鎮區龍南路３１號,121.2452,24.92473,(03)4603613,羅氏家用新冠病毒抗原自我檢測套組,31,2022/05/06 14:30:02,快篩 5月6日 下午2點開始賣
5932100210,福澤中豐藥局,桃園市平鎮區中豐路３４５號,121.2116,24.91034,(03)4283805,羅氏家用新冠病毒抗原自我檢測套組,2,2022/05/06 14:30:02,家用快篩販賣時段15:30至售完為止
5932100354,世新藥局,桃園市平鎮區廣泰路７５之２號,121.2052,24.94629,(03)4941234,羅氏家用新冠病毒抗原自我檢測套組,1,2022/05/06 14:30:02,實名制快篩13:30販售
5932100809,福澤民族藥局,桃園市平鎮區民族路二段１３９號１樓,121.2048,24.95706,(03)4014747,羅氏家用新冠病毒抗原自我檢測套組,73,2022/05/06 14:30:02,家用快篩販賣時段15:30至售完為止
5932100916,唯康藥局,桃園市平鎮區中豐路南勢二段１４４號,121.2106,24.91564,(03)4396011,羅氏家用新冠病毒抗原自我檢測套組,38,2022/05/06 14:30:02,快篩分兩梯次販售，14：30（48份）和19：00（30份）
5932100934,崴皓藥師藥局,桃園市平鎮區平東路１３２號,121.2506,24.91727,(03)4500915,羅氏家用新冠病毒抗原自我檢測套組,60,2022/05/06 14:30:02,實名制快篩販售時間『下午14:30開始』，一人一張健保卡，請自備500元，不收銅板。售完為止
5932101226,平鎮中豐藥局,桃園市平鎮區中豐路山頂段１６４號,121.2109,24.90035,(03)4690939,羅氏家用新冠病毒抗原自我檢測套組,78,2022/05/06 14:30:02,快篩實名制，每天16:00開始販售，售完為止。
5932124096,松樹藥師藥局,桃園市觀音區中山路二段777號,121.1382,25.01172,(03)4988995,羅氏家用新冠病毒抗原自我檢測套組,2,2022/05/06 14:30:02,快篩販售時間：平日14:00~售完； 星期日20:00~售完
5933010064,明德藥局,新竹縣關西鎮中山路１８號,121.1778,24.79152,(03)5874335,羅氏家用新冠病毒抗原自我檢測套組,3,2022/05/06 14:30:02,無
5933010091,進安藥局,新竹縣關西鎮正義路１５號,121.1761,24.79111,(03)5872153,羅氏家用新冠病毒抗原自我檢測套組,17,2022/05/06 14:30:02,12:00-14:00休息（配合醫療院所）。
5933010144,佳仁藥局,新竹縣關西鎮中興路１２號,121.1771,24.79227,(035)872298,羅氏家用新冠病毒抗原自我檢測套組,32,2022/05/06 14:30:02,全年無休（星期日不定期）
5933011258,安東藥師藥局,新竹縣關西鎮中山路６２號,121.1766,24.79147,(03)5872385,羅氏家用新冠病毒抗原自我檢測套組,78,2022/05/06 14:30:02,口罩販賣時段：星期一至六08:00-21:00、星期日08:00-17:00
5933011267,關西藥局,新竹縣關西鎮中山路６８號,121.1764,24.79148,(03)5171121,羅氏家用新冠病毒抗原自我檢測套組,77,2022/05/06 14:30:02,快篩實名制，每天16:00開始販售，售完為止。
5933021254,梁藥局,新竹縣新埔鎮中正路２３３號,121.0798,24.82761,(03)5885439,羅氏家用新冠病毒抗原自我檢測套組,78,2022/05/06 14:30:02,快篩實名制，每天15:00開始販售，售完為止。
5933031643,能安西藥局,新竹縣竹東鎮東峰路13號,121.0966,24.72171,(03)5950515,羅氏家用新冠病毒抗原自我檢測套組,17,2022/05/06 14:30:02,下午2點，星期日不販售
5933031778,樂安藥師藥局,新竹縣竹東鎮東林路８９號,121.0916,24.73705,(03)5101941,羅氏家用新冠病毒抗原自我檢測套組,6,2022/05/06 14:30:02,實名制快篩販售時間 14:00
5933031821,新月藥局,新竹縣竹東鎮永康街８１號１樓,121.0818,24.74841,(03)5960501,羅氏家用新冠病毒抗原自我檢測套組,39,2022/05/06 14:30:02,快篩代售時間 14:00（39份） 19:00（39份）
5933031885,東林藥局,新竹縣竹東鎮東林路８０號,121.0913,24.73683,(03)5961321,羅氏家用新冠病毒抗原自我檢測套組,78,2022/05/06 14:30:02,快篩實名制，每天16:00開始販售，售完為止。
5933052053,真善美藥局,新竹縣竹北市勝利五路１７６號,121.0286,24.82322,(03)6589478,羅氏家用新冠病毒抗原自我檢測套組,77,2022/05/06 14:30:02,實名制快篩販賣:14:30
5933053041,中一藥局,新竹縣竹北市文興路一段２４２號１樓,121.0287,24.81018,(03)6670827,羅氏家用新冠病毒抗原自我檢測套組,78,2022/05/06 14:30:02,更新:快篩販售時間下午16:00
5933053381,佑全竹北中正藥局,新竹縣竹北市中正西路１７６、１７８號１樓,120.9991,24.84149,(03)5556235,羅氏家用新冠病毒抗原自我檢測套組,8,2022/05/06 14:30:02,每日下午13:50發號碼牌 14:00開始販售 不能離開現場
5933053407,方米藥局,新竹縣竹北市博愛街５１１號,121.0106,24.8393,(03)5510015,羅氏家用新冠病毒抗原自我檢測套組,14,2022/05/06 14:30:02,實名制快篩，下午兩點發號碼牌並開賣
5933061463,如家藥師藥局,新竹縣湖口鄉工業區光復東路２４９號,121.0242,24.86913,(03)5972606,羅氏家用新冠病毒抗原自我檢測套組,1,2022/05/06 14:30:02,快篩販賣時段：星期一~五14:00-15:00／星期六、日18:00-19:00
5934011958,栢心藥局,宜蘭縣宜蘭市宜興路１段１１１號,121.7561,24.7514,(03)9357277,羅氏家用新冠病毒抗原自我檢測套組,22,2022/05/06 14:30:02,週一~週六（週四下午休息），快篩試劑下午14:30開始販售
5934012179,宜蘭和睦藥局,宜蘭縣宜蘭市大新里和睦路４７號１、２樓,121.757,24.75614,(03)9313622,羅氏家用新冠病毒抗原自我檢測套組,75,2022/05/06 14:30:02,快篩販賣時間:每天（週一~週日）14:30~21:00。
5934012473,宜蘭藥局,宜蘭縣宜蘭市泰山路３６號,121.7485,24.75524,(03)9365168,羅氏家用新冠病毒抗原自我檢測套組,78,2022/05/06 14:30:02,快篩實名制，每天16:00開始販售，售完為止。
5934020224,源生藥局,宜蘭縣羅東鎮忠孝路８９號,121.7652,24.67759,(03)9563476,羅氏家用新冠病毒抗原自我檢測套組,2,2022/05/06 14:30:02,執業時段請電洽藥局
5934021990,成功藥局,宜蘭縣羅東鎮興東南路２３５號,121.7672,24.67253,(03)9577550,羅氏家用新冠病毒抗原自我檢測套組,53,2022/05/06 14:30:02,平日下午2:30開賣，星期六下午1:00開賣
5934022175,公正藥局,宜蘭縣羅東鎮興東路１３７、１３９號,121.769,24.6802,(03)9560543,羅氏家用新冠病毒抗原自我檢測套組,79,2022/05/06 14:30:02,快篩實名制，每天16:00開始販售，售完為止。
5934080015,佳恩藥局,宜蘭縣冬山鄉義成路３段４０１號,121.7679,24.66718,(03)9586065,羅氏家用新冠病毒抗原自我檢測套組,24,2022/05/06 14:30:02,5／5快篩試劑已賣完.5／6（五）以後早上9:00開賣
5934081067,威仁藥局,宜蘭縣冬山鄉冬山路２１９號,121.7907,24.63453,(03)9595351,羅氏家用新冠病毒抗原自我檢測套組,2,2022/05/06 14:30:02,無
5934081129,義成藥局,宜蘭縣冬山鄉義成路二段３７３號１樓,121.7639,24.65465,(03)9588775,羅氏家用新冠病毒抗原自我檢測套組,78,2022/05/06 14:30:02,快篩實名制販售時間：5／6星期五下午2：30開賣，5／7星期六早上11：00開賣。現場排隊，售完為止。
5934091134,松康藥局,宜蘭縣五結鄉親河路１段１００號,121.8207,24.66838,(03)9602700,羅氏家用新冠病毒抗原自我檢測套組,74,2022/05/06 14:30:02,實名制快篩試劑:藥局營業日14:30開始販售，不發號碼牌，現排現領、售完為止。
5935011523,天恩藥局,苗栗縣苗栗市中正路49號,120.8246,24.5688,(037)277285,羅氏家用新冠病毒抗原自我檢測套組,39,2022/05/06 14:30:02,快篩實名制，分兩個時段。上午時間不定（39份），下午販售時間14:30（39份，不發號碼牌）
5935011738,佳禾藥局,苗栗縣苗栗市青苗里建台街7號,120.821,24.55742,(037)373041,羅氏家用新冠病毒抗原自我檢測套組,159,2022/05/06 14:30:02,快篩試劑7：30發號碼牌8：00開始販賣，販賣時段：營業時間至售完為止
5935011783,芳鄰國際連鎖藥局,苗栗縣苗栗市中山路５６７號,120.8201,24.55826,(037)330580,羅氏家用新冠病毒抗原自我檢測套組,63,2022/05/06 14:30:02,快篩販賣時段：14:00開始發放號碼牌 16:00-18:00領取快篩
5935012342,杏一苗栗中山藥局,苗栗縣苗栗市至公路３８號,120.8196,24.55733,(037)354552,羅氏家用新冠病毒抗原自我檢測套組,8,2022/05/06 14:30:02,販售快篩時間:14:00  現場排隊為主!售完為止! 若現場人數過多.視狀況提早銷售
5935012413,苗栗藥局,苗栗縣苗栗市光復路５５號,120.8165,24.5532,(037)360789,羅氏家用新冠病毒抗原自我檢測套組,78,2022/05/06 14:30:02,快篩實名制，每天16:00開始販售，售完為止。
5935021421,苑裡啄木鳥藥局,苗栗縣苑裡鎮世界路一段２５號,120.6561,24.44071,(037)854589,羅氏家用新冠病毒抗原自我檢測套組,77,2022/05/06 14:30:02,無
5935021430,苑裡藥局,苗栗縣苑裡鎮為公路３２－１號,120.6541,24.44247,(037)851331,羅氏家用新冠病毒抗原自我檢測套組,78,2022/05/06 14:30:02,快篩實名制，每天16:00開始販售，售完為止。
5935030171,立安藥局,苗栗縣通霄鎮信義路１０７號,120.6804,24.48877,(037)760100,羅氏家用新冠病毒抗原自我檢測套組,67,2022/05/06 14:30:02,快篩實名制 週一到週六下午15:00開始販售  售完為止
5935030180,通霄藥局,苗栗縣通霄鎮中山路１３１號,120.678,24.48903,(037)755155,羅氏家用新冠病毒抗原自我檢測套組,75,2022/05/06 14:30:02,快篩實名制，每天16:00開始販售，售完為止。
5935040266,鴻仁大藥局,苗栗縣竹南鎮竹南里博愛街１８１號,120.8741,24.68686,(037)462396,羅氏家用新冠病毒抗原自我檢測套組,4,2022/05/06 14:30:02,無
5935041914,合康連鎖藥局,苗栗縣竹南鎮博愛街２７０號,120.8725,24.68724,(037)474987,羅氏家用新冠病毒抗原自我檢測套組,78,2022/05/06 14:30:02,販售快篩時間為下午17:00開始販售
5935041996,新欣藥局,苗栗縣竹南鎮龍山路一段１６０號１樓,120.8665,24.692,(037)471503,羅氏家用新冠病毒抗原自我檢測套組,78,2022/05/06 14:30:02,無
5935051947,森品藥局,苗栗縣頭份市建國路２段１５０、１５２、１５６號,120.9032,24.69653,(037)672378,羅氏家用新冠病毒抗原自我檢測套組,3,2022/05/06 14:30:02,營業時間：9:00-22:30
5935052006,懷恩中西藥局,苗栗縣頭份市建國路１２８號１樓,120.9099,24.69584,(037)683981,羅氏家用新冠病毒抗原自我檢測套組,76,2022/05/06 14:30:02,營業時間:7:00-23:00
5935060053,鴻輝大藥局,苗栗縣後龍鎮北龍里中華路６４－１號,120.7879,24.61557,(037)721952,羅氏家用新冠病毒抗原自我檢測套組,2,2022/05/06 14:30:02,AM07:50~PM10:00
5935061452,後龍藥局,苗栗縣後龍鎮中山路２０９號１樓,120.7931,24.6127,(037)723660,羅氏家用新冠病毒抗原自我檢測套組,78,2022/05/06 14:30:02,快篩實名制，每天16:00開始販售，售完為止。
5935090015,永信藥局,苗栗縣公館鄉館中村榮光街１６號,120.8271,24.50226,(037)223597,羅氏家用新冠病毒抗原自我檢測套組,78,2022/05/06 14:30:02,每日下午3點開始販售快篩
5935091156,信安藥局,苗栗縣公館鄉大同路７８號,120.8281,24.50026,(037)237849,羅氏家用新冠病毒抗原自我檢測套組,155,2022/05/06 14:30:02,實名制快篩試劑販售時間:星期一到星期六下午3點，周日不販售!
5935091245,芳鄰藥局,苗栗縣公館鄉玉泉村玉泉３６８之１１號,120.8267,24.50749,(037)223727,羅氏家用新冠病毒抗原自我檢測套組,7,2022/05/06 14:30:02,口罩販賣時段：13:00~售完
5936010628,協安大藥局,臺中市豐原區府前街６３號,120.7184,24.24957,(04)25200808,羅氏家用新冠病毒抗原自我檢測套組,36,2022/05/06 14:30:02,實名制快篩販售時間為每日下午兩點。
5936051389,康裕藥局,臺中市沙鹿區中山路２８０號１樓,120.5603,24.23822,(04)26633758,羅氏家用新冠病毒抗原自我檢測套組,78,2022/05/06 14:30:02,每日下午3:00開賣
5936111148,荷仕康藥局,臺中市新社區興安路１８－３３號,120.8078,24.24042,(04)25826258,羅氏家用新冠病毒抗原自我檢測套組,25,2022/05/06 14:30:02,快篩下午2點開始販售
5936150305,吳藥局,臺中市烏日區烏日里中山路二段２２４號,120.6219,24.1066,(04)23381148,羅氏家用新冠病毒抗原自我檢測套組,18,2022/05/06 14:30:02,早上如有配送 下午2:00販售
5936150341,原全成藥局,臺中市烏日區中山路一段３８７號１樓,120.6388,24.10773,(04)23361818,羅氏家用新冠病毒抗原自我檢測套組,78,2022/05/06 14:30:02,快篩因物流配送時間不定，改為每日下午４點開始販售，售完為止！！
5936151393,辰采藥局,臺中市烏日區學田路５８８號,120.6073,24.12307,(04)23372207,羅氏家用新冠病毒抗原自我檢測套組,26,2022/05/06 14:30:02,5／5，5／6快篩試劑開賣時間14:00~售完
5936171402,上華藥局,臺中市龍井區新興路３７號,120.5882,24.18084,(04)26320433,羅氏家用新冠病毒抗原自我檢測套組,20,2022/05/06 14:30:02,周一至周日快篩販賣時間下午2點開始販售，賣完為止
5936180152,祥暘藥局,臺中市霧峰區中正路１１６２號,120.6996,24.07068,(04)23391346,羅氏家用新冠病毒抗原自我檢測套組,78,2022/05/06 14:30:02,快篩實名制，每天16:00開始販售，售完為止。
5936191913,興明健保藥局,臺中市太平區樹德路９７－６號,120.7113,24.15324,(04)23955521,羅氏家用新冠病毒抗原自我檢測套組,70,2022/05/06 14:30:02,週一至週六下午2:30開始販售實名制快篩劑.週日早上10:00至12:00販售
5936192134,樹德大藥局,臺中市太平區樹德路１０２號１樓,120.7115,24.15386,(04)23981782,羅氏家用新冠病毒抗原自我檢測套組,75,2022/05/06 14:30:02,下午3點開始領號碼牌，分流領取，請勿依賴網站庫存
5936192312,安麗兒藥局太平店,臺中市太平區太平路１９０號,120.7204,24.12088,(04)22798819,羅氏家用新冠病毒抗原自我檢測套組,77,2022/05/06 14:30:02,快篩販售時間下午3點（15:00）開始.售完為止
593620B138,聯生中西健保藥局,臺中市大里區現岱路１５８巷１１號,120.6919,24.10295,(04)24834058,羅氏家用新冠病毒抗原自我檢測套組,78,2022/05/06 14:30:02,早上八點半領號碼牌下午四點到六點領口罩W6W日早七點
5937013132,正光藥局彰南店,彰化縣彰化市中庄里彰南路１段２１號,120.5662,24.08841,(04)7321003,羅氏家用新冠病毒抗原自我檢測套組,24,2022/05/06 14:30:02,領藥來正光.防疫實名制快篩13:30開始販售
5937013472,建國春生中西藥局,彰化縣彰化市建國北路１５０號,120.5498,24.09435,(04)7225047,羅氏家用新冠病毒抗原自我檢測套組,30,2022/05/06 14:30:02,下午2點發放號碼牌 發完即開始依序購買
5937013570,彰化藥局,彰化縣彰化市永安街２７８、２８０號,120.5438,24.08977,(04)7287877,羅氏家用新冠病毒抗原自我檢測套組,78,2022/05/06 14:30:02,快篩實名制，每天16:00開始販售，售完為止。
5937013703,友誼藥局自強店,彰化縣彰化市自強路４６號,120.5393,24.08961,(04)7233471,羅氏家用新冠病毒抗原自我檢測套組,78,2022/05/06 14:30:02,5／6快篩販售時間15:00~16:00以現場量為主，免費領取各大醫院連續處方簽，診所、衛生所處方簽，歡迎諮詢友誼藥局
5937013730,佳漾藥局,彰化縣彰化市延平路５８８號１樓,120.5374,24.06301,(04)7135518,羅氏家用新冠病毒抗原自我檢測套組,78,2022/05/06 14:30:02,實名制快篩販售時間為下午5點，週六，週日及國定假日藥局休息．
5937013749,中央啄木鳥藥局,彰化縣彰化市中央路２０６號,120.5285,24.06637,(04)7639581,羅氏家用新冠病毒抗原自我檢測套組,2,2022/05/06 14:30:02,13:30開始販售，若未收到配送，則以收到時間開始
5937013767,民族藥局,彰化縣彰化市民族路２１２號１樓,120.5393,24.071,(04)7261221,羅氏家用新冠病毒抗原自我檢測套組,78,2022/05/06 14:30:02,快篩實名制，每天16:00開始販售，售完為止。
5937031783,和美啄木鳥藥局,彰化縣和美鎮德美路２７０號,120.502,24.11371,(04)7552924,羅氏家用新冠病毒抗原自我檢測套組,21,2022/05/06 14:30:02,領藥到啄木鳥~今日5／6下午2點開始販賣實名制快篩
5937041369,北斗福倫藥局,彰化縣北斗鎮西德里斗苑路１段４２５、４２７號,120.5177,23.87305,(04)8886618,羅氏家用新冠病毒抗原自我檢測套組,78,2022/05/06 14:30:02,星期一~星期日每天下午3:00開始販售.人多同時間於2:50發號碼牌.取牌後保留10分鐘
5937041421,惠生大藥局,彰化縣北斗鎮西德里中華路２９１號,120.521,23.87288,(04)8874041,羅氏家用新冠病毒抗原自我檢測套組,11,2022/05/06 14:30:02,販售時間 : 週一 ~ 週日，每日下午1:50~2點後至販售完畢
5937050135,信昇藥局,彰化縣員林市大同路二段１８２－１號,120.575,23.96908,(04)8358827,羅氏家用新冠病毒抗原自我檢測套組,40,2022/05/06 14:30:02,快篩試劑販售時間-每日下午2點半開始.售完為止
5937051847,天一藥局,彰化縣員林市光明里中正路４４１號,120.5724,23.95817,(04)8384875,羅氏家用新冠病毒抗原自我檢測套組,1,2022/05/06 14:30:02,固定周一到周六，早上14:30開始販賣防疫口罩（現場排隊）。
5937052264,醫聯藥師藥局,彰化縣員林市三條里員東路二段４１０號１樓,120.5811,23.95898,(04)8360617,羅氏家用新冠病毒抗原自我檢測套組,8,2022/05/06 14:30:02,無
5937052273,員林鼎澄藥局,彰化縣員林市仁愛里三民東街２５２號,120.58,23.95997,(04)8330918,羅氏家用新冠病毒抗原自我檢測套組,92,2022/05/06 14:30:02,實名制快篩，星期一-六每日下午2點開始依現場排隊販售
5937052335,大樹三民藥局,彰化縣員林市三民東街３５６號,120.5825,23.96065,(04)8372837,羅氏家用新冠病毒抗原自我檢測套組,78,2022/05/06 14:30:02,快篩實名制，每天16:00開始販售，售完為止。
5937052479,莒光藥局,彰化縣員林市莒光路３１６號１樓,120.5669,23.95942,(04)8361388,羅氏家用新冠病毒抗原自我檢測套組,78,2022/05/06 14:30:02,快篩實名制，每天16:00開始販售，售完為止。
5937052488,大樹員林藥局,彰化縣員林市大同路二段２０７號,120.5745,23.96891,(04)8331353,羅氏家用新冠病毒抗原自我檢測套組,78,2022/05/06 14:30:02,快篩實名制，每天16:00開始販售，售完為止。
5937052504,佑全員林中正藥局,彰化縣員林市中正路１３５，１３７號１樓,120.5714,23.96324,(04)8368669,羅氏家用新冠病毒抗原自我檢測套組,20,2022/05/06 14:30:02,無
5937061601,樺霖保健藥局,彰化縣溪湖鎮光平里彰水路３段３７６號,120.4802,23.96186,(04)8613668,羅氏家用新冠病毒抗原自我檢測套組,1,2022/05/06 14:30:02,快篩販售時間：下午14:00~售完為止
5937061718,東環藥局,彰化縣溪湖鎮湖東街８１巷７０－３、７０－４、７０－５號,120.4833,23.95861,(04)8820001,羅氏家用新冠病毒抗原自我檢測套組,78,2022/05/06 14:30:02,快篩實名制，每天16:00開始販售，售完為止。
5937061736,平和藥局,彰化縣溪湖鎮彰水路三段２７７、２７９號１樓,120.4801,23.95959,(04)8816880,羅氏家用新冠病毒抗原自我檢測套組,78,2022/05/06 14:30:02,快篩實名制，每天16:00開始販售，售完為止。
5937070191,仁春藥局,彰化縣田中鎮員集路二段４５３、４５５號,120.5861,23.86559,(04)8742409,羅氏家用新冠病毒抗原自我檢測套組,32,2022/05/06 14:30:02,5月1日起下午兩點開始發放號碼牌販售快篩劑
5937071401,田中啄木鳥藥局,彰化縣田中鎮南路里員集路２段２６６號,120.5864,23.85628,(04)8746468,羅氏家用新冠病毒抗原自我檢測套組,9,2022/05/06 14:30:02,無
5937101146,伸港藥局,彰化縣伸港鄉新港村信義路１３５號,120.4859,24.14825,(04)7992663,羅氏家用新冠病毒抗原自我檢測套組,78,2022/05/06 14:30:02,05／06 （五） 今日實名制快篩販售時間為『晚上八點』，感謝您。
5937121184,伸豐藥局,彰化縣秀水鄉福安村彰水路二段６６３號,120.4977,24.03204,(04)7697482,羅氏家用新冠病毒抗原自我檢測套組,50,2022/05/06 14:30:02,5／1起因物流當日到貨時間不定，販售時間請查詢伸豐藥局FB公告
5937121317,彰水藥局,彰化縣秀水鄉彰水路二段４２５、４２７、４２９號１樓,120.4943,24.02791,(04)7685880,羅氏家用新冠病毒抗原自我檢測套組,78,2022/05/06 14:30:02,快篩實名制，每天16:00開始販售，售完為止。
5937170034,淑惠藥局,彰化縣埔心鄉亙北村員鹿路一段２４４號,120.5574,23.95515,(04)8297798,羅氏家用新冠病毒抗原自我檢測套組,78,2022/05/06 14:30:02,星期一~星期六16:00-18:00（2小時販售快篩試劑），星期日：休
5937181279,佳恩藥局,彰化縣永靖鄉永西村瑚璉路３０２號,120.547,23.92421,(04)8235753,羅氏家用新冠病毒抗原自我檢測套組,51,2022/05/06 14:30:02,快篩實名制 :電話預約制，當日早上9點開始預約（已額滿）
5937181304,永靖藥局,彰化縣永靖鄉瑚璉路１１６號,120.5505,23.92624,(04)8230220,羅氏家用新冠病毒抗原自我檢測套組,78,2022/05/06 14:30:02,快篩實名制，每天16:00開始販售，售完為止。
5937191300,社頭藥局,彰化縣社頭鄉社斗路一段３７３號,120.5846,23.89651,(04)8720030,羅氏家用新冠病毒抗原自我檢測套組,78,2022/05/06 14:30:02,快篩實名制，每天16:00開始販售，售完為止。
5937201061,長春藥局,彰化縣二水鄉文化村光文路１０３號,120.6167,23.81189,(04)8795289,羅氏家用新冠病毒抗原自我檢測套組,38,2022/05/06 14:30:02,早上8:00發放號碼牌，13:00開始販售至17:00止
5937201105,安利藥局,彰化縣二水鄉光化村員集路４段３號,120.6159,23.81147,(04)8794933,羅氏家用新冠病毒抗原自我檢測套組,64,2022/05/06 14:30:02,快篩下午3點現場販售 不發號碼牌 身障.醫護可優先購買
5937211101,溪畔藥局,彰化縣田尾鄉溪畔村中山路２段３９７號,120.5371,23.90169,(04)8239016,羅氏家用新冠病毒抗原自我檢測套組,29,2022/05/06 14:30:02,星期1.2.3.5.6下午1.00-3.00服務時段星期4早上9.30-11.30~逾時恕不售理敬請配合!謝謝
5938010420,弘昌藥局,南投縣南投市三興里南崗一路８５號,120.6834,23.90096,(049)2228902,羅氏家用新冠病毒抗原自我檢測套組,44,2022/05/06 14:30:02,週一至週六早防疫家用快篩試劑 早上發號碼.下午3點至4點領快篩.超過4點視同放棄.
5938011810,南投丁丁藥局,南投縣南投市三和里三和二路１０號,120.69,23.90461,(049)2245977,羅氏家用新冠病毒抗原自我檢測套組,16,2022/05/06 14:30:02,健保快篩早上8點開賣
5938011838,愛馨藥局,南投縣南投市中山街１４巷１５號,120.687,23.90573,(049)2206006,羅氏家用新冠病毒抗原自我檢測套組,78,2022/05/06 14:30:02,周一至周六14:30開始販售，周日9:00販售
5938021683,埔里啄木鳥藥局,南投縣埔里鎮中山路三段４６７號,120.9537,23.96959,(049)2914510,羅氏家用新冠病毒抗原自我檢測套組,78,2022/05/06 14:30:02,實名制快篩 當天下午3點開賣＜請排隊購買＞
5938022064,大樹埔里藥局,南投縣埔里鎮中正路４３８號,120.9632,23.97263,(049)2980805,羅氏家用新冠病毒抗原自我檢測套組,78,2022/05/06 14:30:02,快篩實名制，每天16:00開始販售，售完為止。
5938032524,佑全草屯中興藥局,南投縣草屯鎮中興路７８號,120.6821,23.97413,(049)2323440,羅氏家用新冠病毒抗原自我檢測套組,23,2022/05/06 14:30:02,快篩試劑販售時間:下午2點後
5938061249,献奇藥局,南投縣名間鄉南雅村１０２號,120.7023,23.83759,(049)2732678,羅氏家用新冠病毒抗原自我檢測套組,1,2022/05/06 14:30:02,周一到周日，下午兩點代售快篩
5938110023,杏仁藥局,南投縣水里鄉新城村民權路２３６號,120.8526,23.81758,(049)2776008,羅氏家用新冠病毒抗原自我檢測套組,45,2022/05/06 14:30:02,周一到周六，下午2:30販售快篩，售完為止，星期日休息
5939010399,東京大藥局,雲林縣斗六市文化路７９號,120.5486,23.71107,(05)5348073,羅氏家用新冠病毒抗原自我檢測套組,77,2022/05/06 14:30:02,快篩試劑每天下午4點販賣（售完為止）
5939011850,明真西藥局,雲林縣斗六市自由路１號,120.5447,23.70513,(05)5321605,羅氏家用新冠病毒抗原自我檢測套組,10,2022/05/06 14:30:02,口罩販售:早上0800-1200中午1200-1400休息下午1400到2100賣完為止
5939012222,啄木鳥藥局,雲林縣斗六市民生南路２６２號,120.5369,23.69934,(05)5344030,羅氏家用新冠病毒抗原自我檢測套組,14,2022/05/06 14:30:02,無
5939012400,陽光藥局,雲林縣斗六市永安路６９號,120.548,23.70923,(05)5362097,羅氏家用新冠病毒抗原自我檢測套組,67,2022/05/06 14:30:02,快篩16:00開賣~現場排隊，請勿電話詢問
5939012526,世明中西藥局,雲林縣斗六市文化路３２４－１號,120.5532,23.71162,(05)5333109,羅氏家用新冠病毒抗原自我檢測套組,68,2022/05/06 14:30:02,口罩販售:於周一到周日營業時間9:00~售完為止，快篩試劑販售:於周一到周六營業時間14:00開賣~售完為止
5939012599,斗六藥局,雲林縣斗六市雲林路二段１１３號,120.534,23.70477,(05)5372300,羅氏家用新冠病毒抗原自我檢測套組,78,2022/05/06 14:30:02,快篩實名制，每天16:00開始販售，售完為止。
5939012615,佑全斗六慶生藥局,雲林縣斗六市慶生路２６號,120.5402,23.71281,(05)5372736,羅氏家用新冠病毒抗原自我檢測套組,5,2022/05/06 14:30:02,快篩實名制，下午兩點販售。
5939031763,皇安藥局,雲林縣虎尾鎮光復路３５２號,120.4373,23.71023,(05)6333291,羅氏家用新冠病毒抗原自我檢測套組,17,2022/05/06 14:30:02,5／6（五 ）下午2:15販售
5939031996,端發藥局,雲林縣虎尾鎮林森路一段３２９號,120.4368,23.71237,(05)6314168,羅氏家用新冠病毒抗原自我檢測套組,35,2022/05/06 14:30:02,販賣快篩時間:周一至周日08:30-賣完為止
5939040164,一元藥局,雲林縣西螺鎮福興路１７５號,120.4605,23.80032,(05)5879987,羅氏家用新冠病毒抗原自我檢測套組,11,2022/05/06 14:30:02,販賣快篩試劑時間14:00~售完為止
5939041705,祐祐藥局,雲林縣西螺鎮光復西路３６２號,120.4547,23.79624,(05)5878758,羅氏家用新冠病毒抗原自我檢測套組,1,2022/05/06 14:30:02,每日14:00開始販售，星期六、星期日沒有（無）販快篩試劑
5939041901,佑全西螺建興藥局,雲林縣西螺鎮建興路２４９號,120.4593,23.80042,(05)5883161,羅氏家用新冠病毒抗原自我檢測套組,29,2022/05/06 14:30:02,無
5939051185,土庫台丞藥局,雲林縣土庫鎮中正路１１２號,120.3901,23.67548,(05)6626677,羅氏家用新冠病毒抗原自我檢測套組,62,2022/05/06 14:30:02,實名制快篩販售時間下午14:30 ~售完為止
5939071294,元林中西藥局,雲林縣古坑鄉西平村西平路９－２號１樓,120.5606,23.64679,(05)5828229,羅氏家用新冠病毒抗原自我檢測套組,7,2022/05/06 14:30:02,販賣口罩時間：08:00
5939111220,台丞藥局,雲林縣二崙鄉中山路１２１號,120.4126,23.76987,(05)5985599,羅氏家用新冠病毒抗原自我檢測套組,67,2022/05/06 14:30:02,週日公休 實名制快篩下午2:30開賣，售完為止
5939121271,崙背台丞藥局,雲林縣崙背鄉建國路５６號,120.3548,23.76012,(05)6966789,羅氏家用新冠病毒抗原自我檢測套組,77,2022/05/06 14:30:02,週日公休，下午２：３０開賣，售完為止。
5939171093,和平藥局,雲林縣元長鄉下寮村東興路３３號,120.334,23.61849,(05)7862551,羅氏家用新冠病毒抗原自我檢測套組,11,2022/05/06 14:30:02,販賣口罩時間：0800開賣，賣完為止
5940031359,家寶藥局,嘉義縣大林鎮平林里中興路２６４號,120.4613,23.60269,(05)2649000,羅氏家用新冠病毒抗原自我檢測套組,44,2022/05/06 14:30:02,08:00~售罄
5940031368,溝背藥局,嘉義縣大林鎮義和里三塊厝７－７號,120.4859,23.61441,(05)2955878,羅氏家用新冠病毒抗原自我檢測套組,14,2022/05/06 14:30:02,快篩早上10點開始販賣，週日不販賣快篩.營業時間星期一至星期六0800-1200；1430-1930.星期日0800-1200，下午晚上休息.
5940040232,鈞安藥局,嘉義縣民雄鄉山中村１８７之５號,120.4103,23.51833,(05)2218622,羅氏家用新冠病毒抗原自我檢測套組,1,2022/05/06 14:30:02,上午7:00-晚上9:30，六日不定期休息
5940041622,大順藥局,嘉義縣民雄鄉福樂村埤角１３９號,120.44,23.52429,(05)2201138,羅氏家用新冠病毒抗原自我檢測套組,2,2022/05/06 14:30:02,快篩領取:星期一至日下午2點，售完為止
5940041748,大祐藥局,嘉義縣民雄鄉西安村西安路２１－１號１樓,120.4272,23.5564,(05)2067077,羅氏家用新冠病毒抗原自我檢測套組,17,2022/05/06 14:30:02,週日下午晚上休息
5940041784,福興瑞安藥局,嘉義縣民雄鄉東榮村東榮路１０號,120.4332,23.55743,(05)2265396,羅氏家用新冠病毒抗原自我檢測套組,19,2022/05/06 14:30:02,因物流配送時間不確定，每日實名制快篩販售時間請見Facebook粉絲專頁或goole maps貼文公告
5940121394,水上藥局,嘉義縣水上鄉水頭村中興路２６６號,120.4029,23.43014,(05)2601121,羅氏家用新冠病毒抗原自我檢測套組,78,2022/05/06 14:30:02,快篩實名制，每天16:00開始販售，售完為止。
5940131283,一心藥局,嘉義縣中埔鄉富收村頂中下街３１、３１－１號１樓,120.4885,23.45077,(05)2303553,羅氏家用新冠病毒抗原自我檢測套組,10,2022/05/06 14:30:02,無
5940141314,竹崎啄木鳥藥師藥局,嘉義縣竹崎鄉竹崎村中華路９２號,120.5481,23.52055,(05)2617786,羅氏家用新冠病毒抗原自我檢測套組,3,2022/05/06 14:30:02,09:00~售罄
5941040049,安安藥局,臺南市麻豆區興中路８８號,120.2507,23.18354,(06)5727475,羅氏家用新冠病毒抗原自我檢測套組,23,2022/05/06 14:30:02,營業時間：上午8:00-晚上10:00
5941061342,安麗兒藥局新化店,臺南市新化區忠孝路１１６之３號,120.3045,23.03802,(06)5986029,羅氏家用新冠病毒抗原自我檢測套組,4,2022/05/06 14:30:02,實名制快篩販售時間:星期一~星期日下午2點~售完
5941070154,嘉展藥師藥局,臺南市善化區坐駕里建國路４５號,120.2972,23.12766,(06)5839112,羅氏家用新冠病毒抗原自我檢測套組,78,2022/05/06 14:30:02,快篩販售一～五:（下午3:00）六（上午9 :00）
5941200045,慶豐綜合藥局,臺南市新市區新和里民生路５７號,120.2902,23.07882,(06)5014888,羅氏家用新冠病毒抗原自我檢測套組,2,2022/05/06 14:30:02,05／01起 每天下午2點 開始受理快篩試劑~售完為止 週日無販售
5941201161,安麗兒藥局新市店,臺南市新市區新和里中正路２６０號,120.2919,23.07716,(06)5012699,羅氏家用新冠病毒抗原自我檢測套組,27,2022/05/06 14:30:02,星期一至星期日下午2:00後至售完
5941270109,振裕藥局,臺南市仁德區二行里二行一路１６５號,120.2251,22.91949,(06)2661478,羅氏家用新冠病毒抗原自我檢測套組,75,2022/05/06 14:30:02,快篩販售時間14:30~16:30
5941271517,慧安藥師藥局,臺南市仁德區後壁里德糖路３８９號１樓,120.2534,22.95157,(06)2706638,羅氏家用新冠病毒抗原自我檢測套組,2,2022/05/06 14:30:02,快篩販售時間：下午13:00統一販售-售完為止
5941281362,安麗兒藥局,臺南市歸仁區辜厝里中山路二段７１號,120.2923,22.96681,(06)2399212,羅氏家用新冠病毒抗原自我檢測套組,32,2022/05/06 14:30:02,兩點開始
5941281488,德昌藥師藥局,臺南市歸仁區中山路一段５１６、５１８號,120.2951,22.96743,(06)3303533,羅氏家用新冠病毒抗原自我檢測套組,72,2022/05/06 14:30:02,14:30~售完
5941312540,維康藥局奇美店,臺南市永康區正新街６５號,120.2222,23.02018,(06)2814441,羅氏家用新冠病毒抗原自我檢測套組,26,2022/05/06 14:30:02,實名制快篩販賣時間:星期一至星期五早上9:00-12:00 下午1:30-5:00  星期六早上9:00-12:00   星期日休息
5942010812,一仁藥局,高雄市鳳山區自由路２００號,120.3495,22.62562,(07)7425004,羅氏家用新冠病毒抗原自我檢測套組,78,2022/05/06 14:30:02,實名快篩15:00 -20:00（售完為止）
5942011579,建保藥局,高雄市鳳山區八德路２８９號,120.3553,22.63856,(07)7762100,羅氏家用新冠病毒抗原自我檢測套組,3,2022/05/06 14:30:02,週一至週日14:00販賣快篩，售完為止! 週日營業至17:30
5942013797,北京藥局,高雄市鳳山區一甲里五甲二路３４２號１樓,120.3377,22.59963,(07)7117100,羅氏家用新冠病毒抗原自我檢測套組,15,2022/05/06 14:30:02,營業時間早上8點到下午11點，下午2點開始販售快篩
5942013804,長喜連鎖藥局,高雄市鳳山區鳳甲路４９２號,120.3462,22.59758,(07)7961070,羅氏家用新冠病毒抗原自我檢測套組,13,2022/05/06 14:30:02,快篩販賣周一~周六下午2:00 周日上午9:00~10:00
5942020130,建成藥局,高雄市岡山區台上里大仁路９７號,120.3016,22.8053,(07)6210458,羅氏家用新冠病毒抗原自我檢測套組,78,2022/05/06 14:30:02,營業日.販賣快篩劑.時間15:00-18:00.或至售完為止
5942050085,福安藥局,高雄市林園區東林里東林西路５１號,120.3953,22.50359,(07)6438833,羅氏家用新冠病毒抗原自我檢測套組,13,2022/05/06 14:30:02,下午14:00開始販售實名制快篩
5942061739,安泰專業藥局,高雄市大寮區鳳林三路８３５號,120.3901,22.61282,(07)7819515,羅氏家用新冠病毒抗原自我檢測套組,78,2022/05/06 14:30:02,每日14:45開始發號碼牌算人數至售完為止
5942081302,奇美藥局,高雄市仁武區文武里中華路４０號,120.3481,22.69788,(07)3757869,羅氏家用新冠病毒抗原自我檢測套組,27,2022/05/06 14:30:02,實名制快篩劑、14:00開始販售、售完為止。
5942081393,明曜藥局,高雄市仁武區灣內村仁雄路６－６號,120.3576,22.6831,(07)3736846,羅氏家用新冠病毒抗原自我檢測套組,8,2022/05/06 14:30:02,自2／11日~2／29日，營業日13:30為發號碼牌及過卡販賣口罩時間，售完為止
