醫事機構代碼,醫事機構名稱,醫事機構地址,經度,緯度,醫事機構電話,廠牌項目,快篩試劑截至目前結餘存貨數量,來源資料時間,備註
2331260016,新北市貢寮區衛生所,新北市貢寮區朝陽街７０巷１０號、新北市貢寮區仁愛路１２８號,121.9095,25.02258,(02)24901431,羅氏家用新冠病毒抗原自我檢測套組,156,2022/05/06 08:14:02,快篩試劑販售時間為周一至周五早上9點開始販售，每日販售一箱，數量有限售完為止。
2333070010,新竹縣橫山鄉衛生所,新竹縣橫山鄉大肚村３鄰新興街１４１巷１０號,121.1393,24.71756,(03)5932004,羅氏家用新冠病毒抗原自我檢測套組,78,2022/05/06 08:14:02,實名制快篩試劑販賣：週一至週五12：30~13：30
2333120015,新竹縣峨眉鄉衛生所,新竹縣峨眉鄉峨眉村峨眉街２鄰５號,121.0214,24.68842,(03)5800314,羅氏家用新冠病毒抗原自我檢測套組,78,2022/05/06 08:14:02,本所5月13日（五）下午眼科，自5月6日起販賣快篩試劑現場排隊12時至13時止，國定及例假日不賣
2333140017,新竹縣五峰鄉衛生所,新竹縣五峰鄉大隘村六鄰９９號,121.1194,24.63184,(03)5851005,羅氏家用新冠病毒抗原自我檢測套組,78,2022/05/06 08:14:02,無
2335110017,苗栗縣南庄鄉衛生所,苗栗縣南庄鄉東村大同路１７號,121,24.59733,(037)822024,羅氏家用新冠病毒抗原自我檢測套組,99,2022/05/06 08:14:02,口罩販賣時段:週一至週五上午8:00~下午5:00
2335150011,苗栗縣造橋鄉衛生所,苗栗縣造橋鄉造橋村１４鄰８－２號,120.8643,24.63672,(037)542755,羅氏家用新冠病毒抗原自我檢測套組,78,2022/05/06 08:14:02,實名制快篩試劑販賣時段：周一至周五08:20-12:00（每天限78份）；週六、日及國定假日無販售。
2335170013,苗栗縣獅潭鄉衛生所,苗栗縣獅潭鄉新店村１３０之６號,120.9201,24.53961,(037)931309,羅氏家用新冠病毒抗原自我檢測套組,78,2022/05/06 08:14:02,口罩販賣時段：08:30-16:00
2335180019,苗栗縣泰安鄉衛生所,苗栗縣泰安鄉清安村２鄰７２號,120.9083,24.44722,(037)941054,羅氏家用新冠病毒抗原自我檢測套組,70,2022/05/06 08:14:02,口罩販賣時段：星期一~五：8:30~15：00。
2340170016,嘉義縣大埔鄉衛生所,嘉義縣大埔鄉大埔村５３－１號,120.5928,23.29397,(05)2521214,羅氏家用新冠病毒抗原自我檢測套組,78,2022/05/06 08:14:02,無
2341250013,臺南市南化區衛生所,臺南市南化區南化里２２６－１號,120.4793,23.0444,(06)5771139,羅氏家用新冠病毒抗原自我檢測套組,78,2022/05/06 08:14:02,5／2（星期一）因中央尚未配送快篩試劑暫停販售!敬請見諒-依中央公告時間滾動式調整。
2342130010,高雄市田寮區衛生所,高雄市田寮區南安里崗北路３２號,120.3594,22.87301,(07)6361504,羅氏家用新冠病毒抗原自我檢測套組,156,2022/05/06 08:14:02,巡迴醫療:每星期一、四下午及每月第一個有上班的星期三下午巡迴醫療
2342250017,高雄市茂林區衛生所,高雄市茂林區茂林里茂林巷８－４號,120.6641,22.88641,(07)6801046,羅氏家用新冠病毒抗原自我檢測套組,190,2022/05/06 08:14:02,夜間急診，請先撥電話07-6801046
2342260013,高雄市桃源區衛生所,高雄市桃源區桃源里南進巷１８８－１號,120.7642,23.15845,(07)6861126,羅氏家用新冠病毒抗原自我檢測套組,174,2022/05/06 08:14:02,IDS提供24小時服務
2342270019,高雄市那瑪夏區衛生所,高雄市那瑪夏區瑪雅里６鄰平和巷２５２號,120.7024,23.24708,(07)6701142,羅氏家用新冠病毒抗原自我檢測套組,376,2022/05/06 08:14:02,春節期間正常門診
2343270013,屏東縣霧台鄉衛生所,屏東縣霧台鄉霧台村神山巷６８號,120.7261,22.74989,(08)7902232,羅氏家用新冠病毒抗原自我檢測套組,136,2022/05/06 08:14:02,無
2343280019,屏東縣瑪家鄉衛生所,屏東縣瑪家鄉北葉村風景巷８６號,120.6496,22.70801,(08)7991164,羅氏家用新冠病毒抗原自我檢測套組,51,2022/05/06 08:14:02,口罩販售時間:星期一至星期五8:30-12:00 13:00-16:30
2343300016,屏東縣來義鄉衛生所,屏東縣來義鄉古樓村中正路９０號,120.632,22.52584,(08)7850103,羅氏家用新冠病毒抗原自我檢測套組,48,2022/05/06 08:14:02,無
2343320018,屏東縣獅子鄉衛生所,屏東縣獅子鄉楓林村楓林二巷３１號,120.7057,22.18402,(08)8771324,羅氏家用新冠病毒抗原自我檢測套組,43,2022/05/06 08:14:02,特休日：每年農曆除夕、初一
2343330014,屏東縣牡丹鄉衛生所,屏東縣牡丹鄉石門村１９號,120.7469,22.10105,(08)8831013,羅氏家用新冠病毒抗原自我檢測套組,73,2022/05/06 08:14:02,無
2344011036,澎湖縣馬公市第三衛生所,澎湖縣馬公市西文里１１８之２號,119.5836,23.56813,(06)9211723,羅氏家用新冠病毒抗原自我檢測套組,44,2022/05/06 08:14:02,本所快篩試劑只提供離島衛生室（虎井、桶盤）販售，時間週一至週五08:30-17:00售完為止，星期六、日國定假日09:00-12:00。
2344030013,澎湖縣白沙鄉衛生所,澎湖縣白沙鄉赤崁村３５９號,119.5982,23.66669,(06)9931044,羅氏家用新冠病毒抗原自我檢測套組,57,2022/05/06 08:14:02,星期日上午門診看診（每月最後一個星期日休診）； 星期五上午巡迴醫療（中屯村，講美村，通樑村）
2344030022,澎湖縣白沙鄉鳥嶼衛生所,澎湖縣白沙鄉鳥嶼村漁港新村３號,119.6599,23.66008,(06)9916092,羅氏家用新冠病毒抗原自我檢測套組,151,2022/05/06 08:14:02,非上班時間提供急診服務
2344030031,澎湖縣白沙鄉吉貝衛生所,澎湖縣白沙鄉吉貝村８－１３號,119.6138,23.74056,(06)9911430,羅氏家用新冠病毒抗原自我檢測套組,71,2022/05/06 08:14:02,無
2344050015,澎湖縣望安鄉衛生所,澎湖縣望安鄉西安村３６－７號,119.4972,23.36161,(06)9991036,羅氏家用新冠病毒抗原自我檢測套組,142,2022/05/06 08:14:02,夜間急診。口罩、快篩試劑販售時間為:每日08:00-12:00、13:30-17:30售完為止，如有餘數為離島未售出（東嶼坪、花嶼）。
2344050024,澎湖縣望安鄉將軍衛生所,澎湖縣望安鄉將軍村１２鄰將軍澳１之３號,119.5216,23.3615,(06)9902066,羅氏家用新冠病毒抗原自我檢測套組,228,2022/05/06 08:14:02,24小時急診
2344060011,澎湖縣七美鄉衛生所,澎湖縣七美鄉中和村埔內５４號,119.431,23.2041,(06)9971005,羅氏家用新冠病毒抗原自我檢測套組,56,2022/05/06 08:14:02,無
2345080017,花蓮縣豐濱鄉衛生所,花蓮縣豐濱鄉豐濱村光豐路３９號,121.5215,23.60195,(03)8791156,羅氏家用新冠病毒抗原自我檢測套組,158,2022/05/06 08:14:02,*本院口罩每天販售，時間自上午8點至晚上9點  *本院週一至週五上下午皆有門診，星期六隔週提供門診，及24小時急診。
2345100014,花蓮縣富里鄉衛生所,花蓮縣富里鄉富里村中山路２０３號,121.2491,23.17847,(03)8831029,羅氏家用新冠病毒抗原自我檢測套組,234,2022/05/06 08:14:02,*內科:每週二下午東里玉蓮寺巡診 **牙科:每週二至卓溪醫療站***口罩販賣時間8:30起至11:00止
2345110010,花蓮縣秀林鄉衛生所,花蓮縣秀林鄉秀林村１２鄰秀林路８８號,121.6334,24.1269,(03)8612122,羅氏家用新冠病毒抗原自我檢測套組,156,2022/05/06 08:14:02,口罩代售時間上班日上午8:10至12時止（口罩限量故售完為止）
2345120016,花蓮縣萬榮鄉衛生所,花蓮縣萬榮鄉萬榮村１鄰１６號,121.4092,23.71558,(03)8751651,羅氏家用新冠病毒抗原自我檢測套組,156,2022/05/06 08:14:02,快篩試劑代售時間：週一至週五下午2點至下午4點，販售為止。
2345130012,花蓮縣卓溪鄉衛生所,花蓮縣卓溪鄉卓溪村中正路６５號,121.3033,23.33294,(03)8882592,羅氏家用新冠病毒抗原自我檢測套組,234,2022/05/06 08:14:02,快篩試劑代售時間：週一至週五上午8：30-11：00（售完即結束）
2346110014,台東縣綠島鄉衛生所,臺東縣綠島鄉中寮村１－１號,121.4696,22.67319,(089)672511,羅氏家用新冠病毒抗原自我檢測套組,133,2022/05/06 08:14:02,家用快篩實名制，販售時段為上午08:30至12:00，下午13:30至16:30（周一至周五），售完為止。）
2346120010,台東縣延平鄉衛生所,臺東縣延平鄉桃源村昇平路１１號,121.0855,22.90217,(089)561358,羅氏家用新冠病毒抗原自我檢測套組,78,2022/05/06 08:14:02,星期一至星期五上午8:00-11:00下午13:30-16:30販售快篩試劑現場一卡一號78號收完卡即完售，遇國定假日休息
2346130016,台東縣海端鄉衛生所,臺東縣海端鄉海端村３鄰２９號,121.1767,23.10094,(089)931391,羅氏家用新冠病毒抗原自我檢測套組,78,2022/05/06 08:14:02,星期一至星期五家用快篩試劑販售時間上午10點~12點（售完為止）
2346150018,台東縣金峰鄉衛生所,臺東縣金峰鄉賓茂村１鄰１４號,120.9606,22.53248,(089)772201,羅氏家用新冠病毒抗原自我檢測套組,156,2022/05/06 08:14:02,快篩試劑販售時間為星期一至星期五，早上8:30~12:00；下午1:30~5:00
2346160014,台東縣蘭嶼鄉衛生所,臺東縣蘭嶼鄉紅頭村３６號,121.5546,22.02493,(089)732575,羅氏家用新冠病毒抗原自我檢測套組,71,2022/05/06 08:14:02,販售口罩時間 星期一至星期五 8:00~12:00 13:30~17:30
2390040518,金門縣金寧鄉衛生所,金門縣金寧鄉盤山村仁愛新屯２之１號,118.3374,24.44479,(082)325735,羅氏家用新冠病毒抗原自我檢測套組,35,2022/05/06 08:14:02,購買快篩實名制週一至週五上班日上午8:00開始依排隊發放號碼牌，每日78份，售完即止
2391030016,連江縣莒光鄉西莒衛生所,連江縣莒光鄉青帆村１４－１號,119.9331,25.97157,(083)689122,羅氏家用新冠病毒抗原自我檢測套組,310,2022/05/06 08:14:02,防疫口罩星期一至五09:00-17:00、（六）09:00-12:00現場購買
2391030026,連江縣莒光鄉東莒衛生所,連江縣莒光鄉大坪村３０－１號,119.9731,25.96113,(083)689038,羅氏家用新冠病毒抗原自我檢測套組,523,2022/05/06 08:14:02,防疫口罩星期一至星期日上午10:00-12:00收取健保卡，下午3:30至本所領取口罩。
2391040012,連江縣東引鄉衛生所,連江縣東引鄉中柳村１２３號,120.4904,26.36701,(083)677206,羅氏家用新冠病毒抗原自我檢測套組,18,2022/05/06 08:14:02,防疫口罩每日10:00-12:00現場購買
5901010076,榮星藥局,臺北市松山區南京東路４段１３３巷５弄１號,121.5552,25.05214,(02)27124696,羅氏家用新冠病毒抗原自我檢測套組,12,2022/05/06 08:14:02,無
5901010165,傑安藥局,臺北市松山區八德路２段４３７巷７弄８號１樓,121.5473,25.04914,(02)27524155,羅氏家用新冠病毒抗原自我檢測套組,78,2022/05/06 08:14:02,9:30開始發號碼牌
5901012409,家音藥局,臺北市松山區民生東路５段７３號,121.5585,25.05871,(02)37652080,羅氏家用新冠病毒抗原自我檢測套組,36,2022/05/06 08:14:02,實名制快篩販售時段公告，請追蹤美康健保藥局 家音店 FB粉絲頁，謝謝~
5901012516,惠登藥局,臺北市松山區民生東路３段１３０巷３４號,121.5461,25.0562,(02)25472432,羅氏家用新冠病毒抗原自我檢測套組,60,2022/05/06 08:14:02,無
5901012561,松田藥局,臺北市松山區延吉街９－６號,121.5536,25.04701,(02)25798005,羅氏家用新冠病毒抗原自我檢測套組,78,2022/05/06 08:14:02,每日上午9:30開始實名制快篩販售
5901012570,予志藥局,臺北市松山區富錦街５２１號,121.5649,25.06119,(02)27623522,羅氏家用新冠病毒抗原自我檢測套組,78,2022/05/06 08:14:02,實名制快篩星期一到三下午2點、星期四到六晚上8點、星期日停售
5901012712,立康大藥局,臺北市松山區八德路四段２－１號,121.5581,25.04812,(02)27471749,羅氏家用新冠病毒抗原自我檢測套組,78,2022/05/06 08:14:02,快篩時間：周一～周五9:30-14:00，18:00-21:30。周六10:30-12:30，18:00-20:00。周日暫停販售。如有修正以店面公告為主
5901012749,躍獅松和藥局,臺北市松山區八德路四段６６６－１號,121.5761,25.04979,(02)27492569,羅氏家用新冠病毒抗原自我檢測套組,78,2022/05/06 08:14:02,實名制快篩販售時段，每日下午4點販售，售完為止
5901012767,晨新藥局,臺北市松山區八德路４段９１巷１－１號,121.5608,25.04894,(02)27422951,羅氏家用新冠病毒抗原自我檢測套組,78,2022/05/06 08:14:02,本店星期一不販售快篩，其餘時間為下午2點至5點。若有修正依店內公告為主。
5901012918,躍獅京華藥局,臺北市松山區南京東路５段７１號,121.5596,25.05172,(02)27666508,羅氏家用新冠病毒抗原自我檢測套組,45,2022/05/06 08:14:02,實名制快篩販售時間：每日早上09:00，無發放號碼牌
5901012963,綠之家藥局,臺北市松山區延壽街４２８號,121.5562,25.0562,(02)25289595,羅氏家用新冠病毒抗原自我檢測套組,78,2022/05/06 08:14:02,禮拜日不販售快篩
5901013095,康采藥局,臺北市松山區南京東路５段２９１巷１７－２號,121.5663,25.05236,(02)27670271,羅氏家用新冠病毒抗原自我檢測套組,31,2022/05/06 08:14:02,（已完售，庫存不準）快篩試劑每日16點販售，週日沒有販售
5901013148,唯康藥局,臺北市松山區八德路３段２１１號,121.5566,25.0482,(02)25775000,羅氏家用新冠病毒抗原自我檢測套組,1,2022/05/06 08:14:02,無
5901013362,啄木鳥藥局,臺北市松山區八德路４段２０９號、２１１號（１、２層）,121.564,25.04894,(02)27422413,羅氏家用新冠病毒抗原自我檢測套組,78,2022/05/06 08:14:02,無
5901013371,玖田藥局,臺北市松山區八德路４段６５５號,121.5755,25.05018,(02)27666578,羅氏家用新冠病毒抗原自我檢測套組,52,2022/05/06 08:14:02,實名制快篩：09:40開始，售完為止！
5901013380,澄馨藥局,臺北市松山區三民路３７號,121.5635,25.0558,(02)27420159,羅氏家用新冠病毒抗原自我檢測套組,74,2022/05/06 08:14:02,無
5901013399,一安正昇藥局,臺北市松山區南京東路５段３０９號,121.5667,25.05155,(02)27680993,羅氏家用新冠病毒抗原自我檢測套組,1,2022/05/06 08:14:02,快篩發放時間  下午14:30
5901013451,新德大藥局,臺北市松山區饒河街２０４號,121.577,25.05074,(02)27673402,羅氏家用新冠病毒抗原自我檢測套組,78,2022/05/06 08:14:02,周一至周六上午九點開賣；快篩實名制（周日休息）
5901013504,杏一台北長庚藥局,臺北市松山區敦化北路１９９巷２弄３號,121.55,25.05569,(02)25149463,羅氏家用新冠病毒抗原自我檢測套組,78,2022/05/06 08:14:02,無
5901013586,安禾大藥局,臺北市松山區撫遠街３８２號,121.5656,25.06443,(02)27602952,羅氏家用新冠病毒抗原自我檢測套組,1,2022/05/06 08:14:02,週一~週五 14:00發放號碼牌，65歲以上老人12歲以下兒童優先
5901013620,躍獅敦北藥局,臺北市松山區民生東路４段８０巷５號１樓,121.5531,25.05713,(02)27155691,羅氏家用新冠病毒抗原自我檢測套組,132,2022/05/06 08:14:02,實名制快篩販售時間PM14:30 本店會預留28份供及人大廈住戶購買 剩餘數量供現場民眾排隊購買（14:30開始販購）
5901013693,民生盛康藥局,臺北市松山區民生東路５段２０４號１樓,121.5648,25.05826,(02)27460758,羅氏家用新冠病毒抗原自我檢測套組,90,2022/05/06 08:14:02,【每日70分】每日早上9:00發號碼牌，14:00~20:00拿號碼牌回來領取，每人限1張號碼牌，逾時不候
5901020303,宏恩藥局,臺北市大安區大安路１段１８１號,121.5461,25.03619,(02)27000956,羅氏家用新冠病毒抗原自我檢測套組,1,2022/05/06 08:14:02,實名制快篩每周一~六，10:00發放號碼牌， 後於12:00~21:00自由擇時，持號碼牌領取快篩並收費
5901020385,延吉大藥局,臺北市大安區延吉街１５３號１樓,121.5548,25.04066,(02)27819227,羅氏家用新冠病毒抗原自我檢測套組,32,2022/05/06 08:14:02,無
5901020616,龍護大藥局,臺北市大安區大安路１段２２４巷７號１Ｆ,121.5454,25.03401,(02)23250686,羅氏家用新冠病毒抗原自我檢測套組,78,2022/05/06 08:14:02,無
5901020732,赫慶藥局,臺北市大安區瑞安街２０８巷１１弄５號１樓,121.5408,25.02866,(02)27063497,羅氏家用新冠病毒抗原自我檢測套組,77,2022/05/06 08:14:02,快篩代售時間：星期一至六上午9點開始，不發號碼牌，星期日停售
5901020858,順天堂藥局,臺北市大安區龍泉街９６號,121.5292,25.02256,(02)23627149,羅氏家用新冠病毒抗原自我檢測套組,78,2022/05/06 08:14:02,實名制快篩早上9:30開始發放，每日78份，發完為止。禮拜日公休
5901020876,大興藥局,臺北市大安區通化街３９巷５０弄１５號１樓,121.5555,25.03056,(02)27053369,羅氏家用新冠病毒抗原自我檢測套組,22,2022/05/06 08:14:02,快篩試劑販售時間自08:30開始，現場排隊。（週日休息）
5901021382,建如藥局,臺北市大安區和平東路３段２２８巷１１號１Ｆ,121.5543,25.02174,(02)27331456,羅氏家用新冠病毒抗原自我檢測套組,125,2022/05/06 08:14:02,8:00先領取號碼牌及收取健保卡 .9:00領回健保卡及快篩 星期日休息
5901023313,安和藥局,臺北市大安區安和路１段１０２巷３號,121.5519,25.03433,(02)27092349,羅氏家用新冠病毒抗原自我檢測套組,78,2022/05/06 08:14:02,平日下午三點開始販賣賣完 78份結束
5901024669,百岳藥局,臺北市大安區和平東路２段３１１巷１１號,121.5452,25.02514,(02)27551037,羅氏家用新冠病毒抗原自我檢測套組,78,2022/05/06 08:14:02,快篩試劑販售時間:周一至周五10:30~12:00止
5901024767,杏一樂業藥局,臺北市大安區樂業街１６２號,121.5535,25.01958,(02)27383194,羅氏家用新冠病毒抗原自我檢測套組,79,2022/05/06 08:14:02,快篩下午三點現場直接販售（不發號碼牌）
5901024838,昶青藥局,臺北市大安區濟南路３段２２之１號,121.5346,25.04008,(02)27515678,羅氏家用新冠病毒抗原自我檢測套組,24,2022/05/06 08:14:02,每天下午13:00販售快篩實名制
5901024918,康祥藥局,臺北市大安區忠孝東路４段２１６巷２１號,121.5531,25.04025,(02)27817891,羅氏家用新冠病毒抗原自我檢測套組,78,2022/05/06 08:14:02,星期天11:00-19:00
5901024954,佑全大安敦南藥局,臺北市大安區敦化南路２段６３巷４６號,121.5512,25.03089,(02)23257579,羅氏家用新冠病毒抗原自我檢測套組,78,2022/05/06 08:14:02,早上10點發放號碼牌，同時開始販賣實名制快篩
5901024981,專品六張犁藥局,臺北市大安區基隆路２段２１７號１樓,121.5513,25.02299,(02)87322226,羅氏家用新冠病毒抗原自我檢測套組,3,2022/05/06 08:14:02,無
5901025004,早安藥局,臺北市大安區建國南路２段１５１巷４２號１樓,121.5396,25.02865,(02)27002209,羅氏家用新冠病毒抗原自我檢測套組,69,2022/05/06 08:14:02,快篩早上9點發號碼牌留卡下午2點領取
5901090074,慈仁藥局,臺北市大同區歸綏街２６１號１樓,121.5101,25.05832,(02)25572733,羅氏家用新冠病毒抗原自我檢測套組,76,2022/05/06 08:14:02,平日營業至晚上6點，星期六營業至下午2點，星期日公休
5901090154,柯藥局,臺北市大同區重慶北路３段３３５巷６號,121.5144,25.07452,(02)25948515,羅氏家用新冠病毒抗原自我檢測套組,92,2022/05/06 08:14:02,库存已零如何歸零
5901090216,裕仁藥局,臺北市大同區迪化街２段２７０號－１,121.5115,25.07068,(02)25910064,羅氏家用新冠病毒抗原自我檢測套組,78,2022/05/06 08:14:02,無
5901090323,泰元藥局,臺北市大同區哈密街９１號,121.5146,25.07303,(02)25914592,羅氏家用新冠病毒抗原自我檢測套組,42,2022/05/06 08:14:02,無
5901091544,得意藥師藥局,臺北市大同區延平北路２段２２９號,121.5115,25.06029,(02)25534294,羅氏家用新冠病毒抗原自我檢測套組,7,2022/05/06 08:14:02,無
5901091820,富康藥局,臺北市大同區延平北路２段１２６號,121.5115,25.05733,(02)25537782,羅氏家用新冠病毒抗原自我檢測套組,78,2022/05/06 08:14:02,代售快篩早上9:00開始售完為止
5901091884,躍獅雙蓮藥局,臺北市大同區涼州街４號,121.5147,25.06078,(02)25537551,羅氏家用新冠病毒抗原自我檢測套組,78,2022/05/06 08:14:02,實名制快篩：平日週一～五 下午３點開賣 （六、日停售）
5901092087,躍獅文昌藥局,臺北市大同區民生西路１０８號（實際營業：一層）,121.5197,25.0574,(02)25586189,羅氏家用新冠病毒抗原自我檢測套組,78,2022/05/06 08:14:02,無
5901100066,名祥藥局,臺北市中山區龍江路１６６號,121.5403,25.05505,(02)25036265,羅氏家用新冠病毒抗原自我檢測套組,38,2022/05/06 08:14:02,實名制快篩代售時間為早上08:00＜售完為止＞
5901100155,大信藥局,臺北市中山區林森北路１５９巷６號,121.5255,25.0517,(02)25719080,羅氏家用新冠病毒抗原自我檢測套組,1,2022/05/06 08:14:02,無
5901100342,順泰藥局,臺北市中山區錦州街２６６號,121.5348,25.06025,(02)25038916,羅氏家用新冠病毒抗原自我檢測套組,1,2022/05/06 08:14:02,無
5901100628,貢玄藥局,臺北市中山區錦州街２０７號,121.532,25.06039,(02)25637847,羅氏家用新冠病毒抗原自我檢測套組,68,2022/05/06 08:14:02,早上10點~11點領口罩
5901101536,展佑藥局,臺北市中山區長春路１４６－１號,121.5317,25.05473,(02)25232803,羅氏家用新冠病毒抗原自我檢測套組,66,2022/05/06 08:14:02,快篩試劑上午11:30開賣，因郵差當日才配送，請勿事先排隊，週日休息!
5901101992,大愛藥師藥局,臺北市中山區吉林路２５５號１樓,121.5304,25.06165,(02)25424723,羅氏家用新冠病毒抗原自我檢測套組,78,2022/05/06 08:14:02,週一~週五13:55發放號碼牌14:00發放快篩，週六、週日休息
5901102444,啟美藥師藥局,臺北市中山區錦州街２８２號,121.5352,25.06024,(02)25178032,羅氏家用新冠病毒抗原自我檢測套組,78,2022/05/06 08:14:02,快篩 販售時間 20點開賣到21點，星期六日公休
5901102686,富宥康藥局,臺北市中山區北安路６０８巷５弄２２號,121.5496,25.08263,(02)25325277,羅氏家用新冠病毒抗原自我檢測套組,6,2022/05/06 08:14:02,無
5901103227,建誠中西藥局,臺北市中山區龍江路３８５之１號,121.541,25.06511,(02)25158608,羅氏家用新冠病毒抗原自我檢測套組,29,2022/05/06 08:14:02,實名制快篩發放時間 週一至週六13:00-14:00
5901103236,誠意中西藥局,臺北市中山區林森北路６１３號,121.5258,25.06647,(02)25950951,羅氏家用新冠病毒抗原自我檢測套組,82,2022/05/06 08:14:02,依情況調整
5901103334,大直小太陽藥局,臺北市中山區北安路６０７之１號,121.5488,25.08241,(02)85093208,羅氏家用新冠病毒抗原自我檢測套組,27,2022/05/06 08:14:02,無
5901103423,農安藥局,臺北市中山區農安街１８之１號,121.5248,25.06483,(02)25959293,羅氏家用新冠病毒抗原自我檢測套組,2,2022/05/06 08:14:02,快篩2點發號碼牌 3點後來拿
5901103558,佳頤中西藥局,臺北市中山區長春路１４７之１號,121.5323,25.05495,(02)25641479,羅氏家用新冠病毒抗原自我檢測套組,82,2022/05/06 08:14:02,實名制快篩販售時間為下午1點起，售完為止，其他販售細節以店內公告為主
5901103665,安悅藥局,臺北市中山區吉林路１８９號,121.5304,25.0597,(02)25419879,羅氏家用新冠病毒抗原自我檢測套組,71,2022/05/06 08:14:02,實名制快篩販售時間:早上11點~售完為止，不發號碼牌僅現場排隊（每周日不販售）
5901103736,杏一龍錦藥局,臺北市中山區龍江路２７９號１樓,121.5408,25.05973,(02)25174618,羅氏家用新冠病毒抗原自我檢測套組,156,2022/05/06 08:14:02,快篩提供時段週一到週六 9:00-12:00 週日不提供發放!!! 不發號碼牌 每日販售78人次 售完為止＞＜
5901103754,永育康暉藥局,臺北市中山區樂群二路２１０之２號１樓,121.5593,25.07952,(02)85012227,羅氏家用新冠病毒抗原自我檢測套組,1,2022/05/06 08:14:02,國定假日仍執行調劑業務
5901103772,興耀生活藥局,臺北市中山區林森北路４０５號（１樓）,121.5257,25.05943,(02)25818210,羅氏家用新冠病毒抗原自我檢測套組,67,2022/05/06 08:14:02,國定假日仍執行調劑業務
5901110268,赫得藥局,臺北市內湖區康樂街７２巷１７弄４號１Ｆ,121.6178,25.06976,(02)26328642,羅氏家用新冠病毒抗原自我檢測套組,78,2022/05/06 08:14:02,每周日公休。快篩試劑於周一至周六，早上8:30開賣（賣完為止）。
5901112593,康健藥局,臺北市內湖區康樂街８０號,121.6189,25.07015,(02)26305825,羅氏家用新冠病毒抗原自我檢測套組,79,2022/05/06 08:14:02,無
5901112726,高昱藥局,臺北市內湖區陽光街３２１巷２６號２樓之１５,121.5786,25.07236,(02)87519962,羅氏家用新冠病毒抗原自我檢測套組,22,2022/05/06 08:14:02,週六日預約
5901112780,樂康藥妝藥局,臺北市內湖區文德路１１７號,121.5841,25.0787,(02)26562110,羅氏家用新冠病毒抗原自我檢測套組,81,2022/05/06 08:14:02,無
5901112824,思恩藥局,臺北市內湖區成功路４段６１巷２６號,121.5932,25.08121,(02)27965808,羅氏家用新冠病毒抗原自我檢測套組,108,2022/05/06 08:14:02,快篩販售時間:禮拜一~五 14:00~17:00
5901112860,展恩藥局,臺北市內湖區民權東路６段１３６巷４號,121.5877,25.06866,(02)27953041,羅氏家用新冠病毒抗原自我檢測套組,156,2022/05/06 08:14:02,快篩試劑販售時間:每周一至周六早上9:00開始販售，現場排隊，售完為止.
5901113018,桔子藥局,臺北市內湖區內湖路２段３３３號,121.5917,25.08319,(02)27930052,羅氏家用新冠病毒抗原自我檢測套組,78,2022/05/06 08:14:02,早0900-1200，午1400-1700，晚1900-2100
5901113027,晟安藥局,臺北市內湖區金龍路１３５號,121.5902,25.08593,(02)87919320,羅氏家用新冠病毒抗原自我檢測套組,77,2022/05/06 08:14:02,快篩一~六早上10；00開始販售，星期日不營業
5901113367,瑞暉藥局,臺北市內湖區文德路１０５號,121.5837,25.0787,(02)26276828,羅氏家用新冠病毒抗原自我檢測套組,78,2022/05/06 08:14:02,營業時間: 09:00~22:00
5901113385,躍獅康成藥局,臺北市內湖區成功路４段６１巷１１號,121.5928,25.0814,(02)87922031,羅氏家用新冠病毒抗原自我檢測套組,78,2022/05/06 08:14:02,如有收到政府配送，實名制快篩13:40發號碼牌，14:00開賣。實名制口罩已無販售。
5901113401,躍獅麗湖藥局,臺北市內湖區內湖路１段４０１之１號,121.5706,25.08188,(02)26276160,羅氏家用新冠病毒抗原自我檢測套組,78,2022/05/06 08:14:02,實名制快篩 9點發號碼牌 12點後憑號碼牌購買
5901113563,耀元藥局,臺北市內湖區康樂街１５０號,121.6192,25.07263,(02)26337369,羅氏家用新冠病毒抗原自我檢測套組,78,2022/05/06 08:14:02,週一至週六實名制快篩下午兩點販售，依現場排隊順序購買，沒有發放號碼牌。週日無販售。特殊情況依現場公告為主。
5901113572,西湖藥局,臺北市內湖區內湖路１段３５５號,121.5693,25.0822,(02)26279291,羅氏家用新冠病毒抗原自我檢測套組,78,2022/05/06 08:14:02,國定假日不執行調劑業務
5901113590,維安藥局,臺北市內湖區成功路３段１７４巷２３號,121.5906,25.08143,(02)27944520,羅氏家用新冠病毒抗原自我檢測套組,78,2022/05/06 08:14:02,快篩每周一至六0930開賣，10點結束，視人數發號，每日固定78位，多的78為隔日庫存
5901113625,富康文德藥局,臺北市內湖區文德路２２巷２７弄４號,121.58,25.0766,(02)26272000,羅氏家用新冠病毒抗原自我檢測套組,46,2022/05/06 08:14:02,無
5901113652,加一藥師藥局,臺北市內湖區星雲街２４號１樓,121.5908,25.07804,(02)87912653,羅氏家用新冠病毒抗原自我檢測套組,167,2022/05/06 08:14:02,無
5901113741,原大藥局,臺北市內湖區內湖路１段７３７巷５０弄５號１樓,121.5788,25.08058,(02)26596358,羅氏家用新冠病毒抗原自我檢測套組,154,2022/05/06 08:14:02,9:00開賣快篩，不發號碼牌，現場售完為止。
5901121583,健園藥局,臺北市南港區研究院路１段１９號１樓,121.6166,25.05401,(02)27851567,羅氏家用新冠病毒抗原自我檢測套組,141,2022/05/06 08:14:02,早上8點開賣 （政府有配送的狀況下） 沒發放號碼牌售完為止
5901121823,儀安健保藥局,臺北市南港區同德路７４號,121.5853,25.0457,(02)27859893,羅氏家用新冠病毒抗原自我檢測套組,77,2022/05/06 08:14:02,實名制快篩下午三點開賣，無發放號碼牌（只有週日為晚上六點）
5901121841,泓安藥局,臺北市南港區興華路７５號,121.6061,25.05517,(02)27861083,羅氏家用新冠病毒抗原自我檢測套組,78,2022/05/06 08:14:02,星期一至星期日早上10:00開賣快篩試劑
5901121869,南港藥局,臺北市南港區南港路一段１６６號,121.6119,25.05536,(02)27829137,羅氏家用新冠病毒抗原自我檢測套組,78,2022/05/06 08:14:02,快篩販售時間晚上6:00~晚上8:00（每天78份，售完即止）（周日休息）
5901121912,成恩藥局,臺北市南港區成福路２３號,121.5867,25.04473,(02)27856602,羅氏家用新冠病毒抗原自我檢測套組,69,2022/05/06 08:14:02,快篩販賣時間：平日 週一到五 下午3:00~5:00
5901121985,勝安藥局,臺北市南港區舊莊街１段１６５號,121.6211,25.03949,(02)27828450,羅氏家用新冠病毒抗原自我檢測套組,36,2022/05/06 08:14:02,實名制快篩固定晚上21:00提供，現場排隊不分號碼牌 .5／5正常提供
5901122080,成福大藥局,臺北市南港區成福路８號,121.5859,25.04578,(02)27859221,羅氏家用新冠病毒抗原自我檢測套組,78,2022/05/06 08:14:02,無
5901150146,坤成泰藥局,臺北市士林區大南路４１２號,121.5162,25.08996,(02)28813903,羅氏家用新冠病毒抗原自我檢測套組,39,2022/05/06 08:14:02,實名制快篩販賣時間 早上9.30~12.00   下午2.00~6.00  賣完為止
5901150397,博惠藥局,臺北市士林區華榮街１６號,121.5236,25.09549,(02)28320379,羅氏家用新冠病毒抗原自我檢測套組,119,2022/05/06 08:14:02,（實名制快篩）週一至週六下午四點開始銷售，** 周日停售 **
5901150468,太安藥局,臺北市士林區延平北路５段１５７號,121.5101,25.08251,(02)28111468,羅氏家用新冠病毒抗原自我檢測套組,3,2022/05/06 08:14:02,5／6（五）實名制快篩恢復早上7:30開始販售 現場排隊 無號碼牌
5901150593,安寧藥局,臺北市士林區劍潭路９１號,121.5199,25.08285,(02)28803319,羅氏家用新冠病毒抗原自我檢測套組,156,2022/05/06 08:14:02,領藥星期1.3.5為 9:00~12:00.及16:00~20:00*星期2.4.6.--上午
5901152024,今欣藥局,臺北市士林區天母西路４１巷９號１樓,121.5274,25.11931,(02)28713129,羅氏家用新冠病毒抗原自我檢測套組,78,2022/05/06 08:14:02,快篩周一到周五每天早上10點開始販售，周日及國定假日休息
5901152079,資生堂藥局,臺北市士林區承德路４段４０巷１７號１Ｆ,121.522,25.08107,(02)28857588,羅氏家用新冠病毒抗原自我檢測套組,78,2022/05/06 08:14:02,今日快篩已售完
5901152471,得安藥局,臺北市士林區文林路１４０號,121.5267,25.08878,(02)28836336,羅氏家用新冠病毒抗原自我檢測套組,78,2022/05/06 08:14:02,星期三五六下午3:30---10:00   星期二 四日下午5:00--10:00
5901152640,仁大藥局,臺北市士林區社子街１３號１樓,121.5083,25.08769,(02)88113793,羅氏家用新冠病毒抗原自我檢測套組,156,2022/05/06 08:14:02,111.5.5.週四休息一日，販售時間:週一至週六上午配送到貨後開賣，時間不確定，通常10:30過後
5901152659,和樹藥局,臺北市士林區後港街４５巷１號１樓,121.5228,25.08444,(02)28821188,羅氏家用新冠病毒抗原自我檢測套組,78,2022/05/06 08:14:02,實名制快篩發放時間 依到貨時間發售
5901152686,三光藥局,臺北市士林區延平北路５段３２０號１樓,121.5096,25.08628,(02)28123786,羅氏家用新冠病毒抗原自我檢測套組,5,2022/05/06 08:14:02,無
5901152873,幸福藥局,臺北市士林區德行東路１０９巷８號,121.5284,25.10812,(02)28346650,羅氏家用新冠病毒抗原自我檢測套組,62,2022/05/06 08:14:02,Covid-19試劑販售時間:每日下午2點15分至下午5點販售（含星日（如果有貨））售完為止
5901153058,誼安藥局,臺北市士林區通河街４２號,121.5215,25.08044,(02)28851899,羅氏家用新冠病毒抗原自我檢測套組,39,2022/05/06 08:14:02,12至14:30午休.周日公休.實名制快篩:周一至周五17:00周六10點開始販售
5901153245,大東健保藥局,臺北市士林區大東路８６－４號,121.5257,25.09131,(02)28834672,羅氏家用新冠病毒抗原自我檢測套組,77,2022/05/06 08:14:02,實名制快篩販售以現場門口公告為主
5901153263,健揚藥局,臺北市士林區延平北路５段２５１號,121.5097,25.08483,(02)28163698,羅氏家用新冠病毒抗原自我檢測套組,1,2022/05/06 08:14:02,每日下午13:30開始販售
5901153674,愛佳藥局,臺北市士林區承德路４段２２２之１號,121.5215,25.0885,(02)28811199,羅氏家用新冠病毒抗原自我檢測套組,156,2022/05/06 08:14:02,實名制快篩平日一~五下午5:00販售，假日（六、日）不販售
5901153709,全予藥局,臺北市士林區德行東路２２１號,121.5329,25.10938,(02)28386955,羅氏家用新冠病毒抗原自我檢測套組,78,2022/05/06 08:14:02,實名制快篩販售時間為周一至周六上午11點， 周日公休
5901153727,前港盛康藥局,臺北市士林區前港街２８號,121.522,25.0846,(02)28831079,羅氏家用新冠病毒抗原自我檢測套組,74,2022/05/06 08:14:02,實名制快篩5／5 上午9點開始販售
5901153905,躍獅芝山藥局,臺北市士林區福華路１５４號（實際使用：１樓）,121.5227,25.10357,(02)28365822,羅氏家用新冠病毒抗原自我檢測套組,49,2022/05/06 08:14:02,無
5901154019,忠義台安藥局,臺北市士林區忠義街７２號１樓,121.5315,25.106,(02)28380685,羅氏家用新冠病毒抗原自我檢測套組,76,2022/05/06 08:14:02,下午2點開始販售快篩試劑
5901154028,向宇藥局,臺北市士林區德行東路２１７號１樓,121.5328,25.10935,(02)88661101,羅氏家用新冠病毒抗原自我檢測套組,78,2022/05/06 08:14:02,無
5901154073,中山盛康藥局,臺北市士林區中山北路７段１６２號１樓,121.5327,25.12416,(02)28771887,羅氏家用新冠病毒抗原自我檢測套組,78,2022/05/06 08:14:02,實名制快篩早上9:00-12:00發放號碼牌
5901154108,藥本家藥局,臺北市士林區中山北路７段１４巷２６號１樓,121.5328,25.11884,(02)28766682,羅氏家用新冠病毒抗原自我檢測套組,21,2022/05/06 08:14:02,無
5901160053,天蓮藥局,臺北市北投區石牌路１段１６６巷１１５號,121.5155,25.11192,(02)28211824,羅氏家用新冠病毒抗原自我檢測套組,78,2022/05/06 08:14:02,5／6週五補發5／2的快篩共136份， 8:45開始發，晚上7點發20份
5901160099,進春藥局,臺北市北投區明德路１５１號,121.5206,25.11086,(02)28216938,羅氏家用新冠病毒抗原自我檢測套組,63,2022/05/06 08:14:02,無休 上午九點開始販售，現場排隊。（依現場公告為主）
5901160142,德昇藥局,臺北市北投區裕民二路２０號,121.517,25.11604,(02)28217565,羅氏家用新冠病毒抗原自我檢測套組,1,2022/05/06 08:14:02,週一至週五下午 2:30分 實名制快篩現場排隊發售
5901160277,建民藥局,臺北市北投區光明路１６１號,121.5027,25.13538,(02)28912339,羅氏家用新冠病毒抗原自我檢測套組,18,2022/05/06 08:14:02,快篩實名制星期一至星期六早上十點開始 （依現場公告為主）
5901160428,九福藥局,臺北市北投區公館路２３６號,121.5081,25.12612,(02)28953009,羅氏家用新冠病毒抗原自我檢測套組,78,2022/05/06 08:14:02,★週日店休未營業. 快篩下午1點發號碼牌
5901160562,名山藥局,臺北市北投區東陽街４７５號１樓,121.5199,25.11231,(02)28226101,羅氏家用新冠病毒抗原自我檢測套組,78,2022/05/06 08:14:02,快篩試劑早上08:30販賣，先拿號碼牌，早上10；00前過卡，逾時放棄
5901162173,小明藥局,臺北市北投區中央南路１段６９號２樓,121.5014,25.13145,(02)28928950,羅氏家用新冠病毒抗原自我檢測套組,7,2022/05/06 08:14:02,快篩實名制購買時間:週一至週六早上8:00-9:00，9點後系統顯示尚有庫存，為隔日販售的量，請勿再來電詢問，謝謝!
5901162306,上頤藥局,臺北市北投區中和街３２７號１樓,121.4997,25.14097,(02)28981230,羅氏家用新冠病毒抗原自我檢測套組,463,2022/05/06 08:14:02,無
5901162806,大家藥局,臺北市北投區光明路１８２號,121.5033,25.13566,(02)28959000,羅氏家用新冠病毒抗原自我檢測套組,78,2022/05/06 08:14:02,快篩早上9點開賣 售完為止 沒有號碼牌 現場排隊
5901162833,維康藥局,臺北市北投區石牌路２段１９１．１９３號,121.5184,25.11874,(02)28206343,羅氏家用新冠病毒抗原自我檢測套組,5,2022/05/06 08:14:02,快篩發放時間為每日下午3點排隊，現場購賣
5901162879,杏嘉藥局,臺北市北投區清江路６８號,121.5017,25.13044,(02)28942585,羅氏家用新冠病毒抗原自我檢測套組,59,2022/05/06 08:14:02,販售實名制快篩時間為營業時間內，售完為止
5901163107,小豬藥局,臺北市北投區東陽街４０３號１樓,121.5176,25.11244,(02)28217099,羅氏家用新冠病毒抗原自我檢測套組,88,2022/05/06 08:14:02,星期六.星期日不販售
5901163214,鴻恩藥局,臺北市北投區中央南路１段１２９號,121.5012,25.13015,(02)28926410,羅氏家用新冠病毒抗原自我檢測套組,78,2022/05/06 08:14:02,快篩試劑代售時間自08:30 ，現場排隊
5901163465,振生大藥局,臺北市北投區中央北路３段６１號,121.4847,25.13785,(02)28977292,羅氏家用新冠病毒抗原自我檢測套組,78,2022/05/06 08:14:02,早上9點開始販售
5901163536,天富大藥局,臺北市北投區石牌路２段１７１號（實際使用：１樓）,121.518,25.11848,(02)28225812,羅氏家用新冠病毒抗原自我檢測套組,51,2022/05/06 08:14:02,週一至週六下午2-3點直接販售；週日暫停販售
5901163554,良哲藥局,臺北市北投區明德路１５７－４號（實際使用：１樓）,121.5209,25.11129,(02)28285516,羅氏家用新冠病毒抗原自我檢測套組,1,2022/05/06 08:14:02,實名制快篩販售時間：早上 9:00~9:30／下午 2:30~3:00（週六人力不足不販售／週日休息）
5901163563,躍獅光明藥局,臺北市北投區光明路５１號、５３號（實際使用：１樓）,121.4998,25.13286,(02)28915993,羅氏家用新冠病毒抗原自我檢測套組,1,2022/05/06 08:14:02,1.早上9:30發號碼牌.核對健保卡 2.等快篩到貨才開始賣，到貨時間不確定3.有號碼牌者請在晚上8點前領取，逾期作廢
5901163581,陳藥師藥局,臺北市北投區光明路２巷１３－２號（實際使用：１樓）,121.4997,25.13132,(02)28921971,羅氏家用新冠病毒抗原自我檢測套組,4,2022/05/06 08:14:02,無
5901163634,心樂藥局,臺北市北投區致遠一路２段１０５號１樓,121.5128,25.1131,(02)28210261,羅氏家用新冠病毒抗原自我檢測套組,40,2022/05/06 08:14:02,早上8:30-12:00， 下午4:00-7:00，國定假日休息
5901170139,福華藥局,臺北市信義區吳興街２８１巷３號１樓,121.5643,25.02656,(02)27208527,羅氏家用新冠病毒抗原自我檢測套組,78,2022/05/06 08:14:02,現階段下午1:30配合政府發售快篩試劑
5901170184,臺陽藥局,臺北市信義區大道路６１號,121.5823,25.04136,(02)27283403,羅氏家用新冠病毒抗原自我檢測套組,78,2022/05/06 08:14:02,快篩試劑早上9:30現場販售，週日沒有販售
5901170915,杏仁藥局,臺北市信義區大道路１３５號,121.5834,25.03901,(02)27262541,羅氏家用新冠病毒抗原自我檢測套組,57,2022/05/06 08:14:02,實名制快篩:週一至週五下午3點販售，週六週日無販售
5901172544,麗中藥局,臺北市信義區福德街２１７號,121.5847,25.03841,(02)27594416,羅氏家用新冠病毒抗原自我檢測套組,156,2022/05/06 08:14:02,無
5901172651,康杏藥局,臺北市信義區福德街３０６號１樓,121.5874,25.03931,(02)27591510,羅氏家用新冠病毒抗原自我檢測套組,79,2022/05/06 08:14:02,無
5901172697,綠杏大藥局,臺北市信義區吳興街２４１號,121.5635,25.02745,(02)27582378,羅氏家用新冠病毒抗原自我檢測套組,106,2022/05/06 08:14:02,因快篩未及時到貨，5／1（日） 、5／2（一）暫停公費快篩購買兩天
5901172704,鴻濟藥局,臺北市信義區永吉路３２６巷２號１樓,121.5754,25.04507,(02)27645331,羅氏家用新冠病毒抗原自我檢測套組,49,2022/05/06 08:14:02,快篩販售時間:周一至周五: 15:00開始。週六.周日:視實際到貨情形請見門口公告
5901172740,信桉藥局,臺北市信義區莊敬路２３６號,121.5621,25.0296,(02)87860005,羅氏家用新冠病毒抗原自我檢測套組,234,2022/05/06 08:14:02,快篩販售 W1-5 11:00-20:00，W6 11:00-15:00
5901172820,安心藥局,臺北市信義區永吉路３０巷１４８弄４之１號,121.5685,25.04266,(02)27474992,羅氏家用新冠病毒抗原自我檢測套組,1,2022/05/06 08:14:02,快篩代售時間14:00起現場排隊
5901172964,榮泰藥局,臺北市信義區光復南路４１９巷１９號,121.5582,25.03659,(02)77296777,羅氏家用新冠病毒抗原自我檢測套組,89,2022/05/06 08:14:02,早上9:00開始發放實名制快篩號碼牌
5901173041,皇昇大藥局,臺北市信義區松山路２１０號１樓,121.5776,25.04509,(02)27663488,羅氏家用新冠病毒抗原自我檢測套組,5,2022/05/06 08:14:02,周一至週五下午3點開始販售實名制快篩
5901173210,濟生中西藥局,臺北市信義區崇德街４１號,121.5542,25.02436,(02)27358452,羅氏家用新冠病毒抗原自我檢測套組,40,2022/05/06 08:14:02,最新資訊FB:Jcp濟生中西藥局＃口罩:每天早8點開始＃營業時間:星期1245:早9點~晚8點 星期36:早9點~中午12點（中午休12-15點）
5901173372,新永春藥局,臺北市信義區忠孝東路５段４２３巷１號,121.5753,25.04126,(02)27667385,羅氏家用新冠病毒抗原自我檢測套組,74,2022/05/06 08:14:02,快篩販售時間:每日13:00開始，售完為止
5901173407,康怡健保藥局,臺北市信義區吳興街４６７巷２弄１２號,121.5695,25.02381,(02)27206193,羅氏家用新冠病毒抗原自我檢測套組,2,2022/05/06 08:14:02,快篩早上9點開賣，賣完為止
5901173587,新興健保藥局,臺北市信義區永吉路３０巷１１３號,121.5689,25.04324,(02)27494892,羅氏家用新冠病毒抗原自我檢測套組,7,2022/05/06 08:14:02,無
5901173738,尚頤中西藥局,臺北市信義區虎林街１４５號,121.5767,25.03959,(02)27253818,羅氏家用新冠病毒抗原自我檢測套組,79,2022/05/06 08:14:02,無
5901173818,博亞藥局,臺北市信義區莊敬路４６２號,121.5677,25.02672,(02)27580506,羅氏家用新冠病毒抗原自我檢測套組,78,2022/05/06 08:14:02,平日早上8:30、晚上8:00；假日早上8:30，發放號碼牌，持號碼牌購買!
5901173845,躍獅永吉藥局,臺北市信義區永吉路５２０號,121.5804,25.04521,(02)27658924,羅氏家用新冠病毒抗原自我檢測套組,56,2022/05/06 08:14:02,發放快篩時間為 9:30-10:30 （39人次） 20:30-21:30 （39人次） 星期日停發
5901173934,躍獅光復藥局,臺北市信義區光復南路４１７之８號,121.5577,25.03682,(02)87862307,羅氏家用新冠病毒抗原自我檢測套組,74,2022/05/06 08:14:02,下午1點開始販售
5901173943,躍獅興雅藥局,臺北市信義區松德路１２８號,121.5745,25.03734,(02)87808429,羅氏家用新冠病毒抗原自我檢測套組,78,2022/05/06 08:14:02,14:00發號碼牌且同步開賣快篩，販賣至15:00或售完為止，週日無販售。
5901173961,北一忠孝藥局,臺北市信義區忠孝東路５段５２４巷１弄１６號１樓,121.5802,25.04133,(02)23464588,羅氏家用新冠病毒抗原自我檢測套組,78,2022/05/06 08:14:02,實名制快篩一~六販早上10點販售，周日不販售
5901174075,信義盛康藥局,臺北市信義區永吉路２８６號（１樓）,121.5744,25.04538,(02)23460521,羅氏家用新冠病毒抗原自我檢測套組,78,2022/05/06 08:14:02,無
5901180126,民生藥局,臺北市中正區濟南路２段４５－１號１樓,121.5305,25.0406,(02)23416470,羅氏家用新冠病毒抗原自我檢測套組,78,2022/05/06 08:14:02,4／15 公休無售口罩
5901180215,上海聯合藥局,臺北市中正區衡陽路３２號１樓,121.5126,25.04221,(02)23117744,羅氏家用新冠病毒抗原自我檢測套組,1,2022/05/06 08:14:02,無
5901180224,中心藥局,臺北市中正區汀州路３段１２１號,121.5303,25.01654,(02)23689889,羅氏家用新冠病毒抗原自我檢測套組,1,2022/05/06 08:14:02,實名制快篩因物流貨運配送調度，調整領取時間延後至下午3點
5901182068,永興藥局,臺北市中正區汀州路１段９２巷２８號,121.5068,25.02999,(02)23050986,羅氏家用新冠病毒抗原自我檢測套組,117,2022/05/06 08:14:02,無
5901183510,怡誠藥局,臺北市中正區汀州路２段２１２號,121.5237,25.02236,(02)23626905,羅氏家用新冠病毒抗原自我檢測套組,154,2022/05/06 08:14:02,無
5901183645,大愛生活藥局,臺北市中正區汀州路２段２３２號,121.5243,25.02189,(02)23661155,羅氏家用新冠病毒抗原自我檢測套組,56,2022/05/06 08:14:02,下午14:30開始發放快篩（不發號碼牌直接買）~~不要太早開始排隊啊啊啊啊
5901184080,活力健康藥妝藥局,臺北市中正區中華路２段３１５巷１號,121.5062,25.02795,(02)23392625,羅氏家用新冠病毒抗原自我檢測套組,10,2022/05/06 08:14:02,無
5901184106,信康藥局,臺北市中正區南昌路１段１４３號,121.5186,25.02953,(02)23961979,羅氏家用新冠病毒抗原自我檢測套組,5,2022/05/06 08:14:02,14:00開始販售實名制快篩
5901184213,71恩典藥局,臺北市中正區信義路２段７１號,121.5264,25.03466,(02)23223371,羅氏家用新冠病毒抗原自我檢測套組,82,2022/05/06 08:14:02,快篩販售時間：◆週一到週五19:00 ◆週六17:00，十分鐘前發號碼牌
5901184473,中力藥局,臺北市中正區襄陽路１３之５號、１５號,121.5155,25.04349,(02)23313768,羅氏家用新冠病毒抗原自我檢測套組,78,2022/05/06 08:14:02,實名制快篩 販售時間：09:30~售完為止
5901184535,桐心藥局,臺北市中正區金華街１８之６號１樓,121.5202,25.03175,(02)23581663,羅氏家用新冠病毒抗原自我檢測套組,9,2022/05/06 08:14:02,無
5901184606,躍獅南寧藥局,臺北市中正區南昌路１段８１號,121.5178,25.03057,(02)23967072,羅氏家用新冠病毒抗原自我檢測套組,78,2022/05/06 08:14:02,上午10點售實名制快篩
5901184633,躍獅東門藥局,臺北市中正區金山南路１段１０８之１號（１樓）,121.5273,25.03538,(02)23920339,羅氏家用新冠病毒抗原自我檢測套組,34,2022/05/06 08:14:02,5／5銷售時間已結束。5／6下午兩點開始販售，不提早發放號碼牌
5901184642,康呈安藥局,臺北市中正區汀州路２段１８７號１樓,121.522,25.02403,(02)23672215,羅氏家用新冠病毒抗原自我檢測套組,2,2022/05/06 08:14:02,每天下午3點才發放快篩
5901184713,建祥武昌藥局,臺北市中正區武昌街１段２９號１樓,121.5121,25.04416,(02)23314038,羅氏家用新冠病毒抗原自我檢測套組,78,2022/05/06 08:14:02,無
5901190033,世欣藥局,臺北市萬華區東園街１７３號１Ｆ,121.4973,25.02419,(02)23074263,羅氏家用新冠病毒抗原自我檢測套組,3,2022/05/06 08:14:02,防疫快篩劑服務時間週一至五14:00-16:00週六10:00-12:00
5901190079,建和藥局,臺北市萬華區青年路１６８巷４４號,121.5016,25.01987,(02)23010838,羅氏家用新冠病毒抗原自我檢測套組,63,2022/05/06 08:14:02,春節期間看診時段請電洽
5901190177,信昌藥局,臺北市萬華區長泰街３６號１樓,121.5007,25.02336,(02)23054898,羅氏家用新冠病毒抗原自我檢測套組,35,2022/05/06 08:14:02,快篩實名制販售時間:週一~週日9:00起售完為止
5901190668,聯慶大藥局,臺北市萬華區萬大路３０６號１樓,121.5003,25.02495,(02)23039850,羅氏家用新冠病毒抗原自我檢測套組,1,2022/05/06 08:14:02,無
5901192546,躍獅西園藥局,臺北市萬華區西園路２段２６０號,121.4946,25.02784,(02)23094063,羅氏家用新冠病毒抗原自我檢測套組,78,2022/05/06 08:14:02,快篩販售時段：下午2點至售完為止（政府正常配貨的情況下，現場排隊）
5901193070,榮勝藥局,臺北市萬華區萬大路２３３號,121.5006,25.02649,(02)23331121,羅氏家用新冠病毒抗原自我檢測套組,78,2022/05/06 08:14:02,每日快篩早上十一點開始販售 週日無提供販售
5901193105,安誠貴陽藥局,臺北市萬華區貴陽街２段１４８號,121.5016,25.04017,(02)23812190,羅氏家用新冠病毒抗原自我檢測套組,156,2022/05/06 08:14:02,無
5901193169,柏祥藥局,臺北市萬華區西藏路１４１號,121.5017,25.02944,(02)23018272,羅氏家用新冠病毒抗原自我檢測套組,24,2022/05/06 08:14:02,1快篩服務時間pm6:00起售完截止。2販售詳情請見門口公告。3周日公休不販售。
5901193196,青年宏越藥局,臺北市萬華區青年路４４號,121.5042,25.0255,(02)23011037,羅氏家用新冠病毒抗原自我檢測套組,110,2022/05/06 08:14:02,快篩六日不販售，禮拜一~五下午2:30-3:30，現場排隊
5901193221,正盛藥局,臺北市萬華區中華路２段４３４－１號,121.5064,25.02708,(02)23050386,羅氏家用新冠病毒抗原自我檢測套組,70,2022/05/06 08:14:02,1.快篩一~六20點，周日不賣 2.目前排隊人潮多，建議7點左右提前候位 3.詳情請看門口公告或板橋正康總店臉書
5901193301,富安藥局,臺北市萬華區萬大路４２６號,121.4981,25.02096,(02)23377878,羅氏家用新冠病毒抗原自我檢測套組,78,2022/05/06 08:14:02,快篩實名制：一人一卡，現場排隊，售完為止。【5／3早上暫停販售，販售時間待更新！】
5901193329,西園宏越藥局,臺北市萬華區西園路２段２１３號,121.4942,25.02714,(02)23097336,羅氏家用新冠病毒抗原自我檢測套組,78,2022/05/06 08:14:02,實名制快篩下午4點~5點販售
5901200105,建興藥局,臺北市文山區木柵路２段８１號１樓,121.561,24.98889,(02)29399993,羅氏家用新冠病毒抗原自我檢測套組,65,2022/05/06 08:14:02,星期一至星期日早上8時30分現場販售實名制快篩試劑
5901200141,景美藥局,臺北市文山區景文街１２５號,121.5412,24.99033,(02)29335741,羅氏家用新冠病毒抗原自我檢測套組,78,2022/05/06 08:14:02,無
5901200490,永明大藥局,臺北市文山區興隆路１段２９７號１樓,121.5449,24.99875,(02)29314428,羅氏家用新冠病毒抗原自我檢測套組,78,2022/05/06 08:14:02,每日下午2點50發放號碼牌，3點進行快篩販售，6點前未領取視同放棄，限一人一卡一份。
5901200534,日信專業藥局,臺北市文山區木柵路２段１３９號１樓,121.5625,24.98906,(02)86618322,羅氏家用新冠病毒抗原自我檢測套組,78,2022/05/06 08:14:02,周一~周六早上8:30開始販售實名制快篩
5901201568,康宜庭生活藥局,臺北市文山區興隆路４段６４號,121.5613,24.98514,(02)29385363,羅氏家用新冠病毒抗原自我檢測套組,9,2022/05/06 08:14:02,實名快篩14:00開賣 現場排隊
5901201826,舒博威藥局,臺北市文山區興隆路２段９５巷３號,121.547,24.99952,(02)29306805,羅氏家用新冠病毒抗原自我檢測套組,214,2022/05/06 08:14:02,早上8:30開始販售
5901202627,杏隆藥局,臺北市文山區羅斯福路５段２６１號,121.5395,25.00115,(02)29313151,羅氏家用新冠病毒抗原自我檢測套組,78,2022/05/06 08:14:02,快篩實名制採預約登記，至5／14已登記額滿。
5901202789,宜康藥局,臺北市文山區保儀路７號,121.5686,24.98872,(02)86619862,羅氏家用新冠病毒抗原自我檢測套組,26,2022/05/06 08:14:02,快篩平日下午一點半開始販售，國定假日及週末沒有販售
5901202949,萬隆大藥局,臺北市文山區羅斯福路５段２１８巷１５號,121.538,25.00203,(02)29334580,羅氏家用新冠病毒抗原自我檢測套組,79,2022/05/06 08:14:02,9：00~23：00
5901203044,木新健康人生藥局,臺北市文山區木新路３段２０３號,121.5598,24.9814,(02)86611465,羅氏家用新冠病毒抗原自我檢測套組,78,2022/05/06 08:14:02,10:00~21:00；13:45發號碼牌，14點發放快篩
5901203204,躍獅新芳藥局,臺北市文山區興隆路３段１６號（實際營業地址：１樓）,121.5549,25.00062,(02)29308172,羅氏家用新冠病毒抗原自我檢測套組,78,2022/05/06 08:14:02,早上九點開始販售實名制快篩，售完為止
5902021377,藍玉藥局,高雄市鼓山區鼓峰里九如四路２００２號,120.2861,22.66774,(07)5837528,羅氏家用新冠病毒抗原自我檢測套組,73,2022/05/06 08:14:02,賣口罩時間：周一至週五早上9:30起，售完為止。
5902022801,裕康中西大藥局,高雄市鼓山區裕誠路１５１９號,120.2951,22.66479,(07)5555352,羅氏家用新冠病毒抗原自我檢測套組,67,2022/05/06 08:14:02,藥局販售口罩時間，依藥局門口公告時間為主（售完為止）
5902030063,紅心藥局,高雄市左營區崇德路２５５號,120.3041,22.67535,(07)3416697,羅氏家用新冠病毒抗原自我檢測套組,18,2022/05/06 08:14:02,早上8點30賣快篩到完
5902030090,宏仁藥局,高雄市左營區左營大路３９０號,120.2932,22.68702,(07)5817895,羅氏家用新冠病毒抗原自我檢測套組,57,2022/05/06 08:14:02,口罩代售時間自早上10:00開始，售完為止。
5902030269,立文藥局,高雄市左營區立文路５４號,120.3058,22.66458,(07)5572899,羅氏家用新冠病毒抗原自我檢測套組,62,2022/05/06 08:14:02,0
5902030287,慈德藥局,高雄市左營區重愛路５３號,120.3186,22.68308,(07)3416212,羅氏家用新冠病毒抗原自我檢測套組,64,2022/05/06 08:14:02,快篩發放時間:週一至周六:上午9點至12點.週日下午2點半至5點；請自備剛好的錢.不用找錢.以利流程
5902030312,吉辰藥局,高雄市左營區左營大路４１之１號,120.2876,22.68109,(07)5815069,羅氏家用新冠病毒抗原自我檢測套組,78,2022/05/06 08:14:02,早上9點開賣口罩   賣完為止
5902030410,重仁藥局,高雄市左營區左營大路４０８號,120.2935,22.68725,(07)5824083,羅氏家用新冠病毒抗原自我檢測套組,29,2022/05/06 08:14:02,自2／11日~2／29日，營業日08:00~22:30為販賣口罩時間.售完為止
5902030634,有機藥局,高雄市左營區榮耀街３號,120.3216,22.67935,(07)3596429,羅氏家用新冠病毒抗原自我檢測套組,2,2022/05/06 08:14:02,平日:7:40~22:00 六:08:00~22:00 星期日公休
5902031999,平安藥局,高雄市左營區中華一路５之１號,120.287,22.66961,(07)5833688,羅氏家用新冠病毒抗原自我檢測套組,56,2022/05/06 08:14:02,週一~週六上午:8:00~12:00，下午:4:00~9:00， 週日例假日晚上6:00~9:00
5902032441,健怡藥局,高雄市左營區翠峰路４０號,120.2897,22.67229,(07)5821891,羅氏家用新冠病毒抗原自我檢測套組,61,2022/05/06 08:14:02,快篩星期一~星期六每天早上8:10開始販售
5902032450,可達藥局,高雄市左營區榮德街１７７號,120.3205,22.68359,(07)3420182,羅氏家用新冠病毒抗原自我檢測套組,76,2022/05/06 08:14:02,快篩販售時間週一～週五早上9點～11點。
5902040532,聯亞藥局,高雄市楠梓區軍校路７１０號,120.293,22.70779,(07)3638387,羅氏家用新冠病毒抗原自我檢測套組,79,2022/05/06 08:14:02,到貨開始販售 1200-1500休息
5902042769,家安藥局,高雄市楠梓區後昌新路１３號１樓,120.2917,22.71844,(07)3600066,羅氏家用新冠病毒抗原自我檢測套組,61,2022/05/06 08:14:02,無
5902050298,瑞鶴藥局,高雄市三民區寶德里義德路２５號,120.3352,22.64301,(07)3862757,羅氏家用新冠病毒抗原自我檢測套組,24,2022/05/06 08:14:02,下午2:00至4:30午休勿擾，每日09:30至21:30發售快篩。
5902050350,日星藥局,高雄市三民區寶龍里惠德街３８號,120.3241,22.64741,(07)3845188,羅氏家用新冠病毒抗原自我檢測套組,1,2022/05/06 08:14:02,快篩口罩時間:星期一至五16:00-21:00；星期六09:00-11:30，售完為止
5902050412,春仁藥局,高雄市三民區覺民路２２５號,120.3391,22.63944,(07)3962341,羅氏家用新冠病毒抗原自我檢測套組,78,2022/05/06 08:14:02,5／1-5／301時間自9:00-22:30現場排隊.（賣完為止）
5902050770,仁生藥局,高雄市三民區民享里熱河二街７８號,120.3006,22.64431,(07)3118765,羅氏家用新冠病毒抗原自我檢測套組,19,2022/05/06 08:14:02,上午:8點開始販售
5902050798,友泰藥局,高雄市三民區中和街１６９號,120.2868,22.6388,(07)3125236,羅氏家用新冠病毒抗原自我檢測套組,2,2022/05/06 08:14:02,無
5902050903,皇安藥局,高雄市三民區九如一路４６１號,120.3296,22.63865,(07)3866779,羅氏家用新冠病毒抗原自我檢測套組,53,2022/05/06 08:14:02,營業日0900可先領取號碼牌，上午9:00-12:00及下午3:00~10:.00為販賣快篩時間，售完為止
5902051240,明皇藥局,高雄市三民區寶國里義華路１８１號,120.3399,22.64276,(07)3860121,羅氏家用新冠病毒抗原自我檢測套組,64,2022/05/06 08:14:02,藥局販售口罩時間，依藥局門口公告時間為主（售完為止）
5902054858,勝發藥局,高雄市三民區金鼎路３５０號,120.3197,22.66521,(07)3474780,羅氏家用新冠病毒抗原自我檢測套組,62,2022/05/06 08:14:02,營業日08:00為販賣快篩試劑時間.售完為止
5902056638,柏仁藥局,高雄市三民區覺民路５０４號,120.3317,22.64092,(07)3976016,羅氏家用新冠病毒抗原自我檢測套組,59,2022/05/06 08:14:02,實名制快篩下午3點開賣，現場排隊，售完為止
5902057368,崧民藥師藥局,高雄市三民區金鼎路２２８號,120.3238,22.66483,(07)3102496,羅氏家用新冠病毒抗原自我檢測套組,64,2022/05/06 08:14:02,服務時間9:00-22:30自05／01日~5月31日
5902057902,利安藥局,高雄市三民區建工路５４５號,120.3213,22.64854,(07)3965550,羅氏家用新冠病毒抗原自我檢測套組,1,2022/05/06 08:14:02,營業日9:00AM起販賣口罩，售完為止
5902071528,岩生藥局,高雄市前金區自立一路１５－１號,120.2975,22.63437,(07)2863608,羅氏家用新冠病毒抗原自我檢測套組,4,2022/05/06 08:14:02,營業時間為24小時 過年期間正常營業
5902080474,弘宗藥局,高雄市苓雅區武智街２號,120.3356,22.62303,(07)7211088,羅氏家用新冠病毒抗原自我檢測套組,59,2022/05/06 08:14:02,13:00後販售 ，販售扔以現場為主。請勿來電詢問餘量
5902081015,明群藥局,高雄市苓雅區英明路５４號,120.3253,22.61276,(07)7254953,羅氏家用新冠病毒抗原自我檢測套組,49,2022/05/06 08:14:02,周一至周六每日8:00開始販售快篩試劑依現場排隊序販賣售完為止 午休時間13:00~~14:30 防疫口罩4／30停售
5902081328,東信藥局,高雄市苓雅區三多一路１８９號,120.3313,22.62258,(07)7613309,羅氏家用新冠病毒抗原自我檢測套組,78,2022/05/06 08:14:02,早上8:30開始發送號碼牌販售口罩，售完為止，假日正常販售
5902084703,瑞生藥局,高雄市苓雅區自強三路３１號,120.2996,22.61376,(07)3305239,羅氏家用新冠病毒抗原自我檢測套組,62,2022/05/06 08:14:02,自6／1日~12／31日，營業日09:30~23:00為販賣口罩時間.售完為止
5902085184,惠春藥局,高雄市苓雅區武慶三路９６號,120.3319,22.62043,(07)7611358,羅氏家用新冠病毒抗原自我檢測套組,60,2022/05/06 08:14:02,「藥局販售口罩時間，依藥局門口公告時間為主（售完為止）」
5902085371,加和藥局,高雄市苓雅區和平一路１４３之７號,120.3205,22.62331,(07)7219332,羅氏家用新冠病毒抗原自我檢測套組,78,2022/05/06 08:14:02,無
5902090121,意文藥局,高雄市前鎮區瑞華里武營路１８３號,120.3374,22.60991,(07)7226570,羅氏家用新冠病毒抗原自我檢測套組,35,2022/05/06 08:14:02,每天8點營業 立即販賣
5902091100,佳加藥局,高雄市前鎮區瑞北路１１４號,120.3325,22.60923,(07)7228112,羅氏家用新冠病毒抗原自我檢測套組,16,2022/05/06 08:14:02,早上8:30開始銷售快篩  售完為止    星期日快篩停售
5902092296,迎廣藥局,高雄市前鎮區林森三路１５０號２樓,120.3089,22.61357,(07)3321466,羅氏家用新冠病毒抗原自我檢測套組,71,2022/05/06 08:14:02,週一至周六08:30至12:00  15:00至18:00 19:00至21:30 星期六晚休息  星期日休息
5902092410,旺盛藥局,高雄市前鎮區永豐路１０８號,120.3337,22.6065,(07)7512899,羅氏家用新冠病毒抗原自我檢測套組,67,2022/05/06 08:14:02,過年期間 111／01／31下午至111／02／03  休診
5902092643,晏昇藥局,高雄市前鎮區凱旋三路８１號,120.3247,22.60678,(07)7235136,羅氏家用新冠病毒抗原自我檢測套組,78,2022/05/06 08:14:02,快篩代售時間:早上8:30發放號碼牌並同時現場發放購買，取得號碼牌後離開現場者， 不予保留
5902092956,慈濟健保藥局,高雄市前鎮區鎮州路２１１號,120.3082,22.58819,(07)8159788,羅氏家用新冠病毒抗原自我檢測套組,70,2022/05/06 08:14:02,每天早上8點開始賣.售完為止藥局販售口罩時間，依藥局門口公告時間為主（售完為止）
5902100042,千佑藥局,高雄市旗津區復興里中洲三路５１３號,120.2736,22.60608,(07)5712619,羅氏家用新冠病毒抗原自我檢測套組,76,2022/05/06 08:14:02,5月1日-5月31日早上0831至2130為販賣快篩時間
5902111670,桂林活力藥師藥局,高雄市小港區桂陽路４０號,120.3575,22.58194,(07)7931248,羅氏家用新冠病毒抗原自我檢測套組,79,2022/05/06 08:14:02,營業日09:00發放實名制快篩號碼牌.售完為止
5903010289,心美日藥局,臺中市豐原區中山路３５９號１樓,120.7149,24.24929,(04)25260703,羅氏家用新冠病毒抗原自我檢測套組,1,2022/05/06 08:14:02,早上8:00販售（如貨運延遲則改為14:00）
5903010341,昭仁藥局,臺中市豐原區南陽路１４０號,120.7307,24.24275,(04)25243559,羅氏家用新冠病毒抗原自我檢測套組,78,2022/05/06 08:14:02,早上8:30販售 （如貨運延遲則改為15:00）
5903010449,豐原藥局,臺中市豐原區新生北路２０６號之１（１樓）,120.7219,24.2551,(04)25260119,羅氏家用新冠病毒抗原自我檢測套組,76,2022/05/06 08:14:02,無
5903030030,大甲健康藥局,臺中市大甲區蔣公路２４２-１號１樓,120.6195,24.34722,(04)26805833,羅氏家用新冠病毒抗原自我檢測套組,32,2022/05/06 08:14:02,周一至周六營業，周日公休
5903030058,康達藥局,臺中市大甲區蔣公路２６６號１樓,120.6189,24.34749,(04)26862001,羅氏家用新冠病毒抗原自我檢測套組,33,2022/05/06 08:14:02,因快篩試劑每天的到貨時間不定，每日的販售時間會在臉書專頁上做公告。
5903030067,甲尚藥局,臺中市大甲區順天路１２９號１樓,120.622,24.3446,(04)26760885,羅氏家用新冠病毒抗原自我檢測套組,125,2022/05/06 08:14:02,實名制 快篩 早0800 開賣 （依經驗 約莫 0830 前完售）
5903030156,盈盈藥局,臺中市大甲區文武路１８號,120.626,24.34582,(04)26804212,羅氏家用新冠病毒抗原自我檢測套組,78,2022/05/06 08:14:02,每天早上０８：２０開始銷售，售完為止
5903040072,碧綠谷藥局,臺中市清水區中華路５２５號,120.5718,24.27605,(04)26281151,羅氏家用新冠病毒抗原自我檢測套組,49,2022/05/06 08:14:02,09:30發放快篩.星期日休息.癌症諮詢.慢箋領藥.長照特約.更年期.糖尿病.戒菸諮詢.孕期保健.小兒營養
5903050103,北勢進騰藥局,臺中市沙鹿區北勢東路５０９之７號１樓,120.576,24.22526,(04)26330893,羅氏家用新冠病毒抗原自我檢測套組,78,2022/05/06 08:14:02,營業時間12:00-22:00，每日12:00販售實名制快篩
5903070025,得安藥局,臺中市后里區四村路７８號,120.7129,24.30469,(04)25585333,羅氏家用新冠病毒抗原自我檢測套組,78,2022/05/06 08:14:02,快篩販賣時間 14:00~15:00（售完為止）
5903070061,豪銘藥局,臺中市后里區公安路６８號,120.7113,24.30469,(04)25562991,羅氏家用新冠病毒抗原自我檢測套組,55,2022/05/06 08:14:02,每天早上9點開始販售，售完為止。星期日早上8-10點
5903070105,后里藥局,臺中市后里區文明路１３３號１樓,120.7164,24.30682,(04)25590119,羅氏家用新冠病毒抗原自我檢測套組,11,2022/05/06 08:14:02,不缺貨+不累時 早上8點前 晚上8點後賣 請勿排隊群聚 注意身體健康
5903080030,捷達藥局,臺中市神岡區大漢街２５號,120.6974,24.25352,(04)25225207,羅氏家用新冠病毒抗原自我檢測套組,59,2022/05/06 08:14:02,周一到周六上午8:00開始販售，售完為止。
5903090143,佳福藥局,臺中市潭子區中山路１段４３－１號,120.7023,24.19138,(04)25332982,羅氏家用新冠病毒抗原自我檢測套組,122,2022/05/06 08:14:02,每日中午12:00至下午3:00休息，星期六公休
5903090330,潭子炘星藥局,臺中市潭子區中山路一段９７號１樓,120.7023,24.19319,(04)25320107,羅氏家用新冠病毒抗原自我檢測套組,78,2022/05/06 08:14:02,系統入庫異常，顯示的庫存量不準喔!通常早上才到貨（時間不定），故快篩下午3:15開始販售／ 12:00~15:00中午休息時間
5903100180,杏一大雅中清藥局,臺中市大雅區中清路四段３１、３３、３５號１樓,120.6448,24.22615,(04)25601791,羅氏家用新冠病毒抗原自我檢測套組,5,2022/05/06 08:14:02,週一~週六14:00販售（13:50發號碼牌）每人每卡限定1份500元!週日無販售!
5903130017,祐民健保藥局,臺中市外埔區甲后路三段１０３０號１樓,120.6615,24.32387,(04)26836736,羅氏家用新冠病毒抗原自我檢測套組,45,2022/05/06 08:14:02,固定周一到周六，早上8:00開始發放號碼牌及販賣防疫口罩
5903130035,政修藥局,臺中市外埔區中山路２９０號,120.6569,24.33043,(04)26831881,羅氏家用新冠病毒抗原自我檢測套組,31,2022/05/06 08:14:02,政府防疫口罩每日早上7:45發放號碼牌，8:05依序販售口罩，售完為止
5903140013,音聲藥局,臺中市大安區中松路１８號１樓,120.5872,24.34664,(04)26715318,羅氏家用新冠病毒抗原自我檢測套組,18,2022/05/06 08:14:02,固定周一到周日，早上8:00開始販賣快篩（依排隊順序）
5903150019,統元藥局,臺中市烏日區中華路５８３號,120.6342,24.10755,(04)23377588,羅氏家用新冠病毒抗原自我檢測套組,78,2022/05/06 08:14:02,快篩販售時間:早上9:00至12:00或（售完即止）.
5903150037,杏益藥局,臺中市烏日區信義街１７２號,120.6393,24.10502,(04)23364059,羅氏家用新冠病毒抗原自我檢測套組,67,2022/05/06 08:14:02,快篩販售時間W1-W6:08:30-12:00  週日:7:00-8:30 或售完即止（排隊約30分鐘賣完　不發號碼牌　賣購卡阿）
5903160051,祥安健保藥局,臺中市大肚區育樂街１２－３號１樓,120.544,24.1532,(04)26990580,羅氏家用新冠病毒抗原自我檢測套組,32,2022/05/06 08:14:02,無
5903160088,必安藥局,臺中市大肚區沙田路二段６３４號,120.5455,24.15084,(04)26992116,羅氏家用新冠病毒抗原自我檢測套組,103,2022/05/06 08:14:02,**限購1份**早上8點販售**每天固定78份，非156**
5903170039,大佶安藥局龍井店,臺中市龍井區沙田路６段１９７號１樓,120.5496,24.20907,(04)26361410,羅氏家用新冠病毒抗原自我檢測套組,47,2022/05/06 08:14:02,營業時間（早上9:30-12:30，下午13:30-21:30）都有賣口罩，售完為止
5903190077,八醫健保藥局,臺中市太平區中山路２段３５７號,120.7297,24.15021,(04)23935050,羅氏家用新冠病毒抗原自我檢測套組,78,2022/05/06 08:14:02,公發篩檢試劑時間0830開始，售完為止（1人1次限購1份）
5903190157,春長藥局,臺中市太平區太平路１４７號,120.7212,24.12003,(04)22799286,羅氏家用新冠病毒抗原自我檢測套組,78,2022/05/06 08:14:02,快篩代售時間:早上9點，現場排隊
5903190273,太平小林健保藥局,臺中市太平區育賢路５１８號,120.7133,24.15883,(04)23954436,羅氏家用新冠病毒抗原自我檢測套組,73,2022/05/06 08:14:02,每天早上8點發號碼牌，下午4:30販售口罩
5903190291,新平和藥局,臺中市太平區光興路８２７號１樓,120.7307,24.11198,(04)22771262,羅氏家用新冠病毒抗原自我檢測套組,23,2022/05/06 08:14:02,如需領藥請先電話洽詢。快篩早上8:00開始販售.售完為止.星期天公休沒賣
5903190335,育賢德侑藥局,臺中市太平區育賢路１０７號、１０９號,120.7219,24.15768,(04)23920696,羅氏家用新冠病毒抗原自我檢測套組,78,2022/05/06 08:14:02,實名制快篩販售時間：星期一~星期日 早上8:30點開賣（售完為止）
5903190586,樹孝炘星藥局,臺中市太平區樹孝路４７６號１樓,120.7203,24.15735,(04)23929578,羅氏家用新冠病毒抗原自我檢測套組,130,2022/05/06 08:14:02,快篩早上8:00開賣，售完為止！周六固定休息。5／7（六）早上8:00加開販售快篩
5903190675,德芳太平藥局,臺中市太平區中興路１３３巷１－１號１樓,120.7146,24.12617,(04)23511588,羅氏家用新冠病毒抗原自我檢測套組,78,2022/05/06 08:14:02,快篩販售時間:下午3點~6點
5903190728,太平瑞昌藥局,臺中市太平區新興路２８號１樓,120.7124,24.15916,(04)23956319,羅氏家用新冠病毒抗原自我檢測套組,78,2022/05/06 08:14:02,無
5903200121,弘佑藥局,臺中市大里區成功路５１５號１樓,120.7032,24.09071,(04)24911234,羅氏家用新冠病毒抗原自我檢測套組,77,2022/05/06 08:14:02,實名制快篩試劑早上九點開始販售，無號碼牌。星期天公休
5903200176,聖康藥局,臺中市大里區立仁路７９號１樓,120.7036,24.1078,(04)22700625,羅氏家用新冠病毒抗原自我檢測套組,78,2022/05/06 08:14:02,星期一到六 早上9點營業 星期日下午2點營業
5903200229,信元藥局,臺中市大里區益民路２段３７２號１樓,120.684,24.11545,(04)24876051,羅氏家用新冠病毒抗原自我檢測套組,67,2022/05/06 08:14:02,下午5點發號碼牌並依序販賣
5903200569,和信健康藥局,臺中市大里區德芳路一段５９號,120.6905,24.11342,(04)24833677,羅氏家用新冠病毒抗原自我檢測套組,78,2022/05/06 08:14:02,9am，發號碼牌，周日休
5903200587,大里安德健保藥局,臺中市大里區大明路１１７號,120.6861,24.11527,(04)24875607,羅氏家用新冠病毒抗原自我檢測套組,77,2022/05/06 08:14:02,早上9點開始發放
5903200621,德芳東榮藥局,臺中市大里區東榮路８號,120.6893,24.1102,(04)24863898,羅氏家用新冠病毒抗原自我檢測套組,39,2022/05/06 08:14:02,快篩販售時間：下午3點~6點，現場排隊，完售即停
5903200649,躍獅日新藥局,臺中市大里區日新路３４２號１樓,120.6925,24.11528,(04)24822345,羅氏家用新冠病毒抗原自我檢測套組,78,2022/05/06 08:14:02,每日9:00代售口罩及快篩（星期日公休）（週六到17:30）
5903200658,德芳成功藥局,臺中市大里區成功路５３５－３號１樓,120.7033,24.0913,(04)24920298,羅氏家用新冠病毒抗原自我檢測套組,37,2022/05/06 08:14:02,快篩販售時間:下午3點~6點
5903200694,大里福倫藥局,臺中市大里區中興路二段１８３－２號１樓,120.6896,24.10679,(04)24850218,羅氏家用新冠病毒抗原自我檢測套組,36,2022/05/06 08:14:02,2022／05／06 快篩販售時間：早上8點開始販售
5903200738,杏一大里國光藥局,臺中市大里區國光路二段４１１號１樓,120.6796,24.10921,(04)24071492,羅氏家用新冠病毒抗原自我檢測套組,78,2022/05/06 08:14:02,周一至周六16:00~19:00，周日及補假日人力不足不販售
5903220196,日安藥局,臺中市中區臺灣大道一段３３０號１樓,120.6801,24.1422,(04)22234246,羅氏家用新冠病毒抗原自我檢測套組,1,2022/05/06 08:14:02,郵差送達後，開始販售快篩!!!
5903230094,平祐健保藥局,臺中市東區旱溪東路１段２９７號１樓,120.7009,24.13481,(04)22113898,羅氏家用新冠病毒抗原自我檢測套組,77,2022/05/06 08:14:02,早上九點開始販售!週六公休，週日正常販售!
5903230156,樂業小林健保藥局,臺中市東區樂業路４４３號１樓,120.7062,24.13693,(04)22139123,羅氏家用新冠病毒抗原自我檢測套組,64,2022/05/06 08:14:02,無
5903230183,恒生藥局,臺中市東區樂業路３９５號１樓,120.7051,24.138,(04)22135179,羅氏家用新冠病毒抗原自我檢測套組,78,2022/05/06 08:14:02,快篩11點開始過卡，中午1~3點為清消時間 暫停發放。周日公休。另有提供領慢箋服務及保健食品，任何疑問請洽藥師。
5903230227,東區小林健保藥局,臺中市東區十甲路４８５號１樓,120.7104,24.14464,(04)22135148,羅氏家用新冠病毒抗原自我檢測套組,69,2022/05/06 08:14:02,無
5903240376,台丞藥局,臺中市西區三民路一段１６６－５號,120.6746,24.13743,(04)22279666,羅氏家用新冠病毒抗原自我檢測套組,48,2022/05/06 08:14:02,快篩實名制販賣時間即藥局營業時間；早上:0800-1200，下午:1430-1730，晚上:1800-2100
5903240410,德芳美村藥局,臺中市西區美村路一段６８１、６８３號１樓,120.6618,24.13545,(04)23782848,羅氏家用新冠病毒抗原自我檢測套組,79,2022/05/06 08:14:02,快篩販售時間:周一到周五下午3點~6點 每日配發78份
5903240438,真誠藥局,臺中市西區美村路一段３７８號１樓,120.6615,24.14458,(04)23015750,羅氏家用新冠病毒抗原自我檢測套組,78,2022/05/06 08:14:02,世鴻診所旁，星期五單號8:30開始販售，中午休息，週日休息
5903240465,德恩藥師藥局,臺中市西區精誠路２５２號１樓,120.6549,24.14949,(04)23102358,羅氏家用新冠病毒抗原自我檢測套組,3,2022/05/06 08:14:02,下午2:00開賣。若延後送貨，會再另外公告開賣時間。
5903250041,小林健保藥局,臺中市南區美村路２段１８２號,120.6631,24.12549,(04)22622099,羅氏家用新冠病毒抗原自我檢測套組,58,2022/05/06 08:14:02,固定周一到周日，早上8:00發號碼牌，下午4:30開始販賣防疫口罩
5903250103,忠孝德侑健保藥局,臺中市南區正義街１５９號,120.6806,24.12919,(04)22851400,羅氏家用新冠病毒抗原自我檢測套組,78,2022/05/06 08:14:02,實名制快篩:早上九點販售（售完為止，一人一卡）以現場庫存為主）
5903250176,弘大美妝藥局,臺中市南區南門路１１５號１樓,120.6798,24.12222,(04)22859180,羅氏家用新冠病毒抗原自我檢測套組,46,2022/05/06 08:14:02,早上8點開始賣快篩，星期日休息
5903250505,心安藥局,臺中市南區國光路２４１號１樓,120.6794,24.12676,(04)22858773,羅氏家用新冠病毒抗原自我檢測套組,77,2022/05/06 08:14:02,每天下午三點排隊開賣，一人一卡，週日公休下次是5／6號.5／5已售完.
5903250587,俊達藥師藥局,臺中市南區五權南路５２９號１樓,120.6698,24.11692,(04)22650023,羅氏家用新冠病毒抗原自我檢測套組,78,2022/05/06 08:14:02,快篩販售時間上午9點至12點，周日店休
5903250658,田園藥局,臺中市南區學府路１６０號１樓,120.6742,24.12909,(04)22220605,羅氏家用新冠病毒抗原自我檢測套組,79,2022/05/06 08:14:02,每週三公休。每天13:30 開始販售，一人限一卡，依到貨數量販售
5903260163,康甫藥師藥局,臺中市北區進化北路３６６號１樓,120.6806,24.16333,(04)22366682,羅氏家用新冠病毒抗原自我檢測套組,3,2022/05/06 08:14:02,有關口罩販售：周一至周六早上9:30發號碼牌，下午3:00過後發售口罩。周日休息。
5903260421,忠明小林健保藥局,臺中市北區忠明路１６１號,120.6642,24.16235,(04)22013666,羅氏家用新冠病毒抗原自我檢測套組,47,2022/05/06 08:14:02,每日早上8點發號碼牌及收健保卡，下午4點半領回
5903260449,喜樂藥局,臺中市北區中清路１段３１號,120.677,24.1529,(04)22060423,羅氏家用新冠病毒抗原自我檢測套組,1,2022/05/06 08:14:02,無
5903260618,中清小林健保藥局,臺中市北區中清路一段８６、８８號１樓,120.6767,24.15622,(04)22034197,羅氏家用新冠病毒抗原自我檢測套組,53,2022/05/06 08:14:02,24小時營業無公休，早上八點發號碼牌，十二點以後過健保卡發放口罩.
5903260681,昭德藥師藥局,臺中市北區西屯路一段３４５號,120.6654,24.16007,(04)23235655,羅氏家用新冠病毒抗原自我檢測套組,61,2022/05/06 08:14:02,早上八點至下午十一點營業，上午九點至下午九點現場排隊過卡買口罩，售完為止
5903260743,黎明安德藥局,臺中市北區中清路１段８５２號１樓,120.6718,24.17295,(04)22956098,羅氏家用新冠病毒抗原自我檢測套組,78,2022/05/06 08:14:02,禮拜四公休、禮拜日下午2點開始營業，一到六下午3點開始販賣快篩，禮拜日下午5點開始販賣快篩
5903260798,光恒藥局,臺中市北區五權路２６１號１樓,120.6767,24.15097,(04)22068638,羅氏家用新冠病毒抗原自我檢測套組,56,2022/05/06 08:14:02,快篩 周一到周六早上8:00到12:00 開放購買
5903260814,杏一北區文心藥局,臺中市北區文心路４段２１０－８號１、２樓,120.678,24.1729,(04)22993847,羅氏家用新冠病毒抗原自我檢測套組,1,2022/05/06 08:14:02,實名制快篩下午16:00開始販售
5903260985,森川健保藥局,臺中市北區五權路２５１號１樓,120.6764,24.15074,(09)78157008,羅氏家用新冠病毒抗原自我檢測套組,55,2022/05/06 08:14:02,快篩試劑每日下午三點開賣，售完為止
5903270089,信心藥局,臺中市西屯區四川路１９０號,120.6559,24.16046,(04)23163430,羅氏家用新冠病毒抗原自我檢測套組,25,2022/05/06 08:14:02,每天早上08:00開始販售快篩試劑，售完為止
5903270230,大心藥局,臺中市西屯區西屯路２段２９５－１９號,120.6418,24.17795,(04)24528355,羅氏家用新冠病毒抗原自我檢測套組,66,2022/05/06 08:14:02,實名制快篩，早上9:00開始販售（售完為止），星期日固定公休
5903270301,宥承藥局,臺中市西屯區西屯路３段１４８－１６號,120.6242,24.18563,(04)24626559,羅氏家用新冠病毒抗原自我檢測套組,2,2022/05/06 08:14:02,星期一到星期六， 開始快篩
5903270614,至善德侑藥局,臺中市西屯區至善路６０號,120.6395,24.17141,(04)24518729,羅氏家用新冠病毒抗原自我檢測套組,1,2022/05/06 08:14:02,實名制快篩下午14:00開始發號碼牌.14:15開始販售
5903270776,河南丁丁藥局,臺中市西屯區河南路４段１９１號,120.6367,24.15565,(04)22511658,羅氏家用新冠病毒抗原自我檢測套組,1,2022/05/06 08:14:02,周一至周日每天上午9:00開始販售口罩[有口罩庫存時]
5903270847,分子藥局,臺中市西屯區惠來路二段２３６－１號,120.6421,24.16318,(04)22513080,羅氏家用新冠病毒抗原自我檢測套組,64,2022/05/06 08:14:02,發放時間週一至週日早上10點起售完為止
5903270927,河南小林健保藥局,臺中市西屯區河南路二段２９８號１樓,120.6485,24.17477,(04)24512830,羅氏家用新冠病毒抗原自我檢測套組,45,2022/05/06 08:14:02,固定每日早上8點發放口罩號碼牌，下午4點半開始販售。
5903270936,新元藥局,臺中市西屯區文心路三段５３２號１樓,120.6659,24.17267,(04)23121383,羅氏家用新冠病毒抗原自我檢測套組,82,2022/05/06 08:14:02,5／1-5／2公休，快篩為滾動式配送，請電洽04-23121383
5903270963,源興大藥局,臺中市西屯區西屯路二段１２號,120.6622,24.16387,(04)23143045,羅氏家用新冠病毒抗原自我檢測套組,23,2022/05/06 08:14:02,口罩販售時間：每日下午2點至售完為止。
5903271031,美十樂中科藥局,臺中市西屯區西屯路三段１６６－６５號１樓,120.6129,24.19035,(04)24610219,羅氏家用新冠病毒抗原自我檢測套組,468,2022/05/06 08:14:02,醫事人員卡片損壞，暫時無法販賣快篩
5903271139,百吉藥局,臺中市西屯區青海路一段７１號１樓,120.6547,24.1644,(04)23135698,羅氏家用新冠病毒抗原自我檢測套組,53,2022/05/06 08:14:02,周六休息
5903271157,富康家健保藥局,臺中市西屯區漢成四街８號１樓,120.6652,24.17026,(04)23174741,羅氏家用新冠病毒抗原自我檢測套組,48,2022/05/06 08:14:02,無
5903271308,祐生藥局,臺中市西屯區文華路３之１號１樓,120.6447,24.17535,(04)24517169,羅氏家用新冠病毒抗原自我檢測套組,188,2022/05/06 08:14:02,快篩發放時間：第一批中午12:00，第二批傍晚18:00，售完為止
5903280656,熊大心藥局,臺中市南屯區河南路四段３７６號,120.6369,24.15208,(04)22516252,羅氏家用新冠病毒抗原自我檢測套組,57,2022/05/06 08:14:02,app庫存錯誤。周一至周六，15:00-16:00售實名制快篩
5903280790,統一藥局,臺中市南屯區黎明路一段１１９號１樓,120.6261,24.11478,(04)24701996,羅氏家用新冠病毒抗原自我檢測套組,118,2022/05/06 08:14:02,實名制口罩販售時間為早上8:00~10:00售完為止! （週日售完關門休息。）
5903290607,敦化小林健保藥局,臺中市北屯區敦化路１段６６８號,120.6643,24.18593,(04)24261881,羅氏家用新冠病毒抗原自我檢測套組,75,2022/05/06 08:14:02,每日早上8:00領號碼牌，16:30再回藥局領口罩（全年無休）
5903290849,新盛藥局,臺中市北屯區松竹路二段１５７號１樓,120.6959,24.18312,(04)22467779,羅氏家用新冠病毒抗原自我檢測套組,78,2022/05/06 08:14:02,下午2:30至8:30賣快篩試劑週一至週六
5903291042,全成北屯藥局,臺中市北屯區北屯路４３９－１１號１樓,120.7004,24.17913,(04)22463518,羅氏家用新冠病毒抗原自我檢測套組,1,2022/05/06 08:14:02,快篩每日下午3:00開始販售
5903291159,均福藥局,臺中市北屯區軍福十三路１００號１樓,120.7308,24.17096,(04)24391169,羅氏家用新冠病毒抗原自我檢測套組,2,2022/05/06 08:14:02,快篩實名制規則:晚上七點依現場排隊順序發號碼牌 （周日公休不販售）
5905010063,松柏藥局,臺南市新營區新南里新北街１號,120.3048,23.30861,(06)6590063,羅氏家用新冠病毒抗原自我檢測套組,56,2022/05/06 08:14:02,無
5905010296,躍獅新營藥局,臺南市新營區民生路１６８號１樓,120.3073,23.31112,(06)6564325,羅氏家用新冠病毒抗原自我檢測套組,11,2022/05/06 08:14:02,固定下午6點半發放實名制快篩 （週日依配送狀況與否發放）
5905030010,美恩健保藥局,臺南市白河區永安里中山路８１號１樓,120.4153,23.35018,(06)6858865,羅氏家用新冠病毒抗原自我檢測套組,32,2022/05/06 08:14:02,快篩販售時間:早上7:30至售完為止
5905030038,美尚藥局,臺南市白河區白河里康樂路４３號,120.4148,23.34833,(06)6853538,羅氏家用新冠病毒抗原自我檢測套組,38,2022/05/06 08:14:02,快篩販售時間：星期一~五7:00-21:00 六07:00-18:30 禮拜天視診所上班而定
5905050192,復佑藥局,臺南市佳里區光復路３１５號１樓,120.1746,23.16289,(06)7222771,羅氏家用新冠病毒抗原自我檢測套組,1,2022/05/06 08:14:02,5／2晚上7點販售防疫家用快篩試劑
5905060125,美麗安藥局,臺南市新化區護國里中山路１５０－１號１樓,120.3102,23.03714,(06)5909509,羅氏家用新冠病毒抗原自我檢測套組,104,2022/05/06 08:14:02,周一至周六早上8點開始販售實名制，周日休息
5905100035,華恩藥局,臺南市後壁區菁寮里５１號１樓,120.3356,23.37883,(06)6623491,羅氏家用新冠病毒抗原自我檢測套組,28,2022/05/06 08:14:02,星期一到六上午8:00-12:00，下午2:30-7:30，星期日8:00-12:00；口罩發售時間自08:30-11:30，下午2:30-07:00
5905130024,人大藥局,臺南市六甲區中山路７號,120.3513,23.23059,(06)6988802,羅氏家用新冠病毒抗原自我檢測套組,54,2022/05/06 08:14:02,快篩販售時間：星期一-日07:30-售完
5905130042,人大聯合藥局,臺南市六甲區中山路８號１樓,120.3513,23.23087,(06)6987822,羅氏家用新冠病毒抗原自我檢測套組,11,2022/05/06 08:14:02,快篩販售時間：星期一-日07:30-售完
5905170019,博士藥師專業藥局,臺南市七股區大埕里３５７號１樓,120.1416,23.14288,(06)7874226,羅氏家用新冠病毒抗原自我檢測套組,20,2022/05/06 08:14:02,早上7:30開始營業，也開始快篩實名制，W1-5 7:30~20:00 W6 7:30~18:00
5905210027,愛心藥師藥局,臺南市安定區港南里港口１４７號,120.233,23.09041,(06)5935104,羅氏家用新冠病毒抗原自我檢測套組,74,2022/05/06 08:14:02,春節營業時間請電洽或依現場公告
5905270041,仁德市安藥師藥局,臺南市仁德區中正西路２５號,120.2244,22.91814,(06)2661933,羅氏家用新冠病毒抗原自我檢測套組,1,2022/05/06 08:14:02,快篩販賣：5／6星期五~以貨運配送抵達時間再決定販售時間 暫定14:00開始販售
5905270158,佳德藥局,臺南市仁德區德糖路４７０號１樓,120.2522,22.95128,(06)2796767,羅氏家用新冠病毒抗原自我檢測套組,78,2022/05/06 08:14:02,口罩發放時間:禮拜一至禮拜六8:30發號碼牌 9:00領取口罩，禮拜四和六只到中午12:00
5905280136,悅橙歸仁藥局,臺南市歸仁區大通路４３號１樓,120.296,22.9676,(06)2396660,羅氏家用新冠病毒抗原自我檢測套組,1,2022/05/06 08:14:02,實名制Covid-19快篩15:00開始現場販售至售完
5905310273,誠康藥局,臺南市永康區中山東路１１３號１樓,120.2367,23.01266,(06)3022005,羅氏家用新冠病毒抗原自我檢測套組,78,2022/05/06 08:14:02,實名制快篩販售時間：星期一到星期六  早上08:30~售完為止
5905310291,俐欣藥局,臺南市永康區大仁街２０６號１樓,120.2582,23.00553,(06)2050777,羅氏家用新冠病毒抗原自我檢測套組,42,2022/05/06 08:14:02,口罩販售時間：星期一~星期六10:00~13:00
5905310540,裕安藥局,臺南市永康區中華二路３８５號,120.2315,23.0083,(06)3133251,羅氏家用新冠病毒抗原自我檢測套組,122,2022/05/06 08:14:02,早8:30-1200／午15:00-18:00／晚18:30-21:00。周日午14:00-17:00
5905310933,樂馨藥局,臺南市永康區中山路８５號１樓,120.2561,23.02984,(06)2038100,羅氏家用新冠病毒抗原自我檢測套組,11,2022/05/06 08:14:02,周一至周日8:00現場排隊依序販售快篩，售完為止
5905311225,安生堂藥局,臺南市永康區南灣里大灣路４２９號１樓,120.2655,23.00294,(06)2725265,羅氏家用新冠病毒抗原自我檢測套組,3,2022/05/06 08:14:02,實名制快篩試劑 上午八點販售
5905320091,台和群康藥局,臺南市東區崇善路４７０號１樓,120.2295,22.97292,(06)2891360,羅氏家用新冠病毒抗原自我檢測套組,77,2022/05/06 08:14:02,每日0900後發售快篩試劑 數量有限售完為止
5905320653,東門台安藥局,臺南市東區中華東路三段２號１樓,120.2291,22.98105,(06)2904377,羅氏家用新冠病毒抗原自我檢測套組,72,2022/05/06 08:14:02,國定假日不開放領口罩
5905320751,倍加藥局,臺南市東區東門路一段２５５號１樓,120.2179,22.9872,(06)2364173,羅氏家用新冠病毒抗原自我檢測套組,52,2022/05/06 08:14:02,快篩販售時段 週一~週六 8:00~12:00 ＆ 14:30~21:30， 週日休息
5905320859,裕農藥局,臺南市東區裕農路３０２號１樓,120.2287,22.98652,(06)2092286,羅氏家用新冠病毒抗原自我檢測套組,30,2022/05/06 08:14:02,5／6（五）因到貨時間不一定，9:30前請不要排隊，謝謝您
5905320877,靈安藥局,臺南市東區大福里榮譽街３２－２號１樓,120.2163,22.97419,(06)2143727,羅氏家用新冠病毒抗原自我檢測套組,12,2022/05/06 08:14:02,週一至週五早上九點至晚上九點／週六早上九點至中午十二點
5905330220,合樂藥局,臺南市南區灣裡路３０９號,120.1824,22.92566,(06)2625016,羅氏家用新冠病毒抗原自我檢測套組,31,2022/05/06 08:14:02,快篩週一~六中午12點開賣，週日暫停
5905340164,田邊藥局,臺南市中西區中正路２３６號,120.1969,22.99326,(06)2200106,羅氏家用新冠病毒抗原自我檢測套組,78,2022/05/06 08:14:02,口罩下午1:00販售售完為止.請自備零錢，
5905340253,永華台安藥局,臺南市中西區永華路一段１８４、１８４－１號１、２、３樓,120.1919,22.98831,(06)2225531,羅氏家用新冠病毒抗原自我檢測套組,77,2022/05/06 08:14:02,10:00販售快篩試劑（若有收到配送）
5905350062,嘉星藥師大藥局,臺南市北區開元路３３９號１樓,120.222,23.00854,(06)2093737,羅氏家用新冠病毒抗原自我檢測套組,51,2022/05/06 08:14:02,實名快篩因物流延遲，貨到立刻銷售，售完為止，12~2點午休時間
5905350240,健康藥局,臺南市北區長榮路５段２１號,120.2206,23.00827,(06)2003078,羅氏家用新冠病毒抗原自我檢測套組,63,2022/05/06 08:14:02,9:00開始販售快篩，售完為止；六日停止販售快篩
5905350544,康是美藥局和緯店,臺南市北區福德里和緯路二段２３８號１樓,120.2067,23.01231,(06)2519076,羅氏家用新冠病毒抗原自我檢測套組,32,2022/05/06 08:14:02,實名制快篩因物流配送時間不確定請電話詢問
5905370135,安南日日康藥局,臺南市安南區安和路五段３３號,120.2185,23.06398,(06)3550995,羅氏家用新冠病毒抗原自我檢測套組,33,2022/05/06 08:14:02,實名制快篩試劑周一至周六下午2點開始售完為止
5905370260,廣道藥局,臺南市安南區溪心里海佃路三段２１８號１樓,120.1806,23.05119,(06)2568383,羅氏家用新冠病毒抗原自我檢測套組,30,2022/05/06 08:14:02,5／4及5／5早上7:10發號碼牌下午3-6點憑號碼牌領快篩；可查『廣道藥局』臉書（FB）。
5905370331,草湖寮王藥局,臺南市安南區梅花里安中路一段６３３號１樓,120.1977,23.04163,(06)2465859,羅氏家用新冠病毒抗原自我檢測套組,28,2022/05/06 08:14:02,5／5 10:50開賣實名制快篩  5／6早上8:00開骰販售
5907010187,人人好藥局,高雄市鳳山區五甲三路１０巷７號１樓,120.3278,22.59336,(07)8151566,羅氏家用新冠病毒抗原自我檢測套組,235,2022/05/06 08:14:02,上午0830-1330下午1530-2100， 自2／11-2／29口罩販售周一三四五日，時間:9:00-12:00售完為止
5907010267,禾康藥局,高雄市鳳山區瑞竹路１６號１樓,120.3662,22.62462,(07)7997139,羅氏家用新冠病毒抗原自我檢測套組,78,2022/05/06 08:14:02,營業時間AM9-12，PM3-10，星期日公休
5907010409,好郝藥局,高雄市鳳山區武松里經武路１７８號１樓,120.3642,22.63619,(07)7468840,羅氏家用新冠病毒抗原自我檢測套組,78,2022/05/06 08:14:02,營業日15:00開始販售快篩，售完為止
5907010427,好郝藥局鳳林店,高雄市鳳山區誠智里鳳林路２９０號,120.3779,22.62216,(07)7869188,羅氏家用新冠病毒抗原自我檢測套組,78,2022/05/06 08:14:02,健保快篩周一到周日下午三點開始現場販售，售完為止
5907010927,元元鳳山藥局,高雄市鳳山區一甲里五甲二路３４８之１號１樓,120.3377,22.59955,(07)7529595,羅氏家用新冠病毒抗原自我檢測套組,78,2022/05/06 08:14:02,現場排隊，自備500元不找零!一至五下午3-6點。星期六下午2-5點。星期日公休
5907011004,永豐久億藥局,高雄市鳳山區和興里五甲一路１１號１樓,120.3586,22.62189,(07)7104281,羅氏家用新冠病毒抗原自我檢測套組,56,2022/05/06 08:14:02,無
5907011200,和成藥局,高雄市鳳山區南成里和成路６５號１樓,120.3379,22.58986,(07)7961566,羅氏家用新冠病毒抗原自我檢測套組,44,2022/05/06 08:14:02,自2／11日~2／29日，營業日08:00~10:00為販賣口罩時間
5907011291,桂林活力藥師藥局鳳山店,高雄市鳳山區中正里瑞興路４８８號１樓,120.3719,22.63089,(07)7012827,羅氏家用新冠病毒抗原自我檢測套組,78,2022/05/06 08:14:02,早上9點發放號碼牌，發完號碼牌即售完
5907020021,柏康藥局,高雄市岡山區壽天路２２號,120.2938,22.79663,(07)6241688,羅氏家用新冠病毒抗原自我檢測套組,69,2022/05/06 08:14:02,無
5907030090,睛好活力藥局,高雄市旗山區湄洲里中山路１２７號,120.482,22.88873,(07)6625119,羅氏家用新冠病毒抗原自我檢測套組,74,2022/05/06 08:14:02,無
5907040014,寶樹藥局,高雄市美濃區中山路１段８８號,120.5393,22.90148,(07)6812323,羅氏家用新冠病毒抗原自我檢測套組,50,2022/05/06 08:14:02,營業日08:00~19:00為販賣快篩試劑時間，售完為止
5907040032,廣元藥局,高雄市美濃區泰安里中正路一段８－１號,120.5412,22.90198,(07)6810125,羅氏家用新冠病毒抗原自我檢測套組,27,2022/05/06 08:14:02,無
5907060221,淑德健保藥局,高雄市大寮區內坑里淑德新村１號３樓,120.3707,22.58833,(07)7923556,羅氏家用新冠病毒抗原自我檢測套組,1,2022/05/06 08:14:02,無
5907060258,杏合藥局,高雄市大寮區後庄里民族路２７０號１樓,120.3917,22.63746,(07)7023620,羅氏家用新冠病毒抗原自我檢測套組,50,2022/05/06 08:14:02,實名制快篩：週一~週五8:00，週六日9:00開始販售或領取號碼牌
5907060267,加嘉藥局,高雄市大寮區山頂里內厝路１９１號１樓,120.3901,22.60793,(07)7860683,羅氏家用新冠病毒抗原自我檢測套組,68,2022/05/06 08:14:02,無
5907080081,英祥連鎖藥局仁雄店,高雄市仁武區仁雄路３６之２號,120.3512,22.68115,(07)3722509,羅氏家用新冠病毒抗原自我檢測套組,15,2022/05/06 08:14:02,快篩販售時間為星期一～六的14:30至17:00（若提前售完，則售完為止）（14:30開始發號碼牌）
5907080125,仁武丁丁藥局,高雄市仁武區仁和里鳳仁路２１之８號,120.3558,22.6802,(07)3721896,羅氏家用新冠病毒抗原自我檢測套組,78,2022/05/06 08:14:02,自5月1日~5月31日，營業日9:00起為販賣快篩時間，售完為止。
5907080250,仁同藥局,高雄市仁武區八卦里永仁街７０６號１樓,120.3313,22.69072,(07)3736142,羅氏家用新冠病毒抗原自我檢測套組,2,2022/05/06 08:14:02,自5月01日~5月31日，營業日8:00起開始販售，當場刷卡領口罩
5907090023,金元發藥局,高雄市大社區中山路１９９號,120.3471,22.73215,(07)3542200,羅氏家用新冠病毒抗原自我檢測套組,78,2022/05/06 08:14:02,快篩實名制：08:30~21:30售完為止
5907090032,上鼎藥師健保藥局,高雄市大社區中山路４２３號,120.3526,22.73146,(07)3531053,羅氏家用新冠病毒抗原自我檢測套組,55,2022/05/06 08:14:02,每日9:30開放民眾購買快篩，售完為止。
5907110084,昱佳藥局,高雄市橋頭區仕豐南路６６號,120.3099,22.74901,(07)6110302,羅氏家用新冠病毒抗原自我檢測套組,96,2022/05/06 08:14:02,快篩試劑售時間:早上7:30開始發售（售完為止）
5907140117,悅安藥局,高雄市阿蓮區和蓮里信義路１１１號,120.3263,22.87952,(07)6319632,羅氏家用新冠病毒抗原自我檢測套組,40,2022/05/06 08:14:02,早上8點開始販售實名制快篩.售完為止
5907150024,安麗兒藥局路竹店,高雄市路竹區大社路５１號１樓,120.262,22.8632,(07)6071699,羅氏家用新冠病毒抗原自我檢測套組,80,2022/05/06 08:14:02,快篩實名制，週一至週六，早上8：30 開始，售完為止（週日無販售）
5907150202,永昌藥局,高雄市路竹區延平路８１號,120.2579,22.85786,(07)6964321,羅氏家用新冠病毒抗原自我檢測套組,78,2022/05/06 08:14:02,周一至周六上午10:00~12:30；下午15:30-18:00開始依序販售快篩試劑，售完為止。星期日休息。
5907160093,保生藥局,高雄市湖內區葉厝里保生路３４０．３４２號,120.2195,22.90733,(07)6990800,羅氏家用新冠病毒抗原自我檢測套組,1,2022/05/06 08:14:02,快篩實名制，每天16:00開始販售，售完為止。
5907200038,和德藥局梓官店,高雄市梓官區梓和里梓官路２３３號１樓,120.267,22.75975,(07)6191008,羅氏家用新冠病毒抗原自我檢測套組,78,2022/05/06 08:14:02,早上8點開始發號碼牌（1人限2張健保卡）.下午2點開始販售
5907240014,博林健保藥局,高雄市內門區觀亭里中正路１６０巷５１號,120.4539,22.9232,(07)6671883,羅氏家用新冠病毒抗原自我檢測套組,58,2022/05/06 08:14:02,自2／11日~2／29日，營業日07:40~18:00為販賣口罩時間，售完為止
5907300168,金元藥局,高雄市左營區重愛路２２０號,120.3156,22.68562,(07)3458378,羅氏家用新冠病毒抗原自我檢測套組,28,2022/05/06 08:14:02,快篩試劑郵差配送，約10點至11點左右會送到藥局，即開始販售，星期四，六營業時間至中午12點
5907300177,人尚大藥局,高雄市左營區榮總路１０９號１樓,120.3217,22.67927,(07)3100000,羅氏家用新冠病毒抗原自我檢測套組,42,2022/05/06 08:14:02,星期一到星期六 早上7:40開始銷售，星期日早上8:40，售完為止
5907300346,正心藥師藥局,高雄市左營區左營大路４７３之２號,120.295,22.68946,(07)5880386,羅氏家用新冠病毒抗原自我檢測套組,78,2022/05/06 08:14:02,快篩試劑 9:00開賣，售完為止! 12:00-14:00 休息! W6 和 W7 不販售快篩!
5907300417,森森藥師藥局,高雄市左營區緯六路２１５號１樓,120.2874,22.69707,(07)5853600,羅氏家用新冠病毒抗原自我檢測套組,56,2022/05/06 08:14:02,（W1~W5） 8~19點；（W6） 8:30~12點；快篩售完為止
5907300659,維康藥局高榮店,高雄市左營區榮總路１６３號、１６５號,120.3216,22.6809,(07)3494540,羅氏家用新冠病毒抗原自我檢測套組,78,2022/05/06 08:14:02,平常日0900-1700為快篩販賣時間賣完為止！假日1000-1800
5907300677,佳寧峰藥局,高雄市左營區部後街２號,120.2886,22.6834,(07)5886408,羅氏家用新冠病毒抗原自我檢測套組,76,2022/05/06 08:14:02,快篩試劑販賣時段:上午8:30起至售完為止
5907300766,悠仁藥局,高雄市左營區自由三路１７０號,120.3113,22.67165,(07)3457979,羅氏家用新冠病毒抗原自我檢測套組,78,2022/05/06 08:14:02,今日快篩0900開始販售。如提前一天配送，則為早上0900販售。不便之處，敬請見諒
5907301021,杏一左營自由藥局,高雄市左營區自由二路３９７號,120.3084,22.66541,(07)5509511,羅氏家用新冠病毒抗原自我檢測套組,78,2022/05/06 08:14:02,周一-周六販賣時間:15點；週日無提供快篩實聯制服務
5907301076,熊安心藥局華夏店,高雄市左營區華夏路１２１２號１樓,120.3104,22.68483,(07)3430632,羅氏家用新冠病毒抗原自我檢測套組,78,2022/05/06 08:14:02,快篩試劑-販售時間14:00至售完為止
5907301094,杏一高榮二店藥局,高雄市左營區榮總路１７７號１樓,120.3213,22.6811,(07)3463348,羅氏家用新冠病毒抗原自我檢測套組,78,2022/05/06 08:14:02,一~五09:25開始發號碼牌／週六14:25開始發號碼牌
5907310137,青田藥局,高雄市楠梓區監理南街６８號,120.3188,22.72897,(07)3648257,羅氏家用新冠病毒抗原自我檢測套組,12,2022/05/06 08:14:02,銷售時間才販賣，別在看庫存了 ／ 周一至周五上午10:30-11:00 下午14:30-15:00 晚上19:00-20:00
5907310173,安健藥局,高雄市楠梓區鳳楠路２５０號,120.3296,22.72617,(07)3520167,羅氏家用新冠病毒抗原自我檢測套組,50,2022/05/06 08:14:02,2／06起營業日早上8點開始販賣，周六日早上8:30 .售完為止
5907310351,惠民楠梓藥局,高雄市楠梓區建楠路２１７號,120.3248,22.72689,(07)3521896,羅氏家用新冠病毒抗原自我檢測套組,78,2022/05/06 08:14:02,上面數量顯示78盒，是系統錯誤，快篩已經賣完了，麥擱卡啊!!平常二點開始發，發完為止；記得備防疫包，增強免疫力
5907320259,明誠藥局,高雄市三民區明誠一路１７２號,120.3273,22.65994,(07)3108636,羅氏家用新冠病毒抗原自我檢測套組,45,2022/05/06 08:14:02,星期一到星期六早上9點售快篩.星期日下午3點售快篩
5907320437,金鼎大藥局,高雄市三民區鼎力路３７６及３７８號１樓,120.3253,22.66928,(07)3473271,羅氏家用新冠病毒抗原自我檢測套組,54,2022/05/06 08:14:02,快篩到貨時間不定.請勿打電話詢問販售資訊請加Line:@022ugqot
5907320633,勁康健保藥局,高雄市三民區義華路４０２號１樓,120.3331,22.64371,(07)3966716,羅氏家用新冠病毒抗原自我檢測套組,1,2022/05/06 08:14:02,如為當日配量快篩實名制配貨到即可販售，若前一日就到貨，則早上10點開始
5907320651,未來照護藥局,高雄市三民區鼎瑞街１０８號１樓,120.3154,22.66606,(07)3105356,羅氏家用新冠病毒抗原自我檢測套組,3,2022/05/06 08:14:02,實名制快篩發放規則: 周一至周六AM10:00發號碼牌，下午14:00~21:30為領取快篩時間  每 周日為公休日
5907320704,建工台安藥局,高雄市三民區建工路４９９號之１,120.3224,22.64884,(07)3807521,羅氏家用新冠病毒抗原自我檢測套組,77,2022/05/06 08:14:02,實名制口罩每日9:00開始販售，售完為止。
5907320768,心樂保健藥局,高雄市三民區光裕路７８號１樓,120.3331,22.63789,(07)3855377,羅氏家用新冠病毒抗原自我檢測套組,16,2022/05/06 08:14:02,星期一到星期四上午8:30-12:00（快篩售完為止）. 星期五下午14:00-17:00，18:00-20:30（售完為止）
5907320866,意朋建興藥局,高雄市三民區建興路２２５號１樓,120.3251,22.64418,(07)3929507,羅氏家用新冠病毒抗原自我檢測套組,78,2022/05/06 08:14:02,口罩領取時間:W1~W日（AM1100~換完為止）
5907320946,熊安心藥局,高雄市三民區陽明路４０８號,120.3429,22.64609,(07)3815212,羅氏家用新冠病毒抗原自我檢測套組,48,2022/05/06 08:14:02,週一 ~ 週六快篩分兩梯次販售，14:00有63份，19:00有15份
5907321078,振源藥局,高雄市三民區熱河一街３５５號１樓,120.3061,22.64365,(07)3112541,羅氏家用新冠病毒抗原自我檢測套組,11,2022/05/06 08:14:02,4／30起15:00開始販售快篩，六日皆有營業
5907330184,崇信藥局,高雄市新興區中正四路５３號１樓,120.3,22.6305,(07)2810205,羅氏家用新冠病毒抗原自我檢測套組,40,2022/05/06 08:14:02,快篩實名制早上8:00開始販售，人多時發放號碼牌。
5907330228,林森合豐藥局,高雄市新興區林森一路３７號１樓,120.305,22.62388,(07)2823313,羅氏家用新冠病毒抗原自我檢測套組,78,2022/05/06 08:14:02,無
5907340091,捷康藥妝藥局,高雄市前金區七賢二路３９６號一樓,120.288,22.63082,(07)2166099,羅氏家用新冠病毒抗原自我檢測套組,2,2022/05/06 08:14:02,周末不販售快篩 5／2開始實名制快篩販售時間：下午2點 沒有發放號碼牌 請見諒
5907350177,佳康藥局,高雄市苓雅區建國一路３３４號,120.3247,22.63293,(07)2266685,羅氏家用新冠病毒抗原自我檢測套組,78,2022/05/06 08:14:02,快篩代售時間:一至四8:30-21:00、五六8:30-16:30
5907350328,安杏藥局,高雄市苓雅區四維二路９４－１７號,120.3197,22.62273,(07)7511739,羅氏家用新冠病毒抗原自我檢測套組,73,2022/05/06 08:14:02,快篩試劑代售時間自早上9:00點服務
5907350533,健群藥局,高雄市苓雅區安業路４０號,120.3231,22.62731,(07)7150097,羅氏家用新冠病毒抗原自我檢測套組,78,2022/05/06 08:14:02,無
5907350597,武廟台安藥局,高雄市苓雅區武廟路１３３－１號,120.3266,22.63106,(07)7228893,羅氏家用新冠病毒抗原自我檢測套組,78,2022/05/06 08:14:02,實名制快篩販售時間：（一）~（六） 9:00~17:00
5907350659,北京藥局林泉店,高雄市苓雅區林泉里３鄰林泉街３５號１樓,120.3192,22.62323,(07)7263030,羅氏家用新冠病毒抗原自我檢測套組,328,2022/05/06 08:14:02,無
5907360146,好芳鄰藥局,高雄市前鎮區光華二路２５７號,120.3179,22.61398,(07)3318657,羅氏家用新冠病毒抗原自我檢測套組,46,2022/05/06 08:14:02,4／28日起.上午08:20~11:00 為販賣快篩時間.售完為止（其餘時間不販賣）
5907360191,欣欣藥局,高雄市前鎮區翠亨北路５７９號,120.3129,22.59226,(07)8124862,羅氏家用新冠病毒抗原自我檢測套組,36,2022/05/06 08:14:02,實名制快篩販售:周一到週六上午8點至12點，周日休息。
5907360226,順康健保藥局,高雄市前鎮區一心二路６７號,120.3099,22.61142,(07)5364438,羅氏家用新冠病毒抗原自我檢測套組,58,2022/05/06 08:14:02,家用快篩販賣時間，每天早上9點開始，售完為止。
5907360324,有承中西藥局,高雄市前鎮區德昌路２５７號１樓,120.3155,22.5849,(07)8120880,羅氏家用新冠病毒抗原自我檢測套組,68,2022/05/06 08:14:02,配合政府實名制快篩， 販售時間依政府配送時間滾動式調整
5907360440,隆德藥局,高雄市前鎮區前鎮街１７０號１樓,120.3073,22.59003,(07)8216030,羅氏家用新冠病毒抗原自我檢測套組,70,2022/05/06 08:14:02,每天早上八點營業.快篩劑要0930後才開賣
5907360600,桂林活力藥師藥局草衙店,高雄市前鎮區草衙二路３６０號,120.323,22.57801,(07)8131819,羅氏家用新冠病毒抗原自我檢測套組,2,2022/05/06 08:14:02,9:00發放實名制快篩號碼牌.售完為止
5907380184,桂林活力藥師藥局孔鳳店,高雄市小港區孔鳳路５６１號１樓,120.3586,22.58393,(07)7912331,羅氏家用新冠病毒抗原自我檢測套組,78,2022/05/06 08:14:02,無
5907380317,朋盛藥局,高雄市小港區大鵬路１４２號,120.3586,22.56906,(07)8017288,羅氏家用新冠病毒抗原自我檢測套組,78,2022/05/06 08:14:02,健保快篩販售時間為星期一至星期六早上8點半
5911011227,和平大藥局,基隆市中正區中正路７５０號,121.7696,25.1519,(02)24628151,羅氏家用新冠病毒抗原自我檢測套組,78,2022/05/06 08:14:02,無
5911011325,永好藥局,基隆市中正區北寧路３１５號１樓,121.7951,25.13981,(02)24697639,羅氏家用新冠病毒抗原自我檢測套組,78,2022/05/06 08:14:02,快篩星期一*三*五是單號 二*四雙號 下午14:30販售 星期六星期日休息
5911011334,海大藥局,基隆市中正區新豐街２５５號１樓,121.7879,25.13621,(02)24699222,羅氏家用新冠病毒抗原自我檢測套組,78,2022/05/06 08:14:02,平日：8：30~12：00，15：00~21：30；星期日：~12：00
5911011450,文裕藥局,基隆市中正區八斗街１０號,121.7962,25.13991,(02)24691239,羅氏家用新冠病毒抗原自我檢測套組,47,2022/05/06 08:14:02,星期一至星期六早上8:10開始販售，星期日時間於臉書公布
5911011496,源昌藥局,基隆市中正區北寧路384號1樓,121.7963,25.13946,(02)24691686,羅氏家用新冠病毒抗原自我檢測套組,78,2022/05/06 08:14:02,無
5911011521,禎宸藥局,基隆市中正區中正路１７５號１樓,121.7605,25.14233,(02)24620366,羅氏家用新冠病毒抗原自我檢測套組,79,2022/05/06 08:14:02,無
5911011585,雙鶴藥局,基隆市中正區義一路３５號１樓,121.7456,25.13309,(02)24263193,羅氏家用新冠病毒抗原自我檢測套組,6,2022/05/06 08:14:02,中午14:00開始販售
5911011601,義一啄木鳥藥局,基隆市中正區義一路１１１號１、２樓,121.7471,25.13536,(02)24271456,羅氏家用新冠病毒抗原自我檢測套組,39,2022/05/06 08:14:02,國定假日無提供調劑業務，早上10:00到晚上09:50，每天10:30開始發快篩
5911011629,百福新豐活力藥局,基隆市中正區新豐街４０５號,121.7849,25.13522,(02)24699990,羅氏家用新冠病毒抗原自我檢測套組,15,2022/05/06 08:14:02,國定假日有提供藥劑服務
5911011647,豐年藥局,基隆市中正區正豐街４２號１樓,121.7605,25.1407,(02)24631098,羅氏家用新冠病毒抗原自我檢測套組,78,2022/05/06 08:14:02,公費快篩一到六8:30開始販售
5911021438,正心藥局,基隆市七堵區南興路１０號１樓,121.7149,25.09755,(02)24563378,羅氏家用新冠病毒抗原自我檢測套組,78,2022/05/06 08:14:02,星期一~六下午13:30發號碼牌，14:00開始販賣，星期日上午9:00發號碼牌，9:30開始販賣，12:00停止領取
5911031158,柏林藥局,基隆市暖暖區暖暖街２４６巷１６７號１樓,121.7357,25.10036,(02)24592277,羅氏家用新冠病毒抗原自我檢測套組,73,2022/05/06 08:14:02,無
5911031318,安安藥局,基隆市暖暖區源遠路１６８號,121.7492,25.09815,(02)24585577,羅氏家用新冠病毒抗原自我檢測套組,1,2022/05/06 08:14:02,每週六公休，星期日~星期五早上8:30販售實名制快篩
5911031327,百福暖暖專業藥局,基隆市暖暖區暖暖街１８９號１樓,121.7357,25.09904,(02)24596999,羅氏家用新冠病毒抗原自我檢測套組,24,2022/05/06 08:14:02,無
5911041618,永樂藥局,基隆市仁愛區忠二路２２號,121.7401,25.13013,(02)24214878,羅氏家用新冠病毒抗原自我檢測套組,71,2022/05/06 08:14:02,近日快篩到貨時間不定， 無固定發放時間
5911041878,天康大藥局,基隆市仁愛區南榮路１４９號,121.743,25.12454,(02)77091122,羅氏家用新冠病毒抗原自我檢測套組,20,2022/05/06 08:14:02,無
5911041958,百福仁愛專業藥局,基隆市仁愛區仁四路５０號１樓,121.7413,25.12829,(02)24266699,羅氏家用新冠病毒抗原自我檢測套組,90,2022/05/06 08:14:02,4／30起，早上8:00販售快篩
5911051507,百福安一藥局,基隆市中山區安一路８１號,121.7358,25.1314,(02)24258068,羅氏家用新冠病毒抗原自我檢測套組,40,2022/05/06 08:14:02,快篩每日早上8點販售，不發號碼牌，現場排隊
5911070011,信安藥局,基隆市信義區信二路９９號,121.7548,25.12912,(02)24238551,羅氏家用新冠病毒抗原自我檢測套組,78,2022/05/06 08:14:02,快篩實名制-早上9點開始販售-售完為止-
5912010046,中美藥局,新竹市東區南大里西大路１０２巷３號１樓,120.9708,24.79647,(03)5283828,羅氏家用新冠病毒抗原自我檢測套組,132,2022/05/06 08:14:02,快篩販賣時段:早上8:00現場排隊至售完為止。 週一至週六休息時段12:00-14:00  晚上18:00-19:00  週日整天店休
5912010206,康寧藥局,新竹市東區親仁里東大路１段１７９號,120.971,24.80908,(03)5321797,羅氏家用新冠病毒抗原自我檢測套組,26,2022/05/06 08:14:02,口罩販售時間：星期一至星期六8:00，星期日8:30
5912010331,大家藥局,新竹市東區南門里武昌街６號１樓,120.9685,24.8004,(035)234035,羅氏家用新冠病毒抗原自我檢測套組,72,2022/05/06 08:14:02,快篩販賣時段: 上午8:30現場排隊至售完為止。
5912010484,聖心藥局,新竹市東區南大里食品路２６９號,120.9736,24.79533,(03)5610697,羅氏家用新冠病毒抗原自我檢測套組,34,2022/05/06 08:14:02,快篩銷售:自早上08:00 營業開始～， 售完為止！
5912011865,長青藥師藥局,新竹市東區民生路１４５號,120.9765,24.81063,(03)5439673,羅氏家用新冠病毒抗原自我檢測套組,78,2022/05/06 08:14:02,快篩實名制上午9；00 開始發放 ，週日不發放
5912012120,仁美藥局,新竹市東區振興里振興路５２號,120.9625,24.79493,(03)5625398,羅氏家用新冠病毒抗原自我檢測套組,78,2022/05/06 08:14:02,快篩試劑，晚上六點開始飯售（周日店休）
5912012746,安康藥局,新竹市東區民族路１１２號,120.9771,24.8077,(03)5437048,羅氏家用新冠病毒抗原自我檢測套組,39,2022/05/06 08:14:02,快篩試劑代售時段 : 早上8點到賣完為止送貨時間早上9點到下午2點
5912012773,博弘藥局,新竹市東區南大路３８７號,120.9684,24.79662,(03)5619470,羅氏家用新冠病毒抗原自我檢測套組,52,2022/05/06 08:14:02,快篩試劑販賣時間；上午8:00起至售完為止
5912012933,新芳鄰藥局,新竹市東區南大路４０２號,120.9695,24.79764,(03)5622183,羅氏家用新冠病毒抗原自我檢測套組,57,2022/05/06 08:14:02,營業時間 : 週一至週六8:00-22:00 ， 週日9:00-18:00   ；  （快篩販賣 : 週一至週六8:00 ， 週日9:00  ， 滾動式調整）
5912012988,杏康健保特約藥局,新竹市東區光復路一段５２５巷２３號１樓,121.0135,24.78384,(03)5772966,羅氏家用新冠病毒抗原自我檢測套組,62,2022/05/06 08:14:02,週一至五09:00-21:00 （週六公休） 週日09:00-18:00
5912013261,禾心藥局,新竹市東區民生路２３１號１樓,120.9754,24.81199,(03)5332403,羅氏家用新冠病毒抗原自我檢測套組,90,2022/05/06 08:14:02,無
5912013341,康健藥局,新竹市東區中央路１２８－１號,120.9711,24.80687,(03)5359789,羅氏家用新冠病毒抗原自我檢測套組,48,2022/05/06 08:14:02,快篩販售時段: 早8:00-9:00 售完為止
5912013412,牛津藥局,新竹市東區民族路６２號１樓,120.9756,24.8067,(03)5320780,羅氏家用新冠病毒抗原自我檢測套組,20,2022/05/06 08:14:02,無
5912013690,佑全新竹食品藥局,新竹市東區食品路１７０號,120.9764,24.79735,(03)5627307,羅氏家用新冠病毒抗原自我檢測套組,48,2022/05/06 08:14:02,實名制快篩下午2點開賣1點40分發號碼牌實際庫存依物流到貨時間滾動式調整
5912040553,新廣德中西藥局,新竹市北區民富里延平路１段１６６號,120.9564,24.80464,(03)5225386,羅氏家用新冠病毒抗原自我檢測套組,16,2022/05/06 08:14:02,快篩劑販售時間：08:00起，售完為止；每日08:00起至21:00為止
5912042208,芳里藥局,新竹市北區延平路一段214巷2號,120.9544,24.80528,(03)5222989,羅氏家用新冠病毒抗原自我檢測套組,134,2022/05/06 08:14:02,星期日營業時間調整為9:00-18:00。快篩販售時間為早上8點，禮拜天為9點
5912042404,豐盛藥局,新竹市北區光華二街３５號,120.9747,24.81816,(03)5335651,羅氏家用新冠病毒抗原自我檢測套組,64,2022/05/06 08:14:02,實名制快篩:早上9點開始發號碼牌，13-22點領取快篩
5912042459,閎安專業藥局,新竹市北區延平路三段６８７號１樓,120.9367,24.8407,(03)5368675,羅氏家用新冠病毒抗原自我檢測套組,78,2022/05/06 08:14:02,快篩販售時間:12:00，週日公休
5912042637,中福藥局,新竹市北區中福路８３號,120.9327,24.8408,(03)5366996,羅氏家用新冠病毒抗原自我檢測套組,78,2022/05/06 08:14:02,快篩販售時間：上午09:00
5912042959,躍獅光華藥局,新竹市北區光華東街３６－１號１樓,120.9743,24.81586,(03)5331281,羅氏家用新冠病毒抗原自我檢測套組,55,2022/05/06 08:14:02,實際販售時間:AM08:30
5912051216,健安藥局,新竹市香山區內湖路六十號,120.9058,24.74397,(03)5370111,羅氏家用新冠病毒抗原自我檢測套組,48,2022/05/06 08:14:02,實名制口罩已結束販售
5912051449,金正好藥局,新竹市香山區中華路四段５１２號１樓,120.9324,24.79011,(03)5305525,羅氏家用新冠病毒抗原自我檢測套組,87,2022/05/06 08:14:02,無
5917010126,永大藥局,臺中市中區錦上里民族路１２２號,120.6786,24.14054,(04)22210180,羅氏家用新冠病毒抗原自我檢測套組,5,2022/05/06 08:14:02,09:00開始代售快篩，人多會發號碼牌
5917011945,正三吉藥局,臺中市中區臺灣大道一段９５號,120.6831,24.13911,(04)22207700,羅氏家用新冠病毒抗原自我檢測套組,79,2022/05/06 08:14:02,快篩販售時間 14:00~17:00
5917020060,來安藥局,臺中市東區十甲東路４８８號１樓,120.7073,24.13824,(04)22116977,羅氏家用新冠病毒抗原自我檢測套組,12,2022/05/06 08:14:02,發快篩時間早上8點
5917020104,七星中西藥局,臺中市東區東信里十甲東路４０６巷１號１樓,120.7061,24.13603,(04)22123014,羅氏家用新冠病毒抗原自我檢測套組,3,2022/05/06 08:14:02,無
5917020122,周藥師藥局,臺中市東區合作里力行路５５號１樓,120.6956,24.15085,(04)23606800,羅氏家用新冠病毒抗原自我檢測套組,78,2022/05/06 08:14:02,營業時間早上8:30-12:30 下午2:30-晚上9:00 ｛8:30賣快篩；週日不賣快篩｝
5917020417,群益藥局,臺中市東區東英八街１０６號１樓,120.7067,24.14148,(04)22129298,羅氏家用新冠病毒抗原自我檢測套組,72,2022/05/06 08:14:02,快篩實名制於早上8.30開始販售
5917030128,太信藥局,臺中市西區三民路一段９５－１號１樓,120.6698,24.13322,(04)23718318,羅氏家用新冠病毒抗原自我檢測套組,36,2022/05/06 08:14:02,健保卡快篩請0900自備500元／份
5917030226,九和大藥局向上店,臺中市西區向上路一段１９２號１樓,120.6605,24.14684,(04)23020148,羅氏家用新冠病毒抗原自我檢測套組,40,2022/05/06 08:14:02,周一~六08:00開始。周日08:00~中午12:00，下午休息。
5917030600,永昇藥局,臺中市西區東昇里朝陽街４５號,120.6701,24.13522,(04)23717280,羅氏家用新冠病毒抗原自我檢測套組,2,2022/05/06 08:14:02,無
5917030646,華隆藥局,臺中市西區樂群街６之２號,120.6735,24.14025,(04)22243785,羅氏家用新冠病毒抗原自我檢測套組,78,2022/05/06 08:14:02,上午10:00開始販售快篩試劑，售完為止
5917030726,元泉藥局,臺中市西區公益里中美街２５７號,120.6601,24.14874,(04)23015503,羅氏家用新冠病毒抗原自我檢測套組,62,2022/05/06 08:14:02,固定週一至週六早上8:30開始販售口罩.售完為止
5917030995,麗新健保大藥局,臺中市西區向上路一段１６２號,120.6612,24.1469,(04)23017100,羅氏家用新冠病毒抗原自我檢測套組,77,2022/05/06 08:14:02,週一至週日下午15:00至售完為止
5917032462,名亨藥局,臺中市西區五權路２９號１樓,120.6696,24.14423,(04)22201089,羅氏家用新冠病毒抗原自我檢測套組,68,2022/05/06 08:14:02,每日上午8:20至12，下午3至6時販售.周 日  休 息. 周 六    下 午 休 息 .
5917032908,佑恩藥師藥局,臺中市西區精誠路６７號１樓,120.6553,24.15224,(04)23100058,羅氏家用新冠病毒抗原自我檢測套組,78,2022/05/06 08:14:02,實名制快篩周一到周六，早上9:00，周日下午2:10開始販賣
5917040106,侑民藥局,臺中市南區興大路３９６巷４９號１樓,120.6712,24.11564,(04)22860146,羅氏家用新冠病毒抗原自我檢測套組,75,2022/05/06 08:14:02,週一至週日上午9點販賣防疫快篩試劑
5917040302,元聖藥局,臺中市南區積善里五權南路６５０號１樓,120.6702,24.11416,(04)22627468,羅氏家用新冠病毒抗原自我檢測套組,23,2022/05/06 08:14:02,週一至週日上午9點販賣防疫口罩
5917050424,中心藥局,臺中市北區五權路２７９號１樓,120.6777,24.15169,(04)22012985,羅氏家用新冠病毒抗原自我檢測套組,10,2022/05/06 08:14:02,口罩每日上午8:00發放號碼牌，依序販售。全年無休。
5917050433,松鶴藥局,臺中市北區文莊里篤行路２２４號,120.6738,24.15187,(04)22028790,羅氏家用新冠病毒抗原自我檢測套組,73,2022/05/06 08:14:02,口罩每日上午8:30開始販售，現場排隊售完為止。（全年無休）
5917050577,東生藥局,臺中市北區永興街１１２－１號１樓,120.6825,24.16152,(04)22358880,羅氏家用新冠病毒抗原自我檢測套組,72,2022/05/06 08:14:02,周一到周六上午8:30到晚上10:00開始販售口罩，周日公休
5917050586,仁柏藥局,臺中市北區賴明里山西街二段６２號,120.6758,24.16874,(04)22924462,羅氏家用新冠病毒抗原自我檢測套組,73,2022/05/06 08:14:02,實名制每日上午9:00開始現場排隊販售
5917053514,學士藥局,臺中市北區學士路１３號之１樓,120.6823,24.15372,(04)22015008,羅氏家用新冠病毒抗原自我檢測套組,78,2022/05/06 08:14:02,固定周一到周日，早上09:50開始發放號碼牌及販賣快篩
5917060204,宏光藥局,臺中市西屯區何安里西屯路二段９５之２３號,120.656,24.16535,(04)23137278,羅氏家用新冠病毒抗原自我檢測套組,35,2022/05/06 08:14:02,星期一至六早上8:10分開始販賣快篩試劑（免號碼牌，依序隨到隨售，售完為止。）星期日試劑有到貨貨就賣
5917062353,典安大藥局,臺中市西屯區西屯路３段１５９－６０號,120.6177,24.18807,(04)24616571,羅氏家用新冠病毒抗原自我檢測套組,78,2022/05/06 08:14:02,每天10:00發放快篩
5917062531,久揚大藥局,臺中市西屯區工業區一路９８之１６號,120.6138,24.17453,(04)23580738,羅氏家用新冠病毒抗原自我檢測套組,52,2022/05/06 08:14:02,未發號碼牌，星期一至六早上9:00開始販賣口罩，星期日不一定
5917062559,德康藥局,臺中市西屯區福和里中工三路１５６號,120.6181,24.17737,(04)23583373,羅氏家用新冠病毒抗原自我檢測套組,46,2022/05/06 08:14:02,每天早上9:00開始，不發號碼牌，現場排隊領口罩
5917063676,百惠藥師藥局,臺中市西屯區漢口路二段２４７號,120.6649,24.16696,(04)23169852,羅氏家用新冠病毒抗原自我檢測套組,46,2022/05/06 08:14:02,實名制快篩購買時間:星期一至五:早上9-11  ， 星期六早上10-12 ，星期日店休.
5917063725,永旭大藥局,臺中市西屯區逢甲路９２號１樓,120.6439,24.17883,(04)27087952,羅氏家用新冠病毒抗原自我檢測套組,1,2022/05/06 08:14:02,5／6起實名快篩，星期一到五早上10點開始，星期六日中午12點開始排隊販售。
5917070248,聯發藥局,臺中市南屯區溝墘里大墩路８５０號,120.6496,24.15551,(04)23262738,羅氏家用新冠病毒抗原自我檢測套組,78,2022/05/06 08:14:02,週一至周六早上十點開賣，以現場數量為主，售完為止。販售時間忙碌，恕無法接聽電話，請見諒。
5917071781,吉運藥局,臺中市南屯區南屯里黎明路１段１１３５號,120.6382,24.14047,(04)23834755,羅氏家用新冠病毒抗原自我檢測套組,108,2022/05/06 08:14:02,固定周一到周六，早上8:00賣實名制快篩。不發號碼牌
5917071996,乾生大藥局,臺中市南屯區大業路９５號,120.6524,24.15336,(04)23281277,羅氏家用新冠病毒抗原自我檢測套組,78,2022/05/06 08:14:02,09:00
5917080593,崇安藥局,臺中市北屯區四民里昌平路二段５４－３號１樓,120.6831,24.19198,(04)24221929,羅氏家用新冠病毒抗原自我檢測套組,75,2022/05/06 08:14:02,實名制快篩周一至周日08:15發號碼牌
5917080771,大生大藥局,臺中市北屯區三光里北屯路３３７號,120.6974,24.1703,(04)22337059,羅氏家用新冠病毒抗原自我檢測套組,72,2022/05/06 08:14:02,快篩試劑-周一至周日每天早上8:30開始販售，無發放號碼牌，每天即時現場販售服務，售完為止。（週日正常販售服務）
5917082444,杏城藥局,臺中市北屯區崇德路２段２９２、２９４號,120.686,24.17596,(04)22464676,羅氏家用新冠病毒抗原自我檢測套組,59,2022/05/06 08:14:02,雙周的星期日休息，快篩開賣時間9點，假日10點
5917082882,世富藥局,臺中市北屯區北屯路２９９－３號１樓,120.6961,24.16825,(04)22317085,羅氏家用新冠病毒抗原自我檢測套組,28,2022/05/06 08:14:02,營業早上08:00-12:00，下午15:00-21:00.星期六晚上休息.星期日休息
5917083076,瑞生藥局,臺中市北屯區大連路３段１２６號１樓,120.6948,24.17444,(04)22416759,羅氏家用新冠病毒抗原自我檢測套組,1,2022/05/06 08:14:02,每天早上8:30~晚上10:00，星期日休息（快篩販售時間:下午3:30）
5917083272,吉富康藥局,臺中市北屯區大連路三段９９號１樓,120.6935,24.17494,(04)22473057,羅氏家用新冠病毒抗原自我檢測套組,78,2022/05/06 08:14:02,營業時間早上9點至晚上9點，快篩早上9點開賣，中午12:30至14:00午休及清消，周日公休，
5917083334,瑞東大藥局,臺中市北屯區東山路一段２４６之３號,120.7179,24.17542,(04)24373799,羅氏家用新冠病毒抗原自我檢測套組,78,2022/05/06 08:14:02,5／5 快篩 9:30開始發放，售完為止
5921010152,周藥師藥局,臺南市東區崇成里崇善路６５４號,120.2303,22.97049,(06)2678421,羅氏家用新冠病毒抗原自我檢測套組,4,2022/05/06 08:14:02,無
5921010223,王藥局,臺南市東區小東里小東路１９０－１號,120.2276,22.99976,(06)2378697,羅氏家用新冠病毒抗原自我檢測套組,78,2022/05/06 08:14:02,週一 至 週日，下午 2:00 ~ 晚上9:00 （ 需健保卡 ）
5921010250,宏昌藥局,臺南市東區大同路１段２７１號,120.2116,22.98252,(06)2142459,羅氏家用新冠病毒抗原自我檢測套組,40,2022/05/06 08:14:02,星期一-六09:00開始 售完為止 星期日休息
5921010429,乙田藥局,臺南市東區東明里怡東路３０號,120.2278,22.99109,(06)2359303,羅氏家用新冠病毒抗原自我檢測套組,101,2022/05/06 08:14:02,無
5921010625,益丞藥局,臺南市東區裕農路３４８號,120.2294,22.98681,(06)2359865,羅氏家用新冠病毒抗原自我檢測套組,53,2022/05/06 08:14:02,快篩送達時間不一定，請先打電話詢問
5921010689,億安大藥局,臺南市東區大福里大同路２段２６５號,120.2145,22.97486,(06)2159881,羅氏家用新冠病毒抗原自我檢測套組,78,2022/05/06 08:14:02,防疫快篩週一至週六；現場制不發號碼牌
5921010992,光明宜康保健藥局,臺南市東區光明街３６之２號１樓,120.2282,22.9989,(06)2376448,羅氏家用新冠病毒抗原自我檢測套組,9,2022/05/06 08:14:02,快篩劑販售時間：星期一~日8：00，採現場排隊無號碼牌
5921012049,小太陽藥局,臺南市東區東光里東平路１３號,120.2336,22.9947,(06)2099858,羅氏家用新冠病毒抗原自我檢測套組,73,2022/05/06 08:14:02,藥局營業時間為星期一至星期六10:00~21:30，星期天休息  實名制快篩試劑10:00開始販售，售完為止
5921012361,崇仁藥局,臺南市東區龍山里崇學路２３１號,120.2244,22.98125,(06)2894115,羅氏家用新冠病毒抗原自我檢測套組,78,2022/05/06 08:14:02,週一到週六，早上8:30開賣，售完為止；中午11:30-15:30休息
5921012398,慈惠藥局,臺南市東區前鋒路２７號,120.2126,22.98989,(06)2760746,羅氏家用新冠病毒抗原自我檢測套組,4,2022/05/06 08:14:02,5／2（一）快篩販售時間:不一定，看快篩何時配送到達
5921012852,羽杏藥局,臺南市東區崇學路２５９號,120.2248,22.98171,(06)2893330,羅氏家用新冠病毒抗原自我檢測套組,39,2022/05/06 08:14:02,週一至週六09:00起依序販售快篩，售完為止
5921020096,豐陽藥局,臺南市南區文南里文南路１１５號,120.1898,22.98481,(06)2610628,羅氏家用新冠病毒抗原自我檢測套組,54,2022/05/06 08:14:02,週一至週日08:00 開始營業及販售防疫快篩試劑，售完為止.
5921020210,興泰藥局,臺南市南區金華路一段１６５號,120.1897,22.96557,(06)2653638,羅氏家用新冠病毒抗原自我檢測套組,50,2022/05/06 08:14:02,星期一到星期六早上8點開始.售完為止
5921020256,久芳藥局,臺南市南區喜樹路３４０巷１６６號,120.1761,22.94113,(06)2625209,羅氏家用新冠病毒抗原自我檢測套組,39,2022/05/06 08:14:02,防疫口罩發放上午八點至下午八點
5921020425,日大中西藥局,臺南市南區永興一街３２號,120.1927,22.9659,(06)2612817,羅氏家用新冠病毒抗原自我檢測套組,48,2022/05/06 08:14:02,每日08:00~21:30
5921021708,為仁藥師藥局,臺南市南區大同路二段１０６號,120.2123,22.98022,(06)2139376,羅氏家用新冠病毒抗原自我檢測套組,66,2022/05/06 08:14:02,無
5921040221,好鄰居藥局,臺南市北區西華里公園路１２８號２樓７室,120.2076,22.99889,(06)2219015,羅氏家用新冠病毒抗原自我檢測套組,79,2022/05/06 08:14:02,固定星期一至星期六8:30-21:15販賣口罩，星期天休息
5921040276,全一藥局,臺南市北區大豐里和緯路四段９５巷３８號,120.1912,23.0076,(06)2580021,羅氏家用新冠病毒抗原自我檢測套組,30,2022/05/06 08:14:02,快篩實名制，每天上午08:00開始販售（週日有）
5921040294,澄清堂藥局,臺南市北區勝利路４９５號,120.2185,23.00648,(06)2377224,羅氏家用新冠病毒抗原自我檢測套組,78,2022/05/06 08:14:02,星期一至星期六早上09:00開始賣~賣完
5921040409,華成藥局,臺南市北區華興里南園街１１１號,120.2257,23.00757,(06)2344553,羅氏家用新冠病毒抗原自我檢測套組,3,2022/05/06 08:14:02,無
5921040481,眾安藥局,臺南市北區文元里文賢路１０３４號,120.1938,23.0153,(06)2588339,羅氏家用新冠病毒抗原自我檢測套組,78,2022/05/06 08:14:02,星期一~六，上午10點下午9點.（星期日休假）快篩劑販售上午10點起
5921040749,玖大藥局,臺南市北區勝利路３８３號,120.2187,23.00397,(06)2752048,羅氏家用新冠病毒抗原自我檢測套組,78,2022/05/06 08:14:02,快篩販售時間:星期一~五早上10:00-12:00
5921041924,芳鄰藥局,臺南市北區公園北路１５２號,120.2084,23.00521,(06)2811101,羅氏家用新冠病毒抗原自我檢測套組,47,2022/05/06 08:14:02,無
5921041979,康友藥師藥局,臺南市北區和緯路二段２４３號,120.2044,23.01224,(06)2520666,羅氏家用新冠病毒抗原自我檢測套組,22,2022/05/06 08:14:02,快篩實名制，上午8:00開始販售，售完為止。（星期日店休）
5921042118,欣平藥局,臺南市北區勝利路４２５號,120.2188,23.00482,(06)2354293,羅氏家用新冠病毒抗原自我檢測套組,6,2022/05/06 08:14:02,固定周一到周六早上8:00開始販售快篩實名制售完為止
5921050174,春天藥局,臺南市中西區民族路２段２７４號,120.2008,22.99758,(06)2221562,羅氏家用新冠病毒抗原自我檢測套組,43,2022/05/06 08:14:02,上午9:30開始，售完為止，周日停售
5921051582,丞功藥局,臺南市中西區成功路３１號,120.2095,22.99747,(06)2287641,羅氏家用新冠病毒抗原自我檢測套組,55,2022/05/06 08:14:02,星期一-六08:00-售完
5921060161,仲宏藥局,臺南市安南區淵中里安中路３段４３１號,120.1737,23.05,(06)2567798,羅氏家用新冠病毒抗原自我檢測套組,51,2022/05/06 08:14:02,星期一~星期六08:00-22:00 星期日:公休
5921060198,平光藥局,臺南市安南區安中路１段８２２號,120.1947,23.0437,(06)2459641,羅氏家用新冠病毒抗原自我檢測套組,78,2022/05/06 08:14:02,快篩 早上 10:30 開店起 販售 周日不賣快篩
5921060321,慈安藥局,臺南市安南區大安街５３號,120.1919,23.03148,(06)2551117,羅氏家用新冠病毒抗原自我檢測套組,78,2022/05/06 08:14:02,下午2:00
5921060385,樂成藥局,臺南市安南區安和路一段１５９巷８３號,120.2115,23.03032,(06)2568576,羅氏家用新冠病毒抗原自我檢測套組,6,2022/05/06 08:14:02,無
5921061668,新資生藥師藥局,臺南市安南區城北路５２號１樓,120.1309,23.06296,(06)2571153,羅氏家用新冠病毒抗原自我檢測套組,78,2022/05/06 08:14:02,星期一~星期六早上10-12發售
5921071226,康活藥局,臺南市安平區健康三街１８６號,120.1686,22.98883,(06)2936483,羅氏家用新冠病毒抗原自我檢測套組,6,2022/05/06 08:14:02,快篩晚上18:00開賣.
5921080010,羽田藥局,臺南市中西區府前路一段２１４號,120.205,22.98913,(06)2214066,羅氏家用新冠病毒抗原自我檢測套組,38,2022/05/06 08:14:02,週一至週六09:00起依序販售防疫口罩，售完為止
5922010361,壽生堂藥局,嘉義市東區府路里延平街２８０號,120.4502,23.47683,(05)2225058,羅氏家用新冠病毒抗原自我檢測套組,60,2022/05/06 08:14:02,周一至周日上午09:00起，至20:00或售鑿為止。
5922010405,信輝藥局,嘉義市東區安寮里吳鳳南路３５３號,120.4553,23.4643,(05)2252415,羅氏家用新冠病毒抗原自我檢測套組,44,2022/05/06 08:14:02,5／6（五）起每天早上08:00開始販售~售完為止
5922012285,聖安藥局,嘉義市東區仁武里民權路３６５號１樓,120.4506,23.48235,(05)2222941,羅氏家用新冠病毒抗原自我檢測套組,78,2022/05/06 08:14:02,每日8:30開始發放，每週四休息.
5922012712,誠泰藥師藥局,嘉義市東區安寮里興業東路５６號１樓,120.4555,23.46932,(05)2168905,羅氏家用新冠病毒抗原自我檢測套組,67,2022/05/06 08:14:02,快篩實名制早上8點開始販售
5922012721,仁藥集藥局,嘉義市東區太平里新生路５３９號,120.4582,23.49167,(05)2755533,羅氏家用新冠病毒抗原自我檢測套組,22,2022/05/06 08:14:02,8:30-11:00收健保卡，14:00發快篩
5922012874,德風藥局,嘉義市東區仁義里台林街１０８－４號１樓,120.4547,23.49514,(05)2716233,羅氏家用新冠病毒抗原自我檢測套組,78,2022/05/06 08:14:02,當日收到試劑即開賣 售完為止
5922012909,昱安藥局,嘉義市東區成仁街１８０號,120.4521,23.48057,(05)2252395,羅氏家用新冠病毒抗原自我檢測套組,1,2022/05/06 08:14:02,購買時段星期（一）至（五）下午4:00-6:00 （六） 下午3:00-5:00
5922013059,杏光藥局,嘉義市東區保健街１４７號附４,120.4492,23.50036,(05)2745642,羅氏家用新冠病毒抗原自我檢測套組,2,2022/05/06 08:14:02,週一至週五 下午1:00~5:00 （六日及國定假日停售）
5922013148,後庄弘安藥局,嘉義市東區吳鳳南路２９８號１樓,120.4587,23.4566,(05)2305678,羅氏家用新冠病毒抗原自我檢測套組,59,2022/05/06 08:14:02,無
5922013175,森活中西藥局,嘉義市東區吳鳳北路２０８號一樓,120.4533,23.47931,(05)2288518,羅氏家用新冠病毒抗原自我檢測套組,4,2022/05/06 08:14:02,8:30開始發放號碼牌，12:00~14:00領取快篩
5922020063,弘安藥局,嘉義市西區文化路２７７號,120.4486,23.48383,(05)2259000,羅氏家用新冠病毒抗原自我檢測套組,54,2022/05/06 08:14:02,營業時間 08:00-22:00 週一~週日販售快篩時間08:00-售罄；請自備零錢（面額500、1000不找零）
5922020358,泰春藥局,嘉義市西區學圃里民生北路６６號,120.4468,23.47543,(05)2224118,羅氏家用新冠病毒抗原自我檢測套組,61,2022/05/06 08:14:02,快篩試劑販售時間：早上9點至晚上9點
5922020376,勝華藥局,嘉義市西區垂楊路６２３號,120.4375,23.4726,(05)2856642,羅氏家用新冠病毒抗原自我檢測套組,32,2022/05/06 08:14:02,週一至週六早上 8:00開始販售口罩.週日休息.
5922020456,啄木鳥藥局,嘉義市西區國華里文化路２５３號,120.4488,23.48298,(05)2226497,羅氏家用新冠病毒抗原自我檢測套組,78,2022/05/06 08:14:02,無
5922020483,逢春藥局,嘉義市西區竹圍里北興街４１７號,120.4348,23.48739,(05)2326990,羅氏家用新冠病毒抗原自我檢測套組,58,2022/05/06 08:14:02,快篩:週一至週六，早上8點開始 售完為止
5922020518,永安藥局,嘉義市西區西平里信義路４９之１號,120.4344,23.47431,(05)2358368,羅氏家用新冠病毒抗原自我檢測套組,58,2022/05/06 08:14:02,口罩：星期一至星期日9點販售，售完為止，現場排隊
5922020661,大正藥局,嘉義市西區書院里民族路７０２號,120.4435,23.47554,(05)2285812,羅氏家用新冠病毒抗原自我檢測套組,29,2022/05/06 08:14:02,早上8:00開始販售~售完為止 !
5922020670,興嘉藥局,嘉義市西區興業西路３７０號,120.4373,23.46793,(05)2841812,羅氏家用新冠病毒抗原自我檢測套組,77,2022/05/06 08:14:02,固定週一至週日8:15開放領取口罩，至售完為止
5922020689,齊悅藥局,嘉義市西區西平里玉山路１４５號１樓,120.4274,23.47221,(05)2843514,羅氏家用新冠病毒抗原自我檢測套組,1,2022/05/06 08:14:02,星期一至星期六，星期日休息，早上九點開賣售完為止
5922020812,海鴻藥師藥局,嘉義市西區民生南路５５２號,120.4433,23.45878,(05)2837758,羅氏家用新冠病毒抗原自我檢測套組,47,2022/05/06 08:14:02,固定每日上午8 : 00 直接排隊發放
5922020938,仁愛弘安藥局,嘉義市西區仁愛路３９３號１樓,120.442,23.47654,(05)2239000,羅氏家用新冠病毒抗原自我檢測套組,59,2022/05/06 08:14:02,收到快篩即開賣，賣完為止
5922020974,嚴昔志藥局,嘉義市西區新民路７８５號１樓,120.4396,23.4706,(05)2853991,羅氏家用新冠病毒抗原自我檢測套組,38,2022/05/06 08:14:02,無
5922021024,理維藥局,嘉義市西區民生南路４０９號１樓,120.4436,23.45979,(05)2831110,羅氏家用新冠病毒抗原自我檢測套組,36,2022/05/06 08:14:02,5／6（五）現正熱賣中，保留25份於晚間17:00過後販售。公費快篩到貨以及販售時間會於臉書粉絲團及LINE群組公告。
5922028596,一安藥局,嘉義市西區福民里興業西路３１１號,120.4387,23.4677,(05)2859275,羅氏家用新冠病毒抗原自我檢測套組,3,2022/05/06 08:14:02,周一至周日早上9點至晚上10點半依發放號碼排依序售完
592202A054,萬泰藥師藥局,嘉義市西區民族路４９４號,120.449,23.47605,(05)2168605,羅氏家用新冠病毒抗原自我檢測套組,64,2022/05/06 08:14:02,快篩實名制8:00開始販售
592202A296,秉原藥局,嘉義市西區書院里民族路７００號,120.4435,23.47554,(05)2285811,羅氏家用新冠病毒抗原自我檢測套組,31,2022/05/06 08:14:02,早上8:00開始販售~售完為止!
592202A349,力健藥局,嘉義市西區文化路５９１號,120.4443,23.49355,(05)2323217,羅氏家用新冠病毒抗原自我檢測套組,55,2022/05/06 08:14:02,營業時間為早上8:00至中午13:00，下午2:30至晚上9:30，口罩發放從早上8:30至售完為止
592202A518,徠的安藥師藥局,嘉義市西區保安里世賢路１段６鄰５４９號,120.4306,23.48982,(05)2318532,羅氏家用新冠病毒抗原自我檢測套組,33,2022/05/06 08:14:02,無
5931010066,翰林藥局,新北市板橋區中正路２４０號,121.4557,25.01906,(02)29602748,羅氏家用新冠病毒抗原自我檢測套組,22,2022/05/06 08:14:02,早上8：00─晚上11：00
5931010217,皇安藥局,新北市板橋區中山路２段２４１號,121.4772,25.01757,(02)29524089,羅氏家用新冠病毒抗原自我檢測套組,78,2022/05/06 08:14:02,快篩星期一三五單號，星期二四號雙號
5931010315,優良藥局,新北市板橋區莊敬路９３號,121.4727,25.02628,(02)22550251,羅氏家用新冠病毒抗原自我檢測套組,78,2022/05/06 08:14:02,無
5931010342,宏達大藥局,新北市板橋區莒光路１７號,121.47,25.02478,(02)22572345,羅氏家用新冠病毒抗原自我檢測套組,156,2022/05/06 08:14:02,快篩 晚上20:00開始販售! 不要打電話來 問題這麼多就到現場 也不給你問
5931010397,正成藥師藥局,新北市板橋區三民路２段１５４巷７號,121.4787,25.01515,(02)29512760,羅氏家用新冠病毒抗原自我檢測套組,78,2022/05/06 08:14:02,無
5931010477,華傳綜合大藥局,新北市板橋區大智街４０號,121.455,25.01515,(02)29670029,羅氏家用新冠病毒抗原自我檢測套組,78,2022/05/06 08:14:02,週一至週六早上8:30開始發售實名制快篩，週日停售。
5931011009,祥聖藥局,新北市板橋區溪崑二街１１２巷３５弄１號,121.4253,24.98921,(02)26835677,羅氏家用新冠病毒抗原自我檢測套組,78,2022/05/06 08:14:02,下午1:30 販售（視快篩劑送到時間，而滾動式調整販售時間）。星期日休息。
5931011054,國光藥師藥局,新北市板橋區國光路１７２號,121.4605,25.01825,(02)29698181,羅氏家用新冠病毒抗原自我檢測套組,98,2022/05/06 08:14:02,無
5931011250,錦龍藥局,新北市板橋區長安街１３８巷１弄１１４號,121.4743,25.0103,(02)29522290,羅氏家用新冠病毒抗原自我檢測套組,78,2022/05/06 08:14:02,週一至周日早上8:30~開始發售， 售完為止。
5931011330,戴安藥局,新北市板橋區溪北路５４號,121.4276,24.98982,(02)26818663,羅氏家用新冠病毒抗原自我檢測套組,78,2022/05/06 08:14:02,無
5931011947,長弘藥局,新北市板橋區龍泉街１１０號,121.4568,25.02454,(02)22558789,羅氏家用新冠病毒抗原自我檢測套組,36,2022/05/06 08:14:02,無
5931012042,喬治藥局,新北市板橋區國慶路１５５號１樓,121.4616,24.99617,(02)29630787,羅氏家用新冠病毒抗原自我檢測套組,78,2022/05/06 08:14:02,網路數量不準。13:00開賣，如排隊人數過半，將提早開始販售。星期日公休無販售
5931012051,全曜藥局,新北市板橋區民權路２６０巷６２號,121.4603,25.01495,(02)29682681,羅氏家用新冠病毒抗原自我檢測套組,2,2022/05/06 08:14:02,實名制快篩下午七點發放，依現場數量為準（星期六.星期日休）
5931013343,晉麟藥局,新北市板橋區懷德街７８巷４號,121.4781,25.03164,(02)22509069,羅氏家用新冠病毒抗原自我檢測套組,24,2022/05/06 08:14:02,實名制快篩早上8:00販售
5931014439,旭全藥局,新北市板橋區金門街３３１號,121.4294,24.98582,(02)26860526,羅氏家用新冠病毒抗原自我檢測套組,78,2022/05/06 08:14:02,星期1~6上午9:30~10:30 星期天上午9:30~下午5:00
5931014537,友虹藥師藥局,新北市板橋區國光路１６號,121.457,25.01739,(02)29691181,羅氏家用新冠病毒抗原自我檢測套組,68,2022/05/06 08:14:02,早上十點開始販賣到十一點
5931015687,正康健保藥局,新北市板橋區大觀路２段６５號１樓,121.4467,25.00246,(02)22756681,羅氏家用新冠病毒抗原自我檢測套組,78,2022/05/06 08:14:02,下午13:30依現場順序開始販售快篩，快篩配送絮亂庫存不準!!
5931015721,新進發大藥局,新北市板橋區大同街２４號１樓,121.4787,25.0275,(02)22593926,羅氏家用新冠病毒抗原自我檢測套組,71,2022/05/06 08:14:02,快篩上午10點開門即賣，排隊不發號碼
5931015874,家碩藥局,新北市板橋區金門街３００號,121.4289,24.98539,(02)26755715,羅氏家用新冠病毒抗原自我檢測套組,78,2022/05/06 08:14:02,快篩9點發號碼牌和收健保卡.中午12點至下午六點憑號碼牌領快篩和健保卡.
5931015990,名安藥局,新北市板橋區龍興街５７號(１樓),121.4432,25.00115,(02)82751784,羅氏家用新冠病毒抗原自我檢測套組,53,2022/05/06 08:14:02,星 期日休息
5931016237,幸福健保藥局,新北市板橋區四維路１０６號１樓,121.4657,25.02457,(02)22530009,羅氏家用新冠病毒抗原自我檢測套組,1,2022/05/06 08:14:02,無
5931016737,必生好藥局,新北市板橋區松柏街６７號１樓,121.4763,25.03065,(02)22511057,羅氏家用新冠病毒抗原自我檢測套組,49,2022/05/06 08:14:02,快篩早上8點開賣 開門即賣，排隊不發號碼直接購買
5931016755,禾田藥局,新北市板橋區大觀路２段２６５巷１２號（１樓）,121.4428,24.99858,(02)29659899,羅氏家用新冠病毒抗原自我檢測套組,79,2022/05/06 08:14:02,8：30發放號碼牌，9：30-21：30來購買，當日未刷健保卡購買者視為無效
5931016808,正安健保藥局,新北市板橋區民族路２２４號（１樓）,121.4687,25.00733,(02)29526813,羅氏家用新冠病毒抗原自我檢測套組,78,2022/05/06 08:14:02,17時依現場順序開始販售.週六12點.電腦配送庫存不準..以現場數量為準
5931017216,康鑫藥局,新北市板橋區文化路１段２０６號１樓,121.4664,25.02012,(02)82585135,羅氏家用新冠病毒抗原自我檢測套組,78,2022/05/06 08:14:02,無
5931017270,躍獅新埔藥局,新北市板橋區陽明街４７號１樓,121.4637,25.02386,(02)22543932,羅氏家用新冠病毒抗原自我檢測套組,78,2022/05/06 08:14:02,無
5931017547,好爸爸藥局,新北市板橋區民治街１０７號１樓,121.4788,25.03138,(02)22559955,羅氏家用新冠病毒抗原自我檢測套組,3,2022/05/06 08:14:02,無
5931017556,光鹽藥局,新北市板橋區中山路２段８４之２號（２樓）,121.4748,25.0161,(02)29552167,羅氏家用新冠病毒抗原自我檢測套組,78,2022/05/06 08:14:02,無
5931017636,福澤藥局,新北市板橋區南雅南路１段８５號（１樓）,121.4556,25.00543,(02)29690013,羅氏家用新冠病毒抗原自我檢測套組,78,2022/05/06 08:14:02,口罩代售9:00-23:00
5931017654,葆康藥局,新北市板橋區四川路２段２４５巷３號（１樓）,121.4507,24.99346,(02)89678373,羅氏家用新冠病毒抗原自我檢測套組,78,2022/05/06 08:14:02,下午四點開始販售實名制快篩，不用抽號碼牌，直接排隊購買。
5931017681,浣熊藥局,新北市板橋區中正路３０１號（１樓）,121.4552,25.01954,(02)29650355,羅氏家用新冠病毒抗原自我檢測套組,1,2022/05/06 08:14:02,無
5931017716,星辰藥局,新北市板橋區實踐路４９號（１樓）,121.4638,25.00679,(02)89521666,羅氏家用新冠病毒抗原自我檢測套組,3,2022/05/06 08:14:02,換快篩請自備$500 沒這麼多$500可以找
5931017869,躍獅國慶藥局,新北市板橋區國慶路１７９號（１樓）,121.4626,24.99636,(02)29641548,羅氏家用新冠病毒抗原自我檢測套組,156,2022/05/06 08:14:02,快篩實名制，每天14:00開始販售，售完為止
5931017903,吉發藥局,新北市板橋區文化路１段１８８巷５弄１５號（１樓）,121.4674,25.01986,(02)22577381,羅氏家用新冠病毒抗原自我檢測套組,78,2022/05/06 08:14:02,無
5931018106,力安藥局,新北市板橋區莒光路１９６巷８號（１樓）,121.4738,25.02255,(02)22503349,羅氏家用新冠病毒抗原自我檢測套組,52,2022/05/06 08:14:02,快篩實名制，早上9點依現場順序開始販售快篩，售完為止。
5931020400,新迪化中西藥局,新北市三重區三陽路２７號１樓,121.4855,25.05893,(02)29884755,羅氏家用新冠病毒抗原自我檢測套組,78,2022/05/06 08:14:02,快篩實名制中午12點開始販售，發號碼牌
5931020464,合眾藥局,新北市三重區文化北路１０２巷３９號,121.4972,25.06597,(02)29897379,羅氏家用新冠病毒抗原自我檢測套組,78,2022/05/06 08:14:02,實名制快篩，販售時間：請搜尋「合眾藥局臉書粉絲專頁」!!
5931020599,德林藥局,新北市三重區中正北路５７２號,121.4705,25.07205,(02)29832019,羅氏家用新冠病毒抗原自我檢測套組,78,2022/05/06 08:14:02,無
5931020919,東裕藥局,新北市三重區重新路４段１２２號,121.487,25.05652,(02)29773255,羅氏家用新冠病毒抗原自我檢測套組,78,2022/05/06 08:14:02,實名制快篩販售時間:AM9:00開始現場排隊，售完為止.（星期日休息）
5931021167,禮隆藥局,新北市三重區自強路４段６４號,121.4901,25.07853,(02)29894735,羅氏家用新冠病毒抗原自我檢測套組,48,2022/05/06 08:14:02,快篩試劑早上九點開始發號碼牌，發完為止
5931021416,國星藥局,新北市三重區溪尾街１０９號,121.4898,25.07867,(02)29859203,羅氏家用新冠病毒抗原自我檢測套組,2,2022/05/06 08:14:02,無
5931021532,龍門藥局,新北市三重區龍門路１８９號,121.4996,25.07322,(02)29756141,羅氏家用新冠病毒抗原自我檢測套組,78,2022/05/06 08:14:02,實名制快篩販售時間~星期一至星期六下午3點
5931023447,安泰藥局,新北市三重區正義北路３００－３號２樓,121.4953,25.06978,(02)89815379,羅氏家用新冠病毒抗原自我檢測套組,78,2022/05/06 08:14:02,5／2只有早上8:30--12:00營業下午.及晚上休息
5931023527,德慈藥局,新北市三重區重新路３段１６號１樓,121.4951,25.06138,(02)29736693,羅氏家用新冠病毒抗原自我檢測套組,73,2022/05/06 08:14:02,快篩試劑販售時間自每日13:00開始
5931024168,合康健保藥局,新北市三重區三和路４段３８４號１樓,121.4824,25.0789,(02)22869999,羅氏家用新冠病毒抗原自我檢測套組,78,2022/05/06 08:14:02,快篩試劑販售時間每日早上0845
5931024515,陳藥局,新北市三重區三民街７７號,121.4858,25.06293,(02)29848601,羅氏家用新冠病毒抗原自我檢測套組,76,2022/05/06 08:14:02,實名制快篩每日78人份販售時間: 周一到五 晚上7:30~9:00，週六 下午4:00~5:30現場購買沒有發號碼牌，星期天公休
5931024588,陽光藥師藥局,新北市三重區三和路２段１８２號１樓,121.4987,25.06886,(02)29788120,羅氏家用新冠病毒抗原自我檢測套組,139,2022/05/06 08:14:02,無
5931024873,捷元健保藥局,新北市三重區三賢街１８５號１樓,121.4863,25.08731,(02)82877107,羅氏家用新冠病毒抗原自我檢測套組,78,2022/05/06 08:14:02,快篩9:00開賣 每周日公休不販售
5931024908,力行德榮藥局,新北市三重區力行路２段１７０號１樓,121.483,25.07699,(02)22867170,羅氏家用新冠病毒抗原自我檢測套組,78,2022/05/06 08:14:02,星期一到星期五早上八點半.星期六.十二點十分.星期日以現場告為主
5931024962,建祥三和藥局,新北市三重區三和路２段１６０號１樓,121.4992,25.06853,(02)29703379,羅氏家用新冠病毒抗原自我檢測套組,78,2022/05/06 08:14:02,實名制快篩10:00發放號碼牌
5931025174,小林健保藥局,新北市三重區文化北路６１－１號１樓,121.4987,25.0663,(02)29763895,羅氏家用新冠病毒抗原自我檢測套組,3,2022/05/06 08:14:02,快篩販售時間公告於「小林健保藥局」粉絲專頁
5931025281,吉盛健保藥局,新北市三重區頂崁街２１０巷４６號１樓,121.4753,25.06803,(02)29801666,羅氏家用新冠病毒抗原自我檢測套組,77,2022/05/06 08:14:02,＜星期日固定公休＞ 5／7、 5／14這兩天也停售!!! 快篩實名制上午8:30開始販售，不發放號碼牌排隊購買
5931025398,昌誠藥局,新北市三重區三和路４段１６１號１樓,121.4835,25.0785,(02)22876338,羅氏家用新冠病毒抗原自我檢測套組,5,2022/05/06 08:14:02,5／2 （休診）
5931025521,徐匯藥局,新北市三重區仁愛街７５５號１樓,121.4809,25.07996,(02)28572234,羅氏家用新冠病毒抗原自我檢測套組,78,2022/05/06 08:14:02,實名快篩星期一~六，下午2:30開賣，1人限1卡
5931025567,閎安藥局,新北市三重區重新路２段８５號１樓、２樓,121.4962,25.06181,(02)29881968,羅氏家用新冠病毒抗原自我檢測套組,5,2022/05/06 08:14:02,每日皆執行調劑業務，快篩代售時間每日下午三點發號碼牌並領取
5931025638,華安生活藥局,新北市三重區重新路２段１２６號１樓,121.4963,25.0616,(02)29756534,羅氏家用新冠病毒抗原自我檢測套組,77,2022/05/06 08:14:02,國定例假日執行調劑業務
5931025692,杏一三重集成藥局,新北市三重區集成路４３號１樓,121.4893,25.05271,(02)29743410,羅氏家用新冠病毒抗原自我檢測套組,177,2022/05/06 08:14:02,5／5 暫停販售  5／6下午三點開始發放號碼牌
5931025745,恆源藥局,新北市三重區仁興街２８巷４１號１樓,121.4982,25.07515,(02)29765002,羅氏家用新冠病毒抗原自我檢測套組,119,2022/05/06 08:14:02,國定假日有提供調劑業務
5931025781,芯慈藥局,新北市三重區永安北路２段１０５號１樓,121.4831,25.08392,(02)28570670,羅氏家用新冠病毒抗原自我檢測套組,47,2022/05/06 08:14:02,國定假日有提供藥劑服務
5931025807,永福藥局,新北市三重區永福街３號１樓,121.4827,25.07837,(02)22861161,羅氏家用新冠病毒抗原自我檢測套組,77,2022/05/06 08:14:02,15:00排隊拿號碼牌買快篩
5931030013,皇誼藥局,新北市永和區文化路３３號,121.5147,25.01499,(02)29278732,羅氏家用新冠病毒抗原自我檢測套組,76,2022/05/06 08:14:02,無
5931032302,威康藥局,新北市永和區中正路１５３號,121.5163,24.9984,(02)29461128,羅氏家用新冠病毒抗原自我檢測套組,6,2022/05/06 08:14:02,無
5931032811,華特健康藥局,新北市永和區永貞路３６２號１樓,121.5102,25.00667,(02)29264391,羅氏家用新冠病毒抗原自我檢測套組,16,2022/05/06 08:14:02,快篩販賣時間13:00-15:00
5931033078,博昇藥局,新北市永和區仁愛路２２號１樓,121.5148,25.01361,(02)29267273,羅氏家用新冠病毒抗原自我檢測套組,24,2022/05/06 08:14:02,8：20開始發號碼牌、收健保卡、500元，下午3：00至6：00領取實名制快篩。星期日8：30至9：30現場販售實名制快篩。
5931033103,皇家藥師藥局,新北市永和區中正路７２０號１樓,121.5158,25.01017,(02)89216867,羅氏家用新冠病毒抗原自我檢測套組,74,2022/05/06 08:14:02,無
5931033461,常安中西藥局,新北市永和區保平路２６號１樓,121.5122,25.00749,(02)29283530,羅氏家用新冠病毒抗原自我檢測套組,2,2022/05/06 08:14:02,每日下午三點開始實名制快篩
5931033523,永奕藥局,新北市永和區永平路２８６之１號１樓,121.5077,25.01208,(02)22327709,羅氏家用新冠病毒抗原自我檢測套組,77,2022/05/06 08:14:02,無
5931033603,安安藥局,新北市永和區竹林路２０３號１樓,121.5209,25.00911,(02)89263651,羅氏家用新冠病毒抗原自我檢測套組,37,2022/05/06 08:14:02,實名制快篩每日上午10點現場排隊過卡.不發號碼牌；營業時間9:30-21:30
5931033621,永正健康人生藥局,新北市永和區中正路１９１、１９３號１樓、１９７號２樓,121.5171,24.99931,(02)29467351,羅氏家用新冠病毒抗原自我檢測套組,78,2022/05/06 08:14:02,實名制快篩9點開賣
5931033989,悠活藥局,新北市永和區得和路３３０號１樓,121.5233,24.99947,(02)31516288,羅氏家用新冠病毒抗原自我檢測套組,68,2022/05/06 08:14:02,營業時間:週一~週日:8:00-22:00
5931034039,叁品藥局,新北市永和區秀朗路２段１１８號１樓,121.5244,25.00152,(02)29208800,羅氏家用新冠病毒抗原自我檢測套組,30,2022/05/06 08:14:02,實名制快篩 下午一點發放號碼牌
5931034084,柏愛藥局,新北市永和區竹林路５７號１樓,121.5183,25.01386,(02)89285609,羅氏家用新冠病毒抗原自我檢測套組,78,2022/05/06 08:14:02,實名制快篩每日0930開賣.國定假日營業時間0900-1700
5931034093,順儷中正藥局,新北市永和區中正路１１號１樓,121.514,24.99578,(02)86685058,羅氏家用新冠病毒抗原自我檢測套組,78,2022/05/06 08:14:02,國定假日仍執行調劑業務
5931034128,富康活力永和藥局,新北市永和區中和路４２９號１樓,121.5094,25.00093,(02)29263191,羅氏家用新冠病毒抗原自我檢測套組,156,2022/05/06 08:14:02,無
5931034146,亮點藥局,新北市永和區竹林路７１號１樓,121.5186,25.01355,(02)89253895,羅氏家用新冠病毒抗原自我檢測套組,95,2022/05/06 08:14:02,快篩發放時段 下午16:30-18:00
5931034191,健生活藥局,新北市永和區得和路２３７號１樓,121.5203,25.00021,(02)29223222,羅氏家用新冠病毒抗原自我檢測套組,66,2022/05/06 08:14:02,無
5931034208,正銨藥局,新北市永和區得和路２４７－１號（１樓）,121.5206,25.00009,(02)29288100,羅氏家用新冠病毒抗原自我檢測套組,59,2022/05/06 08:14:02,星期1~6下午1:45發號碼牌.星期日休息
5931040055,瑞發藥局,新北市中和區民享街５６－１號,121.474,25.00236,(02)22235319,羅氏家用新冠病毒抗原自我檢測套組,40,2022/05/06 08:14:02,口罩代售時間自08:00；號碼牌發放時間自08:00
5931040215,華新藥局,新北市中和區華新街７３號,121.5082,24.98392,(02)29448345,羅氏家用新冠病毒抗原自我檢測套組,4,2022/05/06 08:14:02,無
5931040242,天立藥局,新北市中和區莒光路１２２號,121.4724,25.00173,(02)29578831,羅氏家用新冠病毒抗原自我檢測套組,3,2022/05/06 08:14:02,於下午15:00憑健保卡（一人一卡）購買實名制快篩。
5931040297,信隆大藥局,新北市中和區安樂路６號１至２樓,121.5118,24.99168,(02)29426196,羅氏家用新冠病毒抗原自我檢測套組,1,2022/05/06 08:14:02,無
5931040322,宏信藥局,新北市中和區永貞路２６２巷４號,121.5139,25.0039,(02)29294976,羅氏家用新冠病毒抗原自我檢測套組,87,2022/05/06 08:14:02,如有到貨每日早上7點30分準時開賣快篩試劑
5931040475,顧藥局,新北市中和區圓通路１４０號,121.4983,24.99583,(02)22470133,羅氏家用新冠病毒抗原自我檢測套組,3,2022/05/06 08:14:02,快篩周一到周六營業*.早上點開賣.售完為止
5931040662,仙正藥局,新北市中和區福美路３０９號,121.4969,25.00472,(02)22494081,羅氏家用新冠病毒抗原自我檢測套組,78,2022/05/06 08:14:02,無
5931040671,吉立藥局,新北市中和區自立路１８３號１樓,121.5236,24.99187,(02)29450561,羅氏家用新冠病毒抗原自我檢測套組,78,2022/05/06 08:14:02,實名制口罩販售時間，星期一~星期六，早上0900-1200
5931042282,慈光藥局,新北市中和區南山路１１７號,121.5021,24.99737,(02)22407700,羅氏家用新冠病毒抗原自我檢測套組,11,2022/05/06 08:14:02,實名制快篩早上9:00販賣
5931042326,璟福藥局,新北市中和區安平路７６號１樓,121.511,24.99652,(02)29408669,羅氏家用新冠病毒抗原自我檢測套組,52,2022/05/06 08:14:02,無
5931042648,恩溢藥局,新北市中和區復興路７９號１樓.２樓,121.5035,24.9902,(02)22452450,羅氏家用新冠病毒抗原自我檢測套組,3,2022/05/06 08:14:02,無
5931042899,家家藥局,新北市中和區民德路４３號,121.469,25.00219,(02)29587512,羅氏家用新冠病毒抗原自我檢測套組,78,2022/05/06 08:14:02,實名制快篩早上09:00販售，若人數眾多會發號碼牌，有拿到者可現場領取。
5931043109,育新藥局,新北市中和區中安街４０巷６號,121.5127,25.00305,(02)29283479,羅氏家用新冠病毒抗原自我檢測套組,46,2022/05/06 08:14:02,週一、二、三、五、六早上八點開始販售，售完為止（四、日無販賣）
5931043234,康荃優生保健藥局,新北市中和區福祥路６６號１樓,121.4994,25.00494,(02)22486532,羅氏家用新冠病毒抗原自我檢測套組,3,2022/05/06 08:14:02,無
5931043396,立健藥局,新北市中和區連城路３１７號１樓,121.4892,24.99607,(02)22230614,羅氏家用新冠病毒抗原自我檢測套組,55,2022/05/06 08:14:02,週日休假
5931043565,一安藥妝藥局,新北市中和區中和路９號１.２樓,121.4998,25.00221,(02)22483778,羅氏家用新冠病毒抗原自我檢測套組,11,2022/05/06 08:14:02,下午3點開始發號碼牌販售快篩
5931043627,銓家藥局,新北市中和區員山路３１９號１-２樓,121.4812,25.0006,(02)22257728,羅氏家用新冠病毒抗原自我檢測套組,63,2022/05/06 08:14:02,實名制快篩 下午3點販售 前15分鐘發號碼牌
5931043690,捷勝藥師藥局,新北市中和區華順街１２２號〈１樓〉,121.4651,24.99646,(02)29646225,羅氏家用新冠病毒抗原自我檢測套組,78,2022/05/06 08:14:02,1-6早上8:30賣快篩  週日無販售
5931043761,杏元藥局,新北市中和區員山路１７２號１樓,121.4814,24.99994,(02)22236868,羅氏家用新冠病毒抗原自我檢測套組,1,2022/05/06 08:14:02,快篩1400 發放，現場排隊。
5931043798,永成藥局,新北市中和區景平路１５６號１樓,121.5176,24.99222,(02)29407619,羅氏家用新冠病毒抗原自我檢測套組,78,2022/05/06 08:14:02,實名制快篩，下午三點領取號碼並開始販售（每日78份）
5931043921,良安藥局,新北市中和區連城路４７７巷１號１樓,121.4833,24.99555,(02)22225798,羅氏家用新冠病毒抗原自我檢測套組,42,2022/05/06 08:14:02,週六日不開店，實名制快篩，晚上9:00開始販售
5931044044,宥元藥局,新北市中和區德光路６２號１樓,121.4696,25.00398,(02)89535473,羅氏家用新冠病毒抗原自我檢測套組,45,2022/05/06 08:14:02,週一至周六10:30-22:00發放口罩
5931044133,康富力藥局,新北市中和區仁愛街３２號１樓,121.5109,24.98843,(02)29429896,羅氏家用新冠病毒抗原自我檢測套組,78,2022/05/06 08:14:02,快篩代售時間：周一至周五9:30、週六14:00
5931044393,躍獅康銓藥局,新北市中和區莒光路１４６號１樓,121.4725,25.00088,(02)29646452,羅氏家用新冠病毒抗原自我檢測套組,77,2022/05/06 08:14:02,實名制快篩 每日上午09:10開始販售，週日店休
5931044464,健暉藥局,新北市中和區連城路４８７號１樓,121.4829,24.99552,(02)22231437,羅氏家用新冠病毒抗原自我檢測套組,83,2022/05/06 08:14:02,實名快篩 早上10點 39份 ／ 晚上7點 39份 賣完為止
5931044580,躍獅天晴藥局,新北市中和區和平街９號１樓,121.5095,24.99025,(02)29491931,羅氏家用新冠病毒抗原自我檢測套組,78,2022/05/06 08:14:02,無
5931044615,安泰大藥局,新北市中和區南山路３５號１樓,121.5022,24.99882,(02)82459423,羅氏家用新冠病毒抗原自我檢測套組,78,2022/05/06 08:14:02,週一至週五下午2:00開賣快篩試劑（無號碼牌）
5931044624,奕采藥局,新北市中和區宜安路７７號１樓,121.5109,24.99733,(02)29429770,羅氏家用新冠病毒抗原自我檢測套組,78,2022/05/06 08:14:02,週一至週六10:00~12:00販售實名制快篩9:30前發號碼牌（週日停售）
5931044660,吉佑藥局,新北市中和區大勇街３４號１樓,121.5174,24.99345,(02)89416539,羅氏家用新冠病毒抗原自我檢測套組,78,2022/05/06 08:14:02,無
5931044768,民樂健保藥局,新北市中和區員山路２２６巷３弄５號１樓,121.4817,25.00103,(02)22228999,羅氏家用新冠病毒抗原自我檢測套組,52,2022/05/06 08:14:02,13:30-16:00
5931044786,坤暉藥局,新北市中和區中山路３段９４號２樓,121.4774,25.00583,(02)82217939,羅氏家用新冠病毒抗原自我檢測套組,60,2022/05/06 08:14:02,口罩發售時間早上9:00到11:00
5931044820,禾心藥局,新北市中和區秀朗路３段６４號１樓,121.5242,24.99482,(02)86688922,羅氏家用新冠病毒抗原自我檢測套組,2,2022/05/06 08:14:02,實名制快篩開門及販售，售完為止
5931044884,壹品藥局,新北市中和區福祥路５５號１樓,121.4992,25.00474,(02)22481818,羅氏家用新冠病毒抗原自我檢測套組,69,2022/05/06 08:14:02,實名制快篩下午1點發放號碼牌
5931044973,佳禾藥局,新北市中和區自立路３２號１樓,121.5226,24.9928,(02)29428989,羅氏家用新冠病毒抗原自我檢測套組,69,2022/05/06 08:14:02,快篩資訊 每天早上9點發號碼牌同時開始販售
5931044982,萊恩藥局,新北市中和區景安路２０９號１樓,121.5046,24.99192,(02)29468395,羅氏家用新冠病毒抗原自我檢測套組,49,2022/05/06 08:14:02,每週星期一到星期六（星期天依店內公告），早上9點發號碼牌押健保卡，12點後領取快篩
5931045112,景安藥局,新北市中和區景德街１４１號１樓及景平路１１１巷６０弄５６號,121.5175,24.99156,(02)86688215,羅氏家用新冠病毒抗原自我檢測套組,125,2022/05/06 08:14:02,實名制快篩每日販售時段08:10~21:00，請持健保卡現場排隊依序購買，售完為止。
5931045210,廣來藥師藥局,新北市中和區員山路３９３號１樓,121.4811,25.00293,(02)32340393,羅氏家用新冠病毒抗原自我檢測套組,78,2022/05/06 08:14:02,星期一到星期日，上午11點到中午12點為止。
5931045292,福欣藥局,新北市中和區中和路１４８號１樓,121.504,24.99961,(02)22485500,羅氏家用新冠病毒抗原自我檢測套組,82,2022/05/06 08:14:02,無
5931045372,伍品藥局,新北市中和區莊敬路３５號１樓,121.5007,25.00503,(02)82456789,羅氏家用新冠病毒抗原自我檢測套組,78,2022/05/06 08:14:02,實名制快篩下午14:00點發號碼牌，請自備500元紙鈔　－　15:00後取回健保卡 感謝！（週日）停止販售快篩！
5931045416,信毅藥局,新北市中和區捷運路５６號１樓,121.5081,24.99078,(02)29423663,羅氏家用新冠病毒抗原自我檢測套組,1,2022/05/06 08:14:02,無
5931045425,千樂台安藥局,新北市中和區安樂路１０１之２號１、２樓及１０１之３號１、２樓,121.5134,24.99526,(02)29406029,羅氏家用新冠病毒抗原自我檢測套組,147,2022/05/06 08:14:02,無
5931045498,好意藥局,新北市中和區景新街４６７巷３號１樓,121.5136,24.98825,(02)89416598,羅氏家用新冠病毒抗原自我檢測套組,78,2022/05/06 08:14:02,週日無販售快篩試劑
5931045541,富康活力華興藥局,新北市中和區興南路２段９２號１樓,121.5054,24.98444,(02)29450988,羅氏家用新冠病毒抗原自我檢測套組,53,2022/05/06 08:14:02,無
5931050417,世明藥局,新北市新店區北新路３段１２０號１樓,121.5417,24.98174,(02)29122139,羅氏家用新冠病毒抗原自我檢測套組,9,2022/05/06 08:14:02,快篩實名制販售時間：下午13:00~14:00
5931050444,活元藥局,新北市新店區民族路４９號１樓,121.5403,24.97854,(02)29125526,羅氏家用新冠病毒抗原自我檢測套組,78,2022/05/06 08:14:02,快篩代售時間平日早上10:00開始   星期日休息
5931051790,家得福藥局,新北市新店區安康路２段１２３號１樓,121.5125,24.96129,(02)22118346,羅氏家用新冠病毒抗原自我檢測套組,78,2022/05/06 08:14:02,無
5931052135,椿萱藥局,新北市新店區建國路６９號,121.5404,24.9759,(02)29188311,羅氏家用新冠病毒抗原自我檢測套組,110,2022/05/06 08:14:02,無
5931052288,躍獅正新藥局,新北市新店區中正路５７之１號１樓,121.5443,24.96989,(02)89145930,羅氏家用新冠病毒抗原自我檢測套組,82,2022/05/06 08:14:02,星期一至六13:00-20:00為領取口罩時間，20:00後將不發放
5931052368,正安藥局,新北市新店區明德路５０號１樓,121.5418,24.97854,(02)29115809,羅氏家用新冠病毒抗原自我檢測套組,74,2022/05/06 08:14:02,快篩早上8:30開賣，不發號碼牌，不找零
5931052608,佑成藥局,新北市新店區民權路１０１號１樓,121.537,24.98281,(02)86673537,羅氏家用新冠病毒抗原自我檢測套組,78,2022/05/06 08:14:02,下午四點發快篩
5931052653,正升藥局,新北市新店區順安街６１號１樓,121.5407,24.98637,(02)29139493,羅氏家用新冠病毒抗原自我檢測套組,77,2022/05/06 08:14:02,無
5931052715,陽光健康藥局,新北市新店區安民街２１４號,121.5174,24.9722,(02)22123919,羅氏家用新冠病毒抗原自我檢測套組,78,2022/05/06 08:14:02,實名制快篩於早上9點開始販售  以現場排隊為主
5931052984,北一藥師藥局,新北市新店區北新路２段１６０號１樓、２樓,121.5431,24.97563,(02)89115686,羅氏家用新冠病毒抗原自我檢測套組,11,2022/05/06 08:14:02,14:30發完號碼牌即發口罩，勿持號碼牌離開，叫號未到視同放棄
5931053007,康曜藥師藥局,新北市新店區安康路２段２０４號１樓,121.5103,24.95964,(02)86669660,羅氏家用新冠病毒抗原自我檢測套組,111,2022/05/06 08:14:02,無
5931053070,美康中正藥局,新北市新店區中正路２１５號１、２樓,121.5397,24.97284,(02)29112669,羅氏家用新冠病毒抗原自我檢測套組,78,2022/05/06 08:14:02,無號牌.自主排隊.自主管理.快篩 1430-2200 唷~
5931053089,昇活藥局,新北市新店區安民街２６９巷２號１樓,121.5173,24.9731,(02)22114166,羅氏家用新冠病毒抗原自我檢測套組,77,2022/05/06 08:14:02,無
5931053123,大吉藥局,新北市新店區中正路３０號１樓,121.5452,24.96977,(02)29110151,羅氏家用新冠病毒抗原自我檢測套組,77,2022/05/06 08:14:02,實名制快篩，早上0905開賣，現場排隊販售，賣完為止。六日【無】販售
5931053141,禾康藥局,新北市新店區德正街４４號１樓,121.5443,24.97143,(02)29160596,羅氏家用新冠病毒抗原自我檢測套組,1,2022/05/06 08:14:02,無
5931053169,貳品藥局,新北市新店區新和街７５號１樓,121.5205,24.98612,(02)89418890,羅氏家用新冠病毒抗原自我檢測套組,78,2022/05/06 08:14:02,實名制快篩下午一點半依排隊順序發售
5931053267,富康活力惠國藥局,新北市新店區中正路７８號１樓,121.5439,24.97036,(02)29100066,羅氏家用新冠病毒抗原自我檢測套組,132,2022/05/06 08:14:02,實名制快篩，若當日有貨販售，於8:00準時開賣，請攜帶健保卡／居留證，謝謝您。
5931060146,海山藥局,新北市新莊區景德路４２５號,121.4447,25.03331,(02)22019804,羅氏家用新冠病毒抗原自我檢測套組,78,2022/05/06 08:14:02,無
5931060342,十安藥局,新北市新莊區中港路３１６號,121.4524,25.04544,(02)29922859,羅氏家用新冠病毒抗原自我檢測套組,3,2022/05/06 08:14:02,自111／04／01起不再販賣實名制口罩
5931060628,錄新藥局,新北市新莊區後港一路７６巷１０弄１號,121.427,25.02604,(02)22051849,羅氏家用新冠病毒抗原自我檢測套組,155,2022/05/06 08:14:02,無
5931060815,祐全大藥局,新北市新莊區建安街８８號,121.4262,25.02423,(02)22026008,羅氏家用新冠病毒抗原自我檢測套組,96,2022/05/06 08:14:02,快篩代售時間:10:00；現場排隊售完為止.週日不營業
5931060824,禮安藥師藥局,新北市新莊區自立街１０９號１樓,121.4555,25.0455,(02)29942891,羅氏家用新冠病毒抗原自我檢測套組,1,2022/05/06 08:14:02,無
5931067403,建嘉藥局,新北市新莊區中誠街４２號１樓,121.4513,25.04812,(02)29925261,羅氏家用新冠病毒抗原自我檢測套組,120,2022/05/06 08:14:02,無
5931067985,蘋果藥局,新北市新莊區八德街１０５號,121.4242,25.02112,(02)22053933,羅氏家用新冠病毒抗原自我檢測套組,7,2022/05/06 08:14:02,口罩代售時間自10:00開始過卡販售.
5931068722,庭安藥局,新北市新莊區民有里西盛街１７２號１樓,121.4281,25.01901,(02)22080528,羅氏家用新冠病毒抗原自我檢測套組,78,2022/05/06 08:14:02,早上9:30開始販售實名制快篩.賣完為止週日公休
5931069023,陽光藥局,新北市新莊區福壽街７２號,121.4583,25.0494,(02)22774399,羅氏家用新冠病毒抗原自我檢測套組,78,2022/05/06 08:14:02,週一到週日9點現場發號碼牌排隊販售口罩，售完為止
5931069201,招安藥師藥局,新北市新莊區西盛街３３８號１樓,121.428,25.01436,(02)22085138,羅氏家用新冠病毒抗原自我檢測套組,9,2022/05/06 08:14:02,5／1 5／2 並無快篩試劑到貨 請勿來電或來店購買
5931069603,中信藥師藥局,新北市新莊區中信街８０號１樓,121.448,25.05311,(02)29969811,羅氏家用新冠病毒抗原自我檢測套組,91,2022/05/06 08:14:02,AM 07:30 開始
5931069792,宏泰藥局,新北市新莊區自信街３７號１樓,121.4543,25.04863,(02)29964649,羅氏家用新冠病毒抗原自我檢測套組,79,2022/05/06 08:14:02,無
593106A093,環球藥局,新北市新莊區中港路４３６號１、２樓,121.452,25.05105,(02)29901934,羅氏家用新冠病毒抗原自我檢測套組,28,2022/05/06 08:14:02,營業時間8-23，全年無休  **實名制快篩，每日下午3點發放號碼牌**
593106A155,日榮藥局,新北市新莊區龍安路４６１號１樓,121.4248,25.0186,(02)22051523,羅氏家用新冠病毒抗原自我檢測套組,53,2022/05/06 08:14:02,無
593106A584,記安大藥局,新北市新莊區天祥街４６號１樓,121.4169,25.02893,(02)22095331,羅氏家用新冠病毒抗原自我檢測套組,72,2022/05/06 08:14:02,無
593106A637,薇妮藥妝藥局,新北市新莊區民安路９９號１樓,121.4245,25.02524,(02)82010817,羅氏家用新冠病毒抗原自我檢測套組,54,2022/05/06 08:14:02,無
593106A646,薇妮雙鳳藥局,新北市新莊區雙鳳路２１號１樓,121.4167,25.02677,(02)29076993,羅氏家用新冠病毒抗原自我檢測套組,78,2022/05/06 08:14:02,無
593106A771,新佑康健保藥局,新北市新莊區中華路１段３５號１樓,121.4519,25.03765,(02)29947490,羅氏家用新冠病毒抗原自我檢測套組,75,2022/05/06 08:14:02,無
593106A824,家禾藥局,新北市新莊區立信五街６號１樓,121.4445,25.05148,(02)29972121,羅氏家用新冠病毒抗原自我檢測套組,78,2022/05/06 08:14:02,若有配送會在12:00及18:00固定販售各39份，不提前販售，沒有發放號碼牌，請耐心等待。人手不足若無法接電話請見諒。
593106A897,陽光豐年藥局,新北市新莊區豐年街１４號１樓,121.4463,25.03287,(02)22060665,羅氏家用新冠病毒抗原自我檢測套組,87,2022/05/06 08:14:02,無
593106A922,德翰藥局,新北市新莊區四維路１７１巷１、３號１樓,121.4226,25.0215,(02)22025576,羅氏家用新冠病毒抗原自我檢測套組,78,2022/05/06 08:14:02,無
593106A995,美德心藥局,新北市新莊區中平路３６７號１樓,121.4446,25.05226,(02)29989025,羅氏家用新冠病毒抗原自我檢測套組,74,2022/05/06 08:14:02,快篩實名制，每天14:30發號碼牌，持號碼牌依現場順序排隊購買，售完為止。（如物流配送不及，則另行公告）
593106B045,力源藥局,新北市新莊區復興路２段１３３號１樓,121.4572,25.04452,(02)89929919,羅氏家用新冠病毒抗原自我檢測套組,78,2022/05/06 08:14:02,無
593106B072,小林健保藥局,新北市新莊區昌明街３８之１號１樓,121.4565,25.05237,(02)29911764,羅氏家用新冠病毒抗原自我檢測套組,162,2022/05/06 08:14:02,無
593106B081,平安藥局,新北市新莊區民安西路６０號２樓,121.4273,25.02037,(02)22082368,羅氏家用新冠病毒抗原自我檢測套組,133,2022/05/06 08:14:02,無
593106B125,樂安生活藥局,新北市新莊區雙鳳路２７號１、２樓,121.4165,25.02702,(02)29069899,羅氏家用新冠病毒抗原自我檢測套組,78,2022/05/06 08:14:02,上午九點發放政府快篩，現場排隊。
593106B152,福原藥局,新北市新莊區中原東路７０號（１樓）,121.4632,25.05461,(02)85216190,羅氏家用新冠病毒抗原自我檢測套組,79,2022/05/06 08:14:02,下午2點發放號碼牌
593106B241,善美藥局,新北市新莊區公園路８９號１樓,121.4546,25.04041,(02)29960979,羅氏家用新冠病毒抗原自我檢測套組,78,2022/05/06 08:14:02,無
5931070044,正宜藥局,新北市樹林區佳園路１段３９號,121.3931,24.97086,(02)26805678,羅氏家用新冠病毒抗原自我檢測套組,16,2022/05/06 08:14:02,無
5931070053,仁一藥局,新北市樹林區中正路６２２號,121.4102,25.016,(02)26893915,羅氏家用新冠病毒抗原自我檢測套組,78,2022/05/06 08:14:02,快篩代售時間自08:30；現場排隊
5931070080,耀鴻藥局,新北市樹林區中山路３段７６號,121.3936,24.97239,(02)26808989,羅氏家用新冠病毒抗原自我檢測套組,102,2022/05/06 08:14:02,每天都有發放口罩
5931070213,明川藥師藥局,新北市樹林區三福街１號,121.4093,25.0169,(02)26894728,羅氏家用新冠病毒抗原自我檢測套組,78,2022/05/06 08:14:02,無
5931070286,協安大藥局,新北市樹林區鎮前街１２６號,121.4248,24.99087,(02)26810386,羅氏家用新冠病毒抗原自我檢測套組,30,2022/05/06 08:14:02,05／29店休
5931070366,聖和藥局,新北市樹林區太元街５０號,121.4183,24.97967,(02)86866609,羅氏家用新冠病毒抗原自我檢測套組,78,2022/05/06 08:14:02,中午12:30分開始發放快篩
5931071523,蔚海藥局,新北市樹林區鎮前街１７號１樓,121.4259,24.99263,(02)86754203,羅氏家用新冠病毒抗原自我檢測套組,78,2022/05/06 08:14:02,固定每日早上8點45分發放快篩， 發完為止
5931071961,綠蘋果藥局,新北市樹林區學勤路５９７號１樓,121.3842,24.94905,(02)89706050,羅氏家用新冠病毒抗原自我檢測套組,67,2022/05/06 08:14:02,無
5931072066,琉璃水藥師藥局,新北市樹林區龍興街２１號１樓,121.403,25.01614,(02)26764262,羅氏家用新冠病毒抗原自我檢測套組,78,2022/05/06 08:14:02,無
5931072299,小蜜蜂中西健保藥局,新北市樹林區東榮街１１８號１樓,121.4154,24.9823,(02)86853677,羅氏家用新冠病毒抗原自我檢測套組,150,2022/05/06 08:14:02,快篩試劑發售時間：基本為早上八點   PS：如政府配送不及，發售時間會現場另行公告。
5931072404,伯安綜合藥局,新北市樹林區中華路１０８號１樓,121.4183,24.98074,(02)86856551,羅氏家用新冠病毒抗原自我檢測套組,51,2022/05/06 08:14:02,初一至初五春節休息
5931072539,樂澄藥局,新北市樹林區國凱街３２－３號１樓,121.4197,24.97853,(02)86860093,羅氏家用新冠病毒抗原自我檢測套組,2,2022/05/06 08:14:02,實名制快篩每天9:30發售，第一手訊息請參閱樂澄藥局官方臉書
5931080148,快安藥師藥局,新北市鶯歌區中正一路９４、９６號,121.3654,24.95653,(02)26792356,羅氏家用新冠病毒抗原自我檢測套組,78,2022/05/06 08:14:02,實名制快篩早上8:30開賣
5931081216,嘉泰藥師藥局,新北市鶯歌區鶯桃路２段３１號１樓,121.3254,24.97248,(02)26709668,羅氏家用新冠病毒抗原自我檢測套組,1,2022/05/06 08:14:02,快篩發放時間晚上8點【星期日公休】
5931081332,祐兒藥局,新北市鶯歌區南鶯里建國路１７１號１樓,121.35,24.9534,(02)86781907,羅氏家用新冠病毒抗原自我檢測套組,7,2022/05/06 08:14:02,快篩配送時間不一定，關注粉絲團會公告發放時間
5931081396,祐康藥局,新北市鶯歌區建國路３６號,121.356,24.95596,(02)26771223,羅氏家用新冠病毒抗原自我檢測套組,82,2022/05/06 08:14:02,快篩代售時段:星期一&四 上午8:30~9:30；星期二三五六 下午3:00~4:00；星期日公休。
5931081403,純安大藥局,新北市鶯歌區國慶街１７９號１樓,121.3514,24.9527,(02)26791791,羅氏家用新冠病毒抗原自我檢測套組,78,2022/05/06 08:14:02,快篩代售時間:20:00販售。星期日不銷售
5931081421,萊爾康健保藥局,新北市鶯歌區永明街１７號１樓,121.3385,24.95548,(02)26775092,羅氏家用新冠病毒抗原自我檢測套組,78,2022/05/06 08:14:02,星期一到星期六9:30開始販售  星期天會前一天公告
5931081494,康群藥局,新北市鶯歌區建國路２０２號１樓,121.3494,24.95357,(02)26796690,羅氏家用新冠病毒抗原自我檢測套組,78,2022/05/06 08:14:02,*星期五休診不發放口罩，其餘上班日上午九點開始發放*現場排隊
5931081556,易加藥局,新北市鶯歌區尖山路１３７巷４號,121.3469,24.94851,(02)26705686,羅氏家用新冠病毒抗原自我檢測套組,78,2022/05/06 08:14:02,快篩早上8:55發號碼牌，9:00開始販售，星期日公休
5931090180,人來安藥局,新北市三峽區文化路２６６－５號,121.3665,24.93583,(02)26721199,羅氏家用新冠病毒抗原自我檢測套組,16,2022/05/06 08:14:02,營業時間早上8點至中午1點下午5點至晚上9點-快篩早上8點開始過卡賣完為止
5931090279,勝全藥局,新北市三峽區大同路２７之１號１樓,121.3769,24.92836,(02)26736186,羅氏家用新冠病毒抗原自我檢測套組,20,2022/05/06 08:14:02,每日8:00-22:00可以領取口罩，星期日11:00-17:00休息
5931091865,大新藥局,新北市三峽區大義路２５９號１樓,121.3774,24.94638,(02)86713204,羅氏家用新冠病毒抗原自我檢測套組,1,2022/05/06 08:14:02,實名制快篩下午2:50開始發號碼牌 3:00販售
