醫事機構代碼,醫事機構名稱,醫事機構地址,經度,緯度,醫事機構電話,廠牌項目,快篩試劑截至目前結餘存貨數量,來源資料時間,備註
2331260016,新北市貢寮區衛生所,新北市貢寮區朝陽街７０巷１０號、新北市貢寮區仁愛路１２８號,121.9095,25.02258,(02)24901431,羅氏家用新冠病毒抗原自我檢測套組,156,2022/04/29 17:49:02,星期一至星期日上午8點購買防疫口罩，售完為止.
2331290014,新北市烏來區衛生所,新北市烏來區新烏路５段１０９號,121.548,24.87197,(02)26617200,羅氏家用新冠病毒抗原自我檢測套組,171,2022/04/29 17:49:02,無
2333140017,新竹縣五峰鄉衛生所,新竹縣五峰鄉大隘村六鄰９９號,121.1194,24.63184,(03)5851005,羅氏家用新冠病毒抗原自我檢測套組,156,2022/04/29 17:49:02,無
2335180019,苗栗縣泰安鄉衛生所,苗栗縣泰安鄉清安村２鄰７２號,120.9083,24.44722,(037)941054,羅氏家用新冠病毒抗原自我檢測套組,156,2022/04/29 17:49:02,口罩販賣時段：星期一~五：8:30~15：00。
2336210034,臺中市和平區梨山衛生所,臺中市和平區中正路１２號１樓、６８號１樓,121.2592,24.25678,(04)25989540,羅氏家用新冠病毒抗原自我檢測套組,156,2022/04/29 17:49:02,提供24小時急診待診服務，111年4月28日起，快篩試劑販售時段為周一至周五0900-12:00，六日及國定假日為0900-1100
2338070010,南投縣鹿谷鄉衛生所,南投縣鹿谷鄉中正路二段２０號,120.7542,23.74488,(049)2752002,羅氏家用新冠病毒抗原自我檢測套組,156,2022/04/29 17:49:02,快篩試劑販售時間 上班日（星期一至星期五）14:00~16:00
2338120015,南投縣信義鄉衛生所,南投縣信義鄉明德村玉山路４５號,120.8547,23.69653,(049)2791148,羅氏家用新冠病毒抗原自我檢測套組,156,2022/04/29 17:49:02,快篩試劑販售時間星期一至星期五上午09：00-11：00，現場排隊發售，國定假日不販賣。
2340170016,嘉義縣大埔鄉衛生所,嘉義縣大埔鄉大埔村５３－１號,120.5928,23.29397,(05)2521214,羅氏家用新冠病毒抗原自我檢測套組,156,2022/04/29 17:49:02,無
2342130010,高雄市田寮區衛生所,高雄市田寮區南安里崗北路３２號,120.3594,22.87301,(07)6361504,羅氏家用新冠病毒抗原自我檢測套組,7,2022/04/29 17:49:02,巡迴醫療:每星期一、四下午及每月第一個有上班的星期三下午巡迴醫療
2342250017,高雄市茂林區衛生所,高雄市茂林區茂林里茂林巷８－４號,120.6641,22.88641,(07)6801046,羅氏家用新冠病毒抗原自我檢測套組,267,2022/04/29 17:49:02,夜間急診，請先撥電話07-6801046
2342260013,高雄市桃源區衛生所,高雄市桃源區桃源里南進巷１８８－１號,120.7642,23.15845,(07)6861126,羅氏家用新冠病毒抗原自我檢測套組,185,2022/04/29 17:49:02,IDS提供24小時服務
2342270019,高雄市那瑪夏區衛生所,高雄市那瑪夏區瑪雅里６鄰平和巷２５２號,120.7024,23.24708,(07)6701142,羅氏家用新冠病毒抗原自我檢測套組,243,2022/04/29 17:49:02,春節期間正常門診
2343270013,屏東縣霧台鄉衛生所,屏東縣霧台鄉霧台村神山巷６８號,120.7261,22.74989,(08)7902232,羅氏家用新冠病毒抗原自我檢測套組,221,2022/04/29 17:49:02,無
2343290015,屏東縣泰武鄉衛生所,屏東縣泰武鄉佳平村１７９號,120.6327,22.59212,(08)7832059,羅氏家用新冠病毒抗原自我檢測套組,156,2022/04/29 17:49:02,4／2-4／5門診照常
2343300016,屏東縣來義鄉衛生所,屏東縣來義鄉古樓村中正路９０號,120.632,22.52584,(08)7850103,羅氏家用新冠病毒抗原自我檢測套組,164,2022/04/29 17:49:02,無
2344030022,澎湖縣白沙鄉鳥嶼衛生所,澎湖縣白沙鄉鳥嶼村漁港新村３號,119.6599,23.66008,(06)9916092,羅氏家用新冠病毒抗原自我檢測套組,189,2022/04/29 17:49:02,非上班時間提供急診服務
2344030031,澎湖縣白沙鄉吉貝衛生所,澎湖縣白沙鄉吉貝村８－１３號,119.6138,23.74056,(06)9911430,羅氏家用新冠病毒抗原自我檢測套組,245,2022/04/29 17:49:02,無
2344050015,澎湖縣望安鄉衛生所,澎湖縣望安鄉西安村３６－７號,119.4972,23.36161,(06)9991036,羅氏家用新冠病毒抗原自我檢測套組,156,2022/04/29 17:49:02,夜間急診。口罩、快篩試劑販售時間為:每日08:00-12:00、13:30-17:30售完為止，如有餘數為離島未售出（東嶼坪、花嶼衛生室）。
2344050024,澎湖縣望安鄉將軍衛生所,澎湖縣望安鄉將軍村１２鄰將軍澳１之３號,119.5216,23.3615,(06)9902066,羅氏家用新冠病毒抗原自我檢測套組,257,2022/04/29 17:49:02,24小時急診
2345080017,花蓮縣豐濱鄉衛生所,花蓮縣豐濱鄉豐濱村光豐路３９號,121.5215,23.60195,(03)8791156,羅氏家用新冠病毒抗原自我檢測套組,107,2022/04/29 17:49:02,*本院口罩每天販售，時間自上午8點至晚上9點  *本院週一至週五上下午皆有門診，星期六隔週提供門診，及24小時急診。
2345110010,花蓮縣秀林鄉衛生所,花蓮縣秀林鄉秀林村１２鄰秀林路８８號,121.6334,24.1269,(03)8612122,羅氏家用新冠病毒抗原自我檢測套組,48,2022/04/29 17:49:02,口罩代售時間上班日上午8:10至12時止（口罩限量故售完為止）
2346160014,台東縣蘭嶼鄉衛生所,臺東縣蘭嶼鄉紅頭村３６號,121.5546,22.02493,(089)732575,羅氏家用新冠病毒抗原自我檢測套組,156,2022/04/29 17:49:02,販售口罩時間 星期一至星期五 8:00~12:00 13:30~17:30
2391020010,連江縣北竿鄉衛生所,連江縣北竿鄉塘岐村２８１－６號,119.9991,26.22617,(083)655592,羅氏家用新冠病毒抗原自我檢測套組,156,2022/04/29 17:49:02,新冠快篩試劑販售於週一至周六每日上午08:30-12:00開放購買。
2391030016,連江縣莒光鄉西莒衛生所,連江縣莒光鄉青帆村１４－１號,119.9331,25.97157,(083)689122,羅氏家用新冠病毒抗原自我檢測套組,251,2022/04/29 17:49:02,防疫口罩星期一至五09:00-17:00、（六）09:00-12:00現場購買
2391030026,連江縣莒光鄉東莒衛生所,連江縣莒光鄉大坪村３０－１號,119.9731,25.96113,(083)689038,羅氏家用新冠病毒抗原自我檢測套組,259,2022/04/29 17:49:02,防疫口罩星期一至星期日上午10:00-12:00收取健保卡，下午3:30至本所領取口罩。
2391040012,連江縣東引鄉衛生所,連江縣東引鄉中柳村１２３號,120.4904,26.36701,(083)677206,羅氏家用新冠病毒抗原自我檢測套組,161,2022/04/29 17:49:02,防疫口罩每日10:00-12:00現場購買
5901012409,家音藥局,臺北市松山區民生東路５段７３號,121.5585,25.05871,(02)37652080,羅氏家用新冠病毒抗原自我檢測套組,77,2022/04/29 17:49:02,無
5901012570,予志藥局,臺北市松山區富錦街５２１號,121.5649,25.06119,(02)27623522,羅氏家用新冠病毒抗原自我檢測套組,77,2022/04/29 17:49:02,快篩 星期一到三 下午2點 四-六 晚上8點
5901012632,晨安藥局,臺北市松山區八德路３段１５５巷２０弄２號,121.5553,25.04914,(02)25798460,羅氏家用新冠病毒抗原自我檢測套組,2,2022/04/29 17:49:02,3／7起，星期六停止販賣口罩；星期一至星期五，15:00~17:00、星期日12:00~14:00，直行販售口罩業務。
5901013120,誠康中西藥局,臺北市松山區南京東路５段５９巷３１弄４３號,121.5607,25.05346,(02)27619679,羅氏家用新冠病毒抗原自我檢測套組,2,2022/04/29 17:49:02,無
5901013586,安禾大藥局,臺北市松山區撫遠街３８２號,121.5656,25.06443,(02)27602952,羅氏家用新冠病毒抗原自我檢測套組,1,2022/04/29 17:49:02,無
5901013595,巧心藥局,臺北市松山區八德路３段１２巷５７弄３９之３號１樓,121.5521,25.04567,(02)25703728,羅氏家用新冠病毒抗原自我檢測套組,1,2022/04/29 17:49:02,快篩試劑販售時間:週二晚間18:00-20:00.週三下午14:00-16:00，售完為止
5901013693,民生盛康藥局,臺北市松山區民生東路５段２０４號１樓,121.5648,25.05826,(02)27460758,羅氏家用新冠病毒抗原自我檢測套組,55,2022/04/29 17:49:02,每日早上9:00發號碼牌，11:00~20:00拿號碼牌回來領取，每人限兩張，逾時不候
5901013728,康麗藥局,臺北市松山區南京東路３段３０３巷２０號（１樓）,121.5468,25.05374,(02)27174117,羅氏家用新冠病毒抗原自我檢測套組,2,2022/04/29 17:49:02,無
5901013737,全欣藥局,臺北市松山區復興北路７３號２樓,121.5442,25.05104,(02)87729066,羅氏家用新冠病毒抗原自我檢測套組,6,2022/04/29 17:49:02,9:00am開始販售30人份15:00販售30人份:18:00販售18人份；週六:9:00販售39人份；週日:15:00販售39人份
5901021248,永誠藥局,臺北市大安區忠孝東路４段２１６巷２５之１號,121.5531,25.03997,(02)27520273,羅氏家用新冠病毒抗原自我檢測套組,60,2022/04/29 17:49:02,無
5901021408,生百藥局,臺北市大安區臨江街１２４號,121.5539,25.03024,(02)27371011,羅氏家用新冠病毒抗原自我檢測套組,78,2022/04/29 17:49:02,無
5901023313,安和藥局,臺北市大安區安和路１段１０２巷３號,121.5519,25.03433,(02)27092349,羅氏家用新冠病毒抗原自我檢測套組,1,2022/04/29 17:49:02,平日下午三點開始販賣，九點結束
5901024221,安居藥局,臺北市大安區安居街１９號,121.5549,25.02085,(02)23773537,羅氏家用新冠病毒抗原自我檢測套組,78,2022/04/29 17:49:02,領快篩注意事項:週一到週五晚上7:30-9:00 週六早上8:30-12:00直接排隊購買 .週日不營業
5901090369,保慶藥局,臺北市大同區保安街２１號,121.5129,25.05926,(02)25538988,羅氏家用新冠病毒抗原自我檢測套組,78,2022/04/29 17:49:02,快篩販售時間:晚上9:00-10:00（週日不販售），晚上8:50發號碼牌
5901092149,123宅藥局,臺北市大同區鄭州路１２３號（１樓）,121.5109,25.05033,(02)25588699,羅氏家用新冠病毒抗原自我檢測套組,35,2022/04/29 17:49:02,【家用快篩實名制】每日兩時段可購買:（1）09:30 （2）18:00 ★前十分鐘開始發放號碼牌
5901100628,貢玄藥局,臺北市中山區錦州街２０７號,121.532,25.06039,(02)25637847,羅氏家用新冠病毒抗原自我檢測套組,1,2022/04/29 17:49:02,早上10點~11點領口罩
5901101509,永直藥局,臺北市中山區北安路５９５巷２弄６號,121.5483,25.08192,(02)85098059,羅氏家用新冠病毒抗原自我檢測套組,25,2022/04/29 17:49:02,無
5901101929,樂活苑藥局,臺北市中山區北安路５４６號１樓,121.548,25.08014,(02)25323296,羅氏家用新冠病毒抗原自我檢測套組,73,2022/04/29 17:49:02,實名制快篩代售時間為18:00~19:00.
5901102444,啟美藥師藥局,臺北市中山區錦州街２８２號,121.5352,25.06024,(02)25178032,羅氏家用新冠病毒抗原自我檢測套組,78,2022/04/29 17:49:02,快篩 販售時間 20點開賣到21點，星期六日公休
5901103423,農安藥局,臺北市中山區農安街１８之１號,121.5248,25.06483,(02)25959293,羅氏家用新冠病毒抗原自我檢測套組,1,2022/04/29 17:49:02,無
5901103585,禾全藥局,臺北市中山區龍江路３３２號,121.5409,25.06532,(02)25165721,羅氏家用新冠病毒抗原自我檢測套組,39,2022/04/29 17:49:02,口罩代售時間：1400、20:00  ；現場排隊
5901103629,十二願藥局,臺北市中山區林森北路３０９號,121.5256,25.05588,(02)25311223,羅氏家用新冠病毒抗原自我檢測套組,71,2022/04/29 17:49:02,營業時間下午1點至凌晨3點
5901103790,可康藥局,臺北市中山區林森北路３７３號（１樓）,121.5257,25.05826,(02)25361078,羅氏家用新冠病毒抗原自我檢測套組,1,2022/04/29 17:49:02,國定假日仍執行調劑業務
5901110133,泰成藥局,臺北市內湖區內湖路３段１３５號１樓,121.5899,25.08685,(02)27921231,羅氏家用新冠病毒抗原自我檢測套組,67,2022/04/29 17:49:02,口罩販售:上午9:00開始發號碼牌，9點同步販售.
5901121672,亞博藥師藥局,臺北市南港區興華路８１號,121.6061,25.05545,(02)27838090,羅氏家用新冠病毒抗原自我檢測套組,1,2022/04/29 17:49:02,無
5901121985,勝安藥局,臺北市南港區舊莊街１段１６５號,121.6211,25.03949,(02)27828450,羅氏家用新冠病毒抗原自我檢測套組,78,2022/04/29 17:49:02,實名制快篩固定晚上21:00提供，現場排隊不分號碼牌
5901150548,田倉藥局,臺北市士林區士東路１２４號,121.5302,25.11219,(02)88662188,羅氏家用新冠病毒抗原自我檢測套組,77,2022/04/29 17:49:02,每日19:00（傍晚7點）開始販售.
5901154108,藥本家藥局,臺北市士林區中山北路７段１４巷２６號１樓,121.5328,25.11884,(02)28766682,羅氏家用新冠病毒抗原自我檢測套組,1,2022/04/29 17:49:02,無
5901160099,進春藥局,臺北市北投區明德路１５１號,121.5206,25.11086,(02)28216938,羅氏家用新冠病毒抗原自我檢測套組,155,2022/04/29 17:49:02,無休
5901161890,良興藥局,臺北市北投區中和街２８６號,121.5004,25.14047,(02)28933360,羅氏家用新冠病毒抗原自我檢測套組,53,2022/04/29 17:49:02,18點30分點開始營業
5901163527,理得藥局,臺北市北投區石牌路１段１５０號,121.5131,25.11426,(02)28289680,羅氏家用新冠病毒抗原自我檢測套組,1,2022/04/29 17:49:02,每日10:00開賣，售完為止。
5901163581,陳藥師藥局,臺北市北投區光明路２巷１３－２號（實際使用：１樓）,121.4997,25.13132,(02)28921971,羅氏家用新冠病毒抗原自我檢測套組,71,2022/04/29 17:49:02,無
5901170059,必欣藥局,臺北市信義區松仁路２６４號,121.5696,25.02425,(02)27225060,羅氏家用新冠病毒抗原自我檢測套組,78,2022/04/29 17:49:02,實名制快篩販售時間：星期一至星期六晚上20：00開始
5901170648,立信藥局,臺北市信義區松山路４０３號,121.578,25.04144,(02)27687754,羅氏家用新冠病毒抗原自我檢測套組,62,2022/04/29 17:49:02,快篩試劑販賣時間:晚上七點至九點
5901172268,皇佳大藥局,臺北市信義區松山路５４１巷１９號,121.5789,25.03793,(02)27269868,羅氏家用新冠病毒抗原自我檢測套組,2,2022/04/29 17:49:02,早上9:00~21:00持健保卡領取實名制口罩，請自備零錢
5901173283,上禾藥師藥局,臺北市信義區林口街２７號,121.5792,25.03741,(02)27592686,羅氏家用新冠病毒抗原自我檢測套組,1,2022/04/29 17:49:02,無
5901173738,尚頤中西藥局,臺北市信義區虎林街１４５號,121.5767,25.03959,(02)27253818,羅氏家用新冠病毒抗原自我檢測套組,8,2022/04/29 17:49:02,無
5901173818,博亞藥局,臺北市信義區莊敬路４６２號,121.5677,25.02672,(02)27580506,羅氏家用新冠病毒抗原自我檢測套組,39,2022/04/29 17:49:02,平日早上8:30、晚上8:00；假日早上8:30，發放號碼牌，持號碼牌購買!
5901174039,日安藥局,臺北市信義區松仁路２４０巷１３號１樓,121.5691,25.02454,(02)27203775,羅氏家用新冠病毒抗原自我檢測套組,6,2022/04/29 17:49:02,無
5901174057,詠晴中西藥局,臺北市信義區松山路４８４之４號（１樓含夾層）,121.5778,25.0389,(02)27266890,羅氏家用新冠病毒抗原自我檢測套組,11,2022/04/29 17:49:02,實名制快篩 - 09:10領號碼牌.當天取貨即可.避免群聚風險
5901180368,古亭藥局,臺北市中正區汀州路３段１１７號,121.5301,25.01667,(02)23683618,羅氏家用新冠病毒抗原自我檢測套組,78,2022/04/29 17:49:02,實名制  快篩  每晚7:30  開始賣
5901183387,丞良藥局,臺北市中正區南昌路１段７８號地下１樓,121.5173,25.03099,(02)33938868,羅氏家用新冠病毒抗原自我檢測套組,78,2022/04/29 17:49:02,週一~週五 晚上9:00~9:30現場領取
5901184213,71恩典藥局,臺北市中正區信義路２段７１號,121.5264,25.03466,(02)23223371,羅氏家用新冠病毒抗原自我檢測套組,78,2022/04/29 17:49:02,快篩==週一到週五19:00／週六17:00購買， 十分鐘前發號碼牌
5901184553,珍忻藥局,臺北市中正區南昌路１段６５號,121.5174,25.03107,(02)23965115,羅氏家用新冠病毒抗原自我檢測套組,1,2022/04/29 17:49:02,健保快篩發放:13:20及18:20分兩梯次發號碼牌
5901190668,聯慶大藥局,臺北市萬華區萬大路３０６號１樓,121.5003,25.02495,(02)23039850,羅氏家用新冠病毒抗原自我檢測套組,78,2022/04/29 17:49:02,無
5901193150,日森人文藥局,臺北市萬華區和平西路３段１４９號,121.4988,25.03543,(02)23082100,羅氏家用新冠病毒抗原自我檢測套組,1,2022/04/29 17:49:02,快篩每日11點現場發放號碼牌購買
5901193169,柏祥藥局,臺北市萬華區西藏路１４１號,121.5017,25.02944,(02)23018272,羅氏家用新冠病毒抗原自我檢測套組,73,2022/04/29 17:49:02,快篩服務時間PM06:00-07:00，售完提前截止。
5901193221,正盛藥局,臺北市萬華區中華路２段４３４－１號,121.5064,25.02708,(02)23050386,羅氏家用新冠病毒抗原自我檢測套組,60,2022/04/29 17:49:02,1快篩每日晚上8點（周日不販售） 2. 每天預留8-10分給軍警醫療（請出示證件）3. 4／30尚未收到貨 目前暫定4／30不販售
5901200141,景美藥局,臺北市文山區景文街１２５號,121.5412,24.99033,(02)29335741,羅氏家用新冠病毒抗原自我檢測套組,4,2022/04/29 17:49:02,無
5901200490,永明大藥局,臺北市文山區興隆路１段２９７號１樓,121.5449,24.99875,(02)29314428,羅氏家用新冠病毒抗原自我檢測套組,2,2022/04/29 17:49:02,無
5901201728,東京晟藥局,臺北市文山區辛亥路４段９７號,121.5587,25.00684,(02)29356354,羅氏家用新冠病毒抗原自我檢測套組,1,2022/04/29 17:49:02,周日不銷售實名制快篩，預領號碼牌購買
5901202627,杏隆藥局,臺北市文山區羅斯福路５段２６１號,121.5395,25.00115,(02)29313151,羅氏家用新冠病毒抗原自我檢測套組,24,2022/04/29 17:49:02,快篩實名制採預約登記，至5／5已登記額滿。
5901202654,康宜庭萬隆藥局,臺北市文山區羅斯福路５段２０２號,121.5384,25.00322,(02)29348662,羅氏家用新冠病毒抗原自我檢測套組,5,2022/04/29 17:49:02,實名快篩星期一~六 14:00開賣 現場排隊
5901202949,萬隆大藥局,臺北市文山區羅斯福路５段２１８巷１５號,121.538,25.00203,(02)29334580,羅氏家用新冠病毒抗原自我檢測套組,2,2022/04/29 17:49:02,9：00~23：00
5902020012,永松藥局,高雄市鼓山區鼓山三路１３０－１５號,120.2802,22.66454,(07)5810657,羅氏家用新冠病毒抗原自我檢測套組,18,2022/04/29 17:49:02,周一到周日早上9點開始賣口罩，到晚上10點.
5902022874,康爾喜藥局,高雄市鼓山區慶豐街５０號,120.2935,22.66647,(07)5222650,羅氏家用新冠病毒抗原自我檢測套組,2,2022/04/29 17:49:02,早上9點半後開始販售口罩，營業時間為早上9:10至晚間10:00
5902022972,高雄藥局,高雄市鼓山區九如四路９２４號,120.2793,22.65466,(07)5214266,羅氏家用新冠病毒抗原自我檢測套組,2,2022/04/29 17:49:02,賣口罩時間為週一～週六晚上6點，售完為止
5902030287,慈德藥局,高雄市左營區重愛路５３號,120.3186,22.68308,(07)3416212,羅氏家用新冠病毒抗原自我檢測套組,3,2022/04/29 17:49:02,快篩發放時間.週一至周六9點-點
5902032530,杏光藥局,高雄市左營區果峰街４７巷１號１樓,120.2869,22.6703,(07)5837060,羅氏家用新冠病毒抗原自我檢測套組,6,2022/04/29 17:49:02,上午營業時間為9 :00~12:00；晚上營業至21:30
5902040014,成吉藥局,高雄市楠梓區楠梓東街７４號,120.3301,22.72966,(07)3513339,羅氏家用新冠病毒抗原自我檢測套組,78,2022/04/29 17:49:02,下午6點開始販賣實名制快篩，售完為止!!!星期日店休
5902050565,澄和藥局,高雄市三民區澄和路６６號,120.3445,22.64474,(07)3923111,羅氏家用新冠病毒抗原自我檢測套組,5,2022/04/29 17:49:02,快篩試劑- 販售時間下午14:00起至20；00止
5902050798,友泰藥局,高雄市三民區中和街１６９號,120.2868,22.6388,(07)3125236,羅氏家用新冠病毒抗原自我檢測套組,6,2022/04/29 17:49:02,無
5902050903,皇安藥局,高雄市三民區九如一路４６１號,120.3296,22.63865,(07)3866779,羅氏家用新冠病毒抗原自我檢測套組,1,2022/04/29 17:49:02,營業日08:15~08:30可先領取號碼牌，上午08:30~12:00及下午3:00~10:.00為販賣口罩時間，售完為止
5902057831,愛橋藥局,高雄市三民區陽明路１９２號,120.3422,22.64207,(07)3945146,羅氏家用新冠病毒抗原自我檢測套組,1,2022/04/29 17:49:02,下午1:30開始販售罩藥局販售口罩時間，依藥局門口公告時間為主（售完為止）
5902085344,意祥藥局,高雄市苓雅區武廟路１４２之１號,120.3276,22.63125,(07)7224835,羅氏家用新冠病毒抗原自我檢測套組,11,2022/04/29 17:49:02,藥局販售口罩時間，依藥局門口公告時間為主（售完為止）
5903010350,甲蒂健保藥局,臺中市豐原區豐東路３０８號,120.7331,24.25093,(04)25256028,羅氏家用新冠病毒抗原自我檢測套組,1,2022/04/29 17:49:02,9點開始發號碼牌購買
5903050194,樂齊藥局,臺中市沙鹿區北中路８６－１、８６－２號,120.5692,24.22827,(04)26338867,羅氏家用新冠病毒抗原自我檢測套組,78,2022/04/29 17:49:02,防疫家用快篩試劑每日19點開賣，售完為止，庫存請依現場為主。
5903050247,好利藥局,臺中市沙鹿區中山路４８７－１號１樓,120.5619,24.2454,(04)26630087,羅氏家用新冠病毒抗原自我檢測套組,1,2022/04/29 17:49:02,無
5903200096,仁化藥局,臺中市大里區仁化路５４０號,120.7012,24.09623,(04)24915902,羅氏家用新冠病毒抗原自我檢測套組,78,2022/04/29 17:49:02,快篩試劑每日 18:00 發放  W6 休息
5903200667,永欣東榮藥局,臺中市大里區東榮路３７０號１樓,120.6836,24.11032,(04)24810599,羅氏家用新冠病毒抗原自我檢測套組,3,2022/04/29 17:49:02,無
5903220196,日安藥局,臺中市中區臺灣大道一段３３０號１樓,120.6801,24.1422,(04)22234246,羅氏家用新冠病毒抗原自我檢測套組,156,2022/04/29 17:49:02,無
5903240483,名華藥局,臺中市西區中華路一段７號１樓,120.6732,24.14209,(04)22231187,羅氏家用新冠病毒抗原自我檢測套組,1,2022/04/29 17:49:02,無
5903250041,小林健保藥局,臺中市南區美村路２段１８２號,120.6631,24.12549,(04)22622099,羅氏家用新冠病毒抗原自我檢測套組,1,2022/04/29 17:49:02,固定周一到周日，早上8:00發號碼牌，下午4:30開始販賣防疫口罩
5903250578,樂碩藥局,臺中市南區建國南路一段２５９號１樓,120.6583,24.12491,(04)22601288,羅氏家用新冠病毒抗原自我檢測套組,7,2022/04/29 17:49:02,快篩試劑15:00發放號碼牌，售完為止，快篩地圖與庫存餘量會有誤差，敬請見諒
5903260967,正尚藥局,臺中市北區榮華街１６６號１樓,120.6868,24.16444,(04)22350347,羅氏家用新冠病毒抗原自我檢測套組,41,2022/04/29 17:49:02,實名制快篩18:00發放，周日09:00（若有剩餘）
5903270721,舒健藥局,臺中市西屯區西屯路二段２５５號２樓,120.6459,24.17179,(04)27077858,羅氏家用新冠病毒抗原自我檢測套組,74,2022/04/29 17:49:02,公費快篩試劑於周一至周六晚上7點現場排隊購買。
5903270865,尚禾藥局,臺中市西屯區青海路一段６５號,120.6548,24.16438,(04)23147688,羅氏家用新冠病毒抗原自我檢測套組,40,2022/04/29 17:49:02,無
5903270963,源興大藥局,臺中市西屯區西屯路二段１２號,120.6622,24.16387,(04)23143045,羅氏家用新冠病毒抗原自我檢測套組,78,2022/04/29 17:49:02,口罩販售時間：每日早上9點至售完為止。
5903271031,美十樂中科藥局,臺中市西屯區西屯路三段１６６－６５號１樓,120.6129,24.19035,(04)24610219,羅氏家用新冠病毒抗原自我檢測套組,156,2022/04/29 17:49:02,固定周一至周日10:00開始販售口罩
5903271086,常春藤藥局,臺中市西屯區福康路８０號１樓,120.618,24.18603,(04)24619296,羅氏家用新冠病毒抗原自我檢測套組,39,2022/04/29 17:49:02,每日AM10:00 開始販賣防疫口罩
5903271175,維康中榮藥局,臺中市西屯區東大路一段１３號１樓,120.6022,24.18315,(04)23593195,羅氏家用新冠病毒抗原自我檢測套組,4,2022/04/29 17:49:02,無
5903271246,柏醫藥局,臺中市西屯區上安路５６號１樓,120.6412,24.17052,(04)24526391,羅氏家用新冠病毒抗原自我檢測套組,26,2022/04/29 17:49:02,公費快篩試劑10:00、15:00、19:00開放過卡領取
5903280165,南屯福倫藥局,臺中市南屯區南屯路２段３１７號,120.6456,24.13754,(04)24758018,羅氏家用新冠病毒抗原自我檢測套組,78,2022/04/29 17:49:02,實名制快篩: 晚上6:00開始販售.售完為止
5903280601,方昇藥局,臺中市南屯區大墩路８１３號１樓,120.6495,24.15515,(04)23288818,羅氏家用新冠病毒抗原自我檢測套組,3,2022/04/29 17:49:02,無
5903280745,亨宇藥局,臺中市南屯區東興路二段２９－２號１樓,120.6529,24.13688,(04)24711206,羅氏家用新冠病毒抗原自我檢測套組,30,2022/04/29 17:49:02,無
5903280816,大育藥局,臺中市南屯區東興路二段７１號１樓,120.6528,24.13835,(04)24755656,羅氏家用新冠病毒抗原自我檢測套組,78,2022/04/29 17:49:02,每日固定晚上6點開賣 現場發放號碼牌
5903290607,敦化小林健保藥局,臺中市北屯區敦化路１段６６８號,120.6643,24.18593,(04)24261881,羅氏家用新冠病毒抗原自我檢測套組,1,2022/04/29 17:49:02,每日早上8:00領號碼牌，16:30再回藥局領口罩（全年無休）
5903290625,又昌中西健保藥局,臺中市北屯區東山路１段２２３號,120.7152,24.17452,(04)24375716,羅氏家用新冠病毒抗原自我檢測套組,78,2022/04/29 17:49:02,快篩實名制 周一~周五晚上18:30開賣
5903290689,大德安藥局,臺中市北屯區景賢路２３６號,120.7241,24.16701,(04)24378351,羅氏家用新冠病毒抗原自我檢測套組,1,2022/04/29 17:49:02,口罩代售時間從週一到週六09:00~現場排隊售完為止星期日早上10:00起至售完為止
5903290750,長幼藥局,臺中市北屯區崇德路二路二段１５７號１樓,120.6853,24.17329,(04)22426767,羅氏家用新冠病毒抗原自我檢測套組,3,2022/04/29 17:49:02,早上9點30分開賣，採現場排隊無號碼牌，快篩地圖與庫存餘量會有誤差，敬請見諒
5903290849,新盛藥局,臺中市北屯區松竹路二段１５７號１樓,120.6959,24.18312,(04)22467779,羅氏家用新冠病毒抗原自我檢測套組,1,2022/04/29 17:49:02,下午2:30至8:30賣快篩試劑週一至週六
5903290983,祥和藥局,臺中市北屯區太原路三段１４７號１樓,120.6901,24.16507,(04)22369603,羅氏家用新冠病毒抗原自我檢測套組,1,2022/04/29 17:49:02,快篩販售4／30後：下午2點開始
5903291159,均福藥局,臺中市北屯區軍福十三路１００號１樓,120.7308,24.17096,(04)24391169,羅氏家用新冠病毒抗原自我檢測套組,77,2022/04/29 17:49:02,快篩實名制規則:晚上七點依現場排隊順序發號碼牌 （周日公休不販售）
5905080056,大樹學甲藥局,臺南市學甲區中正路１３５號１樓,120.1793,23.23029,(06)7820001,羅氏家用新冠病毒抗原自我檢測套組,1,2022/04/29 17:49:02,快篩實名制，每天16:00開始販售，售完為止。
5905080065,生祥大藥局學甲店,臺南市學甲區仁得里華宗路３６９號１樓,120.1821,23.23223,(06)7838462,羅氏家用新冠病毒抗原自我檢測套組,9,2022/04/29 17:49:02,快篩:早上8:00發號碼牌，13:00~19:00購買（週六14:00~17:00購買）
5905100035,華恩藥局,臺南市後壁區菁寮里５１號１樓,120.3356,23.37883,(06)6623491,羅氏家用新冠病毒抗原自我檢測套組,156,2022/04/29 17:49:02,星期一到六上午8:00-12:00，下午2:30-7:30，星期日8:00-12:00；口罩發售時間自08:30-11:30，下午2:30-07:00
5905311010,樂丞藥局,臺南市永康區中正北路６０號１樓,120.2406,23.04138,(06)2433319,羅氏家用新冠病毒抗原自我檢測套組,78,2022/04/29 17:49:02,快篩販售時間：晚上七點開賣至售完
5907080232,大樹仁武藥局,高雄市仁武區赤山里仁雄路８０－９號,120.3469,22.67811,(07)3744777,羅氏家用新冠病毒抗原自我檢測套組,56,2022/04/29 17:49:02,快篩實名制，每天16:00開始販售，售完為止。
5907100088,本館藥局,高雄市鳥松區大華里本館路１９０號１樓,120.3361,22.65556,(07)3707655,羅氏家用新冠病毒抗原自我檢測套組,2,2022/04/29 17:49:02,營業時間每日09:00-22:00  實名制快篩販賣時間15:00-20:00
5907150257,大樹大立藥局,高雄市路竹區國昌路５１號,120.26,22.85409,(07)6961663,羅氏家用新冠病毒抗原自我檢測套組,78,2022/04/29 17:49:02,快篩實名制，每天16:00開始販售，售完為止。
5907290238,聯合藥師藥局,高雄市鼓山區中華一路９７０號１樓,120.2919,22.65515,(07)5500558,羅氏家用新冠病毒抗原自我檢測套組,3,2022/04/29 17:49:02,無
5907300168,金元藥局,高雄市左營區重愛路２２０號,120.3156,22.68562,(07)3458378,羅氏家用新冠病毒抗原自我檢測套組,1,2022/04/29 17:49:02,口罩販售時間08:30開始，星期四，星期六營業時間到中午12點，平常日營業時間到晚上9點
5907300506,躍獅祐恩藥局,高雄市左營區明華一路１３２號１樓,120.3073,22.66307,(07)5508706,羅氏家用新冠病毒抗原自我檢測套組,78,2022/04/29 17:49:02,4／28-4／29快篩18:30開始販售，5月開始營業時間內販售，售完為止!
5907300631,大樹孟子藥局,高雄市左營區孟子路２２６、２２８號,120.3112,22.67415,(07)3461772,羅氏家用新冠病毒抗原自我檢測套組,1,2022/04/29 17:49:02,快篩實名制，每天16:00開始販售，售完為止。
5907301012,新高橋藥局華夏店,高雄市左營區華夏路１１１０號,120.3085,22.68343,(07)3410915,羅氏家用新冠病毒抗原自我檢測套組,7,2022/04/29 17:49:02,無
5907310020,德民藥局,高雄市楠梓區德民路９１１號,120.2897,22.72085,(07)3630805,羅氏家用新冠病毒抗原自我檢測套組,4,2022/04/29 17:49:02,營業日星期一至星期六上午11:00~13:00銷售快篩實名制.售完為止，週日公休
5907310388,宸實藥局,高雄市楠梓區後昌路４７巷２３－１號,120.3129,22.71975,(07)3642142,羅氏家用新冠病毒抗原自我檢測套組,12,2022/04/29 17:49:02,4／29號碼牌已發放完畢!謝謝合作!!每日8:30開始發放號碼牌（當日有效），一次限領一張，當日20:00前皆可購買。
5907310431,興楠丁丁藥局,高雄市楠梓區興楠路２６２號１樓,120.3329,22.7301,(07)3559668,羅氏家用新冠病毒抗原自我檢測套組,9,2022/04/29 17:49:02,無
5907320302,新高橋藥局明誠店,高雄市三民區明誠一路４９２號,120.3226,22.66046,(07)3107072,羅氏家用新冠病毒抗原自我檢測套組,2,2022/04/29 17:49:02,早上10:00開始販售口罩
5907320768,心樂保健藥局,高雄市三民區光裕路７８號１樓,120.3331,22.63789,(07)3855377,羅氏家用新冠病毒抗原自我檢測套組,1,2022/04/29 17:49:02,星期一到星期四上午8:30-12:00，下午15:00-18:00（口罩售完為止）. 星期五下午14:00-17:00，18:00-20:30（售完為止）
5907320946,熊安心藥局,高雄市三民區陽明路４０８號,120.3429,22.64609,(07)3815212,羅氏家用新冠病毒抗原自我檢測套組,20,2022/04/29 17:49:02,週一 ~ 週六 AM8:00-PM10:00，快篩分兩梯次販售，14:00有63份，19:00有15份
5907321069,桂林活力藥局九如店,高雄市三民區懷安街１１２號１樓,120.3176,22.64095,(07)3981009,羅氏家用新冠病毒抗原自我檢測套組,8,2022/04/29 17:49:02,無
5907350220,仁愛藥師藥局,高雄市苓雅區中正一路２３０號,120.3296,22.62921,(07)7222300,羅氏家用新冠病毒抗原自我檢測套組,1,2022/04/29 17:49:02,無
5907350659,北京藥局林泉店,高雄市苓雅區林泉里３鄰林泉街３５號１樓,120.3192,22.62323,(07)7263030,羅氏家用新冠病毒抗原自我檢測套組,156,2022/04/29 17:49:02,無
5907360226,順康健保藥局,高雄市前鎮區一心二路６７號,120.3099,22.61142,(07)5364438,羅氏家用新冠病毒抗原自我檢測套組,1,2022/04/29 17:49:02,防疫家用快篩販賣時間，每天早上9點開始，售完為止。
5907360646,眾安堂藥局,高雄市前鎮區班超路１７號１樓,120.3261,22.59924,(07)8219881,羅氏家用新冠病毒抗原自我檢測套組,5,2022/04/29 17:49:02,周一到周五早上9:20發號碼牌，10:00開始購買快篩，週六週日沒有配送
5907380184,桂林活力藥師藥局孔鳳店,高雄市小港區孔鳳路５６１號１樓,120.3586,22.58393,(07)7912331,羅氏家用新冠病毒抗原自我檢測套組,7,2022/04/29 17:49:02,無
5911011325,永好藥局,基隆市中正區北寧路３１５號１樓,121.7951,25.13981,(02)24697639,羅氏家用新冠病毒抗原自我檢測套組,2,2022/04/29 17:49:02,無
5911011610,躍獅大藥局,基隆市中正區義二路３５號,121.7453,25.1312,(02)24286960,羅氏家用新冠病毒抗原自我檢測套組,156,2022/04/29 17:49:02,營業時間11時-20時假日公休
5911041332,光華藥局,基隆市仁愛區成功一路１２９號１樓,121.7364,25.12786,(02)24338703,羅氏家用新冠病毒抗原自我檢測套組,75,2022/04/29 17:49:02,快篩試劑販賣下午六點發號碼牌完立刻販售
5911041958,百福仁愛專業藥局,基隆市仁愛區仁四路５０號１樓,121.7413,25.12829,(02)24266699,羅氏家用新冠病毒抗原自我檢測套組,71,2022/04/29 17:49:02,4／30起，早上8:00販售快篩
5911050162,錦泰藥局,基隆市中山區中山二路４３號,121.7405,25.13786,(02)24228523,羅氏家用新冠病毒抗原自我檢測套組,74,2022/04/29 17:49:02,快篩販賣時間星期一至五晚上7點，星期六，星期日休息
5917011847,郭藥局,臺中市中區平等街一二四號,120.682,24.1426,(04)22200005,羅氏家用新冠病毒抗原自我檢測套組,13,2022/04/29 17:49:02,無
5917021656,仁康中西藥局,臺中市東區振興路４３９號１樓,120.7055,24.13032,(04)22151232,羅氏家用新冠病毒抗原自我檢測套組,1,2022/04/29 17:49:02,周一至周六，早上8:30發放號碼牌並開始販售.（販售至中午12:00止）
5917052928,盈佑藥局,臺中市北區進化路６３９號１樓,120.6941,24.16091,(04)22376737,羅氏家用新冠病毒抗原自我檢測套組,4,2022/04/29 17:49:02,週一至週五上午9點到下午9點賣口罩 下午12~15點休息週六下午晚上都休息
5917053550,嘉樂藥局,臺中市北區西屯路一段３５１－７號,120.6658,24.15956,(04)23263967,羅氏家用新冠病毒抗原自我檢測套組,1,2022/04/29 17:49:02,星期一~五8.30~12.30，14.00~21.30，星期六8.30-12.30
5917070677,康得美專業藥局,臺中市南屯區忠勇路１２之２６號,120.6119,24.13555,(04)23801185,羅氏家用新冠病毒抗原自我檢測套組,1,2022/04/29 17:49:02,星期一至星期五09:00-22:00 星期六10:00-22:00
5917080379,大元藥局,臺中市北屯區北屯里昌平路一段２３號,120.6937,24.16657,(04)22357722,羅氏家用新冠病毒抗原自我檢測套組,78,2022/04/29 17:49:02,周一~周六每天18:00至20:00販售快篩劑， ，星期日公休
5917080888,大華藥局,臺中市北屯區熱河路２段１０９號１樓,120.6873,24.17054,(04)22331721,羅氏家用新冠病毒抗原自我檢測套組,60,2022/04/29 17:49:02,周一至周五1830-2030販售快篩，周六1400-1600販售快篩。周六晚上及周日全天休診。
5917083076,瑞生藥局,臺中市北屯區大連路３段１２６號１樓,120.6948,24.17444,(04)22416759,羅氏家用新冠病毒抗原自我檢測套組,2,2022/04/29 17:49:02,每月固定禮拜天休息，每天早上8點30分準備開始領取口罩；每天早上8:30~晚上10:00，星期日休息
5921071226,康活藥局,臺南市安平區健康三街１８６號,120.1686,22.98883,(06)2936483,羅氏家用新冠病毒抗原自我檢測套組,38,2022/04/29 17:49:02,無
5922010361,壽生堂藥局,嘉義市東區府路里延平街２８０號,120.4502,23.47683,(05)2225058,羅氏家用新冠病毒抗原自我檢測套組,2,2022/04/29 17:49:02,周一至周日上午09:00起，至20:00或售鑿為止。
5922020509,全德藥局,嘉義市西區福民里興業西路２８９號,120.4392,23.46776,(05)2854263,羅氏家用新冠病毒抗原自我檢測套組,51,2022/04/29 17:49:02,營業時間請電話洽詢，口罩販售：19點~21點
5931010342,宏達大藥局,新北市板橋區莒光路１７號,121.47,25.02478,(02)22572345,羅氏家用新冠病毒抗原自我檢測套組,68,2022/04/29 17:49:02,快篩 晚上20:00開始販售! 不要打電話來 問題這麼多就到現場 也不給你問
5931012051,全曜藥局,新北市板橋區民權路２６０巷６２號,121.4603,25.01495,(02)29682681,羅氏家用新冠病毒抗原自我檢測套組,74,2022/04/29 17:49:02,實聯快篩 19:30開始販賣 （星期日休）
5931013478,富盛藥局,新北市板橋區四維路２９１巷４弄２４號１樓,121.4622,25.02879,(02)22596016,羅氏家用新冠病毒抗原自我檢測套組,1,2022/04/29 17:49:02,每天下午3-6點準時販賣防疫口罩.售完為止
5931015874,家碩藥局,新北市板橋區金門街３００號,121.4289,24.98539,(02)26755715,羅氏家用新冠病毒抗原自我檢測套組,1,2022/04/29 17:49:02,口罩9點發號碼牌和收健保卡.下午3點憑號碼牌領口罩和健保卡.星期日不發口罩
5931017010,醫安藥局,新北市板橋區南雅南路１段１１號１樓及２樓,121.4565,25.00706,(02)29692588,羅氏家用新冠病毒抗原自我檢測套組,3,2022/04/29 17:49:02,無
5931017289,板橋大樹藥局,新北市板橋區忠孝路２８號（１樓）,121.4603,25.00176,(02)29555551,羅氏家用新冠病毒抗原自我檢測套組,1,2022/04/29 17:49:02,快篩實名制，每天16:00開始販售，售完為止。
5931017618,新埔健保藥局,新北市板橋區自由路２號１樓,121.4654,25.02222,(02)22558878,羅氏家用新冠病毒抗原自我檢測套組,41,2022/04/29 17:49:02,無
5931017994,後埔藥局,新北市板橋區華興街９號（１樓）,121.459,25.00457,(02)89510306,羅氏家用新冠病毒抗原自我檢測套組,2,2022/04/29 17:49:02,（4／29今天已完售）目前暫定為早上0900發放快篩試劑號碼牌每天78份當天領取完畢
5931021023,義中藥局,新北市三重區大同北路１０７號,121.4942,25.06421,(02)29815088,羅氏家用新冠病毒抗原自我檢測套組,9,2022/04/29 17:49:02,無
5931023349,迪化藥局,新北市三重區中華路７７號,121.4836,25.06267,(02)29834445,羅氏家用新冠病毒抗原自我檢測套組,1,2022/04/29 17:49:02,無
5931024515,陳藥局,新北市三重區三民街７７號,121.4858,25.06293,(02)29848601,羅氏家用新冠病毒抗原自我檢測套組,78,2022/04/29 17:49:02,實名快篩時間: 周一到五晚上7:30~9:00現場購買沒有發號碼牌，  4月30日週六沒有配送所以沒有販售
5931025192,榮康藥局,新北市三重區成功路８１號１樓,121.4886,25.05131,(02)29772723,羅氏家用新冠病毒抗原自我檢測套組,78,2022/04/29 17:49:02,無
5931025290,康新藥局,新北市三重區正義北路１８５號２樓,121.4964,25.06783,(02)29865982,羅氏家用新冠病毒抗原自我檢測套組,1,2022/04/29 17:49:02,實名制代售時段：下午2點到4點。請自備零錢，恕不找零。.
5931025692,杏一三重集成藥局,新北市三重區集成路４３號１樓,121.4893,25.05271,(02)29743410,羅氏家用新冠病毒抗原自我檢測套組,7,2022/04/29 17:49:02,每日下午三點販售口罩
5931026064,五華春天生活藥局,新北市三重區五華街７３號１、２樓,121.4925,25.08291,(02)29876838,羅氏家用新冠病毒抗原自我檢測套組,1,2022/04/29 17:49:02,下午2點40發號碼牌，3點發快篩
5931033087,康宏安藥局,新北市永和區保福路２段７８號１樓,121.5106,25.01331,(02)29288118,羅氏家用新冠病毒抗原自我檢測套組,1,2022/04/29 17:49:02,無
5931034146,亮點藥局,新北市永和區竹林路７１號１樓,121.5186,25.01355,(02)89253895,羅氏家用新冠病毒抗原自我檢測套組,43,2022/04/29 17:49:02,快篩發放時段 下午16:30-18:00
5931043921,良安藥局,新北市中和區連城路４７７巷１號１樓,121.4833,24.99555,(02)22225798,羅氏家用新冠病毒抗原自我檢測套組,156,2022/04/29 17:49:02,週六日不開店
5931044464,健暉藥局,新北市中和區連城路４８７號１樓,121.4829,24.99552,(02)22231437,羅氏家用新冠病毒抗原自我檢測套組,39,2022/04/29 17:49:02,實名快篩 早上10點 39份 ／ 晚上7點 39份 賣完為止
5931045041,大誠藥局,新北市中和區民享街８７號１樓,121.4744,25.00162,(02)22258394,羅氏家用新冠病毒抗原自我檢測套組,1,2022/04/29 17:49:02,實名制快篩 每日下午03:30開始販售
5931067136,蒲陽藥局,新北市新莊區中港路５１４號,121.4518,25.05187,(02)29930069,羅氏家用新冠病毒抗原自我檢測套組,1,2022/04/29 17:49:02,無
5931069372,羽豐藥局,新北市新莊區新莊路３８２號１樓,121.4491,25.03355,(02)22029812,羅氏家用新冠病毒抗原自我檢測套組,156,2022/04/29 17:49:02,不用過卡的醫療口罩整天有，過健保卡口罩限每早9:30至11:40
5931069425,國安藥局,新北市新莊區中和街１５５巷６號１樓,121.4472,25.04979,(02)29938003,羅氏家用新冠病毒抗原自我檢測套組,8,2022/04/29 17:49:02,無
593106A566,一心春天藥局,新北市新莊區中和街１３號１樓、地下室,121.4481,25.04342,(02)89929482,羅氏家用新冠病毒抗原自我檢測套組,2,2022/04/29 17:49:02,每日下午3:00開始販售實名制快篩（14:40發號碼牌）
593106A637,薇妮藥妝藥局,新北市新莊區民安路９９號１樓,121.4245,25.02524,(02)82010817,羅氏家用新冠病毒抗原自我檢測套組,1,2022/04/29 17:49:02,早上09:00發號碼牌，憑號碼牌限當日領取
593106A726,良和健保藥局,新北市新莊區龍安路４９號１樓,121.4158,25.02151,(02)29048157,羅氏家用新冠病毒抗原自我檢測套組,78,2022/04/29 17:49:02,口罩：早上9點發號碼牌，星期六休息不代售口罩
593106A824,家禾藥局,新北市新莊區立信五街６號１樓,121.4445,25.05148,(02)29972121,羅氏家用新冠病毒抗原自我檢測套組,39,2022/04/29 17:49:02,無
593106B027,樂福藥局,新北市新莊區幸福路４８號１樓、幸福路６４巷２弄１６號１樓,121.4577,25.04953,(02)29923388,羅氏家用新冠病毒抗原自我檢測套組,9,2022/04/29 17:49:02,快篩每日上午11點發放號碼牌 下午2:30開始依號碼牌時間領取下午有庫存因為號碼牌沒來拿
593106B036,家嘉藥局,新北市新莊區自立街１０３號（１樓）,121.4553,25.04549,(02)89926488,羅氏家用新冠病毒抗原自我檢測套組,4,2022/04/29 17:49:02,無
593106B072,小林健保藥局,新北市新莊區昌明街３８之１號１樓,121.4565,25.05237,(02)29911764,羅氏家用新冠病毒抗原自我檢測套組,78,2022/04/29 17:49:02,無
593106B205,藥師佛藥局,新北市新莊區中正路８８１之４號１樓,121.4175,25.02544,(02)29016625,羅氏家用新冠病毒抗原自我檢測套組,78,2022/04/29 17:49:02,快篩晚上七點開賣78盒!中午快篩已售完！不用再打來問了！
593106B296,廣元藥局,新北市新莊區雙鳳路２號（１樓）,121.4175,25.02688,(02)29044948,羅氏家用新冠病毒抗原自我檢測套組,4,2022/04/29 17:49:02,無
593106B321,大樹幸福藥局,新北市新莊區幸福路６７２號１樓,121.4509,25.0493,(02)29981066,羅氏家用新冠病毒抗原自我檢測套組,1,2022/04/29 17:49:02,快篩實名制，每天16:00開始販售，售完為止。
593106B330,和昌藥局,新北市新莊區中安街１５號１樓,121.4531,25.04585,(02)29900669,羅氏家用新冠病毒抗原自我檢測套組,156,2022/04/29 17:49:02,無
5931070419,暉民西藥局,新北市樹林區千歲街３６號,121.4257,24.99661,(02)26835868,羅氏家用新冠病毒抗原自我檢測套組,1,2022/04/29 17:49:02,週一至週六早上08:00開始發號碼牌.13:00販賣實名制快篩.售完即貼公告告知.
5931071970,保康藥局,新北市樹林區保安街１段３６４號,121.4176,24.99856,(02)86875503,羅氏家用新冠病毒抗原自我檢測套組,1,2022/04/29 17:49:02,無
5931072422,三樹食在好健康藥局,新北市樹林區學成路６００號１樓,121.3818,24.94584,(02)26807101,羅氏家用新冠病毒抗原自我檢測套組,78,2022/04/29 17:49:02,無
5931081378,鶯歌宏達藥局,新北市鶯歌區國慶街１３８號１樓,121.3508,24.95347,(02)26709693,羅氏家用新冠病毒抗原自我檢測套組,3,2022/04/29 17:49:02,口罩發放時間下午2-4點，人力不足其他時段沒辦法供應
5931081458,食在好健康藥局,新北市鶯歌區國慶街１６５號１樓,121.3512,24.95312,(02)26702559,羅氏家用新冠病毒抗原自我檢測套組,109,2022/04/29 17:49:02,實名制快篩販賣時間週一到週四19:00~20:00
5931081547,信義健保藥局,新北市鶯歌區信義街６３號１樓,121.3534,24.95571,(02)86775563,羅氏家用新冠病毒抗原自我檢測套組,78,2022/04/29 17:49:02,無
5931091623,兆康藥局,新北市三峽區中華路２２號１樓,121.3742,24.93265,(02)26717875,羅氏家用新冠病毒抗原自我檢測套組,37,2022/04/29 17:49:02,無
5931092200,金美藥局,新北市三峽區大同路２３８號１樓,121.3663,24.92573,(02)86715859,羅氏家用新冠病毒抗原自我檢測套組,156,2022/04/29 17:49:02,無
5931092219,北大藥局,新北市三峽區大義路９號１樓,121.3788,24.94372,(02)26738535,羅氏家用新冠病毒抗原自我檢測套組,38,2022/04/29 17:49:02,快篩發放時段下午1點-2點 晚上9:30-11:00
5931112083,裕和藥局,新北市汐止區宜興街４號１樓,121.6211,25.04126,(02)26609119,羅氏家用新冠病毒抗原自我檢測套組,76,2022/04/29 17:49:02,早上9.30-晚上9.00領實名制口罩時間
5931112136,汐芷藥局,新北市汐止區福德一路２５５號,121.6335,25.06447,(02)26924087,羅氏家用新冠病毒抗原自我檢測套組,10,2022/04/29 17:49:02,無
5931112270,汐心藥局,新北市汐止區福德一路１５０號,121.6366,25.06687,(02)86932859,羅氏家用新冠病毒抗原自我檢測套組,1,2022/04/29 17:49:02,實名制快篩9:00開始販售，現場排隊
5931113133,祐欣藥局,新北市汐止區中興路２４０號１樓,121.6296,25.06805,(02)26950778,羅氏家用新冠病毒抗原自我檢測套組,1,2022/04/29 17:49:02,實名制快篩-每日早上9點開始發放號碼牌，發完78張號碼即=售完!! 請不要看帳面庫存!!
5931113188,汐止藥局,新北市汐止區福德二路７０號１樓,121.6331,25.06651,(02)86932587,羅氏家用新冠病毒抗原自我檢測套組,1,2022/04/29 17:49:02,無
5931121279,大埔藥局,新北市瑞芳區大埔路１２８－３號１樓,121.762,25.10079,(02)24587020,羅氏家用新冠病毒抗原自我檢測套組,5,2022/04/29 17:49:02,無
5931132343,誠安藥局,新北市土城區中央路４段３６號１樓,121.4207,24.96088,(02)22677737,羅氏家用新冠病毒抗原自我檢測套組,76,2022/04/29 17:49:02,執業時段請電洽藥局
5931132683,家庭藥師連鎖藥局,新北市土城區裕生路８號１、２樓,121.4483,24.9877,(02)22633601,羅氏家用新冠病毒抗原自我檢測套組,5,2022/04/29 17:49:02,實名制快篩16:30賣，不發放號碼牌，因人力不足不會清點現場人數，謝謝
5931133331,城安大藥局,新北市土城區金城路３段４０號,121.4656,24.98639,(02)22646561,羅氏家用新冠病毒抗原自我檢測套組,17,2022/04/29 17:49:02,無
5931133546,宏林保健藥局,新北市土城區裕民路１３４號（１樓）,121.4515,24.98622,(02)82615919,羅氏家用新冠病毒抗原自我檢測套組,2,2022/04/29 17:49:02,無
5931133671,升立藥局,新北市土城區明德路２段１９５號１樓,121.4471,24.98333,(02)22605158,羅氏家用新冠病毒抗原自我檢測套組,37,2022/04/29 17:49:02,無
5931142778,芯聯藥局,新北市蘆洲區民族路２１０號,121.4798,25.08763,(02)82866803,羅氏家用新冠病毒抗原自我檢測套組,1,2022/04/29 17:49:02,無
5931142858,愛佳健保藥局,新北市蘆洲區長榮路７５號１樓,121.462,25.08364,(02)22825835,羅氏家用新冠病毒抗原自我檢測套組,78,2022/04/29 17:49:02,每日上午08:00開始販售實名制口罩（防疫口罩），售完為止。
5931143284,宥安藥局,新北市蘆洲區長榮路３８１號２樓,121.4592,25.08947,(02)22823556,羅氏家用新冠病毒抗原自我檢測套組,10,2022/04/29 17:49:02,無
5931161620,華特藥局,新北市泰山區明志路１段２６０號１樓,121.4321,25.06052,(02)29095662,羅氏家用新冠病毒抗原自我檢測套組,78,2022/04/29 17:49:02,實名制晚上7:00開始販售 每日限60組，另18組供給確診居家個案緊急使用
5931171680,一家好藥局,新北市林口區中山路５００號,121.3794,25.08303,(02)26028270,羅氏家用新冠病毒抗原自我檢測套組,78,2022/04/29 17:49:02,無
5931171822,榮昌藥局,新北市林口區仁愛路１段４１０號１樓,121.3867,25.07683,(02)26011312,羅氏家用新冠病毒抗原自我檢測套組,2,2022/04/29 17:49:02,實名制快篩15:00開賣唷！
5931171831,沐霖藥局,新北市林口區文化三路２段２８６號１樓,121.3775,25.08304,(02)26032086,羅氏家用新冠病毒抗原自我檢測套組,55,2022/04/29 17:49:02,無
5931190514,碇康藥局,新北市石碇區潭邊里石崁２４－１號,121.658,24.99424,(02)26634229,羅氏家用新冠病毒抗原自我檢測套組,79,2022/04/29 17:49:02,無
5931211045,三芝藥師藥局,新北市三芝區中正路１段４３號１樓,121.5032,25.25816,(02)86353982,羅氏家用新冠病毒抗原自我檢測套組,156,2022/04/29 17:49:02,無
5931250015,松南藥局,新北市雙溪區中華路２９號,121.8658,25.03728,(02)24931085,羅氏家用新冠病毒抗原自我檢測套組,155,2022/04/29 17:49:02,週一至週五營業至晚上21點.週六至20點週日至12點
5931250042,信芳藥局,新北市雙溪區中華路５０號,121.866,25.03761,(02)24931301,羅氏家用新冠病毒抗原自我檢測套組,156,2022/04/29 17:49:02,無
5931270026,仁又堂藥局,新北市金山區信義路１７號,121.6373,25.22091,(02)24982468,羅氏家用新冠病毒抗原自我檢測套組,156,2022/04/29 17:49:02,無
5931270044,金宏仁藥局,新北市金山區中山路１９０巷２號,121.6382,25.22174,(02)24982402,羅氏家用新冠病毒抗原自我檢測套組,156,2022/04/29 17:49:02,無
5931280013,萬里藥局,新北市萬里區瑪鍊路９０號,121.6837,25.18504,(02)24922235,羅氏家用新冠病毒抗原自我檢測套組,156,2022/04/29 17:49:02,無
5931281074,北海岸藥局,新北市萬里區瑪鍊路９８號,121.6906,25.17868,(02)24922022,羅氏家用新冠病毒抗原自我檢測套組,156,2022/04/29 17:49:02,6／25.26.27早上8:00-12:00拿藥，下午休診
5932013338,合豐藥局,桃園市桃園區中山東路８２號,121.3176,24.99664,(03)3394007,羅氏家用新冠病毒抗原自我檢測套組,3,2022/04/29 17:49:02,口罩販售時間：週一至週日
5932013856,大滝藥局,桃園市桃園區龍壽街７４－２號,121.269,24.97999,(03)3607258,羅氏家用新冠病毒抗原自我檢測套組,73,2022/04/29 17:49:02,營業時間:09:00-23:00 實名制快篩販售時間:晚上6:00~售完
5932014031,大廟藥局,桃園市桃園區中山路１５８號１樓,121.3091,24.99342,(03)3337006,羅氏家用新冠病毒抗原自我檢測套組,16,2022/04/29 17:49:02,無
5932014059,桃園南平藥局,桃園市桃園區南平路３０２－１號１樓,121.2989,25.01855,(03)3165222,羅氏家用新冠病毒抗原自我檢測套組,1,2022/04/29 17:49:02,快篩實名制，每天16:00開始販售，售完為止。
5932014291,躍獅民生藥局,桃園市桃園區民生路２２８號１樓,121.313,24.99472,(03)3362359,羅氏家用新冠病毒抗原自我檢測套組,2,2022/04/29 17:49:02,下午1點開始販售，會發號碼牌（今日已發完），購買權保留至6點
5932019045,大一藥局,桃園市桃園區中山路684之一號一樓,121.2946,24.9912,(03)2171836,羅氏家用新冠病毒抗原自我檢測套組,8,2022/04/29 17:49:02,無
5932019143,弘光藥師藥局,桃園市桃園區國際路一段１１３５號,121.2891,24.98774,(03)2170167,羅氏家用新冠病毒抗原自我檢測套組,5,2022/04/29 17:49:02,無
5932019929,元氣藥局,桃園市桃園區民光東路一Ｏ九號,121.3183,25.0079,(03)3332201,羅氏家用新冠病毒抗原自我檢測套組,78,2022/04/29 17:49:02,星期一三四六下午三點半開始販售快篩試劑，星期二五傍晚七點開始販售，星期日早上十點開始
593201A506,永忻藥局,桃園市桃園區大興路一九三號一樓,121.312,25.01564,(03)3585569,羅氏家用新冠病毒抗原自我檢測套組,1,2022/04/29 17:49:02,口罩販賣時段：週一~週六 15:00~1700
5932021812,慧中健保藥局,桃園市中壢區成章二街１４１號１樓,121.2568,24.98025,(03)4556129,羅氏家用新冠病毒抗原自我檢測套組,4,2022/04/29 17:49:02,無
5932022159,躍獅新明藥局,桃園市中壢區新明路６６號１樓,121.215,24.95868,(03)2813361,羅氏家用新冠病毒抗原自我檢測套組,1,2022/04/29 17:49:02,快篩販賣時段：14:00~售完為止，現場排隊 ， 星期天沒有販售快篩
5932022257,星康生活藥局,桃園市中壢區中美路二段94號,121.2218,24.96005,(03)4252869,羅氏家用新冠病毒抗原自我檢測套組,2,2022/04/29 17:49:02,9:00開始發放，售完為止
5932023567,內壢成章藥局,桃園市中壢區忠孝路１９８號,121.2553,24.97719,(03)4524123,羅氏家用新冠病毒抗原自我檢測套組,1,2022/04/29 17:49:02,快篩實名制，每天16:00開始販售，售完為止。
5932023843,晴一藥局,桃園市中壢區民族路五段２５８號１樓,121.1714,24.95865,(03)4909427,羅氏家用新冠病毒抗原自我檢測套組,58,2022/04/29 17:49:02,實名制快篩17:30排隊販售
5932023923,朝日藥局,桃園市中壢區新生路１２９號,121.2227,24.96044,(03)2805882,羅氏家用新冠病毒抗原自我檢測套組,22,2022/04/29 17:49:02,實名快篩下午3點發號碼牌，下午3點30分發放試劑
5932024162,大賀藥局,桃園市中壢區龍東路３９９號１樓,121.2558,24.93335,(03)4375977,羅氏家用新冠病毒抗原自我檢測套組,1,2022/04/29 17:49:02,營業時間:0830~2300
5932024242,樂心藥局,桃園市中壢區中山東路２段５３６號１樓,121.2455,24.94672,(03)4655667,羅氏家用新冠病毒抗原自我檢測套組,77,2022/04/29 17:49:02,營業時間：上午0800-1200，下午1430-1800，晚上1830-2130
5932024251,佑全中壢中山藥局,桃園市中壢區中山東路２段２７號１樓,121.2374,24.95443,(03)4385373,羅氏家用新冠病毒抗原自我檢測套組,13,2022/04/29 17:49:02,家用快篩販售時間：下午1400-售完為止
593202A833,君安藥局,桃園市中壢區中北路二段３９０號,121.2318,24.95388,(03)4685484,羅氏家用新冠病毒抗原自我檢測套組,61,2022/04/29 17:49:02,無
593202B296,慧康藥局,桃園市中壢區中北路二段１０１號１樓,121.2255,24.95122,(03)2840064,羅氏家用新冠病毒抗原自我檢測套組,3,2022/04/29 17:49:02,口罩販賣時段:16:00
5932030080,吉壽藥局,桃園市大溪區員林路三段４２號,121.2648,24.88175,(03)3802049,羅氏家用新冠病毒抗原自我檢測套組,78,2022/04/29 17:49:02,口罩販賣時段：星期一~五上午9:00至12:00及下午14:00至20:00，星期六早上8:30。例假日另行通知!
5932031578,宜暉健保藥局,桃園市大溪區介壽路７１８號,121.2849,24.90544,(03)3806695,羅氏家用新冠病毒抗原自我檢測套組,78,2022/04/29 17:49:02,9:00-22:00／端午.中秋.除夕~初三休息／快篩販賣時間19:00發號碼牌，售完為止
5932040308,弘大藥局,桃園市楊梅區大華街十三號,121.1452,24.9076,(03)4751858,羅氏家用新冠病毒抗原自我檢測套組,12,2022/04/29 17:49:02,快篩販售時間：週一至週六 14:00
5932043130,宜康美藥局,桃園市楊梅區環東路４５２號,121.1571,24.91005,(03)4883805,羅氏家用新冠病毒抗原自我檢測套組,20,2022/04/29 17:49:02,口罩販賣時段：早上09:30~10:30（100份）下午15:30~16:30（50份）晚上19:30~20:30（50份）
5932043390,元森藥局,桃園市楊梅區瑞溪路２段１２５號１樓,121.1806,24.90875,(03)4311058,羅氏家用新冠病毒抗原自我檢測套組,78,2022/04/29 17:49:02,無
5932051329,恆安藥局,桃園市蘆竹區忠孝西路２４號,121.2924,25.04425,(03)2120206,羅氏家用新冠病毒抗原自我檢測套組,4,2022/04/29 17:49:02,口罩販賣時段：下午16:00  晚上20:00
5932052808,柏霖藥局,桃園市蘆竹區中正路３５９號２樓,121.291,25.04902,(03)2120284,羅氏家用新冠病毒抗原自我檢測套組,77,2022/04/29 17:49:02,快篩試劑販賣時間:18:00開始.售完為止
5932052826,青新藥師藥局,桃園市蘆竹區南竹路五段２５１之１號,121.2597,25.0247,(03)3134328,羅氏家用新冠病毒抗原自我檢測套組,75,2022/04/29 17:49:02,無
5932052844,康維藥局,桃園市蘆竹區仁愛路一段２２號１樓,121.294,25.05063,(03)3125330,羅氏家用新冠病毒抗原自我檢測套組,78,2022/04/29 17:49:02,口罩 ／ 快篩 販賣時段：週一至週五18:00-20:00，週六09:00-11:00
5932052933,天康南崁藥局,桃園市蘆竹區南崁路２４５號,121.2933,25.04894,(03)2122569,羅氏家用新冠病毒抗原自我檢測套組,2,2022/04/29 17:49:02,快篩販賣時段：週一至週日14:00起
5932053010,辰安藥局,桃園市蘆竹區上興路２１６號１樓,121.2601,25.01896,(03)3136631,羅氏家用新冠病毒抗原自我檢測套組,79,2022/04/29 17:49:02,本藥局實名制快篩規則將統一公告在臉書（ 4／29快篩已售完，此為4／30數量）
5932053083,健力藥局,桃園市蘆竹區奉化路１３６號,121.2888,25.03924,(03)2221918,羅氏家用新冠病毒抗原自我檢測套組,60,2022/04/29 17:49:02,快篩下午三點開賣
5932077118,文青藥局,桃園市龜山區文青路２０２號,121.3878,25.04034,(03)3270581,羅氏家用新冠病毒抗原自我檢測套組,78,2022/04/29 17:49:02,口罩販賣時段：上午10點到12點
5932077369,安博氏藥師藥局,桃園市龜山區文青路１８５號１樓,121.3877,25.04079,(03)3283185,羅氏家用新冠病毒抗原自我檢測套組,50,2022/04/29 17:49:02,快篩販售時間11:00（六、日沒有販售）- 4／29 沒收到快篩~沒有快篩可以販售~請不要來排隊~請不要再打電話來詢問
5932077378,佑昌藥局,桃園市龜山區民生北路一段５３４號,121.298,25.044,(03)3120760,羅氏家用新冠病毒抗原自我檢測套組,1,2022/04/29 17:49:02,實名制快篩發放時間 14:00
5932077538,維康藥局,桃園市龜山區復興一路８８號１樓,121.3683,25.05946,(03)3283880,羅氏家用新冠病毒抗原自我檢測套組,156,2022/04/29 17:49:02,平日上午9點至晚上6點執業
5932083670,保健藥局,桃園市八德區介壽路一段８３３號２樓,121.3,24.96168,(03)3669486,羅氏家用新冠病毒抗原自我檢測套組,2,2022/04/29 17:49:02,無
5932083974,晨鴻藥師藥局,桃園市八德區桃鶯路７號１樓,121.3265,24.97179,(03)3764299,羅氏家用新冠病毒抗原自我檢測套組,43,2022/04/29 17:49:02,兒童口罩早上8:30領取號碼牌 一定發完 因為一天只有20個名額 ，請勿再打電話詢問 謝謝
5932084248,佑兒康藥局,桃園市八德區永豐路５７０號,121.2718,24.97541,(03)3709680,羅氏家用新冠病毒抗原自我檢測套組,3,2022/04/29 17:49:02,上午7:30開始發放購買憑證（需留下健保卡），14:00-19:00持憑證領回健保卡與口罩
5932084668,奕成健保大藥局,桃園市八德區興豐路６７３號１樓,121.2958,24.93121,(03)3732113,羅氏家用新冠病毒抗原自我檢測套組,39,2022/04/29 17:49:02,早上10:30發放39份、晚上9:30發放39份
5932084828,阿爾富山藥局,桃園市八德區桃鶯路４號１樓,121.3261,24.97167,(03)3763350,羅氏家用新冠病毒抗原自我檢測套組,77,2022/04/29 17:49:02,8:00-22:00
5932084846,豐田藥局,桃園市八德區豐田二路５２號,121.2882,24.92774,(03)3683168,羅氏家用新冠病毒抗原自我檢測套組,78,2022/04/29 17:49:02,無
5932084864,阿寶藥局,桃園市八德區東勇一路６號,121.3064,24.96452,(03)3750060,羅氏家用新冠病毒抗原自我檢測套組,25,2022/04/29 17:49:02,無
5932099383,龍星藥局,桃園市龍潭區中正路二八四號二樓,121.2175,24.86201,(03)4707390,羅氏家用新冠病毒抗原自我檢測套組,2,2022/04/29 17:49:02,上午8~11下午16~18晚上19~21，六、日9~12門診.口罩販賣
5932099856,佳欣社區藥局,桃園市龍潭區中正路２６２號１樓,121.2173,24.86254,(03)4808717,羅氏家用新冠病毒抗原自我檢測套組,2,2022/04/29 17:49:02,無
5932100210,福澤中豐藥局,桃園市平鎮區中豐路３４５號,121.2116,24.91034,(03)4283805,羅氏家用新冠病毒抗原自我檢測套組,10,2022/04/29 17:49:02,家用快篩販賣時段15:30至售完為止
5932100916,唯康藥局,桃園市平鎮區中豐路南勢二段１４４號,121.2106,24.91564,(03)4396011,羅氏家用新冠病毒抗原自我檢測套組,30,2022/04/29 17:49:02,快篩分兩梯次販售，14：30（48份）和19：00（30份）
5933010064,明德藥局,新竹縣關西鎮中山路１８號,121.1778,24.79152,(03)5874335,羅氏家用新冠病毒抗原自我檢測套組,1,2022/04/29 17:49:02,口罩販賣時段：早上8：00到10:00 假日會提早
5933010091,進安藥局,新竹縣關西鎮正義路１５號,121.1761,24.79111,(03)5872153,羅氏家用新冠病毒抗原自我檢測套組,4,2022/04/29 17:49:02,12:00-14:00休息（配合醫療院所）。
5933010144,佳仁藥局,新竹縣關西鎮中興路１２號,121.1771,24.79227,(035)872298,羅氏家用新冠病毒抗原自我檢測套組,1,2022/04/29 17:49:02,全年無休（星期日不定期）
5933011196,高平堂藥局,新竹縣關西鎮正義路66號,121.1762,24.79269,(03)5872263,羅氏家用新冠病毒抗原自我檢測套組,60,2022/04/29 17:49:02,相關公告 請搜尋FB【高平堂藥局】
5933031652,合康藥局,新竹縣竹東鎮興農街１１號,121.0861,24.73988,(03)5103818,羅氏家用新冠病毒抗原自我檢測套組,38,2022/04/29 17:49:02,口罩販賣時段：9:00-11:00 19:00-21:00
5933053041,中一藥局,新竹縣竹北市文興路一段２４２號１樓,121.0287,24.81018,(03)6670827,羅氏家用新冠病毒抗原自我檢測套組,1,2022/04/29 17:49:02,口罩代售時間自14:00至16:00，號碼牌發放時間自13:30
5933080137,春安藥局,新竹縣新豐鄉重興村新庄路２５８號,120.9856,24.90331,(03)5591875,羅氏家用新冠病毒抗原自我檢測套組,74,2022/04/29 17:49:02,口罩販賣時段：星期一~六19:30-21:30 星期日08:00-11:00
5933081536,昌昌藥局,新竹縣新豐鄉新市路１９３號,120.9846,24.90465,(03)5598077,羅氏家用新冠病毒抗原自我檢測套組,1,2022/04/29 17:49:02,無
5934051274,樂多藥局,宜蘭縣礁溪鄉中山路２段７２號１樓,121.7721,24.82459,(03)9368600,羅氏家用新冠病毒抗原自我檢測套組,3,2022/04/29 17:49:02,無
5935011738,佳禾藥局,苗栗縣苗栗市青苗里建台街7號,120.821,24.55742,(037)373041,羅氏家用新冠病毒抗原自我檢測套組,156,2022/04/29 17:49:02,口罩7：30開始販賣，販賣時段：營業時間至售完為止
5935021458,沐安藥局,苗栗縣苑裡鎮客庄里信義路１－１０號１樓,120.653,24.43873,(037)868600,羅氏家用新冠病毒抗原自我檢測套組,6,2022/04/29 17:49:02,快篩實名制早上8點開始發放號碼牌。販售時間為早上8-12點、下午3-6點、晚上7-9點。
5935030180,通霄藥局,苗栗縣通霄鎮中山路１３１號,120.678,24.48903,(037)755155,羅氏家用新冠病毒抗原自我檢測套組,2,2022/04/29 17:49:02,快篩實名制，每天16:00開始販售，售完為止。
5935041914,合康連鎖藥局,苗栗縣竹南鎮博愛街２７０號,120.8725,24.68724,(037)474987,羅氏家用新冠病毒抗原自我檢測套組,32,2022/04/29 17:49:02,無
5935051992,躍獅祐民藥局,苗栗縣頭份市信義路４５４號１樓,120.8958,24.69637,(037)669387,羅氏家用新冠病毒抗原自我檢測套組,78,2022/04/29 17:49:02,晚上七點發號碼牌同時開賣，已領號碼牌者請於當日9點前購買
5935071172,健安藥局,苗栗縣卓蘭鎮上新里上新七之１１號,120.8297,24.30834,(04)25899617,羅氏家用新冠病毒抗原自我檢測套組,2,2022/04/29 17:49:02,口罩販賣時段：營業時段早上7:30至售完
5935080055,臺健中西藥局,苗栗縣大湖鄉中正路１９號,120.869,24.42165,(037)990638,羅氏家用新冠病毒抗原自我檢測套組,156,2022/04/29 17:49:02,無
5935081169,景元藥局,苗栗縣大湖鄉中正路９７號,120.8664,24.42265,(037)996465,羅氏家用新冠病毒抗原自我檢測套組,156,2022/04/29 17:49:02,每天下午兩點開始販售快篩試劑
5936171439,健康生活藥局,臺中市龍井區新興路９６之２５號,120.5848,24.18202,(04)26523949,羅氏家用新冠病毒抗原自我檢測套組,78,2022/04/29 17:49:02,防疫口罩時段07：30-12：00，14：00-21：30，星期五公休
5936192018,和康藥局,臺中市太平區樹孝路４６２號,120.7203,24.15716,(04)23917355,羅氏家用新冠病毒抗原自我檢測套組,78,2022/04/29 17:49:02,實名制快篩販售時間晚上七點   4.30（六）因未配送到快篩 暫停一次 禮拜日公休
5936192134,樹德大藥局,臺中市太平區樹德路１０２號１樓,120.7115,24.15386,(04)23981782,羅氏家用新冠病毒抗原自我檢測套組,24,2022/04/29 17:49:02,下午3點開始領號碼牌，分流領取，請勿依賴網站庫存
5936200453,慈輝藥師藥局,臺中市大里區大明路３０６號,120.6818,24.11521,(04)24876247,羅氏家用新冠病毒抗原自我檢測套組,1,2022/04/29 17:49:02,無
5937013570,彰化藥局,彰化縣彰化市永安街２７８、２８０號,120.5438,24.08977,(04)7287877,羅氏家用新冠病毒抗原自我檢測套組,2,2022/04/29 17:49:02,快篩實名制，每天16:00開始販售，售完為止。
5937040148,北斗仁和藥局,彰化縣北斗鎮光復里光復路１８２號,120.5243,23.87364,(04)8880163,羅氏家用新冠病毒抗原自我檢測套組,1,2022/04/29 17:49:02,周一至周日0900當場排隊發放號碼牌，售完為止
5937052059,華衛藥局,彰化縣員林市惠來里南昌路９６號,120.5719,23.95464,(04)8397503,羅氏家用新冠病毒抗原自我檢測套組,9,2022/04/29 17:49:02,快篩販售時間8:20至09:50
5937052264,醫聯藥師藥局,彰化縣員林市三條里員東路二段４１０號１樓,120.5811,23.95898,(04)8360617,羅氏家用新冠病毒抗原自我檢測套組,15,2022/04/29 17:49:02,*固定星期一~日每日早上8:30分，開始販售。（全年無休）
5937061665,安安藥局,彰化縣溪湖鎮彰水路三段３６３號,120.48,23.96137,(04)8850525,羅氏家用新冠病毒抗原自我檢測套組,78,2022/04/29 17:49:02,上午8點到12點.下午2點半到6點.晚上7點到9點.星期五.日.晚上休
5937070164,安鑠藥局,彰化縣田中鎮中潭里和平路７６０號,120.5879,23.8685,(04)8748728,羅氏家用新冠病毒抗原自我檢測套組,1,2022/04/29 17:49:02,每日早上9點至11點發放號碼牌並開始販售貨（全年無休）
5937081587,嘉信藥局,彰化縣二林鎮中山路１４０號,120.3667,23.8998,(04)8954029,羅氏家用新冠病毒抗原自我檢測套組,4,2022/04/29 17:49:02,無
5937170034,淑惠藥局,彰化縣埔心鄉亙北村員鹿路一段２４４號,120.5574,23.95515,(04)8297798,羅氏家用新冠病毒抗原自我檢測套組,2,2022/04/29 17:49:02,星期一~星期六16:00-18:00（2小時販售快篩試劑），星期日：休
5937181279,佳恩藥局,彰化縣永靖鄉永西村瑚璉路３０２號,120.547,23.92421,(04)8235753,羅氏家用新冠病毒抗原自我檢測套組,31,2022/04/29 17:49:02,無
5937190107,張藥局,彰化縣社頭鄉社頭村清水岩路３６７號,120.5895,23.89967,(04)8734660,羅氏家用新冠病毒抗原自我檢測套組,1,2022/04/29 17:49:02,快篩試劑早上8:15開賣，周日公休
5937191248,佳和藥局,彰化縣社頭鄉社頭村員集路２段３３３號,120.5868,23.90071,(04)8731331,羅氏家用新冠病毒抗原自我檢測套組,2,2022/04/29 17:49:02,每日9:00-21:00販售口罩。
5937201061,長春藥局,彰化縣二水鄉文化村光文路１０３號,120.6167,23.81189,(04)8795289,羅氏家用新冠病毒抗原自我檢測套組,2,2022/04/29 17:49:02,無
5938011918,聖宸健保藥局,南投縣南投市彰南路三段１６２號１樓,120.6744,23.92727,(049)2251741,羅氏家用新冠病毒抗原自我檢測套組,6,2022/04/29 17:49:02,4／30早上10點發放號碼牌
5938030379,豐安藥局,南投縣草屯鎮中正路１２１９號,120.6882,23.99325,(049)2334412,羅氏家用新冠病毒抗原自我檢測套組,3,2022/04/29 17:49:02,營業時間早上7點至晚上9點 : 發口罩每日早上07:00現場販售，售完為止
5938030717,百安大藥局,南投縣草屯鎮中正路７０９號,120.6843,23.9805,(049)2305542,羅氏家用新冠病毒抗原自我檢測套組,1,2022/04/29 17:49:02,無
5938032220,新豐藥局,南投縣草屯鎮中正路１２３２號,120.6885,23.99308,(049)2565127,羅氏家用新冠病毒抗原自我檢測套組,1,2022/04/29 17:49:02,營業時間早上8點至晚上9點，發放口罩時間下午3點開始
5938041729,早安藥局,南投縣竹山鎮雲林路４１號,120.6834,23.75608,(049)2651032,羅氏家用新冠病毒抗原自我檢測套組,4,2022/04/29 17:49:02,每日早上9:00-晚上9:00販賣口罩（全年無休每月最後六日休息）
5938041809,維淇藥師藥局,南投縣竹山鎮集山路三段８１６－１號,120.6863,23.75949,(049)2653689,羅氏家用新冠病毒抗原自我檢測套組,1,2022/04/29 17:49:02,早上8：30~晚上21：00，星期六下午晚上及星期日休息
5938041845,博愛藥局,南投縣竹山鎮雲林路３５號,120.6836,23.75612,(049)2642748,羅氏家用新冠病毒抗原自我檢測套組,2,2022/04/29 17:49:02,0830AM開始販售，售完為止
5938091149,得康藥局,南投縣魚池鄉魚池村魚池街３７３號,120.937,23.89672,(049)2899630,羅氏家用新冠病毒抗原自我檢測套組,1,2022/04/29 17:49:02,星期一至五上午8:45.星期六早上8:45開始販售快篩試劑
5938100063,興安藥局,南投縣國姓鄉石門村國姓路２７８－１號,120.8568,24.04001,(049)2721133,羅氏家用新冠病毒抗原自我檢測套組,156,2022/04/29 17:49:02,正常8:30開始營業，（若消毒完成提早8:00開始販賣口罩）
5939010504,桂賓藥局,雲林縣斗六市信義里鎮北路３號,120.5432,23.71143,(05)5332138,羅氏家用新冠病毒抗原自我檢測套組,76,2022/04/29 17:49:02,無
5939012526,世明中西藥局,雲林縣斗六市文化路３２４－１號,120.5532,23.71162,(05)5333109,羅氏家用新冠病毒抗原自我檢測套組,4,2022/04/29 17:49:02,口罩販售:於周一到周日營業時間9:00~售完為止，快篩試劑販售:於周一到周六營業時間14:00開賣~售完為止
5939030177,上方藥局,雲林縣虎尾鎮中山里中正路１７７號,120.4325,23.70765,(05)6332828,羅氏家用新冠病毒抗原自我檢測套組,4,2022/04/29 17:49:02,星期天不定時營業，需要服務者可打電話詢問
5939032724,虎尾藥局,雲林縣虎尾鎮林森路二段１１７、１１９號,120.4298,23.70595,(05)6336330,羅氏家用新冠病毒抗原自我檢測套組,156,2022/04/29 17:49:02,新開業，健保系統線路建置中，尚無法使用健保系統販售實名制快篩試劑。
5939071276,慈生藥局,雲林縣古坑鄉麻園村平和２２號,120.5203,23.6351,(05)5828222,羅氏家用新冠病毒抗原自我檢測套組,123,2022/04/29 17:49:02,週三.四.六.日下午3-5點販售實名制快篩
5939151135,三民藥局,雲林縣褒忠鄉三民路１５號,120.3109,23.69352,(05)6975515,羅氏家用新冠病毒抗原自我檢測套組,41,2022/04/29 17:49:02,時間：08:00至完售
5939201158,健安藥局,雲林縣水林鄉松北村蔦松路６９之１號,120.2318,23.51741,(05)7841025,羅氏家用新冠病毒抗原自我檢測套組,130,2022/04/29 17:49:02,販賣口罩時間7:30開始販賣（周一至周日全天供應，售完為止）
5940031402,信沅中西藥局,嘉義縣大林鎮西林里０１１鄰中正路４２０號,120.4528,23.60129,(05)2656377,羅氏家用新冠病毒抗原自我檢測套組,78,2022/04/29 17:49:02,每日晚上7~8點販售。本週「六日一」屬非配送名單，未販售。請找附近藥局購買
5940120191,大嘉藥局,嘉義縣水上鄉正義路１巷１６號,120.4006,23.43044,(05)2689031,羅氏家用新冠病毒抗原自我檢測套組,1,2022/04/29 17:49:02,08:00~售罄
5940130035,康寧藥局,嘉義縣中埔鄉中山路５段９１９號,120.4601,23.45266,(05)2391380,羅氏家用新冠病毒抗原自我檢測套組,1,2022/04/29 17:49:02,販售口罩時間   08:00~售完
5941010309,鴻達藥局,臺南市新營區民生里復興路１２４號,120.3101,23.3035,(06)6358837,羅氏家用新冠病毒抗原自我檢測套組,63,2022/04/29 17:49:02,口罩販售時間：早上8:00到12:00售完為止
5941011708,兆豐藥局,臺南市新營區忠政里中正路５７之１６號,120.3162,23.31681,(06)6352205,羅氏家用新冠病毒抗原自我檢測套組,4,2022/04/29 17:49:02,口罩販售時間：星期一~六08:00至售完為止
5941230016,玉井藥局,臺南市玉井區玉田里中華路４７號,120.4623,23.12381,(06)5742271,羅氏家用新冠病毒抗原自我檢測套組,156,2022/04/29 17:49:02,星期一-日07:30-售完
5941230052,博愛中西藥局,臺南市玉井區玉田里中正路２３８號,120.464,23.12518,(06)5743036,羅氏家用新冠病毒抗原自我檢測套組,156,2022/04/29 17:49:02,防疫口罩:早上7點 到  售完為止
5941231139,伊立安藥局,臺南市玉井區玉田里中山路１４３號１樓,120.4657,23.12218,(06)5747001,羅氏家用新冠病毒抗原自我檢測套組,157,2022/04/29 17:49:02,實名制快篩劑 7:40起至售完
5942011524,中華藥局,高雄市鳳山區中山路１４２號,120.3572,22.62448,(07)7472853,羅氏家用新冠病毒抗原自我檢測套組,1,2022/04/29 17:49:02,營業日08:00
5942030225,吉本藥局,高雄市旗山區旗南里中洲路４７４－１號,120.465,22.83976,(07)6663226,羅氏家用新冠病毒抗原自我檢測套組,4,2022/04/29 17:49:02,營業日0800~2200，14:00開始發號碼牌14:30起為配售口罩時間.售完為止；周六公休無配售口罩；
5942100071,皇佳藥局,高雄市鳥松區仁美里高碼二路１２號,120.3893,22.65769,(07)7312918,羅氏家用新冠病毒抗原自我檢測套組,52,2022/04/29 17:49:02,實名制快篩兩梯次販售，早上十點26組，晚上八點52組，週六日無販售
5942211122,永昇藥局,高雄市六龜區太平路８５號,120.637,22.99552,(07)6895522,羅氏家用新冠病毒抗原自我檢測套組,160,2022/04/29 17:49:02,無
5942220023,維康藥局,高雄市甲仙區西安里中正路２２號,120.5885,23.08291,(07)6752585,羅氏家用新冠病毒抗原自我檢測套組,125,2022/04/29 17:49:02,自2／11日~2／29日，營業日07:00起為販賣口罩時間，售完為止
5942220032,文殊堂藥局,高雄市甲仙區西安里文化路２２號,120.5894,23.08194,(07)6752176,羅氏家用新冠病毒抗原自我檢測套組,221,2022/04/29 17:49:02,自2／11日~2／29日，營業日07:30起為販賣口罩時間，售完為止。
5943013853,復順藥局,屏東縣屏東市公園東路８４－２號,120.4986,22.67217,(08)7215662,羅氏家用新冠病毒抗原自我檢測套組,4,2022/04/29 17:49:02,自2／11日~12／31日，營業日0930~售完為止，為販賣口罩時間（14:00-15:00休息）
5943014341,和平藥局,屏東縣屏東市和平路３５號,120.4785,22.66651,(08)7556696,羅氏家用新冠病毒抗原自我檢測套組,9,2022/04/29 17:49:02,快篩實名制，每天16:00開始販售，售完為止。
5943031735,愛樂活藥局,屏東縣東港鎮長春一路１１３－１號,120.4594,22.47111,(08)8312388,羅氏家用新冠病毒抗原自我檢測套組,65,2022/04/29 17:49:02,快篩販賣時間: 週一，二，四，五晚上7點開賣，週三，六（有夜市）下午3點開賣
5943125198,李藥局,屏東縣萬巒鄉褒忠路１１４號,120.5693,22.57332,(08)7810625,羅氏家用新冠病毒抗原自我檢測套組,156,2022/04/29 17:49:02,週一至週日販賣快篩。
5943125205,萬巒健保藥局,屏東縣萬巒鄉褒忠路７７號,120.5705,22.57219,(08)7815919,羅氏家用新冠病毒抗原自我檢測套組,160,2022/04/29 17:49:02,自2／11日~2／29日，營業日09:00發號碼牌，14:30~21:00為販賣口罩時間，售完為止。
5945010047,邱藥局,花蓮縣花蓮市忠孝街４８號,121.6066,23.97397,(03)8324573,羅氏家用新冠病毒抗原自我檢測套組,1,2022/04/29 17:49:02,快篩販售時間：15點（售完為止）
5945010136,保康藥局,花蓮縣花蓮市建國路２段３４０號,121.5765,23.9926,(03)8579760,羅氏家用新冠病毒抗原自我檢測套組,1,2022/04/29 17:49:02,服務時段上午8點半－晚上9點半，星期日早上10點-下午6點，快篩實名制下午一點至售完
5945021086,安康鳳林藥局,花蓮縣鳳林鎮仁愛街１０號１樓,121.4503,23.74937,(03)8762227,羅氏家用新冠病毒抗原自我檢測套組,1,2022/04/29 17:49:02,快篩星期一~六早上十點發號碼牌，售完為止。
5945051575,宜康藥局,花蓮縣吉安鄉中華路二段１３４號,121.585,23.97395,(03)8512980,羅氏家用新冠病毒抗原自我檢測套組,1,2022/04/29 17:49:02,5／2（一）全天休診
5945051619,仁愛藥局,花蓮縣吉安鄉慶豐村中山路三段２８０號,121.5712,23.97783,(03)8511635,羅氏家用新冠病毒抗原自我檢測套組,79,2022/04/29 17:49:02,無
5945051646,花蓮建國藥局,花蓮縣吉安鄉建國路１段１３７－１號,121.5915,23.98574,(03)8461699,羅氏家用新冠病毒抗原自我檢測套組,1,2022/04/29 17:49:02,快篩實名制，每天16:00開始販售，售完為止。
5946080552,伯安健康藥局,臺東縣長濱鄉長濱村１０鄰長濱路１０５號,121.4515,23.31496,(089)832519,羅氏家用新冠病毒抗原自我檢測套組,149,2022/04/29 17:49:02,無
5946101118,伯安藥局,臺東縣池上鄉新生路１１６號,121.2187,23.12315,(089)863585,羅氏家用新冠病毒抗原自我檢測套組,31,2022/04/29 17:49:02,早0800-1200，午1400-1800，晚1800-2000
