醫事機構代碼,醫事機構名稱,醫事機構地址,經度,緯度,醫事機構電話,廠牌項目,快篩試劑截至目前結餘存貨數量,來源資料時間,備註
2331260016,新北市貢寮區衛生所,新北市貢寮區朝陽街７０巷１０號、新北市貢寮區仁愛路１２８號,121.9095,25.02258,(02)24901431,羅氏家用新冠病毒抗原自我檢測套組,78,2022/05/07 11:13:02,快篩試劑販售時間為周一至周五早上9點開始販售，每日販售一箱，數量有限售完為止。
2333140017,新竹縣五峰鄉衛生所,新竹縣五峰鄉大隘村六鄰９９號,121.1194,24.63184,(03)5851005,羅氏家用新冠病毒抗原自我檢測套組,47,2022/05/07 11:13:02,無
2335110017,苗栗縣南庄鄉衛生所,苗栗縣南庄鄉東村大同路１７號,121,24.59733,(037)822024,羅氏家用新冠病毒抗原自我檢測套組,78,2022/05/07 11:13:02,口罩販賣時段:週一至週五上午8:00~下午5:00
2336210034,臺中市和平區梨山衛生所,臺中市和平區中正路１２號１樓、６８號１樓,121.2592,24.25678,(04)25989540,羅氏家用新冠病毒抗原自我檢測套組,3,2022/05/07 11:13:02,提供24小時急診待診服務，111年4月28日起，快篩試劑販售時段為周一至周五0900-12:00，六日及國定假日為0900-1100
2340170016,嘉義縣大埔鄉衛生所,嘉義縣大埔鄉大埔村５３－１號,120.5928,23.29397,(05)2521214,羅氏家用新冠病毒抗原自我檢測套組,78,2022/05/07 11:13:02,無
2340180012,嘉義縣阿里山鄉衛生所,嘉義縣阿里山鄉樂野村３鄰９７－２號,120.7019,23.4666,(05)2561573,羅氏家用新冠病毒抗原自我檢測套組,20,2022/05/07 11:13:02,無
2341120010,臺南市下營區衛生所,臺南市下營區營前里中山路二段１３７號,120.2624,23.23154,(06)6892149,羅氏家用新冠病毒抗原自我檢測套組,78,2022/05/07 11:13:02,無
2341260019,臺南市左鎮區衛生所,臺南市左鎮區中正里１７２之１５號,120.4099,23.05631,(06)5731114,羅氏家用新冠病毒抗原自我檢測套組,19,2022/05/07 11:13:02,無
2342130010,高雄市田寮區衛生所,高雄市田寮區南安里崗北路３２號,120.3594,22.87301,(07)6361504,羅氏家用新冠病毒抗原自我檢測套組,77,2022/05/07 11:13:02,巡迴醫療:每星期一、四下午及每月第一個有上班的星期三下午巡迴醫療
2342250017,高雄市茂林區衛生所,高雄市茂林區茂林里茂林巷８－４號,120.6641,22.88641,(07)6801046,羅氏家用新冠病毒抗原自我檢測套組,60,2022/05/07 11:13:02,夜間急診，請先撥電話07-6801046
2342260013,高雄市桃源區衛生所,高雄市桃源區桃源里南進巷１８８－１號,120.7642,23.15845,(07)6861126,羅氏家用新冠病毒抗原自我檢測套組,152,2022/05/07 11:13:02,IDS提供24小時服務
2342270019,高雄市那瑪夏區衛生所,高雄市那瑪夏區瑪雅里６鄰平和巷２５２號,120.7024,23.24708,(07)6701142,羅氏家用新冠病毒抗原自我檢測套組,162,2022/05/07 11:13:02,春節期間正常門診
2343210017,屏東縣佳冬鄉衛生所,屏東縣佳冬鄉六根村佳和路８７－１號,120.5496,22.41426,(08)8662018,羅氏家用新冠病毒抗原自我檢測套組,13,2022/05/07 11:13:02,無
2343250011,屏東縣枋山鄉衛生所,屏東縣枋山鄉枋山村枋山路９８號,120.6527,22.26464,(08)8761150,羅氏家用新冠病毒抗原自我檢測套組,32,2022/05/07 11:13:02,快篩試劑販售時間8點至10點，售完為止
2343270013,屏東縣霧台鄉衛生所,屏東縣霧台鄉霧台村神山巷６８號,120.7261,22.74989,(08)7902232,羅氏家用新冠病毒抗原自我檢測套組,7,2022/05/07 11:13:02,5／6 20份販售於禮納里公共服務中心一樓（下午2~4點）
2343310012,屏東縣春日鄉衛生所,屏東縣春日鄉春日村春日路１７６號,120.6251,22.37008,(08)8780358,羅氏家用新冠病毒抗原自我檢測套組,2,2022/05/07 11:13:02,無
2343330014,屏東縣牡丹鄉衛生所,屏東縣牡丹鄉石門村１９號,120.7469,22.10105,(08)8831013,羅氏家用新冠病毒抗原自我檢測套組,1,2022/05/07 11:13:02,無
2344011036,澎湖縣馬公市第三衛生所,澎湖縣馬公市西文里１１８之２號,119.5836,23.56813,(06)9211723,羅氏家用新冠病毒抗原自我檢測套組,79,2022/05/07 11:13:02,本所快篩試劑只提供離島衛生室（虎井、桶盤）販售，時間週一至週五08:30-17:00售完為止，星期六、日國定假日09:00-12:00。
2344030022,澎湖縣白沙鄉鳥嶼衛生所,澎湖縣白沙鄉鳥嶼村漁港新村３號,119.6599,23.66008,(06)9916092,羅氏家用新冠病毒抗原自我檢測套組,106,2022/05/07 11:13:02,非上班時間提供急診服務
2344030031,澎湖縣白沙鄉吉貝衛生所,澎湖縣白沙鄉吉貝村８－１３號,119.6138,23.74056,(06)9911430,羅氏家用新冠病毒抗原自我檢測套組,96,2022/05/07 11:13:02,無
2344050015,澎湖縣望安鄉衛生所,澎湖縣望安鄉西安村３６－７號,119.4972,23.36161,(06)9991036,羅氏家用新冠病毒抗原自我檢測套組,154,2022/05/07 11:13:02,夜間急診。口罩、快篩試劑販售時間為:每日08:00-12:00、13:30-17:30售完為止，如有餘數為離島未售出（東嶼坪、花嶼）。
2344050024,澎湖縣望安鄉將軍衛生所,澎湖縣望安鄉將軍村１２鄰將軍澳１之３號,119.5216,23.3615,(06)9902066,羅氏家用新冠病毒抗原自我檢測套組,198,2022/05/07 11:13:02,24小時急診
2344060011,澎湖縣七美鄉衛生所,澎湖縣七美鄉中和村埔內５４號,119.431,23.2041,(06)9971005,羅氏家用新冠病毒抗原自我檢測套組,91,2022/05/07 11:13:02,無
2345080017,衛生福利部花蓮醫院豐濱原住民分院,花蓮縣豐濱鄉豐濱村光豐路４１號,121.5215,23.60195,(03)8358141,羅氏家用新冠病毒抗原自我檢測套組,78,2022/05/07 11:13:02,*本院口罩每天販售，時間自上午8點至晚上9點  *本院週一至週五上下午皆有門診，星期六隔週提供門診，及24小時急診。
2345100014,花蓮縣富里鄉衛生所,花蓮縣富里鄉富里村中山路２０３號,121.2491,23.17847,(03)8831029,羅氏家用新冠病毒抗原自我檢測套組,156,2022/05/07 11:13:02,*內科:每週二下午東里玉蓮寺巡診 **牙科:每週二至卓溪醫療站***口罩販賣時間8:30起至11:00止
2345110010,花蓮縣秀林鄉衛生所,花蓮縣秀林鄉秀林村１２鄰秀林路８８號,121.6334,24.1269,(03)8612122,羅氏家用新冠病毒抗原自我檢測套組,78,2022/05/07 11:13:02,口罩代售時間上班日上午8:10至12時止（口罩限量故售完為止）
2345120016,花蓮縣萬榮鄉衛生所,花蓮縣萬榮鄉萬榮村１鄰１６號,121.4092,23.71558,(03)8751651,羅氏家用新冠病毒抗原自我檢測套組,104,2022/05/07 11:13:02,快篩試劑代售時間：週一至週五下午2點至下午4點，販售為止。
2345130012,花蓮縣卓溪鄉衛生所,花蓮縣卓溪鄉卓溪村中正路６５號,121.3033,23.33294,(03)8882592,羅氏家用新冠病毒抗原自我檢測套組,156,2022/05/07 11:13:02,快篩試劑代售時間：週一至週五上午8：30-11：00（售完即結束）
2346110014,台東縣綠島鄉衛生所,臺東縣綠島鄉中寮村１－１號,121.4696,22.67319,(089)672511,羅氏家用新冠病毒抗原自我檢測套組,78,2022/05/07 11:13:02,家用快篩實名制，販售時段為上午08:30至12:00，下午13:30至16:30（周一至周五），售完為止。）
2346150018,台東縣金峰鄉衛生所,臺東縣金峰鄉賓茂村１鄰１４號,120.9606,22.53248,(089)772201,羅氏家用新冠病毒抗原自我檢測套組,78,2022/05/07 11:13:02,快篩試劑販售時間為星期一至星期五，早上8:30~12:00；下午1:30~5:00
2346160014,台東縣蘭嶼鄉衛生所,臺東縣蘭嶼鄉紅頭村３６號,121.5546,22.02493,(089)732575,羅氏家用新冠病毒抗原自我檢測套組,78,2022/05/07 11:13:02,販售口罩時間 星期一至星期五 8:00~12:00 13:30~17:30
2390050032,金門縣烈嶼鄉衛生所,金門縣烈嶼鄉西口村西方６－５號,118.2395,24.43519,(082)362078,羅氏家用新冠病毒抗原自我檢測套組,12,2022/05/07 11:13:02,快篩試劑販售時間:周一至周五下午1點至3點
2391020010,連江縣北竿鄉衛生所,連江縣北竿鄉塘岐村２８１－６號,119.9991,26.22617,(083)655592,羅氏家用新冠病毒抗原自我檢測套組,13,2022/05/07 11:13:02,新冠快篩試劑販售於週一至周六每日上午08:30-12:00開放購買。
2391030016,連江縣莒光鄉西莒衛生所,連江縣莒光鄉青帆村１４－１號,119.9331,25.97157,(083)689122,羅氏家用新冠病毒抗原自我檢測套組,306,2022/05/07 11:13:02,防疫口罩星期一至五09:00-17:00、（六）09:00-12:00現場購買
2391030026,連江縣莒光鄉東莒衛生所,連江縣莒光鄉大坪村３０－１號,119.9731,25.96113,(083)689038,羅氏家用新冠病毒抗原自我檢測套組,437,2022/05/07 11:13:02,防疫口罩星期一至星期日上午10:00-12:00收取健保卡，下午3:30至本所領取口罩。
2391040012,連江縣東引鄉衛生所,連江縣東引鄉中柳村１２３號,120.4904,26.36701,(083)677206,羅氏家用新冠病毒抗原自我檢測套組,11,2022/05/07 11:13:02,防疫口罩每日10:00-12:00現場購買
5901010174,仁弘藥局,臺北市松山區民生東路３段１１３巷２５弄６號１樓,121.5466,25.05948,(02)27136764,羅氏家用新冠病毒抗原自我檢測套組,47,2022/05/07 11:13:02,5／7（星期六）早上十一點開始發售.不發號碼牌
5901012598,婕登藥局,臺北市松山區八德路４段６９９號,121.5766,25.05021,(02)27482893,羅氏家用新冠病毒抗原自我檢測套組,33,2022/05/07 11:13:02,今天快篩已經發送完畢（電腦庫存不準）
5901012749,躍獅松和藥局,臺北市松山區八德路四段６６６－１號,121.5761,25.04979,(02)27492569,羅氏家用新冠病毒抗原自我檢測套組,78,2022/05/07 11:13:02,實名制快篩販售時段，每日下午4點販售，售完為止
5901012767,晨新藥局,臺北市松山區八德路４段９１巷１－１號,121.5608,25.04894,(02)27422951,羅氏家用新冠病毒抗原自我檢測套組,66,2022/05/07 11:13:02,本店星期一不販售快篩，其餘時間為下午2點至5點。若有修正依店內公告為主。
5901013095,康采藥局,臺北市松山區南京東路５段２９１巷１７－２號,121.5663,25.05236,(02)27670271,羅氏家用新冠病毒抗原自我檢測套組,18,2022/05/07 11:13:02,（已完售，庫存不準）快篩試劑每日16點販售，週日沒有販售
5901013442,松山八德藥局,臺北市松山區八德路２段４００號,121.5466,25.04804,(02)27782773,羅氏家用新冠病毒抗原自我檢測套組,78,2022/05/07 11:13:02,快篩實名制，每天16:00開始販售，售完為止。
5901013693,民生盛康藥局,臺北市松山區民生東路５段２０４號１樓,121.5648,25.05826,(02)27460758,羅氏家用新冠病毒抗原自我檢測套組,159,2022/05/07 11:13:02,【每日70分】每日早上9:00發號碼牌，14:00~20:00拿號碼牌回來領取，每人限1張號碼牌，逾時不候
5901013719,大樹松山藥局,臺北市松山區民生東路５段１０７號１樓,121.5601,25.05878,(02)27562226,羅氏家用新冠病毒抗原自我檢測套組,78,2022/05/07 11:13:02,快篩實名制，每天16:00開始販售，售完為止。
5901013728,康麗藥局,臺北市松山區南京東路３段３０３巷２０號（１樓）,121.5468,25.05374,(02)27174117,羅氏家用新冠病毒抗原自我檢測套組,55,2022/05/07 11:13:02,無
5901013737,全欣藥局,臺北市松山區復興北路７３號２樓,121.5442,25.05104,(02)87729066,羅氏家用新冠病毒抗原自我檢測套組,8,2022/05/07 11:13:02,9:00am開始販售30人份15:00販售30人份:18:00販售17人份；週六:9:00販售39人份；週日:15:00販售39人份....排隊人數滿會先發號碼
5901020303,宏恩藥局,臺北市大安區大安路１段１８１號,121.5461,25.03619,(02)27000956,羅氏家用新冠病毒抗原自我檢測套組,47,2022/05/07 11:13:02,實名制快篩每周一~六，10:00發放號碼牌， 後於12:00~21:00自由擇時，持號碼牌領取快篩並收費
5901023386,弘昇藥局,臺北市大安區復興南路１段１０７巷３２號,121.5458,25.04349,(02)27110061,羅氏家用新冠病毒抗原自我檢測套組,57,2022/05/07 11:13:02,上午11點以後至晚上11點
5901023519,惠盈藥局,臺北市大安區辛亥路２段１７１巷３１號,121.5412,25.02297,(02)87321366,羅氏家用新冠病毒抗原自我檢測套組,44,2022/05/07 11:13:02,快篩上午11:00開始，週日沒賣
5901024669,百岳藥局,臺北市大安區和平東路２段３１１巷１１號,121.5452,25.02514,(02)27551037,羅氏家用新冠病毒抗原自我檢測套組,78,2022/05/07 11:13:02,快篩試劑販售時間:周一至周五10:30~12:00止
5901024721,麗泰藥局,臺北市大安區復興南路２段１５１巷４號,121.544,25.02832,(02)27079595,羅氏家用新冠病毒抗原自我檢測套組,2,2022/05/07 11:13:02,每天到貨時間不定，到貨後即公告開賣
5901024767,杏一樂業藥局,臺北市大安區樂業街１６２號,121.5535,25.01958,(02)27383194,羅氏家用新冠病毒抗原自我檢測套組,78,2022/05/07 11:13:02,快篩下午三點現場直接販售（不發號碼牌）
5901024892,太醫藥局,臺北市大安區師大路１２號,121.5283,25.02568,(02)23685125,羅氏家用新冠病毒抗原自我檢測套組,1,2022/05/07 11:13:02,快篩發放時間:周一至周五13:30，無發放號碼牌
5901024918,康祥藥局,臺北市大安區忠孝東路４段２１６巷２１號,121.5531,25.04025,(02)27817891,羅氏家用新冠病毒抗原自我檢測套組,1,2022/05/07 11:13:02,星期天11:00-19:00
5901091884,躍獅雙蓮藥局,臺北市大同區涼州街４號,121.5147,25.06078,(02)25537551,羅氏家用新冠病毒抗原自我檢測套組,30,2022/05/07 11:13:02,實名制快篩：平日週一～五 下午３點開賣 （六、日停售）
5901092130,大同民生藥局,臺北市大同區民生西路１２８號１樓、２樓及１３０號１樓、２樓,121.5191,25.05734,(02)25558886,羅氏家用新冠病毒抗原自我檢測套組,78,2022/05/07 11:13:02,快篩實名制，每天16:00開始販售，售完為止。
5901100155,大信藥局,臺北市中山區林森北路１５９巷６號,121.5255,25.0517,(02)25719080,羅氏家用新冠病毒抗原自我檢測套組,1,2022/05/07 11:13:02,無
5901100628,貢玄藥局,臺北市中山區錦州街２０７號,121.532,25.06039,(02)25637847,羅氏家用新冠病毒抗原自我檢測套組,68,2022/05/07 11:13:02,早上10點~11點領口罩
5901101992,大愛藥師藥局,臺北市中山區吉林路２５５號１樓,121.5304,25.06165,(02)25424723,羅氏家用新冠病毒抗原自我檢測套組,42,2022/05/07 11:13:02,週一~週五13:55發放號碼牌14:00發放快篩，週六、週日休息
5901102444,啟美藥師藥局,臺北市中山區錦州街２８２號,121.5352,25.06024,(02)25178032,羅氏家用新冠病毒抗原自我檢測套組,78,2022/05/07 11:13:02,快篩 販售時間 20點開賣到21點，星期六日公休
5901102686,富宥康藥局,臺北市中山區北安路６０８巷５弄２２號,121.5496,25.08263,(02)25325277,羅氏家用新冠病毒抗原自我檢測套組,2,2022/05/07 11:13:02,無
5901103656,大樹龍江藥局,臺北市中山區龍江路２４２號,121.5406,25.05889,(02)25035666,羅氏家用新冠病毒抗原自我檢測套組,78,2022/05/07 11:13:02,國定假日仍執行調劑業務
5901103665,安悅藥局,臺北市中山區吉林路１８９號,121.5304,25.0597,(02)25419879,羅氏家用新冠病毒抗原自我檢測套組,86,2022/05/07 11:13:02,實名制快篩販售時間:早上11點~售完為止，不發號碼牌僅現場排隊（每周日不販售）
5901103745,吉林藥局,臺北市中山區吉林路３７１號（１樓）,121.5305,25.06511,(02)25865990,羅氏家用新冠病毒抗原自我檢測套組,78,2022/05/07 11:13:02,快篩實名制，每天16:00開始販售，售完為止。
5901103772,興耀生活藥局,臺北市中山區林森北路４０５號（１樓）,121.5257,25.05943,(02)25818210,羅氏家用新冠病毒抗原自我檢測套組,1,2022/05/07 11:13:02,國定假日仍執行調劑業務
5901110133,泰成藥局,臺北市內湖區內湖路３段１３５號１樓,121.5899,25.08685,(02)27921231,羅氏家用新冠病毒抗原自我檢測套組,33,2022/05/07 11:13:02,口罩販售:上午9:00開始發號碼牌，9點同步販售.
5901110311,永安藥局,臺北市內湖區文德路２１０巷３０弄４８號,121.5852,25.07723,(02)26586658,羅氏家用新冠病毒抗原自我檢測套組,1,2022/05/07 11:13:02,口罩販售時間早上10點開始發號碼牌  同時販售
5901111890,安康藥局,臺北市內湖區安康路４８２號,121.6158,25.06785,(02)26327675,羅氏家用新冠病毒抗原自我檢測套組,78,2022/05/07 11:13:02,無
5901112682,富康東湖藥局,臺北市內湖區東湖路１１９巷４９弄１６號,121.617,25.06988,(02)26323222,羅氏家用新冠病毒抗原自我檢測套組,77,2022/05/07 11:13:02,視快篩實際到貨時間販售；LINE社群搜尋「富康藥局東湖店」會有第一線消息
5901113018,桔子藥局,臺北市內湖區內湖路２段３３３號,121.5917,25.08319,(02)27930052,羅氏家用新冠病毒抗原自我檢測套組,78,2022/05/07 11:13:02,早0900-1200，午1400-1700，晚1900-2100
5901113385,躍獅康成藥局,臺北市內湖區成功路４段６１巷１１號,121.5928,25.0814,(02)87922031,羅氏家用新冠病毒抗原自我檢測套組,78,2022/05/07 11:13:02,如有收到政府配送，實名制快篩13:40發號碼牌，14:00開賣。實名制口罩已無販售。
5901113652,加一藥師藥局,臺北市內湖區星雲街２４號１樓,121.5908,25.07804,(02)87912653,羅氏家用新冠病毒抗原自我檢測套組,167,2022/05/07 11:13:02,無
5901113723,杏一港墘藥局,臺北市內湖區港墘路８３號（１樓）,121.5781,25.08078,(02)87978746,羅氏家用新冠病毒抗原自我檢測套組,78,2022/05/07 11:13:02,無
5901122080,成福大藥局,臺北市南港區成福路８號,121.5859,25.04578,(02)27859221,羅氏家用新冠病毒抗原自我檢測套組,78,2022/05/07 11:13:02,無
5901150271,建芳藥局,臺北市士林區德行東路１４８號,121.5296,25.10804,(02)28357172,羅氏家用新冠病毒抗原自我檢測套組,40,2022/05/07 11:13:02,無
5901150548,田倉藥局,臺北市士林區士東路１２４號,121.5302,25.11219,(02)88662188,羅氏家用新冠病毒抗原自我檢測套組,78,2022/05/07 11:13:02,每日19:00（傍晚7點）開始販售.
5901150593,安寧藥局,臺北市士林區劍潭路９１號,121.5199,25.08285,(02)28803319,羅氏家用新冠病毒抗原自我檢測套組,78,2022/05/07 11:13:02,領藥星期1.3.5為 9:00~12:00.及16:00~20:00*星期2.4.6.--上午
5901150771,天母大和藥師藥局,臺北市士林區德行東路１８９－１號１樓,121.5317,25.10897,(02)28310142,羅氏家用新冠病毒抗原自我檢測套組,1,2022/05/07 11:13:02,快篩實名制 配合營業時間  賣完為止
5901150815,陽明藥局,臺北市士林區菁山路１０號１樓,121.5469,25.13797,(02)28612863,羅氏家用新冠病毒抗原自我檢測套組,26,2022/05/07 11:13:02,早上9點30到12點健保卡排隊.（作業時間2小時）下午1點到晚上6點領回口罩及健保卡
5901152079,資生堂藥局,臺北市士林區承德路４段４０巷１７號１Ｆ,121.522,25.08107,(02)28857588,羅氏家用新冠病毒抗原自我檢測套組,78,2022/05/07 11:13:02,5／7周六快篩發下午一點
5901152471,得安藥局,臺北市士林區文林路１４０號,121.5267,25.08878,(02)28836336,羅氏家用新冠病毒抗原自我檢測套組,78,2022/05/07 11:13:02,星期三五六下午3:30---10:00   星期二 四日下午5:00--10:00
5901152793,信光藥局,臺北市士林區文昌路６８號,121.5214,25.09619,(02)28366277,羅氏家用新冠病毒抗原自我檢測套組,60,2022/05/07 11:13:02,下午三點發放快篩
5901153263,健揚藥局,臺北市士林區延平北路５段２５１號,121.5097,25.08483,(02)28163698,羅氏家用新冠病毒抗原自我檢測套組,71,2022/05/07 11:13:02,每日下午13:30開始販售
5901153487,和謙藥局,臺北市士林區社中街３６２號,121.5041,25.09242,(02)28165678,羅氏家用新冠病毒抗原自我檢測套組,26,2022/05/07 11:13:02,5／7於11:00開賣快篩試劑
5901153709,全予藥局,臺北市士林區德行東路２２１號,121.5329,25.10938,(02)28386955,羅氏家用新冠病毒抗原自我檢測套組,35,2022/05/07 11:13:02,實名制快篩販售時間為周一至周六上午11點， 周日公休
5901153941,士東藥局,臺北市士林區士東路９１巷３號,121.5291,25.11256,(02)28760588,羅氏家用新冠病毒抗原自我檢測套組,78,2022/05/07 11:13:02,快篩實名制，每天16:00開始販售，售完為止。
5901154000,文昌大藥局,臺北市士林區文昌路７２號１樓,121.5213,25.09634,(02)28376196,羅氏家用新冠病毒抗原自我檢測套組,60,2022/05/07 11:13:02,1.周一至周日下午15:00販售實名制快篩，請自備零錢 2.每日提供18份，讓醫護警消憑證購買，請pm14:30前來
5901154055,天母盛康藥局,臺北市士林區天母東路８巷８４號１樓,121.5304,25.11483,(02)28720208,羅氏家用新冠病毒抗原自我檢測套組,151,2022/05/07 11:13:02,實名制快篩每日14:00開始，賣完為止。
5901154091,社正藥局,臺北市士林區社正路１２號１樓,121.5093,25.08854,(02)28118704,羅氏家用新冠病毒抗原自我檢測套組,70,2022/05/07 11:13:02,無
5901154108,藥本家藥局,臺北市士林區中山北路７段１４巷２６號１樓,121.5328,25.11884,(02)28766682,羅氏家用新冠病毒抗原自我檢測套組,12,2022/05/07 11:13:02,無
5901160062,丸三大藥局,臺北市北投區自強街１０５號,121.5153,25.11086,(02)28230637,羅氏家用新冠病毒抗原自我檢測套組,78,2022/05/07 11:13:02,實名制快篩試劑13:30開始販售
5901160517,弘安藥局,臺北市北投區懷德街３３號１樓,121.5193,25.11219,(02)28206390,羅氏家用新冠病毒抗原自我檢測套組,78,2022/05/07 11:13:02,快篩每日下午2:00開賣，現場購買售完為止
5901162182,祐民藥局,臺北市北投區中央南路１段２０９號１樓,121.5011,25.12837,(02)28975339,羅氏家用新冠病毒抗原自我檢測套組,39,2022/05/07 11:13:02,無
5901162477,長宜藥局,臺北市北投區自強街１１２號,121.5155,25.11074,(02)28216605,羅氏家用新冠病毒抗原自我檢測套組,78,2022/05/07 11:13:02,實名制快篩試劑發放時間:14:00~售完為止，會依政府配送狀況調整
5901163527,理得藥局,臺北市北投區石牌路１段１５０號,121.5131,25.11426,(02)28289680,羅氏家用新冠病毒抗原自我檢測套組,75,2022/05/07 11:13:02,每日13:30發放號碼牌 14:00開賣，售完為止。
5901163554,良哲藥局,臺北市北投區明德路１５７－４號（實際使用：１樓）,121.5209,25.11129,(02)28285516,羅氏家用新冠病毒抗原自我檢測套組,2,2022/05/07 11:13:02,實名制快篩販售時間：早上 9:00~9:30／下午 2:30~3:00（週六人力不足不販售／週日休息）
5901163563,躍獅光明藥局,臺北市北投區光明路５１號、５３號（實際使用：１樓）,121.4998,25.13286,(02)28915993,羅氏家用新冠病毒抗原自我檢測套組,28,2022/05/07 11:13:02,1.早上9:30發號碼牌.核對健保卡 2.等快篩到貨才開始賣，到貨時間不確定3.有號碼牌者請在晚上8點前領取，逾期作廢
5901163572,永欣中西藥局,臺北市北投區中和街５０１號,121.4947,25.1452,(02)28910307,羅氏家用新冠病毒抗原自我檢測套組,31,2022/05/07 11:13:02,週一至週六 早上9:30發號碼牌 10點販售 周日公休（庫存不準 號碼牌發完即售完）謝謝
5901170139,福華藥局,臺北市信義區吳興街２８１巷３號１樓,121.5643,25.02656,(02)27208527,羅氏家用新冠病毒抗原自我檢測套組,78,2022/05/07 11:13:02,現階段下午1:30配合政府發售快篩試劑
5901170915,杏仁藥局,臺北市信義區大道路１３５號,121.5834,25.03901,(02)27262541,羅氏家用新冠病毒抗原自我檢測套組,24,2022/05/07 11:13:02,實名制快篩:週一至週五下午3點販售，週六週日無販售
5901173238,正和藥局,臺北市信義區吳興街２２５巷６號,121.5634,25.02782,(02)23455186,羅氏家用新冠病毒抗原自我檢測套組,73,2022/05/07 11:13:02,下午2點半發放快篩，週日無發放
5901173407,康怡健保藥局,臺北市信義區吳興街４６７巷２弄１２號,121.5695,25.02381,(02)27206193,羅氏家用新冠病毒抗原自我檢測套組,2,2022/05/07 11:13:02,快篩早上9點開賣，賣完為止
5901173710,專品光復藥局,臺北市信義區光復南路４６７之１號,121.5577,25.03384,(02)27586682,羅氏家用新冠病毒抗原自我檢測套組,76,2022/05/07 11:13:02,禮拜一到六下午三點販售口罩
5901173738,尚頤中西藥局,臺北市信義區虎林街１４５號,121.5767,25.03959,(02)27253818,羅氏家用新冠病毒抗原自我檢測套組,70,2022/05/07 11:13:02,無
5901173881,壹間藥師藥局,臺北市信義區虎林街１２０巷１４８號,121.5742,25.04213,(02)27672833,羅氏家用新冠病毒抗原自我檢測套組,1,2022/05/07 11:13:02,周一到周六上午10:30開始販售，週日12:30開始
5901173943,躍獅興雅藥局,臺北市信義區松德路１２８號,121.5745,25.03734,(02)87808429,羅氏家用新冠病毒抗原自我檢測套組,78,2022/05/07 11:13:02,14:00發號碼牌且同步開賣快篩，販賣至15:00或售完為止，週日無販售。
5901174084,市政藥局,臺北市信義區忠孝東路５段１６９號１樓、１７１號１樓,121.5688,25.0412,(02)27560050,羅氏家用新冠病毒抗原自我檢測套組,78,2022/05/07 11:13:02,快篩實名制，每天16:00開始販售，售完為止。
5901180224,中心藥局,臺北市中正區汀州路３段１２１號,121.5303,25.01654,(02)23689889,羅氏家用新冠病毒抗原自我檢測套組,1,2022/05/07 11:13:02,實名制快篩因物流貨運配送調度，調整領取時間延後至下午3點
5901180322,南昌大藥局,臺北市中正區南昌路１段８６號１樓,121.5174,25.03086,(02)23510322,羅氏家用新冠病毒抗原自我檢測套組,6,2022/05/07 11:13:02,早上10點發號碼牌，下午2點前來購買，逾期作廢。
5901183645,大愛生活藥局,臺北市中正區汀州路２段２３２號,121.5243,25.02189,(02)23661155,羅氏家用新冠病毒抗原自我檢測套組,31,2022/05/07 11:13:02,下午14:30開始發放快篩（不發號碼牌直接買）~~不要太早開始排隊啊啊啊啊
5901184080,活力健康藥妝藥局,臺北市中正區中華路２段３１５巷１號,121.5062,25.02795,(02)23392625,羅氏家用新冠病毒抗原自我檢測套組,77,2022/05/07 11:13:02,快篩14:00-15:00， 建議提早排隊
5901184106,信康藥局,臺北市中正區南昌路１段１４３號,121.5186,25.02953,(02)23961979,羅氏家用新冠病毒抗原自我檢測套組,1,2022/05/07 11:13:02,14:00開始販售實名制快篩
5901184473,中力藥局,臺北市中正區襄陽路１３之５號、１５號,121.5155,25.04349,(02)23313768,羅氏家用新冠病毒抗原自我檢測套組,2,2022/05/07 11:13:02,實名制快篩 販售時間：09:30~售完為止
5901184553,珍忻藥局,臺北市中正區南昌路１段６５號,121.5174,25.03107,(02)23965115,羅氏家用新冠病毒抗原自我檢測套組,46,2022/05/07 11:13:02,健保快篩發放:13:20及18:20分兩梯次發號碼牌
5901184633,躍獅東門藥局,臺北市中正區金山南路１段１０８之１號（１樓）,121.5273,25.03538,(02)23920339,羅氏家用新冠病毒抗原自我檢測套組,34,2022/05/07 11:13:02,5／6銷售時間已結束。5／7下午兩點開始販售，不提早發放號碼牌
5901193070,榮勝藥局,臺北市萬華區萬大路２３３號,121.5006,25.02649,(02)23331121,羅氏家用新冠病毒抗原自我檢測套組,22,2022/05/07 11:13:02,每日快篩早上十一點開始販售
5901193150,日森人文藥局,臺北市萬華區和平西路３段１４９號,121.4988,25.03543,(02)23082100,羅氏家用新冠病毒抗原自我檢測套組,40,2022/05/07 11:13:02,快篩依政府每日到貨時間， 會立即公告粉絲頁販售時間規則
5901193221,正盛藥局,臺北市萬華區中華路２段４３４－１號,121.5064,25.02708,(02)23050386,羅氏家用新冠病毒抗原自我檢測套組,69,2022/05/07 11:13:02,1.快篩一~六20點，周日不賣 2.目前排隊人潮多，建議7點左右提前候位 3.詳情請看門口公告或板橋正康總店臉書
5901193365,企鵝藥局,臺北市萬華區西昌街１７５號（１樓）,121.5007,25.03886,(02)23884691,羅氏家用新冠病毒抗原自我檢測套組,78,2022/05/07 11:13:02,公費快篩試劑，下午2點發號碼牌
5901201568,康宜庭生活藥局,臺北市文山區興隆路４段６４號,121.5613,24.98514,(02)29385363,羅氏家用新冠病毒抗原自我檢測套組,6,2022/05/07 11:13:02,實名快篩14:00開賣 現場排隊
5901202627,杏隆藥局,臺北市文山區羅斯福路５段２６１號,121.5395,25.00115,(02)29313151,羅氏家用新冠病毒抗原自我檢測套組,156,2022/05/07 11:13:02,快篩實名制採預約登記，至5／14已登記額滿。
5901203482,健康家藥局,臺北市文山區興隆路２段１３３號１樓,121.5481,25.00011,(02)29330858,羅氏家用新冠病毒抗原自我檢測套組,1,2022/05/07 11:13:02,實名制快篩下午一點開始販售，5／1店休
5902011291,長庚藥局,高雄市鹽埕區五福四路１６３號一樓,120.2834,22.62347,(07)5513436,羅氏家用新冠病毒抗原自我檢測套組,4,2022/05/07 11:13:02,無
5902022829,弘興藥局,高雄市鼓山區鼓山三路４８－１１號,120.2757,22.65468,(07)5612677,羅氏家用新冠病毒抗原自我檢測套組,33,2022/05/07 11:13:02,無
5902022874,康爾喜藥局,高雄市鼓山區慶豐街５０號,120.2935,22.66647,(07)5222650,羅氏家用新冠病毒抗原自我檢測套組,42,2022/05/07 11:13:02,快篩試劑 午（售完為止）。週日不發
5902022972,高雄藥局,高雄市鼓山區九如四路９２４號,120.2793,22.65466,(07)5214266,羅氏家用新冠病毒抗原自我檢測套組,38,2022/05/07 11:13:02,無
5902030643,新高橋藥局,高雄市左營區民族一路１０２８號,120.3201,22.68255,(07)3100696,羅氏家用新冠病毒抗原自我檢測套組,2,2022/05/07 11:13:02,依快篩配送時間滾動式調整（5／6早10:00），請備妥當日可領買之健保卡與現金500元購買，不找零，0號是雙號，謝謝配合
5902050798,友泰藥局,高雄市三民區中和街１６９號,120.2868,22.6388,(07)3125236,羅氏家用新冠病毒抗原自我檢測套組,57,2022/05/07 11:13:02,無
5902050903,皇安藥局,高雄市三民區九如一路４６１號,120.3296,22.63865,(07)3866779,羅氏家用新冠病毒抗原自我檢測套組,17,2022/05/07 11:13:02,營業日0900可先領取號碼牌，上午9:00-12:00及下午3:00~10:.00為販賣快篩時間，售完為止
5902056638,柏仁藥局,高雄市三民區覺民路５０４號,120.3317,22.64092,(07)3976016,羅氏家用新冠病毒抗原自我檢測套組,60,2022/05/07 11:13:02,實名制快篩下午3點開賣，現場排隊，售完為止
5902056807,長慶藥局,高雄市三民區金鼎路３１０號,120.3207,22.66513,(07)3105835,羅氏家用新冠病毒抗原自我檢測套組,3,2022/05/07 11:13:02,無
5902057144,欣仁惠藥局,高雄市三民區大昌二路２４８號,120.3323,22.64529,(07)3837833,羅氏家用新冠病毒抗原自我檢測套組,13,2022/05/07 11:13:02,無
5902057939,朝陽健保藥局,高雄市三民區陽明路５７號１樓,120.341,22.63871,(07)3839886,羅氏家用新冠病毒抗原自我檢測套組,51,2022/05/07 11:13:02,營業日下午4:00-6:00為販賣口罩時間，若有異動依藥局門口公告時間為主
5902080803,功安中西大藥局,高雄市苓雅區三多二路２９１號,120.3195,22.61858,(07)7215949,羅氏家用新冠病毒抗原自我檢測套組,1,2022/05/07 11:13:02,快篩試劑早上8:00開賣
5902085148,召祐健保藥局,高雄市苓雅區正義路９３號,120.3385,22.63037,(07)7493719,羅氏家用新冠病毒抗原自我檢測套組,53,2022/05/07 11:13:02,無
5902085371,加和藥局,高雄市苓雅區和平一路１４３之７號,120.3205,22.62331,(07)7219332,羅氏家用新冠病毒抗原自我檢測套組,78,2022/05/07 11:13:02,快篩試劑每日下午2:30販售，務再來電詢問。星期天不販售快篩試劑
5902092896,廣泰藥局,高雄市前鎮區瑞北路５６號,120.3346,22.60931,(07)7162166,羅氏家用新冠病毒抗原自我檢測套組,22,2022/05/07 11:13:02,快篩實名制早上11點販賣  星期日停賣
5902110628,悅是康藥局,高雄市小港區漢民路２７６號,120.3536,22.56665,(07)8010012,羅氏家用新冠病毒抗原自我檢測套組,15,2022/05/07 11:13:02,每日早上10:00開賣、不須拿號碼牌、領完為止。
5903010449,豐原藥局,臺中市豐原區新生北路２０６號之１（１樓）,120.7219,24.2551,(04)25260119,羅氏家用新冠病毒抗原自我檢測套組,18,2022/05/07 11:13:02,今日號碼牌已發送完畢
5903010501,佑全豐原圓環東藥局,臺中市豐原區圓環東路５４８、５５０、５５２、５５４號１樓,120.7275,24.24948,(04)25246069,羅氏家用新冠病毒抗原自我檢測套組,78,2022/05/07 11:13:02,營業時間9:00-21:00，今日實名制1:50發號碼牌2:00開賣，售完為止
5903010556,升禾和大藥局,臺中市豐原區育英路２６號１樓,120.7163,24.24346,(04)25293099,羅氏家用新冠病毒抗原自我檢測套組,78,2022/05/07 11:13:02,快篩試劑1800領取.採現場排隊.售完為止
5903040107,佑全清水中山三藥局,臺中市清水區中山路２４、２６、２８號１樓,120.572,24.26043,(04)26224469,羅氏家用新冠病毒抗原自我檢測套組,78,2022/05/07 11:13:02,5／7實名制快篩發放時間下午2:00開始，1:50發放號碼牌，請關注本藥局臉書隨時公告最新訊息。慢箋牙科箋領藥全年無休。
5903050103,北勢進騰藥局,臺中市沙鹿區北勢東路５０９之７號１樓,120.576,24.22526,(04)26330893,羅氏家用新冠病毒抗原自我檢測套組,78,2022/05/07 11:13:02,營業時間12:00-22:00，每日12:00販售實名制快篩
5903050176,全國藥局,臺中市沙鹿區臺灣大道７段９９２號,120.5622,24.24074,(04)26627097,羅氏家用新冠病毒抗原自我檢測套組,27,2022/05/07 11:13:02,快篩劑每日配送時間不同，依現場到貨為主，現場排隊購買
5903060038,梧棲玖裕藥局,臺中市梧棲區中和街８５號,120.5316,24.25545,(04)26583909,羅氏家用新冠病毒抗原自我檢測套組,11,2022/05/07 11:13:02,快篩代售星期一~五 下午2點.星期六早上10:30點 星期休假
5903060092,佑全梧棲文化藥局,臺中市梧棲區文化路二段１５０號１樓,120.531,24.25526,(04)26566433,羅氏家用新冠病毒抗原自我檢測套組,78,2022/05/07 11:13:02,實名制快篩，下午1:50發號碼牌，14:00開始販售
5903080138,佑全神岡中山藥局,臺中市神岡區中山路５４９、５４９之１、５４９之２號１樓,120.6842,24.24638,(04)25634677,羅氏家用新冠病毒抗原自我檢測套組,78,2022/05/07 11:13:02,5／7下午1點50分發號碼牌2點開賣
5903090054,美日康藥局,臺中市潭子區大新路５８號,120.7075,24.20236,(04)25382308,羅氏家用新冠病毒抗原自我檢測套組,43,2022/05/07 11:13:02,星期一至六只有下午1-3點販賣口罩!需禮讓病患優先領藥!
5903090116,上宇藥局,臺中市潭子區中山路２段３８１號１樓,120.7051,24.21301,(04)25321258,羅氏家用新冠病毒抗原自我檢測套組,13,2022/05/07 11:13:02,週一至週五上午9點至12點，下午三點至九點，週六，日，早上9點至12點，依序發售快篩。
5903090143,佳福藥局,臺中市潭子區中山路１段４３－１號,120.7023,24.19138,(04)25332982,羅氏家用新冠病毒抗原自我檢測套組,78,2022/05/07 11:13:02,每日中午12:00至下午3:00休息，星期六公休，營業日上午8:00快篩試劑開賣
5903150091,學田藥局,臺中市烏日區學田路便行巷１４號,120.6075,24.12086,(04)23382230,羅氏家用新冠病毒抗原自我檢測套組,26,2022/05/07 11:13:02,快篩以實際到貨時間為主，到貨開賣至售完為止。
5903150180,九德藥局,臺中市烏日區中山路一段４３８、４４０號１樓,120.6365,24.10748,(04)23385456,羅氏家用新冠病毒抗原自我檢測套組,78,2022/05/07 11:13:02,快篩實名制，每天16:00開始販售，售完為止。
5903190335,育賢德侑藥局,臺中市太平區育賢路１０７號、１０９號,120.7219,24.15768,(04)23920696,羅氏家用新冠病毒抗原自我檢測套組,78,2022/05/07 11:13:02,實名制快篩販售時間：星期一~星期日 早上8:30點開賣（售完為止）
5903190362,太平中山藥局,臺中市太平區中山路４段１１號,120.7139,24.14931,(04)23959200,羅氏家用新冠病毒抗原自我檢測套組,78,2022/05/07 11:13:02,快篩實名制，每天16:00開始販售，售完為止。
5903190522,聖康佳禾藥局,臺中市太平區光興路８３１號,120.7307,24.1121,(04)22772065,羅氏家用新冠病毒抗原自我檢測套組,77,2022/05/07 11:13:02,周一到周五1130點開始發放
5903200229,信元藥局,臺中市大里區益民路２段３７２號１樓,120.684,24.11545,(04)24876051,羅氏家用新冠病毒抗原自我檢測套組,60,2022/05/07 11:13:02,下午5點發號碼牌並依序販賣
5903200443,佳霖藥局,臺中市大里區塗城路９６４號１樓,120.6933,24.09081,(04)24960895,羅氏家用新冠病毒抗原自我檢測套組,75,2022/05/07 11:13:02,健保卡快篩:（周日和周三停賣）.請備好健保卡和500元整.下午3點半開賣.現場排隊／售完為止
5903200658,德芳成功藥局,臺中市大里區成功路５３５－３號１樓,120.7033,24.0913,(04)24920298,羅氏家用新冠病毒抗原自我檢測套組,21,2022/05/07 11:13:02,快篩販售時間:下午3點~6點
5903200685,塗城藥局,臺中市大里區中興路一段１８７、１８９、１９１號１樓,120.6933,24.09008,(04)24967234,羅氏家用新冠病毒抗原自我檢測套組,78,2022/05/07 11:13:02,快篩實名制，每天16:00開始販售，售完為止。
5903200701,大益藥局,臺中市大里區益民路二段３３５號１、２樓,120.6837,24.11311,(04)24811551,羅氏家用新冠病毒抗原自我檢測套組,78,2022/05/07 11:13:02,快篩實名制，每天16:00開始販售，售完為止。
5903200738,杏一大里國光藥局,臺中市大里區國光路二段４１１號１樓,120.6796,24.10921,(04)24071492,羅氏家用新冠病毒抗原自我檢測套組,78,2022/05/07 11:13:02,周一至周六16:00~19:00，周日及補假日人力不足不販售
5903220141,雙十小林健保藥局,臺中市中區雙十路一段３５號,120.6855,24.14172,(04)22253662,羅氏家用新冠病毒抗原自我檢測套組,3,2022/05/07 11:13:02,每日8點販賣
5903220169,公園大藥局,臺中市中區公園路９５號１樓,120.6796,24.1462,(04)22062682,羅氏家用新冠病毒抗原自我檢測套組,5,2022/05/07 11:13:02,每日上午8點至下午11點59分
5903230183,恒生藥局,臺中市東區樂業路３９５號１樓,120.7051,24.138,(04)22135179,羅氏家用新冠病毒抗原自我檢測套組,54,2022/05/07 11:13:02,快篩11點開始過卡，中午1~3點為清消時間 暫停發放。周日公休。另有提供領慢箋服務及保健食品，任何疑問請洽藥師。
5903240410,德芳美村藥局,臺中市西區美村路一段６８１、６８３號１樓,120.6618,24.13545,(04)23782848,羅氏家用新冠病毒抗原自我檢測套組,2,2022/05/07 11:13:02,周一到周五下午3點~6點
5903240438,真誠藥局,臺中市西區美村路一段３７８號１樓,120.6615,24.14458,(04)23015750,羅氏家用新冠病毒抗原自我檢測套組,3,2022/05/07 11:13:02,世鴻診所旁，星期六雙號8:30開始販售，中午休息，週日休息
5903240447,大樹五權藥局,臺中市西區五權路９７－１號１樓,120.6717,24.14626,(04)22022910,羅氏家用新冠病毒抗原自我檢測套組,79,2022/05/07 11:13:02,快篩實名制，每天16:00開始販售，售完為止。
5903240456,杏一台中美村藥局,臺中市西區美村路一段２４２、２４６號１樓,120.6615,24.14825,(04)23013310,羅氏家用新冠病毒抗原自我檢測套組,54,2022/05/07 11:13:02,快篩販售時間11:00~13:00（或售完為止），週日不販售／有庫存即可以來買，不要再打電話確認
5903240474,佑全台中向上藥局,臺中市西區向上路一段３８６、３８８號１樓,120.6559,24.14688,(04)23204732,羅氏家用新冠病毒抗原自我檢測套組,78,2022/05/07 11:13:02,因政府配貨時間不一，依照門市現場公告時間為主
5903260449,喜樂藥局,臺中市北區中清路１段３１號,120.677,24.1529,(04)22060423,羅氏家用新冠病毒抗原自我檢測套組,5,2022/05/07 11:13:02,無
5903260547,源順大藥局,臺中市北區健行路４８４號,120.6797,24.15931,(04)22072651,羅氏家用新冠病毒抗原自我檢測套組,1,2022/05/07 11:13:02,早上9:00~晚上10:00，固定周一至周六上午09:30開始販售口罩，售完為止.
5903260654,康新藥局,臺中市北區五權路２３２號,120.677,24.15078,(04)22020008,羅氏家用新冠病毒抗原自我檢測套組,20,2022/05/07 11:13:02,無
5903260878,927達霖藥師藥局,臺中市北區中華路二段２０１號１樓,120.6822,24.15278,(04)22060030,羅氏家用新冠病毒抗原自我檢測套組,41,2022/05/07 11:13:02,無
5903260976,躍獅達心藥局,臺中市北區雙十路二段１８７號１樓,120.6906,24.15779,(04)22344548,羅氏家用新冠病毒抗原自我檢測套組,47,2022/05/07 11:13:02,實名制快篩販售每日11點發放號碼牌到貨公告領取
5903270801,榮友藥局,臺中市西屯區臺灣大道四段１７４２號,120.6024,24.18286,(04)23508392,羅氏家用新冠病毒抗原自我檢測套組,51,2022/05/07 11:13:02,05／07實名快篩上午11:00開賣謝謝
5903270892,杏林堂藥局,臺中市西屯區黎明路三段１４８號１樓,120.6376,24.17729,(04)24528967,羅氏家用新冠病毒抗原自我檢測套組,37,2022/05/07 11:13:02,週一至週六11:00販售 週日08:30販售
5903270927,河南小林健保藥局,臺中市西屯區河南路二段２９８號１樓,120.6485,24.17477,(04)24512830,羅氏家用新冠病毒抗原自我檢測套組,5,2022/05/07 11:13:02,固定每日早上8點發放口罩號碼牌，下午4點半開始販售。
5903271031,美十樂中科藥局,臺中市西屯區西屯路三段１６６－６５號１樓,120.6129,24.19035,(04)24610219,羅氏家用新冠病毒抗原自我檢測套組,468,2022/05/07 11:13:02,醫事人員卡片損壞，暫時無法販賣快篩
5903271282,禾安藥局,臺中市西屯區西屯路二段１２６之８號,120.6518,24.16682,(04)23176162,羅氏家用新冠病毒抗原自我檢測套組,3,2022/05/07 11:13:02,無
5903271291,西屯長安藥局,臺中市西屯區成都路３６８號１樓,120.6641,24.17322,(04)22981221,羅氏家用新冠病毒抗原自我檢測套組,78,2022/05/07 11:13:02,快篩實名制，每天16:00開始販售，售完為止。
5903271308,祐生藥局,臺中市西屯區文華路３之１號１樓,120.6447,24.17535,(04)24517169,羅氏家用新冠病毒抗原自我檢測套組,192,2022/05/07 11:13:02,快篩發放時間：第一批中午12:00，第二批傍晚18:00，售完為止
5903280763,全順藥局,臺中市南屯區永春東路３３９號１樓,120.6477,24.13447,(04)24730983,羅氏家用新冠病毒抗原自我檢測套組,78,2022/05/07 11:13:02,實名制快篩 販賣時間平日下午5點，周六中午12點
5903280898,佑全台中忠勇藥局,臺中市南屯區忠勇路５１－８號１樓,120.614,24.14376,(04)23803282,羅氏家用新冠病毒抗原自我檢測套組,78,2022/05/07 11:13:02,實名制快篩發放號碼牌13:50  販售14:00（限量78份）
5903280923,南屯丁丁藥局,臺中市南屯區五權西路二段２１８號１樓,120.6503,24.14035,(04)36015077,羅氏家用新冠病毒抗原自我檢測套組,20,2022/05/07 11:13:02,無
5903290607,敦化小林健保藥局,臺中市北屯區敦化路１段６６８號,120.6643,24.18593,(04)24261881,羅氏家用新冠病毒抗原自我檢測套組,2,2022/05/07 11:13:02,每日早上8:00領號碼牌，16:30再回藥局領口罩（全年無休）
5903290661,康博中西健保藥局,臺中市北屯區后庄一街７號１樓,120.6644,24.1865,(04)24252468,羅氏家用新冠病毒抗原自我檢測套組,1,2022/05/07 11:13:02,快篩下午01:00發售53份；晚上06:00銷售25份.週六.日及假日下午06:30開始依配送滾動調整
5903290689,大德安藥局,臺中市北屯區景賢路２３６號,120.7241,24.16701,(04)24378351,羅氏家用新冠病毒抗原自我檢測套組,1,2022/05/07 11:13:02,口罩代售時間從週一到週六09:00~現場排隊售完為止星期日早上10:00起至售完為止
5903290947,德寶健保藥局,臺中市北屯區熱河路一段７０號１樓,120.687,24.1674,(04)22325511,羅氏家用新冠病毒抗原自我檢測套組,78,2022/05/07 11:13:02,下午二點開始販賣快篩試劑
5903291211,愛樂芬兒童藥局,臺中市北屯區松竹路一段９２９號１樓,120.7131,24.18216,(04)24363660,羅氏家用新冠病毒抗原自我檢測套組,78,2022/05/07 11:13:02,因配送時間不固定，預定下午三點開始販售
5905010152,謙和藥師藥局,臺南市新營區延平路１０１之２號,120.3135,23.29982,(06)6322957,羅氏家用新冠病毒抗原自我檢測套組,22,2022/05/07 11:13:02,實名制快篩早上11點開賣。實名制快篩試劑最新公告請看FB粉絲專頁：謙和藥師藥局
5905030092,大樹白河藥局,臺南市白河區中山路１５３號１樓,120.417,23.35255,(06)6830006,羅氏家用新冠病毒抗原自我檢測套組,78,2022/05/07 11:13:02,快篩實名制，每天16:00開始販售，售完為止。
5905040141,大樹麻豆藥局,臺南市麻豆區中山路４８、５０號１樓,120.2469,23.18382,(06)5716556,羅氏家用新冠病毒抗原自我檢測套組,78,2022/05/07 11:13:02,快篩實名制，每天16:00開始販售，售完為止。
5905070050,晶德昌藥局,臺南市善化區文光里中山路８５號,120.3034,23.13298,(06)5856141,羅氏家用新冠病毒抗原自我檢測套組,76,2022/05/07 11:13:02,14:30-16:00.依號碼牌售完為止
5905070112,健登藥局,臺南市善化區大成路２１２號１樓,120.3004,23.13021,(06)5831133,羅氏家用新冠病毒抗原自我檢測套組,78,2022/05/07 11:13:02,快篩實名制販售 : 週一~六 下午兩點開始 週日不販售
5905140039,安安藥局隆田店,臺南市官田區中山路一段１５號１樓,120.3186,23.1927,(06)5795705,羅氏家用新冠病毒抗原自我檢測套組,1,2022/05/07 11:13:02,全日口罩販賣
5905210027,愛心藥師藥局,臺南市安定區港南里港口１４７號,120.233,23.09041,(06)5935104,羅氏家用新冠病毒抗原自我檢測套組,18,2022/05/07 11:13:02,春節營業時間請電洽或依現場公告
5905270176,大樹仁德藥局,臺南市仁德區中正路二段１１５２號１樓,120.2519,22.97062,(06)2797466,羅氏家用新冠病毒抗原自我檢測套組,78,2022/05/07 11:13:02,快篩實名制，每天16:00開始販售，售完為止。
5905310326,美德生醫藥局,臺南市永康區復國一路４９６號１樓,120.245,23.01514,(06)2030463,羅氏家用新冠病毒抗原自我檢測套組,30,2022/05/07 11:13:02,口罩販售時間：星期一~星期日 09:30~售完
5905311127,台南永康藥局,臺南市永康區中山南路８１６、８１６─１、２、３號１樓,120.2471,23.02099,(06)2020201,羅氏家用新冠病毒抗原自我檢測套組,1,2022/05/07 11:13:02,快篩實名制，每天16:00開始販售，售完為止。
5905320135,安麗兒藥局裕農店,臺南市東區裕農路１００號１樓,120.2268,22.9857,(06)2377378,羅氏家用新冠病毒抗原自我檢測套組,67,2022/05/07 11:13:02,實名制快篩販售時間:星期一到星期日下午三點~售完
5905320715,令和藥局,臺南市東區崇善路２６９號１樓,120.2264,22.97833,(06)2673578,羅氏家用新冠病毒抗原自我檢測套組,3,2022/05/07 11:13:02,無
5905320797,大樹自由藥局,臺南市東區自由路三段３８２號１樓,120.2373,22.98241,(06)2890800,羅氏家用新冠病毒抗原自我檢測套組,78,2022/05/07 11:13:02,快篩實名制，每天16:00開始販售，售完為止。
5905320948,崇明台安藥局,臺南市東區崇明路３０４號１樓,120.2198,22.97762,(06)2900350,羅氏家用新冠病毒抗原自我檢測套組,69,2022/05/07 11:13:02,快篩下午2點開始販售
5905340075,麗欣健保藥局,臺南市中西區永華路一段１９４號１樓,120.1917,22.98835,(06)2209393,羅氏家用新冠病毒抗原自我檢測套組,26,2022/05/07 11:13:02,w1~w6早上11:00開始發放快篩
5905350151,公園台安藥局,臺南市北區公園路８４０號,120.2121,23.01331,(06)2518402,羅氏家用新冠病毒抗原自我檢測套組,2,2022/05/07 11:13:02,實名制快篩每日上午10:30販售（依快篩配送時間可能延後）。
5905350384,北安台安藥局,臺南市北區北安路一段１６３號,120.2087,23.01755,(06)2518166,羅氏家用新冠病毒抗原自我檢測套組,43,2022/05/07 11:13:02,家用快篩試劑 1100開始販售
5905350393,和緯啄木鳥藥局,臺南市北區和緯路２段１７６號,120.2074,23.01231,(06)2519805,羅氏家用新冠病毒抗原自我檢測套組,55,2022/05/07 11:13:02,實名制快篩販售時間：周一~周五14:00，周六~周日11:00（若有變更，敬請見諒）    門市另有販售非實名制快篩，歡迎洽詢。
5905370180,安南啄木鳥藥局,臺南市安南區安和路一段１０７號,120.2143,23.02826,(06)2821265,羅氏家用新冠病毒抗原自我檢測套組,1,2022/05/07 11:13:02,5／7早上9:00
5905380300,新高橋藥局台南永華店,臺南市安平區華平路２７９號１樓,120.1748,22.99031,(06)2992362,羅氏家用新冠病毒抗原自我檢測套組,4,2022/05/07 11:13:02,無
5907010187,人人好藥局,高雄市鳳山區五甲三路１０巷７號１樓,120.3278,22.59336,(07)8151566,羅氏家用新冠病毒抗原自我檢測套組,106,2022/05/07 11:13:02,上午0830-1330下午1530-2100， 自2／11-2／29口罩販售周一三四五日，時間:9:00-12:00售完為止
5907010427,好郝藥局鳳林店,高雄市鳳山區誠智里鳳林路２９０號,120.3779,22.62216,(07)7869188,羅氏家用新冠病毒抗原自我檢測套組,78,2022/05/07 11:13:02,健保快篩周一到周六（周日不販售）下午三點開始現場販售，售完為止
5907011040,伊甸藥師藥局文化店,高雄市鳳山區文福里文化西路１１號１樓,120.3494,22.63475,(07)7776002,羅氏家用新冠病毒抗原自我檢測套組,1,2022/05/07 11:13:02,實名制快篩販售時間早上10:30起售完為止。請現場排隊。
5907011095,鳳山五甲藥局,高雄市鳳山區正義里五甲二路１３９號１樓,120.3409,22.6014,(07)7269899,羅氏家用新冠病毒抗原自我檢測套組,78,2022/05/07 11:13:02,快篩實名制，每天16:00開始販售，售完為止。
5907011148,大樹國泰藥局,高雄市鳳山區興仁里五甲一路２９２號,120.3539,22.61698,(07)7407234,羅氏家用新冠病毒抗原自我檢測套組,78,2022/05/07 11:13:02,快篩實名制，每天16:00開始販售，售完為止。
5907011291,桂林活力藥師藥局鳳山店,高雄市鳳山區中正里瑞興路４８８號１樓,120.3719,22.63089,(07)7012827,羅氏家用新冠病毒抗原自我檢測套組,49,2022/05/07 11:13:02,早上9點發放號碼牌，發完號碼牌即售完
5907011317,凱旋藥局,高雄市鳳山區國隆里新富路３７３號１樓,120.3475,22.61494,(07)7671181,羅氏家用新冠病毒抗原自我檢測套組,78,2022/05/07 11:13:02,快篩實名制，每天16:00開始販售，售完為止。
5907011371,大樹五甲藥局,高雄市鳳山區福祥里五甲三路２４號１－２樓．２６號１－２樓,120.3278,22.59317,(07)8224926,羅氏家用新冠病毒抗原自我檢測套組,78,2022/05/07 11:13:02,快篩實名制，每天16:00開始販售，售完為止。
5907011497,久億藥局,高雄市鳳山區新泰里海洋一路１２１號１樓,120.3441,22.61007,(07)7663095,羅氏家用新冠病毒抗原自我檢測套組,1,2022/05/07 11:13:02,快篩販售時間 早上9點至售完為止
5907020085,大德藥局,高雄市岡山區大德一路９８號,120.3025,22.79689,(07)6221456,羅氏家用新冠病毒抗原自我檢測套組,78,2022/05/07 11:13:02,快篩實名制，每天16:00開始販售，售完為止。
5907020094,大樹岡山藥局,高雄市岡山區岡山路１３６號,120.2967,22.78913,(07)6219477,羅氏家用新冠病毒抗原自我檢測套組,78,2022/05/07 11:13:02,快篩實名制，每天16:00開始販售，售完為止。
5907030152,旗山藥局,高雄市旗山區中華路２３號,120.4841,22.88027,(07)6621158,羅氏家用新冠病毒抗原自我檢測套組,78,2022/05/07 11:13:02,快篩實名制，每天16:00開始販售，售完為止。
5907050109,林園藥局,高雄市林園區仁愛路１３號１樓,120.3928,22.50418,(07)6425855,羅氏家用新冠病毒抗原自我檢測套組,78,2022/05/07 11:13:02,快篩實名制，每天16:00開始販售，售完為止。
5907080189,德昌藥局仁雄店,高雄市仁武區灣內里仁雄路３８、３８－１、３８－２號,120.3506,22.68074,(07)3749166,羅氏家用新冠病毒抗原自我檢測套組,71,2022/05/07 11:13:02,固定週一至週日14:30~16:00開始發放號碼牌並依序販售快篩.售完為止
5907080214,新高橋藥局八德中店,高雄市仁武區八卦里八德中路８６、８８、９０號,120.3393,22.68489,(07)3485857,羅氏家用新冠病毒抗原自我檢測套組,2,2022/05/07 11:13:02,藥局電話 07-3736437
5907080303,群邦藥局,高雄市仁武區八德東路１８０號１樓,120.3422,22.68538,(07)3745985,羅氏家用新冠病毒抗原自我檢測套組,73,2022/05/07 11:13:02,每日下午2:00開始販售公費快篩（售完為止），星期日藥局早上8:30-9:30賣公費快篩
5907080330,文武藥局,高雄市仁武區文武里中華路３５３號,120.3535,22.7011,(07)3733551,羅氏家用新冠病毒抗原自我檢測套組,78,2022/05/07 11:13:02,快篩實名制，每天16:00開始販售，售完為止。
5907090167,大樹大社藥局,高雄市大社區中山路３０８號１樓,120.3503,22.73145,(07)3531682,羅氏家用新冠病毒抗原自我檢測套組,78,2022/05/07 11:13:02,快篩實名制，每天16:00開始販售，售完為止。
5907150220,天德藥局路竹店,高雄市路竹區忠孝路２６－２、２６－３號１樓,120.2601,22.86059,(07)6975656,羅氏家用新冠病毒抗原自我檢測套組,78,2022/05/07 11:13:02,下午三點發放快篩
5907150257,大樹大立藥局,高雄市路竹區國昌路５１號,120.26,22.85409,(07)6961663,羅氏家用新冠病毒抗原自我檢測套組,78,2022/05/07 11:13:02,快篩實名制，每天16:00開始販售，售完為止。
5907160075,安麗兒藥局東方店,高雄市湖內區湖東里東方路９０號,120.2483,22.87968,(07)6936029,羅氏家用新冠病毒抗原自我檢測套組,52,2022/05/07 11:13:02,領快篩時間一~日早上11點開始~售完 （以郵局配送時間為主）
5907160093,保生藥局,高雄市湖內區葉厝里保生路３４０．３４２號,120.2195,22.90733,(07)6990800,羅氏家用新冠病毒抗原自我檢測套組,79,2022/05/07 11:13:02,快篩實名制，每天16:00開始販售，售完為止。
5907280036,七賢藥局,高雄市鹽埕區七賢三路１６２號１樓,120.2829,22.62712,(07)5330616,羅氏家用新冠病毒抗原自我檢測套組,78,2022/05/07 11:13:02,快篩實名制，每天16:00開始販售，售完為止。
5907290238,聯合藥師藥局,高雄市鼓山區中華一路９７０號１樓,120.2919,22.65515,(07)5500558,羅氏家用新冠病毒抗原自我檢測套組,78,2022/05/07 11:13:02,預計中午12:00開始販售快篩，請從騎樓排隊並遵守防疫規範
5907290265,新美館藥局,高雄市鼓山區中華一路９７２號,120.2919,22.65513,(07)5522006,羅氏家用新冠病毒抗原自我檢測套組,42,2022/05/07 11:13:02,5／7快篩於早上8:30領取號碼牌後販賣，請從後花園排隊，謝謝
5907290354,文昇藥局,高雄市鼓山區慶豐街１２５號,120.2942,22.66724,(07)5525314,羅氏家用新冠病毒抗原自我檢測套組,4,2022/05/07 11:13:02,無
5907300168,金元藥局,高雄市左營區重愛路２２０號,120.3156,22.68562,(07)3458378,羅氏家用新冠病毒抗原自我檢測套組,2,2022/05/07 11:13:02,快篩試劑郵差配送，約10點至11點左右會送到藥局，即開始販售，星期四，六營業時間至中午12點
5907300506,躍獅祐恩藥局,高雄市左營區明華一路１３２號１樓,120.3073,22.66307,(07)5508706,羅氏家用新冠病毒抗原自我檢測套組,18,2022/05/07 11:13:02,到貨時間不固定，到貨會FB通知並立即販售，售完為止~
5907300613,新高橋藥局河堤店,高雄市左營區裕誠路１４４號１樓及地下１樓,120.3095,22.66423,(07)5582806,羅氏家用新冠病毒抗原自我檢測套組,1,2022/05/07 11:13:02,下午1:30開始販售口罩至下午5:30
5907300631,大樹孟子藥局,高雄市左營區孟子路２２６、２２８號,120.3112,22.67415,(07)3461772,羅氏家用新冠病毒抗原自我檢測套組,78,2022/05/07 11:13:02,快篩實名制，每天16:00開始販售，售完為止。
5907300800,元大藥師健保藥局,高雄市左營區榮德街３２７號,120.3211,22.68636,(07)3507531,羅氏家用新冠病毒抗原自我檢測套組,21,2022/05/07 11:13:02,無
5907300908,明自丁丁藥局,高雄市左營區自由二路１５２號１樓,120.3089,22.66223,(07)5568902,羅氏家用新冠病毒抗原自我檢測套組,3,2022/05/07 11:13:02,無
5907310020,德民藥局,高雄市楠梓區德民路９１１號,120.2897,22.72085,(07)3630805,羅氏家用新冠病毒抗原自我檢測套組,56,2022/05/07 11:13:02,營業日星期一至星期六上午11:00~13:00銷售快篩實名制.售完為止，週日公休
5907310262,大樹楠梓藥局,高雄市楠梓區軍校路９０８號,120.2919,22.71246,(07)3632322,羅氏家用新冠病毒抗原自我檢測套組,78,2022/05/07 11:13:02,快篩實名制，每天16:00開始販售，售完為止。
5907310404,藍田藥局,高雄市楠梓區藍田路１號,120.2953,22.72643,(07)3601236,羅氏家用新冠病毒抗原自我檢測套組,78,2022/05/07 11:13:02,快篩實名制，每天16:00開始販售，售完為止。
5907320179,新高橋藥局天祥店,高雄市三民區天祥一路１１７號,120.3205,22.66711,(07)3102683,羅氏家用新冠病毒抗原自我檢測套組,6,2022/05/07 11:13:02,上午10:00開始販售快篩，9:50發號碼牌
5907320633,勁康健保藥局,高雄市三民區義華路４０２號１樓,120.3331,22.64371,(07)3966716,羅氏家用新冠病毒抗原自我檢測套組,1,2022/05/07 11:13:02,如為當日配量快篩實名制配貨到即可販售，若前一日就到貨，則早上10點開始
5907320697,鄰好藥師藥局,高雄市三民區褒揚街２８７號,120.3398,22.64097,(07)3909589,羅氏家用新冠病毒抗原自我檢測套組,78,2022/05/07 11:13:02,購買實名制快篩時間下午14:00-16:00，各類防疫用品販售中
5907320893,大樹天祥藥局,高雄市三民區天祥一路１６７號,120.3191,22.66737,(07)3429902,羅氏家用新冠病毒抗原自我檢測套組,78,2022/05/07 11:13:02,快篩實名制，每天16:00開始販售，售完為止。
5907320946,熊安心藥局,高雄市三民區陽明路４０８號,120.3429,22.64609,(07)3815212,羅氏家用新冠病毒抗原自我檢測套組,37,2022/05/07 11:13:02,週一 ~ 週六快篩 14:00 販售
5907321005,諾亞藥局,高雄市三民區鼎華路１４號１樓,120.3164,22.65139,(07)3929966,羅氏家用新冠病毒抗原自我檢測套組,10,2022/05/07 11:13:02,快篩早上10:00開始，營業時間:（一-五）早上8:00-12:00，下午02:30-6:00（五-下午5:30休息，六-開上午半天，日-休息）
5907321069,桂林活力藥局九如店,高雄市三民區懷安街１１２號１樓,120.3176,22.64095,(07)3981009,羅氏家用新冠病毒抗原自我檢測套組,78,2022/05/07 11:13:02,每天15:30發號碼牌，於18:00前兌換完畢，逾期棄權，剩餘則繼續發放
5907321078,振源藥局,高雄市三民區熱河一街３５５號１樓,120.3061,22.64365,(07)3112541,羅氏家用新冠病毒抗原自我檢測套組,11,2022/05/07 11:13:02,4／30起15:00開始販售快篩，六日皆有營業
5907321103,自由藥局,高雄市三民區自由一路７８號,120.3089,22.64422,(07)3223113,羅氏家用新冠病毒抗原自我檢測套組,78,2022/05/07 11:13:02,快篩實名制，每天16:00開始販售，售完為止。
5907321121,九如順天藥局,高雄市三民區大連街９巷１８號,120.3045,22.64073,(07)3220706,羅氏家用新冠病毒抗原自我檢測套組,77,2022/05/07 11:13:02,實名制快篩為下午1點-6點開放領取，領完為止
5907330031,健美藥局,高雄市新興區復興一路４０之４號,120.3084,22.62985,(07)2291108,羅氏家用新冠病毒抗原自我檢測套組,2,2022/05/07 11:13:02,111／5／3近期因供貨時間不穩定.先取消上午8:40販售快篩.實際以收到貨時間開始販賣
5907330219,美麗島台安藥局,高雄市新興區中山一路１１５號地下２樓（轉換層）,120.3015,22.63155,(07)2365490,羅氏家用新冠病毒抗原自我檢測套組,7,2022/05/07 11:13:02,位於美麗島捷運站內，往西子灣方向地下二樓。販賣時間依現場公告為主，可來電詢問。
5907340046,銘益藥局,高雄市前金區七賢二路２０８、２１０號１樓,120.2951,22.63314,(07)2853107,羅氏家用新冠病毒抗原自我檢測套組,1,2022/05/07 11:13:02,無
5907350220,仁愛藥師藥局,高雄市苓雅區中正一路２３０號,120.3296,22.62921,(07)7222300,羅氏家用新冠病毒抗原自我檢測套組,71,2022/05/07 11:13:02,快篩販售一到五10:00開始發號碼牌，紅字假日12:00開始發號碼牌
5907350480,健森藥局,高雄市苓雅區林森二路１３８號１、２樓,120.3066,22.62054,(07)3365169,羅氏家用新冠病毒抗原自我檢測套組,2,2022/05/07 11:13:02,早上9點領牌 下午3~5點領口罩
5907350551,大樹武廟藥局,高雄市苓雅區武廟路４３、４５號１樓,120.3314,22.63005,(07)7222268,羅氏家用新冠病毒抗原自我檢測套組,78,2022/05/07 11:13:02,快篩實名制，每天16:00開始販售，售完為止。
5907350597,武廟台安藥局,高雄市苓雅區武廟路１３３－１號,120.3266,22.63106,(07)7228893,羅氏家用新冠病毒抗原自我檢測套組,1,2022/05/07 11:13:02,實名制快篩販售時間：（一）~（六） 9:00~17:00
5907360324,有承中西藥局,高雄市前鎮區德昌路２５７號１樓,120.3155,22.5849,(07)8120880,羅氏家用新冠病毒抗原自我檢測套組,2,2022/05/07 11:13:02,配合政府實名制快篩， 早上08:00發放號碼牌
5907360520,大樹瑞福藥局,高雄市前鎮區瑞隆路１７０號１樓、２樓,120.3357,22.60598,(07)7271170,羅氏家用新冠病毒抗原自我檢測套組,78,2022/05/07 11:13:02,快篩實名制，每天16:00開始販售，售完為止。
5907360664,忠純藥局,高雄市前鎮區中華五路１００９號１樓,120.3056,22.60341,(07)3366886,羅氏家用新冠病毒抗原自我檢測套組,78,2022/05/07 11:13:02,快篩實名制，每天16:00開始販售，售完為止。
5907380255,安安藥師藥局,高雄市小港區孔鳳路５６５號１樓,120.3586,22.58393,(07)7915933,羅氏家用新冠病毒抗原自我檢測套組,78,2022/05/07 11:13:02,快篩實名制周一至周六下午14:00開始販售，售完為止
5907380264,大樹孔鳳藥局,高雄市小港區孔鳳路５１９、５２１號,120.3587,22.5828,(07)7918521,羅氏家用新冠病毒抗原自我檢測套組,78,2022/05/07 11:13:02,快篩實名制，每天16:00開始販售，售完為止。
5907380424,大樹小港藥局,高雄市小港區康莊路７５號１樓,120.3559,22.56853,(07)8068328,羅氏家用新冠病毒抗原自我檢測套組,78,2022/05/07 11:13:02,快篩實名制，每天16:00開始販售，售完為止。
5911011334,海大藥局,基隆市中正區新豐街２５５號１樓,121.7879,25.13621,(02)24699222,羅氏家用新冠病毒抗原自我檢測套組,78,2022/05/07 11:13:02,平日：8：30~12：00，15：00~21：30；星期日：~12：00
5911011638,中正藥局,基隆市中正區新豐街３８５號１、２樓,121.7856,25.13537,(02)24690660,羅氏家用新冠病毒抗原自我檢測套組,78,2022/05/07 11:13:02,快篩實名制，每天16:00開始販售，售完為止。
5911021438,正心藥局,基隆市七堵區南興路１０號１樓,121.7149,25.09755,(02)24563378,羅氏家用新冠病毒抗原自我檢測套組,78,2022/05/07 11:13:02,每日限量78盒， 星期一~六下午13:30發號碼牌，14:00開始販賣，星期日上午9:00發號碼牌，9:30開始販賣，12:00停止領取
5911030026,欣華藥局,基隆市暖暖區源遠路１９７號,121.7517,25.09843,(02)24576741,羅氏家用新冠病毒抗原自我檢測套組,37,2022/05/07 11:13:02,10
5911040273,第一藥局,基隆市仁愛區愛三路１２０號３樓,121.7436,25.12963,(02)24292288,羅氏家用新冠病毒抗原自我檢測套組,78,2022/05/07 11:13:02,快篩試劑每天下午12點發號碼牌，12點20分到14點販售
5911041403,佑昌藥局,基隆市仁愛區南榮路１７號,121.7423,25.12697,(02)24293309,羅氏家用新冠病毒抗原自我檢測套組,6,2022/05/07 11:13:02,無
5911051409,順豐藥局,基隆市中山區中華路４號,121.7388,25.14545,(02)24369176,羅氏家用新冠病毒抗原自我檢測套組,78,2022/05/07 11:13:02,家用快篩每日下午2點起隨到隨領售完為止。
5911071590,基隆藥局,基隆市信義區東信路１６６、１６８號１、２樓,121.7646,25.12821,(02)24680955,羅氏家用新冠病毒抗原自我檢測套組,78,2022/05/07 11:13:02,快篩實名制，每天16:00開始販售，售完為止。
5912012120,仁美藥局,新竹市東區振興里振興路５２號,120.9625,24.79493,(03)5625398,羅氏家用新冠病毒抗原自我檢測套組,78,2022/05/07 11:13:02,週一~週六晚上六點販售（週日店休）不發號碼牌!請不要問我要幾點排隊，我不是九天玄女!盡量不打電話，感恩!!
5912012433,安安大藥局,新竹市東區金山里光復路一段１６３巷２號,121.0223,24.78144,(03)5772655,羅氏家用新冠病毒抗原自我檢測套組,78,2022/05/07 11:13:02,快篩實名制 7號及8號 下午13:00販售
5912012737,婷婷藥局,新竹市東區明湖路965號,120.9669,24.77371,(03)5290999,羅氏家用新冠病毒抗原自我檢測套組,78,2022/05/07 11:13:02,5／6星期五下午14點賣快篩
5912012988,杏康健保特約藥局,新竹市東區光復路一段５２５巷２３號１樓,121.0135,24.78384,(03)5772966,羅氏家用新冠病毒抗原自我檢測套組,22,2022/05/07 11:13:02,週一至五09:00-21:00 （週六公休） 週日09:00-18:00
5912013494,田美藥局,新竹市東區田美三街３５之１號１樓,120.9767,24.81572,(03)5350233,羅氏家用新冠病毒抗原自我檢測套組,78,2022/05/07 11:13:02,快篩實名制，每天16:00開始販售，售完為止。
5912013654,七二八藥局,新竹市東區明湖路１２４５號１樓,120.979,24.76774,(03)5200530,羅氏家用新冠病毒抗原自我檢測套組,1,2022/05/07 11:13:02,5／7政府快篩，12:30開始販售。
5912013681,仁春藥局,新竹市東區慈濟路２５２號１樓,121.0153,24.79245,(03)6686718,羅氏家用新冠病毒抗原自我檢測套組,78,2022/05/07 11:13:02,5／7 實名制快篩 於16:00開始販售
5912040188,健和藥局,新竹市北區大同里大同路１７８號,120.9668,24.80731,(03)5231734,羅氏家用新冠病毒抗原自我檢測套組,72,2022/05/07 11:13:02,快篩周一至周五 12點整開始 售完為止
5912042235,均祐健康藥局,新竹市北區境福里１５鄰中正路３８９號１樓,120.961,24.81546,(03)5325369,羅氏家用新冠病毒抗原自我檢測套組,2,2022/05/07 11:13:02,口罩販售時間：09:00
5912042664,永沛藥局,新竹市北區湳雅街２０９號,120.9741,24.82093,(03)5328563,羅氏家用新冠病毒抗原自我檢測套組,78,2022/05/07 11:13:02,快篩  05／08周日08:30開賣  周一~周六 15:00開賣 現場排隊 請別再打電話來問  PS:請自帶一張500鈔票，不收其他面額
5917011847,郭藥局,臺中市中區平等街一二四號,120.682,24.1426,(04)22200005,羅氏家用新冠病毒抗原自我檢測套組,60,2022/05/07 11:13:02,周一至周六每日上午11點至12點販賣快篩
5917011945,正三吉藥局,臺中市中區臺灣大道一段９５號,120.6831,24.13911,(04)22207700,羅氏家用新冠病毒抗原自我檢測套組,78,2022/05/07 11:13:02,快篩販售時間 14:00~17:00
5917030128,太信藥局,臺中市西區三民路一段９５－１號１樓,120.6698,24.13322,(04)23718318,羅氏家用新冠病毒抗原自我檢測套組,10,2022/05/07 11:13:02,健保卡快篩請0900自備500元／份
5917032462,名亨藥局,臺中市西區五權路２９號１樓,120.6696,24.14423,(04)22201089,羅氏家用新冠病毒抗原自我檢測套組,1,2022/05/07 11:13:02,每日上午8:20至12，下午3至6時販售.周 日  休 息. 周 六    下 午 休 息 .
5917032471,銘津藥局,臺中市西區民生路３９０號１樓,120.6611,24.14444,(04)23021314,羅氏家用新冠病毒抗原自我檢測套組,23,2022/05/07 11:13:02,每日上午10:00至13:00，下午3:00至21:00 現場排隊，星期日下午休息
5917050433,松鶴藥局,臺中市北區文莊里篤行路２２４號,120.6738,24.15187,(04)22028790,羅氏家用新冠病毒抗原自我檢測套組,2,2022/05/07 11:13:02,口罩每日上午8:30開始販售，現場排隊售完為止。（全年無休）
5917050577,東生藥局,臺中市北區永興街１１２－１號１樓,120.6825,24.16152,(04)22358880,羅氏家用新冠病毒抗原自我檢測套組,9,2022/05/07 11:13:02,周一到周六上午8:30到晚上10:00開始販售口罩，周日公休
5917050719,百鴻藥局,臺中市北區金龍里北屯路１３－１號,120.6914,24.15981,(04)22336330,羅氏家用新冠病毒抗原自我檢測套組,9,2022/05/07 11:13:02,固定周一至周五10.00--16.00 17.00--21.00開始販售口罩售完為止
5917061061,佳蒝藥局,臺中市西屯區西屯路３段１５９之１０之５號１樓,120.6194,24.18731,(04)24617763,羅氏家用新冠病毒抗原自我檢測套組,71,2022/05/07 11:13:02,無
5917063350,天立專業藥師藥局,臺中市西屯區太原路１段２０７號１樓,120.6617,24.16318,(04)23160455,羅氏家用新冠病毒抗原自我檢測套組,12,2022/05/07 11:13:02,週一~週六快篩9:00售完為止，週日中午12：00售完為止
5917063681,東亞永福藥局,臺中市西屯區永福路３５號,120.6196,24.18259,(04)24638229,羅氏家用新冠病毒抗原自我檢測套組,21,2022/05/07 11:13:02,實名制快篩上午十一點開賣
5917063725,永旭大藥局,臺中市西屯區逢甲路９２號１樓,120.6439,24.17883,(04)27087952,羅氏家用新冠病毒抗原自我檢測套組,1,2022/05/07 11:13:02,5／6起實名快篩，星期一到五早上10點開始，星期六日中午12點開始排隊販售。
5917071781,吉運藥局,臺中市南屯區南屯里黎明路１段１１３５號,120.6382,24.14047,(04)23834755,羅氏家用新冠病毒抗原自我檢測套組,30,2022/05/07 11:13:02,固定周一到周六，早上8:00賣實名制快篩。不發號碼牌
5917072699,博仕健保藥局,臺中市南屯區大墩１１街４４５號,120.638,24.14862,(04)23817009,羅氏家用新冠病毒抗原自我檢測套組,49,2022/05/07 11:13:02,星期一至星期五14:00開賣，星期六11:00開賣，現場排隊販售
5917080762,順泰大藥局,臺中市北屯區北屯村北屯路１１５號,120.6939,24.165,(04)22341477,羅氏家用新冠病毒抗原自我檢測套組,2,2022/05/07 11:13:02,周三及周日公休，其餘時間每日上午9:00開賣，不需發號碼牌
5917082300,蔡宗耀中西藥局,臺中市北屯區平德里河北路２段６１號,120.6831,24.16994,(04)22341880,羅氏家用新冠病毒抗原自我檢測套組,48,2022/05/07 11:13:02,早上9點30分至下午12點30分，下午3點至8點發口罩，有發號碼牌。
5917083101,北屯德康藥局,臺中市北屯區四平路４６９號１樓,120.681,24.19161,(04)24223378,羅氏家用新冠病毒抗原自我檢測套組,52,2022/05/07 11:13:02,每天早上9點30分發售口罩；前往領藥前先電話洽詢
5921010223,王藥局,臺南市東區小東里小東路１９０－１號,120.2276,22.99976,(06)2378697,羅氏家用新冠病毒抗原自我檢測套組,78,2022/05/07 11:13:02,週一 至 週日，下午 2:00 ~ 晚上9:00 （ 需健保卡 ）
5921012049,小太陽藥局,臺南市東區東光里東平路１３號,120.2336,22.9947,(06)2099858,羅氏家用新冠病毒抗原自我檢測套組,1,2022/05/07 11:13:02,藥局營業時間為星期一至星期六10:00~21:30，星期天休息  實名制快篩試劑10:00開始販售，售完為止
5921021851,海山藥局,臺南市南區新興路４００號,120.1881,22.97514,(06)2617788,羅氏家用新冠病毒抗原自我檢測套組,49,2022/05/07 11:13:02,實名制快篩代售:AM11:00~售完（一人一卡限購一份，請自備零錢）**星期日無代售**
5921050076,千代藥局,臺南市中西區民生路一段６０號１樓,120.2034,22.99337,(06)2256895,羅氏家用新冠病毒抗原自我檢測套組,71,2022/05/07 11:13:02,快篩試劑實名制:星期1~6下午一點至三點販售（星期日當日貨到開始販售）
5921050138,金德藥局,臺南市中西區府前路１段３３號,120.2108,22.98881,(06)2149082,羅氏家用新冠病毒抗原自我檢測套組,75,2022/05/07 11:13:02,星期一-日08:00-23:00
5921060198,平光藥局,臺南市安南區安中路１段８２２號,120.1947,23.0437,(06)2459641,羅氏家用新冠病毒抗原自我檢測套組,14,2022/05/07 11:13:02,快篩 早上 10:30 開店起 販售 周日不賣快篩
5921060321,慈安藥局,臺南市安南區大安街５３號,120.1919,23.03148,(06)2551117,羅氏家用新冠病毒抗原自我檢測套組,78,2022/05/07 11:13:02,下午2:00
5921071226,康活藥局,臺南市安平區健康三街１８６號,120.1686,22.98883,(06)2936483,羅氏家用新冠病毒抗原自我檢測套組,4,2022/05/07 11:13:02,快篩晚上18:00開賣.
5922010263,秉榮藥局,嘉義市東區東仁里中山路１８９號,120.4553,23.48162,(05)2224320,羅氏家用新冠病毒抗原自我檢測套組,10,2022/05/07 11:13:02,周一至周日販售實名制快篩，以郵差到貨時間為準，售鑿為止。
5922010718,安泰藥局,嘉義市東區民族路１８１號,120.4566,23.47649,(05)2294202,羅氏家用新冠病毒抗原自我檢測套組,1,2022/05/07 11:13:02,每天早上九點開始販售口罩! 售完為止
5922012945,大明藥局,嘉義市東區大雅路二段６８２號,120.4663,23.47719,(05)2760958,羅氏家用新冠病毒抗原自我檢測套組,78,2022/05/07 11:13:02,5／7號碼牌已發完畢（星期一至六：11點發號碼牌12-14點開始販售）
5922013111,富善藥局,嘉義市東區新生路２３４號,120.4609,23.48419,(05)2759559,羅氏家用新冠病毒抗原自我檢測套組,46,2022/05/07 11:13:02,5／13、14休假，實名制快篩早上9:10-12:00下午3:10-5:00
5922013120,大雅藥局,嘉義市東區大雅路二段４８７號,120.4714,23.47751,(05)2778237,羅氏家用新冠病毒抗原自我檢測套組,6,2022/05/07 11:13:02,有提前收到快篩就9:30營業就發 沒提前收到就依當天到貨時間發
5922013175,森活中西藥局,嘉義市東區吳鳳北路２０８號一樓,120.4533,23.47931,(05)2288518,羅氏家用新冠病毒抗原自我檢測套組,75,2022/05/07 11:13:02,8:30開始發放號碼牌，12:00~14:00領取快篩
5922013184,軍輝啄木鳥藥局,嘉義市東區軍輝路２２２號,120.4588,23.455,(05)2395963,羅氏家用新冠病毒抗原自我檢測套組,78,2022/05/07 11:13:02,週一~日下午4:00開始
5922020858,大統藥局,嘉義市西區慶安里北興街１３６號,120.4421,23.48389,(05)2330230,羅氏家用新冠病毒抗原自我檢測套組,56,2022/05/07 11:13:02,5月7日預約登記已滿.有預約的民眾請於上午9:00點後領取
5922028925,健安藥局,嘉義市西區民族路６２６號,120.4452,23.4757,(05)2281219,羅氏家用新冠病毒抗原自我檢測套組,1,2022/05/07 11:13:02,口罩:星期一至星期六9點-12點，15點-21點
592202A518,徠的安藥師藥局,嘉義市西區保安里世賢路１段６鄰５４９號,120.4306,23.48982,(05)2318532,羅氏家用新冠病毒抗原自我檢測套組,3,2022/05/07 11:13:02,無
5931010397,正成藥師藥局,新北市板橋區三民路２段１５４巷７號,121.4787,25.01515,(02)29512760,羅氏家用新冠病毒抗原自我檢測套組,78,2022/05/07 11:13:02,無
5931011223,民侑藥局,新北市板橋區大觀路２段３７巷３１０號,121.45,25.00221,(02)22755938,羅氏家用新冠病毒抗原自我檢測套組,1,2022/05/07 11:13:02,快篩號碼牌發放時間為早上9點。12點前須拿號碼牌完成購買。
5931012042,喬治藥局,新北市板橋區國慶路１５５號１樓,121.4616,24.99617,(02)29630787,羅氏家用新冠病毒抗原自我檢測套組,78,2022/05/07 11:13:02,數量依現場為主。13:00開賣，如排隊人數過半，將開始販售。離開隊伍，視同放棄排隊。星期日公休無販售
5931012131,中山大藥局,新北市板橋區中山路１段１０７號,121.4618,25.01025,(02)29575029,羅氏家用新冠病毒抗原自我檢測套組,2,2022/05/07 11:13:02,口罩配發時間.星期一~六早上9點開始.星期日下午1點開始
5931012239,信昌藥局,新北市板橋區三民路２段２０２－９號,121.4789,25.0142,(02)29510784,羅氏家用新冠病毒抗原自我檢測套組,49,2022/05/07 11:13:02,防疫快篩依據每天到貨時間，另行公告
5931014046,欣安藥局,新北市板橋區懷德街１０９號１樓,121.4786,25.03147,(02)82570296,羅氏家用新冠病毒抗原自我檢測套組,1,2022/05/07 11:13:02,目前快篩送貨時間不定，發放時間依現場公告為主。
5931014420,萬泰藥局,新北市板橋區信義路２２１之１號,121.4597,24.99145,(02)89645570,羅氏家用新冠病毒抗原自我檢測套組,78,2022/05/07 11:13:02,無
5931015687,正康健保藥局,新北市板橋區大觀路２段６５號１樓,121.4467,25.00246,(02)22756681,羅氏家用新冠病毒抗原自我檢測套組,78,2022/05/07 11:13:02,下午13:30依現場順序開始販售快篩，快篩配送絮亂庫存不準!!
5931016273,湯明藥局,新北市板橋區中山路２段３１９號１樓,121.479,25.01866,(02)29571980,羅氏家用新冠病毒抗原自我檢測套組,70,2022/05/07 11:13:02,週一到週五 下午四點  六日時間未定 排隊不發號碼
5931016611,民川藥局,新北市板橋區四川路１段９７號１樓,121.4598,25.00544,(02)29520090,羅氏家用新冠病毒抗原自我檢測套組,40,2022/05/07 11:13:02,星期一~星期六（快篩上午9:00販售38份下午3:00販售40份）
5931016808,正安健保藥局,新北市板橋區民族路２２４號（１樓）,121.4687,25.00733,(02)29526813,羅氏家用新冠病毒抗原自我檢測套組,111,2022/05/07 11:13:02,17時依現場順序開始販售.週六12點.電腦配送庫存不準..以現場數量為準
5931017092,康橋藥局,新北市板橋區文化路１段２７３號,121.4646,25.01848,(02)22532560,羅氏家用新冠病毒抗原自我檢測套組,78,2022/05/07 11:13:02,快篩試劑 每天下午2點販售 不發號碼牌 售完為止 周日公休
5931017289,板橋大樹藥局,新北市板橋區忠孝路２８號（１樓）,121.4603,25.00176,(02)29555551,羅氏家用新冠病毒抗原自我檢測套組,78,2022/05/07 11:13:02,快篩實名制，每天16:00開始販售，售完為止。
5931017618,新埔健保藥局,新北市板橋區自由路２號１樓,121.4654,25.02222,(02)22558878,羅氏家用新冠病毒抗原自我檢測套組,39,2022/05/07 11:13:02,無
5931017636,福澤藥局,新北市板橋區南雅南路１段８５號（１樓）,121.4556,25.00543,(02)29690013,羅氏家用新冠病毒抗原自我檢測套組,78,2022/05/07 11:13:02,口罩代售9:00-23:00
5931017663,盛生藥局,新北市板橋區合宜路９９號（１樓）,121.4479,24.9984,(02)89697299,羅氏家用新冠病毒抗原自我檢測套組,78,2022/05/07 11:13:02,政府快篩下午1:50發放號碼牌.下午2:00準時銷售..假日視政府配量（銷售時間相同）
5931017789,明翠藥局,新北市板橋區四維路１４６、１４８號１、２樓,121.4651,25.02555,(02)22550201,羅氏家用新冠病毒抗原自我檢測套組,78,2022/05/07 11:13:02,快篩實名制，每天16:00開始販售，售完為止。
5931017832,躍獅莒光藥局,新北市板橋區莒光路５８號１樓,121.4709,25.02421,(02)22556743,羅氏家用新冠病毒抗原自我檢測套組,78,2022/05/07 11:13:02,5／7下午2:50發號碼牌（78份），請勿打電話詢問。
5931017869,躍獅國慶藥局,新北市板橋區國慶路１７９號（１樓）,121.4626,24.99636,(02)29641548,羅氏家用新冠病毒抗原自我檢測套組,156,2022/05/07 11:13:02,快篩實名制，每天14:00開始販售，售完為止
5931017994,後埔藥局,新北市板橋區華興街９號（１樓）,121.459,25.00457,(02)89510306,羅氏家用新冠病毒抗原自我檢測套組,78,2022/05/07 11:13:02,5／7 下午2點發放號碼牌*確保作業流暢請自備500元*每天 78 份晚上10 點以前領取完畢（過卡時間差異剩餘數量僅供參考）
5931018106,力安藥局,新北市板橋區莒光路１９６巷８號（１樓）,121.4738,25.02255,(02)22503349,羅氏家用新冠病毒抗原自我檢測套組,32,2022/05/07 11:13:02,快篩實名制，早上9點依現場順序開始販售快篩，售完為止。
5931018124,大楓藥師藥局,新北市板橋區懷仁街８４號（１樓）,121.4774,25.01819,(02)29560576,羅氏家用新冠病毒抗原自我檢測套組,1,2022/05/07 11:13:02,快篩販售時間  下午13:30開始，售完為止。
5931018142,重慶藥局,新北市板橋區國慶路１２７號（１樓）,121.4608,24.99602,(02)29565586,羅氏家用新冠病毒抗原自我檢測套組,78,2022/05/07 11:13:02,快篩實名制，每天16:00開始販售，售完為止。
5931020400,新迪化中西藥局,新北市三重區三陽路２７號１樓,121.4855,25.05893,(02)29884755,羅氏家用新冠病毒抗原自我檢測套組,78,2022/05/07 11:13:02,快篩實名制中午12點開始販售，發號碼牌
5931020866,裕福藥局,新北市三重區長壽西街１４４號,121.4939,25.06661,(02)29831769,羅氏家用新冠病毒抗原自我檢測套組,1,2022/05/07 11:13:02,快篩代售等貨到才販售；現場排隊
5931020991,久洲藥局,新北市三重區長元街５１－９號,121.5009,25.06616,(02)29783515,羅氏家用新冠病毒抗原自我檢測套組,70,2022/05/07 11:13:02,快篩八點半發號碼牌售完為止12點至1點領快篩
5931021532,龍門藥局,新北市三重區龍門路１８９號,121.4996,25.07322,(02)29756141,羅氏家用新冠病毒抗原自我檢測套組,78,2022/05/07 11:13:02,實名制快篩販售時間~星期一至星期六下午3點
5931023349,迪化藥局,新北市三重區中華路７７號,121.4836,25.06267,(02)29834445,羅氏家用新冠病毒抗原自我檢測套組,2,2022/05/07 11:13:02,實名制快篩每日早上九點發牌號／週日食藥署暫停供應快篩
5931023527,德慈藥局,新北市三重區重新路３段１６號１樓,121.4951,25.06138,(02)29736693,羅氏家用新冠病毒抗原自我檢測套組,74,2022/05/07 11:13:02,快篩試劑販售時間自每日13:00開始
5931023830,忠信藥局,新北市三重區仁興街３２號,121.4991,25.07552,(02)29762963,羅氏家用新冠病毒抗原自我檢測套組,78,2022/05/07 11:13:02,無
5931024971,欽勝藥局,新北市三重區重陽路４段６號２樓,121.4906,25.06894,(02)29857389,羅氏家用新冠病毒抗原自我檢測套組,78,2022/05/07 11:13:02,販售快篩需現場排隊，無預約無號碼牌，販售時間依到貨時間為主。
5931025192,榮康藥局,新北市三重區成功路８１號１樓,121.4886,25.05131,(02)29772723,羅氏家用新冠病毒抗原自我檢測套組,54,2022/05/07 11:13:02,星期一、四14:00發售。星期二、五20:00發售。星期三、六11:00發售。
5931025398,昌誠藥局,新北市三重區三和路４段１６１號１樓,121.4835,25.0785,(02)22876338,羅氏家用新冠病毒抗原自我檢測套組,5,2022/05/07 11:13:02,5／2 （休診）
5931025521,徐匯藥局,新北市三重區仁愛街７５５號１樓,121.4809,25.07996,(02)28572234,羅氏家用新冠病毒抗原自我檢測套組,59,2022/05/07 11:13:02,實名快篩星期一~六，下午2:30開賣，1人限1卡
5931025567,閎安藥局,新北市三重區重新路２段８５號１樓、２樓,121.4962,25.06181,(02)29881968,羅氏家用新冠病毒抗原自我檢測套組,4,2022/05/07 11:13:02,每日皆執行調劑業務，快篩代售時間每日下午三點發號碼牌並領取
5931025610,大樹三重藥局,新北市三重區正義北路６６號１樓,121.4972,25.06415,(02)29713188,羅氏家用新冠病毒抗原自我檢測套組,78,2022/05/07 11:13:02,口罩販售時間：14:00 - 16:00
5931025914,仁美藥局,新北市三重區慈愛街５１號１、２樓,121.4861,25.07908,(02)22805150,羅氏家用新冠病毒抗原自我檢測套組,78,2022/05/07 11:13:02,快篩實名制，每天16:00開始販售，售完為止。
5931025932,永吉藥局,新北市三重區車路頭街９１號１樓,121.4844,25.07422,(02)22860432,羅氏家用新冠病毒抗原自我檢測套組,78,2022/05/07 11:13:02,快篩實名制，每天16:00開始販售，售完為止。
5931026055,芮櫟溪尾大藥局,新北市三重區仁愛街５１６號１樓,121.4871,25.08201,(02)22809009,羅氏家用新冠病毒抗原自我檢測套組,12,2022/05/07 11:13:02,無
5931026064,五華春天生活藥局,新北市三重區五華街７３號１、２樓,121.4925,25.08291,(02)29876838,羅氏家用新冠病毒抗原自我檢測套組,1,2022/05/07 11:13:02,快篩代售時間：週一至週日15：00，現場排隊購買，售完為止。（物流配送不及則例外，以門市公告為主）
5931026082,大有藥局,新北市三重區中正北路２１３號１、２樓及２１５號１、２樓,121.4763,25.07013,(02)29885771,羅氏家用新冠病毒抗原自我檢測套組,78,2022/05/07 11:13:02,快篩實名制，每天16:00開始販售，售完為止。
5931026091,重新藥局,新北市三重區重新路４段１２號１樓,121.4888,25.05775,(02)29742700,羅氏家用新冠病毒抗原自我檢測套組,78,2022/05/07 11:13:02,快篩實名制，每天16:00開始販售，售完為止。
5931030531,成功藥局,新北市永和區成功路１段１３３號,121.5269,25.00171,(02)29293622,羅氏家用新冠病毒抗原自我檢測套組,57,2022/05/07 11:13:02,無
5931030568,仲景藥局,新北市永和區竹林路２１３巷１號,121.521,25.00893,(02)89281687,羅氏家用新冠病毒抗原自我檢測套組,78,2022/05/07 11:13:02,實名制快篩每日總量78份，下午2點現場排隊過卡，1人1卡每月限領1次，不發號碼牌；營業時間9:30-10:30
5931030639,家宏藥局,新北市永和區成功路２段１２３號,121.5268,24.99845,(02)29256856,羅氏家用新冠病毒抗原自我檢測套組,40,2022/05/07 11:13:02,早上11點營業 周日公休
5931032759,友辰藥局,新北市永和區中正路３８０號１樓,121.5177,25.00123,(02)29267131,羅氏家用新冠病毒抗原自我檢測套組,1,2022/05/07 11:13:02,快篩配送時間不定，請電話諮詢。
5931033103,皇家藥師藥局,新北市永和區中正路７２０號１樓,121.5158,25.01017,(02)89216867,羅氏家用新冠病毒抗原自我檢測套組,78,2022/05/07 11:13:02,無
5931033461,常安中西藥局,新北市永和區保平路２６號１樓,121.5122,25.00749,(02)29283530,羅氏家用新冠病毒抗原自我檢測套組,2,2022/05/07 11:13:02,每日下午三點開始實名制快篩
5931033774,台化藥局,新北市永和區勵行街１１９號１樓,121.5175,25.01202,(02)22318585,羅氏家用新冠病毒抗原自我檢測套組,1,2022/05/07 11:13:02,無
5931034119,仁愛陽光藥局,新北市永和區仁愛路１４３號１樓,121.5114,25.01293,(02)89213691,羅氏家用新冠病毒抗原自我檢測套組,2,2022/05/07 11:13:02,快篩代售時段14:00，售完為止...
5931034146,亮點藥局,新北市永和區竹林路７１號１樓,121.5186,25.01355,(02)89253895,羅氏家用新冠病毒抗原自我檢測套組,102,2022/05/07 11:13:02,快篩發放時段 下午16:30-18:00
5931034208,正銨藥局,新北市永和區得和路２４７－１號（１樓）,121.5206,25.00009,(02)29288100,羅氏家用新冠病毒抗原自我檢測套組,22,2022/05/07 11:13:02,星期1~6下午1:45發號碼牌.星期日休息
5931040297,信隆大藥局,新北市中和區安樂路６號１至２樓,121.5118,24.99168,(02)29426196,羅氏家用新冠病毒抗原自我檢測套組,1,2022/05/07 11:13:02,無
5931040402,健星藥局,新北市中和區景平路７５４號,121.4965,25.00456,(02)22403437,羅氏家用新冠病毒抗原自我檢測套組,31,2022/05/07 11:13:02,無
5931040617,田邊藥局,新北市中和區泰和街４３號１樓,121.4991,24.99942,(02)22407725,羅氏家用新冠病毒抗原自我檢測套組,78,2022/05/07 11:13:02,W1~W6 下午1點發售快篩 （5／1 晚上7點開始發售快篩）
5931042326,璟福藥局,新北市中和區安平路７６號１樓,121.511,24.99652,(02)29408669,羅氏家用新冠病毒抗原自我檢測套組,1,2022/05/07 11:13:02,無
5931042371,真成大藥局,新北市中和區光華街３８號,121.5048,25.00389,(02)22447008,羅氏家用新冠病毒抗原自我檢測套組,78,2022/05/07 11:13:02,實名快篩平日 早上9:30發放號碼牌 當日早上10點~12點前領完 週日無販售
5931043430,慶華藥師藥局,新北市中和區華新街９０號１樓,121.5085,24.9832,(02)29420666,羅氏家用新冠病毒抗原自我檢測套組,14,2022/05/07 11:13:02,無
5931043565,一安藥妝藥局,新北市中和區中和路９號１.２樓,121.4998,25.00221,(02)22483778,羅氏家用新冠病毒抗原自我檢測套組,78,2022/05/07 11:13:02,下午3點開始發號碼牌販售快篩
5931043636,雙合藥局,新北市中和區中正路２９１號１樓,121.4941,24.99375,(02)22476607,羅氏家用新冠病毒抗原自我檢測套組,12,2022/05/07 11:13:02,無
5931043798,永成藥局,新北市中和區景平路１５６號１樓,121.5176,24.99222,(02)29407619,羅氏家用新冠病毒抗原自我檢測套組,78,2022/05/07 11:13:02,實名制快篩，下午三點領取號碼並開始販售（每日78份）
5931043921,良安藥局,新北市中和區連城路４７７巷１號１樓,121.4833,24.99555,(02)22225798,羅氏家用新冠病毒抗原自我檢測套組,8,2022/05/07 11:13:02,週六日不開店，實名制快篩，晚上9:00開始販售
5931044017,幸福連鎖藥局,新北市中和區忠孝街１２２號１樓,121.5122,24.98581,(02)29410771,羅氏家用新冠病毒抗原自我檢測套組,1,2022/05/07 11:13:02,無
5931044133,康富力藥局,新北市中和區仁愛街３２號１樓,121.5109,24.98843,(02)29429896,羅氏家用新冠病毒抗原自我檢測套組,78,2022/05/07 11:13:02,快篩代售時間：周一至周五9:30、週六14:00
5931044419,喬登藥局,新北市中和區景平路６９７號１樓,121.4965,25.00337,(02)22470273,羅氏家用新冠病毒抗原自我檢測套組,53,2022/05/07 11:13:02,無
5931044624,奕采藥局,新北市中和區宜安路７７號１樓,121.5109,24.99733,(02)29429770,羅氏家用新冠病毒抗原自我檢測套組,51,2022/05/07 11:13:02,週一至週六10:00~12:00販售實名制快篩9:00發號碼牌（週日停售）
5931044704,惠民藥局,新北市中和區中興街１５３號１樓,121.5001,24.99102,(02)22475303,羅氏家用新冠病毒抗原自我檢測套組,1,2022/05/07 11:13:02,快篩試劑於8:30發放號碼牌，並同時開始領取。
5931045112,景安藥局,新北市中和區景德街１４１號１樓及景平路１１１巷６０弄５６號,121.5175,24.99156,(02)86688215,羅氏家用新冠病毒抗原自我檢測套組,56,2022/05/07 11:13:02,實名制快篩每日販售時段08:10~21:00，請持健保卡現場排隊依序購買，售完為止。
5931045130,四維藥局,新北市中和區四維街３７巷２號１樓,121.5124,24.98679,(02)86681345,羅氏家用新冠病毒抗原自我檢測套組,78,2022/05/07 11:13:02,快篩實名制，每天16:00開始販售，售完為止。
5931045210,廣來藥師藥局,新北市中和區員山路３９３號１樓,121.4811,25.00293,(02)32340393,羅氏家用新冠病毒抗原自我檢測套組,63,2022/05/07 11:13:02,代為販售實名制快篩，販售時間：每天上午11點到中午12點為止。
5931045372,伍品藥局,新北市中和區莊敬路３５號１樓,121.5007,25.00503,(02)82456789,羅氏家用新冠病毒抗原自我檢測套組,70,2022/05/07 11:13:02,實名制快篩下午14:00點發號碼牌，請自備500元紙鈔　－　15:00後取回健保卡 感謝！（週日）停止販售快篩！
5931045461,富康活力遠東藥局,新北市中和區建八路１０之１號１樓,121.4865,24.99805,(02)82262299,羅氏家用新冠病毒抗原自我檢測套組,78,2022/05/07 11:13:02,因屬園區大樓，販售時間請依LINE社群公告
5931050444,活元藥局,新北市新店區民族路４９號１樓,121.5403,24.97854,(02)29125526,羅氏家用新冠病毒抗原自我檢測套組,1,2022/05/07 11:13:02,快篩代售時間平日早上10:00開始   星期日休息
5931051950,中央大藥局,新北市新店區中央路２０８－１號１樓,121.5301,24.97382,(02)82187135,羅氏家用新冠病毒抗原自我檢測套組,64,2022/05/07 11:13:02,每日12:00-21；00發快篩 不另發號碼牌
5931053141,禾康藥局,新北市新店區德正街４４號１樓,121.5443,24.97143,(02)29160596,羅氏家用新冠病毒抗原自我檢測套組,2,2022/05/07 11:13:02,無
5931053178,長照藥局,新北市新店區如意街１６號１樓,121.4944,24.94838,(02)22153325,羅氏家用新冠病毒抗原自我檢測套組,78,2022/05/07 11:13:02,請注意5／7快篩下午2:00開賣 雙號 （一人一卡）自備500 現場排隊（請勿再來電詢問囉!）
5931053196,康心藥局,新北市新店區北新路３段１０４號１樓,121.5419,24.9812,(02)86655858,羅氏家用新冠病毒抗原自我檢測套組,78,2022/05/07 11:13:02,快篩販售：周一~週六，15:00開始（若遇物流延遲則順延），以現場排隊為主
5931060244,七安大藥局,新北市新莊區民安西路５５號１、２樓及５７號１樓,121.4275,25.02044,(02)22026066,羅氏家用新冠病毒抗原自我檢測套組,61,2022/05/07 11:13:02,實名制快篩11:00發號碼.發完號碼開始領快篩及收費
5931060342,十安藥局,新北市新莊區中港路３１６號,121.4524,25.04544,(02)29922859,羅氏家用新冠病毒抗原自我檢測套組,3,2022/05/07 11:13:02,自111／04／01起不再販賣實名制口罩
5931060628,錄新藥局,新北市新莊區後港一路７６巷１０弄１號,121.427,25.02604,(02)22051849,羅氏家用新冠病毒抗原自我檢測套組,188,2022/05/07 11:13:02,無
5931060824,禮安藥師藥局,新北市新莊區自立街１０９號１樓,121.4555,25.0455,(02)29942891,羅氏家用新冠病毒抗原自我檢測套組,1,2022/05/07 11:13:02,無
5931067403,建嘉藥局,新北市新莊區中誠街４２號１樓,121.4513,25.04812,(02)29925261,羅氏家用新冠病毒抗原自我檢測套組,78,2022/05/07 11:13:02,無
5931068464,健安藥局,新北市新莊區光和里民安西路２０９號１樓,121.4261,25.0147,(02)22043765,羅氏家用新冠病毒抗原自我檢測套組,154,2022/05/07 11:13:02,無
5931069603,中信藥師藥局,新北市新莊區中信街８０號１樓,121.448,25.05311,(02)29969811,羅氏家用新冠病毒抗原自我檢測套組,78,2022/05/07 11:13:02,AM 07:30 開始
593106A833,欣國藥局,新北市新莊區富國路５７號１樓、２樓,121.4196,25.02625,(02)29080958,羅氏家用新冠病毒抗原自我檢測套組,9,2022/05/07 11:13:02,每天快篩劑發號碼牌AM09:30販賣AM09:30售完為止
593106A897,陽光豐年藥局,新北市新莊區豐年街１４號１樓,121.4463,25.03287,(02)22060665,羅氏家用新冠病毒抗原自我檢測套組,86,2022/05/07 11:13:02,無
593106B223,吉田藥局,新北市新莊區西盛街３１３號１樓,121.4281,25.01516,(02)22065185,羅氏家用新冠病毒抗原自我檢測套組,60,2022/05/07 11:13:02,無
593106B241,善美藥局,新北市新莊區公園路８９號１樓,121.4546,25.04041,(02)29960979,羅氏家用新冠病毒抗原自我檢測套組,5,2022/05/07 11:13:02,無
593106B287,盛弘藥局,新北市新莊區中平路２９５號１樓,121.4447,25.05099,(02)22763336,羅氏家用新冠病毒抗原自我檢測套組,78,2022/05/07 11:13:02,政府快篩於平日下午13:50發放號碼牌，下午14:00準時販售，假日視政府配量（販售時間相同）
593106B303,新莊丁丁藥局,新北市新莊區民安西路２３７號１樓,121.4261,25.01398,(02)22022388,羅氏家用新冠病毒抗原自我檢測套組,74,2022/05/07 11:13:02,無
5931070062,鴻真藥局,新北市樹林區保安街１段２０巷６號,121.4277,24.99363,(02)26828977,羅氏家用新冠病毒抗原自我檢測套組,1,2022/05/07 11:13:02,無
5931070213,明川藥師藥局,新北市樹林區三福街１號,121.4093,25.0169,(02)26894728,羅氏家用新冠病毒抗原自我檢測套組,142,2022/05/07 11:13:02,實名制快篩:早上11:00販售
5931070366,聖和藥局,新北市樹林區太元街５０號,121.4183,24.97967,(02)86866609,羅氏家用新冠病毒抗原自我檢測套組,78,2022/05/07 11:13:02,中午12:30分開始發放快篩
5931071881,盛立藥局,新北市樹林區大雅路２８５號１樓,121.3795,24.94735,(02)35018218,羅氏家用新冠病毒抗原自我檢測套組,78,2022/05/07 11:13:02,政府快篩平日下午1:50發號碼牌，下午2:00準時販售，假日視政府配量（販售時間相同）
5931072066,琉璃水藥師藥局,新北市樹林區龍興街２１號１樓,121.403,25.01614,(02)26764262,羅氏家用新冠病毒抗原自我檢測套組,78,2022/05/07 11:13:02,無
5931072502,啄木鳥藥局,新北市樹林區中華路３９１號１樓,121.4115,24.98038,(02)86851495,羅氏家用新冠病毒抗原自我檢測套組,68,2022/05/07 11:13:02,健保實名制快篩，中午12點20分發號碼牌，12點30分開始販售，售完為止
5931081510,鶯歌藥局,新北市鶯歌區鶯桃路２段１１號１樓,121.3258,24.97205,(02)86778778,羅氏家用新冠病毒抗原自我檢測套組,78,2022/05/07 11:13:02,口罩販售時間：14:00 - 16:00
5931081529,正雅藥局,新北市鶯歌區建國路１７６號１樓,121.3497,24.95358,(02)26701128,羅氏家用新冠病毒抗原自我檢測套組,65,2022/05/07 11:13:02,無
5931091865,大新藥局,新北市三峽區大義路２５９號１樓,121.3774,24.94638,(02)86713204,羅氏家用新冠病毒抗原自我檢測套組,1,2022/05/07 11:13:02,實名制快篩下午2:50開始發號碼牌 3:00販售
5931091892,三峽藥局,新北市三峽區介壽路１段２７號１樓,121.3757,24.93321,(02)26738868,羅氏家用新冠病毒抗原自我檢測套組,1,2022/05/07 11:13:02,快篩實名制，每天16:00開始販售，售完為止。
5931092059,三峽啄木鳥藥局,新北市三峽區中正路１段１４１號１樓,121.3735,24.92875,(02)26744321,羅氏家用新冠病毒抗原自我檢測套組,78,2022/05/07 11:13:02,實名制快篩 中午:12:30開始發號碼牌
5931092200,金美藥局,新北市三峽區大同路２３８號１樓,121.3663,24.92573,(02)86715859,羅氏家用新冠病毒抗原自我檢測套組,32,2022/05/07 11:13:02,無
5931100154,尚運藥局,新北市淡水區學府路５１巷１弄２０號,121.4473,25.16892,(02)26225149,羅氏家用新冠病毒抗原自我檢測套組,183,2022/05/07 11:13:02,無
5931102452,池慶藥局,新北市淡水區中山北路２段５號１樓,121.4443,25.18344,(02)26238852,羅氏家用新冠病毒抗原自我檢測套組,78,2022/05/07 11:13:02,快篩販售14:50到16:00
5931110034,麒豐藥局,新北市汐止區樟樹一路１３５巷２號,121.6421,25.0656,(02)26434737,羅氏家用新冠病毒抗原自我檢測套組,36,2022/05/07 11:13:02,實名制口罩銷售時間9:30~21:00
5931111835,全家藥局,新北市汐止區明峰街１４３號１樓,121.6297,25.0706,(02)26954990,羅氏家用新冠病毒抗原自我檢測套組,2,2022/05/07 11:13:02,快篩試劑販售:週1-6，上午9-11點（現場排隊，不發號碼牌，售完為止）
5931112083,裕和藥局,新北市汐止區宜興街４號１樓,121.6211,25.04126,(02)26609119,羅氏家用新冠病毒抗原自我檢測套組,33,2022/05/07 11:13:02,晚上9.00領實名制快篩時間
5931112645,健成藥局,新北市汐止區新興路２０號１樓,121.6564,25.06456,(02)26428989,羅氏家用新冠病毒抗原自我檢測套組,73,2022/05/07 11:13:02,無
5931112789,富康東科藥局,新北市汐止區新台五路１段９６號Ｃ棟１樓Ｃ１５號,121.6483,25.06047,(02)26969222,羅氏家用新冠病毒抗原自我檢測套組,1,2022/05/07 11:13:02,每日九點至下午六點開放購買口罩，周六周日公休
5931113071,蒲公英藥局,新北市汐止區連興街１２６號（１樓）,121.6538,25.06188,(02)26907770,羅氏家用新冠病毒抗原自我檢測套組,78,2022/05/07 11:13:02,實名制快篩銷售時間:下午17:00-19:00（無發放號碼牌）
5931113160,社后藥局,新北市汐止區康寧街４２４號１樓,121.6307,25.06801,(02)26956321,羅氏家用新冠病毒抗原自我檢測套組,78,2022/05/07 11:13:02,快篩實名制，每天16:00開始販售，售完為止。
5931113188,汐止藥局,新北市汐止區福德二路７０號１樓,121.6331,25.06651,(02)86932587,羅氏家用新冠病毒抗原自我檢測套組,78,2022/05/07 11:13:02,無
5931113197,博昱忠孝藥局,新北市汐止區忠孝東路２７８號（１樓）,121.6637,25.06809,(02)86423838,羅氏家用新冠病毒抗原自我檢測套組,67,2022/05/07 11:13:02,下午兩點開始賣快篩
5931120049,本平藥局,新北市瑞芳區瑞芳街４５號,121.8076,25.10913,(02)24972167,羅氏家用新冠病毒抗原自我檢測套組,2,2022/05/07 11:13:02,無
5931121279,大埔藥局,新北市瑞芳區大埔路１２８－３號１樓,121.762,25.10079,(02)24587020,羅氏家用新冠病毒抗原自我檢測套組,78,2022/05/07 11:13:02,無
5931121466,瑞芳藥局,新北市瑞芳區明燈路３段５９之１及５９之２號,121.8057,25.10812,(02)24966588,羅氏家用新冠病毒抗原自我檢測套組,78,2022/05/07 11:13:02,快篩實名制，每天16:00開始販售，售完為止。
5931130152,博惠藥局,新北市土城區中央路１段２４９巷２０號,121.4463,24.98538,(02)22618337,羅氏家用新冠病毒抗原自我檢測套組,78,2022/05/07 11:13:02,14:00開始販售政府快篩，不發號碼牌
5931130349,祥發藥局,新北市土城區青雲路２５５號,121.4592,24.9809,(02)22655056,羅氏家用新冠病毒抗原自我檢測套組,1,2022/05/07 11:13:02,快篩周一~周六上午8:點發放號碼牌，下午2點後憑號碼牌購買!週日上午9點現場購買
5931131579,祥安大藥局,新北市土城區立德路４２－１號,121.4636,24.98727,(02)22629707,羅氏家用新冠病毒抗原自我檢測套組,78,2022/05/07 11:13:02,無
5931132343,誠安藥局,新北市土城區中央路４段３６號１樓,121.4207,24.96088,(02)22677737,羅氏家用新冠病毒抗原自我檢測套組,78,2022/05/07 11:13:02,快篩代售時段：平日晚上8點，售完為止
5931132538,宏奇藥局,新北市土城區延吉街１２６號１樓,121.4695,24.98586,(02)82619585,羅氏家用新冠病毒抗原自我檢測套組,78,2022/05/07 11:13:02,無
5931132736,大眾藥局,新北市土城區明峰街６巷１號,121.4637,24.98557,(02)22666057,羅氏家用新冠病毒抗原自我檢測套組,53,2022/05/07 11:13:02,快篩販售:11：00-12：30 其餘時段恕不服務
5931132807,健業藥局,新北市土城區中央路２段２２３－１０號,121.4407,24.97312,(02)22704798,羅氏家用新冠病毒抗原自我檢測套組,78,2022/05/07 11:13:02,無
5931132950,美康藥妝藥局,新北市土城區延吉街２５４號１樓,121.4664,24.98465,(02)22616868,羅氏家用新冠病毒抗原自我檢測套組,58,2022/05/07 11:13:02,實名制快篩前一天若有到貨，則隔日三點販售
5931133108,三豐藥局,新北市土城區永豐路１３５巷８號,121.4672,24.98333,(02)22733766,羅氏家用新冠病毒抗原自我檢測套組,77,2022/05/07 11:13:02,無
5931133331,城安大藥局,新北市土城區金城路３段４０號,121.4656,24.98639,(02)22646561,羅氏家用新冠病毒抗原自我檢測套組,74,2022/05/07 11:13:02,快篩代售時間晚上8:30
5931133564,城恩藥局,新北市土城區學成路３４號１樓,121.4527,24.9873,(02)22735808,羅氏家用新冠病毒抗原自我檢測套組,4,2022/05/07 11:13:02,無
5931133653,家泰藥局,新北市土城區青雲路１８１號１、２樓,121.4593,24.98285,(02)22749490,羅氏家用新冠病毒抗原自我檢測套組,45,2022/05/07 11:13:02,上午9：00發號碼牌14：00-21：00攜帶號碼牌及費用領快篩
5931133662,中央藥局,新北市土城區中央路２段８４、８６號（１樓）,121.4423,24.97885,(02)22630345,羅氏家用新冠病毒抗原自我檢測套組,78,2022/05/07 11:13:02,快篩實名制，每天16:00開始販售，售完為止。
5931133680,土城金城藥局,新北市土城區裕民路２８０號１、２樓,121.4554,24.982,(02)22631616,羅氏家用新冠病毒抗原自我檢測套組,78,2022/05/07 11:13:02,快篩實名制，每天16:00開始販售，售完為止。
5931140318,慧安藥局,新北市蘆洲區長安街２１４號１樓,121.4585,25.08436,(02)28477845,羅氏家用新冠病毒抗原自我檢測套組,78,2022/05/07 11:13:02,實名制快篩依現場公告現場販售
5931140372,上群藥師藥局,新北市蘆洲區民族路２８７號１樓,121.4755,25.09096,(02)22898275,羅氏家用新冠病毒抗原自我檢測套組,48,2022/05/07 11:13:02,口罩販賣時間1100-1300
5931141637,華興藥師藥局,新北市蘆洲區中山一路１８４號１樓,121.4739,25.08104,(02)22893899,羅氏家用新冠病毒抗原自我檢測套組,3,2022/05/07 11:13:02,防疫口罩：早上10點直接販售
5931141726,松展多利日式連鎖藥粧藥局,新北市蘆洲區民族路１６１號,121.4793,25.08817,(02)22882586,羅氏家用新冠病毒抗原自我檢測套組,3,2022/05/07 11:13:02,防疫物資每日下午02:00開始販售
5931141959,長榮大藥局,新北市蘆洲區長榮路５１號,121.4626,25.08307,(02)82863837,羅氏家用新冠病毒抗原自我檢測套組,3,2022/05/07 11:13:02,實名制快篩販售時間，依配送狀況機動調整。
5931143275,集賢藥局,新北市蘆洲區信義路２２２巷６１號１、２樓,121.4813,25.08535,(02)22882400,羅氏家用新冠病毒抗原自我檢測套組,78,2022/05/07 11:13:02,快篩實名制，每天16:00開始販售，售完為止。
5931150163,德泰藥局,新北市五股區成泰路１段９號,121.4336,25.06674,(02)29095927,羅氏家用新冠病毒抗原自我檢測套組,1,2022/05/07 11:13:02,無
5931151302,宏安藥局,新北市五股區成泰路２段１３６號,121.4382,25.08369,(02)22915932,羅氏家用新冠病毒抗原自我檢測套組,77,2022/05/07 11:13:02,口罩販售時間:每日08:15~23:00售完為止 星期日如果前一日還有庫存，當日照常販售
5931160141,日泰藥局,新北市泰山區泰林路２段２２７號,121.4323,25.06194,(02)29095989,羅氏家用新冠病毒抗原自我檢測套組,5,2022/05/07 11:13:02,下午兩點開始販售實名制快篩，不預留健保卡。每日提供10份確診個案與居隔民眾。
5931161353,台灣藥局,新北市泰山區明志路１段２８２－２８６號,121.4319,25.06002,(02)22971969,羅氏家用新冠病毒抗原自我檢測套組,70,2022/05/07 11:13:02,下午2:20發號碼牌2:30販售實名制快篩試劑
5931171582,綠園藥局,新北市林口區仁愛路２段１０５號１樓,121.3843,25.07507,(02)86012258,羅氏家用新冠病毒抗原自我檢測套組,3,2022/05/07 11:13:02,上午8:30-12:00、下午2:30-18:00、晚上18:00-21:30
5931171742,唯恩藥局,新北市林口區麗園一街９巷１號１樓之２,121.3768,25.07139,(02)26005805,羅氏家用新冠病毒抗原自我檢測套組,78,2022/05/07 11:13:02,快篩發放固定13點，領取號碼牌
5931171813,力行藥局,新北市林口區文化３路１段４２３、４２５號１、２樓,121.3653,25.07438,(02)26080711,羅氏家用新冠病毒抗原自我檢測套組,82,2022/05/07 11:13:02,快篩實名制，每天16:00開始販售，售完為止。
5931171831,沐霖藥局,新北市林口區文化三路２段２８６號１樓,121.3775,25.08304,(02)26032086,羅氏家用新冠病毒抗原自我檢測套組,78,2022/05/07 11:13:02,5／7（六） 14:30 開始發號碼牌 ~週日公休~
5931181159,信東深坑北深藥局,新北市深坑區北深路３段１０３號１樓,121.6056,25.00171,(02)77092976,羅氏家用新冠病毒抗原自我檢測套組,78,2022/05/07 11:13:02,快篩代售時間自13:00 ； 現場排隊
5931231225,小蘋果藥局,新北市八里區中山路１段２２９號,121.411,25.1576,(02)26108206,羅氏家用新冠病毒抗原自我檢測套組,74,2022/05/07 11:13:02,無
5931250042,信芳藥局,新北市雙溪區中華路５０號,121.866,25.03761,(02)24931301,羅氏家用新冠病毒抗原自我檢測套組,2,2022/05/07 11:13:02,無
5931280013,萬里藥局,新北市萬里區瑪鍊路９０號,121.6837,25.18504,(02)24922235,羅氏家用新冠病毒抗原自我檢測套組,280,2022/05/07 11:13:02,無
5932011870,永祥大藥局,桃園市桃園區永安路５２８號,121.2986,25.00181,(03)3337161,羅氏家用新冠病毒抗原自我檢測套組,4,2022/05/07 11:13:02,口罩販賣時段：週一至週六早上9點
5932012813,桃園大興藥局,桃園市桃園區大興西路二段７６巷３號,121.2984,25.01183,(03)3013222,羅氏家用新冠病毒抗原自我檢測套組,18,2022/05/07 11:13:02,快篩實名制，每天16:00開始販售，售完為止。
5932013123,桃康藥局,桃園市桃園區桃鶯路２０３號,121.3184,24.98495,(03)3641815,羅氏家用新冠病毒抗原自我檢測套組,2,2022/05/07 11:13:02,實名制快篩：早上10點發號碼牌，每日78份
5932013392,桃園中正藥局,桃園市桃園區中正路３７３號,121.3079,24.99955,(03)3381600,羅氏家用新冠病毒抗原自我檢測套組,91,2022/05/07 11:13:02,快篩實名制，每天16:00開始販售，售完為止。
5932013687,桃園春日藥局,桃園市桃園區春日路８７８號,121.3096,25.01561,(03)3580101,羅氏家用新冠病毒抗原自我檢測套組,79,2022/05/07 11:13:02,快篩實名制，每天16:00開始販售，售完為止。
5932013721,桃園民光藥局,桃園市桃園區中正路５６９號,121.3049,25.0041,(03)3364888,羅氏家用新冠病毒抗原自我檢測套組,78,2022/05/07 11:13:02,快篩實名制，每天16:00開始販售，售完為止。
5932013749,桃園寶山藥局,桃園市桃園區寶山街７２號,121.3175,25.01291,(03)3250562,羅氏家用新冠病毒抗原自我檢測套組,78,2022/05/07 11:13:02,快篩實名制，每天16:00開始販售，售完為止。
5932013918,益壽藥局,桃園市桃園區中山路８２８、８３０、８３２、８３４、８３６號,121.2902,24.99093,(03)3693100,羅氏家用新冠病毒抗原自我檢測套組,78,2022/05/07 11:13:02,快篩實名制，每天16:00開始販售，售完為止。
5932014004,同德辰安藥局,桃園市桃園區同德十街２５號,121.294,25.01835,(03)3012028,羅氏家用新冠病毒抗原自我檢測套組,78,2022/05/07 11:13:02,實名制快篩試劑於下午4點開始販售，現場排隊，沒有發放號碼牌。
5932014013,力行藥局,桃園市桃園區力行路９８號,121.3027,25.00206,(03)3391368,羅氏家用新冠病毒抗原自我檢測套組,78,2022/05/07 11:13:02,每日14點開賣售78份為止不發號碼牌，若14點前沒來排隊，肯定買不到請別問了現場爆忙，若15點後還有庫存78以上是隔天賣
5932014111,鴻發藥師藥局,桃園市桃園區大有路５４３號,121.3171,25.0149,(03)3582468,羅氏家用新冠病毒抗原自我檢測套組,78,2022/05/07 11:13:02,實聯快篩:早上09:30發放號碼牌，限當日下午2~4點憑牌購買，逾時不候請見諒
5932014148,躍獅興業藥局,桃園市桃園區大業路２段１５號１樓,121.3112,25.01628,(03)3163569,羅氏家用新冠病毒抗原自我檢測套組,78,2022/05/07 11:13:02,快篩下午一點販售，現場排隊
5932014175,東門大藥局,桃園市桃園區春日路７５號,121.3169,24.99305,(03)3378919,羅氏家用新冠病毒抗原自我檢測套組,1,2022/05/07 11:13:02,無
5932014184,浤安藥局,桃園市桃園區慈德街１號１樓,121.3019,25.00685,(03)3577665,羅氏家用新冠病毒抗原自我檢測套組,78,2022/05/07 11:13:02,14:00開始發放實名制快篩
5932014291,躍獅民生藥局,桃園市桃園區民生路２２８號１樓,121.313,24.99472,(03)3362359,羅氏家用新冠病毒抗原自我檢測套組,78,2022/05/07 11:13:02,下午1點開始販售，會發號碼牌，購買權保留至下午6點
5932014424,桃園中山藥局,桃園市桃園區中山路７０７號,121.2914,24.99079,(03)2207168,羅氏家用新冠病毒抗原自我檢測套組,78,2022/05/07 11:13:02,快篩實名制，每天16:00開始販售，售完為止。
5932014460,桃鶯藥局,桃園市桃園區桃鶯路１０２號,121.318,24.98516,(03)3675100,羅氏家用新冠病毒抗原自我檢測套組,78,2022/05/07 11:13:02,快篩實名制，每天16:00開始販售，售完為止。
5932014488,琦舜藥師藥局,桃園市桃園區文中三路６３號,121.2885,24.99724,(03)3695001,羅氏家用新冠病毒抗原自我檢測套組,78,2022/05/07 11:13:02,營業時間: 9:00-21:30　　　　　　　　快篩販售時間於到貨後公布於FB【琦舜藥師藥局-桃園中路】粉絲專頁
5932019581,莘莘藥局,桃園市桃園區莊敬路一段３６８號,121.2957,25.02375,(03)3170681,羅氏家用新冠病毒抗原自我檢測套組,78,2022/05/07 11:13:02,實名制快篩週一至週六 下午2點開始 售完為止
5932019929,元氣藥局,桃園市桃園區民光東路一Ｏ九號,121.3183,25.0079,(03)3332201,羅氏家用新冠病毒抗原自我檢測套組,78,2022/05/07 11:13:02,現場排隊喔!，快篩試劑銷售時間:星期一三四六15:30，星期二五19:00，星期日無，12:00~15:00；18:00~18:30為休息時間
5932021670,日光健康藥局,桃園市中壢區華祥一街２號１樓,121.2606,24.94827,(03)4383559,羅氏家用新冠病毒抗原自我檢測套組,77,2022/05/07 11:13:02,快篩販賣時段：星期一~星期六下午13:30開始，售完為止
5932022159,躍獅新明藥局,桃園市中壢區新明路６６號１樓,121.215,24.95868,(03)2813361,羅氏家用新冠病毒抗原自我檢測套組,89,2022/05/07 11:13:02,快篩販賣時段：14:00~售完為止，現場排隊 ， 星期天沒有販售快篩
5932022257,星康生活藥局,桃園市中壢區中美路二段94號,121.2218,24.96005,(03)4252869,羅氏家用新冠病毒抗原自我檢測套組,78,2022/05/07 11:13:02,5／7-5／9 實名制快篩14:00販售  5／10之後另行公佈販賣時間
5932023334,欣安藥局,桃園市中壢區龍岡路三段１７６號,121.2335,24.93561,(03)4285880,羅氏家用新冠病毒抗原自我檢測套組,78,2022/05/07 11:13:02,快篩販賣時段：13:00
5932023656,思琁藥師藥局,桃園市中壢區中北路二段４３０號,121.2331,24.95448,(03)4162189,羅氏家用新冠病毒抗原自我檢測套組,1,2022/05/07 11:13:02,週一~週五早上10:30發快篩..週六公休..週日看到貨狀況再另行公告
5932023889,華勛藥局,桃園市中壢區華勛街１１２、１１４號,121.2597,24.95065,(03)4161881,羅氏家用新冠病毒抗原自我檢測套組,1,2022/05/07 11:13:02,快篩實名制，每天16:00開始販售，售完為止。
5932023932,龍東藥局,桃園市中壢區龍東路２０５號,121.2523,24.92966,(03)4383088,羅氏家用新冠病毒抗原自我檢測套組,78,2022/05/07 11:13:02,快篩實名制，每天16:00開始販售，售完為止。
5932023996,青瑭藥局,桃園市中壢區民權路４段２７７號１樓,121.2022,25.00625,(03)2875901,羅氏家用新冠病毒抗原自我檢測套組,78,2022/05/07 11:13:02,無
5932024162,大賀藥局,桃園市中壢區龍東路３９９號１樓,121.2558,24.93335,(03)4375977,羅氏家用新冠病毒抗原自我檢測套組,78,2022/05/07 11:13:02,快篩領取號碼牌時間:周一 ~ 周日 上午11:30 相關資訊請臉書搜尋  中壢大賀藥局
593202A360,福德藥局,桃園市中壢區福德路３０號,121.2589,24.97388,(03)4511208,羅氏家用新冠病毒抗原自我檢測套組,4,2022/05/07 11:13:02,口罩販賣時段：8:00~
593202A931,佳佑藥局,桃園市中壢區環中東路二四一號,121.2573,24.96345,(03)4356190,羅氏家用新冠病毒抗原自我檢測套組,4,2022/05/07 11:13:02,口罩販賣時段：09:00以後發號碼牌，售完為止
5932031729,德安堂藥局,桃園市大溪區介壽路８９２號,121.2837,24.90016,(03)3808173,羅氏家用新冠病毒抗原自我檢測套組,78,2022/05/07 11:13:02,口罩販賣時段：14:00 - 16:00
5932040246,龍泰藥局,桃園市楊梅區民族路五段１４７巷２號,121.1736,24.9586,(03)4901525,羅氏家用新冠病毒抗原自我檢測套組,3,2022/05/07 11:13:02,快篩販售時間:早上7:30領號碼牌下午2點至4點領快篩（當日有效） 六日中午10點至12點領快篩
5932043130,宜康美藥局,桃園市楊梅區環東路４５２號,121.1571,24.91005,(03)4883805,羅氏家用新冠病毒抗原自我檢測套組,58,2022/05/07 11:13:02,快篩販賣時段：早上09:30~10:30（20份）下午15:30~16:30（38份）晚上19:30~20:30（20份）
5932043309,資生楊梅大藥局,桃園市楊梅區楊新路１００號,121.1449,24.91341,(03)2889590,羅氏家用新冠病毒抗原自我檢測套組,14,2022/05/07 11:13:02,每日快篩代售時間14:00-21:00
5932043336,楊梅藥局,桃園市楊梅區大成路１４８、１５０號,121.1458,24.91148,(03)4880776,羅氏家用新冠病毒抗原自我檢測套組,78,2022/05/07 11:13:02,快篩實名制，每天16:00開始販售，售完為止。
5932050215,九德藥局,桃園市蘆竹區中山路６９號,121.3003,25.05242,(03)3116868,羅氏家用新冠病毒抗原自我檢測套組,62,2022/05/07 11:13:02,口罩販賣時段：中午12點
5932051472,康而美聖安藥師藥局,桃園市蘆竹區南山路一段二之一號,121.2916,25.04879,(03)3228753,羅氏家用新冠病毒抗原自我檢測套組,3,2022/05/07 11:13:02,暫停止販售
5932052835,悅兒藥局,桃園市蘆竹區忠孝西路１８６號,121.2892,25.04011,(03)3126967,羅氏家用新冠病毒抗原自我檢測套組,78,2022/05/07 11:13:02,快篩販賣時段：週一到週日 14:30 開賣
5932052951,永青健康人生藥局,桃園市蘆竹區奉化路１４２號１樓,121.289,25.03917,(03)3528361,羅氏家用新冠病毒抗原自我檢測套組,78,2022/05/07 11:13:02,實名制快篩每日兩點開賣，人潮眾多額滿會提早開始
5932052979,南崁藥局,桃園市蘆竹區中正路２５１、２５３、２５５號,121.2921,25.04695,(03)3522022,羅氏家用新冠病毒抗原自我檢測套組,157,2022/05/07 11:13:02,快篩實名制，每天16:00開始販售，售完為止。
5932076844,帕米爾藥局,桃園市龜山區萬壽路二段９９１號,121.3369,24.99464,(03)3295522,羅氏家用新冠病毒抗原自我檢測套組,2,2022/05/07 11:13:02,星期一~六:家用快篩試劑販賣時段：14:30~售完。不發號碼牌，請直接排隊購買。
5932077118,文青藥局,桃園市龜山區文青路２０２號,121.3878,25.04034,(03)3270581,羅氏家用新冠病毒抗原自我檢測套組,2,2022/05/07 11:13:02,快篩販賣時段：上午10點到12點。（星期一下午2點開始），快篩無每日配送
5932077163,新資生龜山大藥局,桃園市龜山區大同里自強東路１號,121.3414,24.99401,(03)3290429,羅氏家用新冠病毒抗原自我檢測套組,37,2022/05/07 11:13:02,快篩試劑11:00開始 不發號碼牌
5932077270,明昌藥局,桃園市龜山區中興里萬壽路二段１１９１－６號,121.3318,24.99291,(03)3501205,羅氏家用新冠病毒抗原自我檢測套組,1,2022/05/07 11:13:02,無
5932077369,安博氏藥師藥局,桃園市龜山區文青路１８５號１樓,121.3877,25.04079,(03)3283185,羅氏家用新冠病毒抗原自我檢測套組,41,2022/05/07 11:13:02,快篩販售時間11:00（星期日沒有販售） （營業時間 上午11點~晚上10點）
5932077510,左外野藥局,桃園市龜山區文光街６號１樓,121.3802,25.05471,(03)3271503,羅氏家用新冠病毒抗原自我檢測套組,77,2022/05/07 11:13:02,快篩販售:晚上19:30至20:30（週五公休）*不發號碼牌 請直接排隊購買
5932077574,樂樂聯合藥局,桃園市龜山區萬壽路１段１０９號１、２樓,121.4091,25.01886,(02)82000560,羅氏家用新冠病毒抗原自我檢測套組,16,2022/05/07 11:13:02,實名制快篩於每日9點開始發放號碼牌，發完為止。 中午12點至14點半為藥局休息時間
5932077618,大山藥局,桃園市龜山區中興路１段１８、２２、２４號１樓,121.3379,24.99376,(03)3191057,羅氏家用新冠病毒抗原自我檢測套組,116,2022/05/07 11:13:02,無
5932080035,慶昇藥局,桃園市八德區桃鶯路一Ｏ二號,121.3279,24.97006,(03)3648037,羅氏家用新冠病毒抗原自我檢測套組,35,2022/05/07 11:13:02,口罩販賣時段：9:00~12:00
5932083303,吉康生活藥局,桃園市八德區義勇街１２０號,121.3045,24.96354,(03)3768577,羅氏家用新冠病毒抗原自我檢測套組,78,2022/05/07 11:13:02,周休二日，周一到周五09.:30發放快篩號碼牌 銷售時間 09:30-11:30
5932083509,上方藥局,桃園市八德區廣褔路一八八號,121.279,24.96204,(03)3635902,羅氏家用新冠病毒抗原自我檢測套組,78,2022/05/07 11:13:02,販賣快篩:於午間12:30~1:30發號碼牌，開賣時間下午3:00~4:30，賣完為止
5932083670,保健藥局,桃園市八德區介壽路一段８３３號２樓,121.3,24.96168,(03)3669486,羅氏家用新冠病毒抗原自我檢測套組,200,2022/05/07 11:13:02,無
5932083974,晨鴻藥師藥局,桃園市八德區桃鶯路７號１樓,121.3265,24.97179,(03)3764299,羅氏家用新冠病毒抗原自我檢測套組,59,2022/05/07 11:13:02,快篩為早上8:30跟晚上6:00領取號碼牌，星期六早上一次發78份，快篩地圖數量參考就好，請勿再打電話詢問 謝謝
5932084695,康馥藥局,桃園市八德區金和路５３號１樓,121.2971,24.95494,(03)3749620,羅氏家用新冠病毒抗原自我檢測套組,78,2022/05/07 11:13:02,口罩販賣時段：15:00 ， 週日14:30開始營業；星期六公休。
5932084855,中山啄木鳥藥局,桃園市八德區中山路２１１號、２１３號、２１５號、２１７號１樓,121.2849,24.92539,(03)3656375,羅氏家用新冠病毒抗原自我檢測套組,78,2022/05/07 11:13:02,無
5932099203,普善藥局,桃園市龍潭區北龍路３３３號,121.219,24.86887,(03)4705877,羅氏家用新冠病毒抗原自我檢測套組,75,2022/05/07 11:13:02,快篩試劑販賣時段：14:10~售完為止
5932099687,承融藥局,桃園市龍潭區中興里中興路２８２號,121.234,24.87417,(03)4095543,羅氏家用新冠病毒抗原自我檢測套組,70,2022/05/07 11:13:02,5／6完售!!!!每日14:00開賣!!!5／6完售!!!!每日14:00開賣!!!~~週日停售~~
5932101084,佳仁藥局,桃園市平鎮區平東路２４３號,121.2486,24.91553,(03)4609335,羅氏家用新冠病毒抗原自我檢測套組,73,2022/05/07 11:13:02,快篩販售時間週一至日中午12:00開始，11:30發放號碼牌（僅供統計非保留）一人僅限一張健保卡，請自備500元，不找零。
5932101155,杏一平鎮環南藥局,桃園市平鎮區環南路２號,121.2067,24.95694,(03)4951758,羅氏家用新冠病毒抗原自我檢測套組,75,2022/05/07 11:13:02,快篩販售時間為週一到週五11:00，10:55發號碼牌
5932101226,平鎮中豐藥局,桃園市平鎮區中豐路山頂段１６４號,121.2109,24.90035,(03)4690939,羅氏家用新冠病毒抗原自我檢測套組,78,2022/05/07 11:13:02,快篩實名制，每天16:00開始販售，售完為止。
5932108430,建德藥局,桃園市平鎮區北勢里金陵路１０３號,121.2229,24.94747,(03)4686662,羅氏家用新冠病毒抗原自我檢測套組,1,2022/05/07 11:13:02,國定假日皆休診.口罩販售時段:上午9:30起至售完為止
5932108574,天健示範藥局,桃園市平鎮區文化街２５２號,121.2032,24.95127,(03)4937169,羅氏家用新冠病毒抗原自我檢測套組,12,2022/05/07 11:13:02,快篩販賣時段:早上8點至售完（為了不讓民眾群聚我們採取發號碼牌制度喔）5／8（日）暫停販售。
5933010064,明德藥局,新竹縣關西鎮中山路１８號,121.1778,24.79152,(03)5874335,羅氏家用新冠病毒抗原自我檢測套組,39,2022/05/07 11:13:02,無
5933011258,安東藥師藥局,新竹縣關西鎮中山路６２號,121.1766,24.79147,(03)5872385,羅氏家用新冠病毒抗原自我檢測套組,78,2022/05/07 11:13:02,口罩販賣時段：星期一至六08:00-21:00、星期日08:00-17:00
5933030306,華德藥局,新竹縣竹東鎮東林路１５號,121.0888,24.73692,(03)5940019,羅氏家用新冠病毒抗原自我檢測套組,43,2022/05/07 11:13:02,快篩販賣時段：11:00開始，售完為止
5933052660,阿姆斯壯藥局,新竹縣竹北市六家五路一段１２５號,121.0254,24.80966,(03)6589178,羅氏家用新冠病毒抗原自我檢測套組,78,2022/05/07 11:13:02,快篩5／3早上9:00開始販售，5／4起改下午5點。
5933053596,中華藥局,新竹縣竹北市中華路２２６號１、２樓,121.0028,24.83118,(03)5513031,羅氏家用新冠病毒抗原自我檢測套組,78,2022/05/07 11:13:02,快篩實名制，每天16:00開始販售，售完為止。
5933061570,湖口藥局,新竹縣湖口鄉民族路４５號,121.0472,24.90602,(03)5991842,羅氏家用新冠病毒抗原自我檢測套組,1,2022/05/07 11:13:02,實名制快篩販賣時段：星期一~六14:30開賣
5933061712,湖山藥局,新竹縣湖口鄉中山路二段１２７號,121.0439,24.90198,(03)5904999,羅氏家用新冠病毒抗原自我檢測套組,78,2022/05/07 11:13:02,快篩實名制，每天16:00開始販售，售完為止。
5933081536,昌昌藥局,新竹縣新豐鄉新市路１９３號,120.9846,24.90465,(03)5598077,羅氏家用新冠病毒抗原自我檢測套組,28,2022/05/07 11:13:02,5／7（六）號碼牌已發放完畢。5／8（日）上午8:00開始發放號碼牌。
5933081607,新豐藥局,新竹縣新豐鄉中興路２０８、２１０號,120.9949,24.87571,(03)5575005,羅氏家用新冠病毒抗原自我檢測套組,78,2022/05/07 11:13:02,快篩實名制，每天16:00開始販售，售完為止。
5934011529,宜生藥局,宜蘭縣宜蘭市新民路１１１號,121.7551,24.75716,(03)9327893,羅氏家用新冠病毒抗原自我檢測套組,22,2022/05/07 11:13:02,周一至周六 上午8點至上午 9點 （或售完為止）5月7日台電停電 休息一日
5934012473,宜蘭藥局,宜蘭縣宜蘭市泰山路３６號,121.7485,24.75524,(03)9365168,羅氏家用新冠病毒抗原自我檢測套組,78,2022/05/07 11:13:02,快篩實名制，每天16:00開始販售，售完為止。
5934021525,喜樂藥師藥局,宜蘭縣羅東鎮中山路３段１７１號,121.7697,24.67491,(03)9547113,羅氏家用新冠病毒抗原自我檢測套組,30,2022/05/07 11:13:02,無
5934081067,威仁藥局,宜蘭縣冬山鄉冬山路２１９號,121.7907,24.63453,(03)9595351,羅氏家用新冠病毒抗原自我檢測套組,70,2022/05/07 11:13:02,快篩
5934081129,義成藥局,宜蘭縣冬山鄉義成路二段３７３號１樓,121.7639,24.65465,(03)9588775,羅氏家用新冠病毒抗原自我檢測套組,18,2022/05/07 11:13:02,快篩實名制販售時間：5／7星期六早上11：00開賣。5／9星期一下午2：30開賣。現場排隊，售完為止。
5934091125,安心藥局,宜蘭縣五結鄉禮運路３８－１號,121.7768,24.68105,(03)9551670,羅氏家用新冠病毒抗原自我檢測套組,51,2022/05/07 11:13:02,實名制快篩販售時間：星期（一、三、四、六、日）早上11點開賣；星期（二、五）晚上7點開賣，售完為止
5935011738,佳禾藥局,苗栗縣苗栗市青苗里建台街7號,120.821,24.55742,(037)373041,羅氏家用新冠病毒抗原自我檢測套組,2,2022/05/07 11:13:02,快篩試劑7：30發號碼牌8：00開始販賣，販賣時段：營業時間至售完為止
5935021323,國豐藥師藥局,苗栗縣苑裡鎮苑北里２鄰天下路１８６號,120.6546,24.44612,(037)866516,羅氏家用新冠病毒抗原自我檢測套組,1,2022/05/07 11:13:02,快篩開賣資訊請看FB（國豐藥師藥局） 粉絲團
5935030171,立安藥局,苗栗縣通霄鎮信義路１０７號,120.6804,24.48877,(037)760100,羅氏家用新冠病毒抗原自我檢測套組,72,2022/05/07 11:13:02,快篩實名制 週一到週六下午15:00開始販售  售完為止
5935040328,明志藥局,苗栗縣竹南鎮照南里博愛街４號,120.8797,24.68677,(037)472341,羅氏家用新冠病毒抗原自我檢測套組,2,2022/05/07 11:13:02,快篩賣時間:早上8:30~22:00。週六，周日照常。
5935051849,懷生中西藥局,苗栗縣頭份市中正路１９號,120.9068,24.68432,(037)672357,羅氏家用新冠病毒抗原自我檢測套組,78,2022/05/07 11:13:02,口罩販賣時段：07:00售完為止
5935051858,樂田藥妝藥局,苗栗縣頭份市信東路１３５號,120.9094,24.68924,(037)598995,羅氏家用新冠病毒抗原自我檢測套組,37,2022/05/07 11:13:02,無
5935051947,森品藥局,苗栗縣頭份市建國路２段１５０、１５２、１５６號,120.9032,24.69653,(037)672378,羅氏家用新冠病毒抗原自我檢測套組,1,2022/05/07 11:13:02,營業時間：9:00-22:30
5935060053,鴻輝大藥局,苗栗縣後龍鎮北龍里中華路６４－１號,120.7879,24.61557,(037)721952,羅氏家用新冠病毒抗原自我檢測套組,74,2022/05/07 11:13:02,AM07:50~PM10:00
5935061452,後龍藥局,苗栗縣後龍鎮中山路２０９號１樓,120.7931,24.6127,(037)723660,羅氏家用新冠病毒抗原自我檢測套組,78,2022/05/07 11:13:02,快篩實名制，每天16:00開始販售，售完為止。
5935090015,永信藥局,苗栗縣公館鄉館中村榮光街１６號,120.8271,24.50226,(037)223597,羅氏家用新冠病毒抗原自我檢測套組,78,2022/05/07 11:13:02,每日下午3點開始販售快篩
5935091156,信安藥局,苗栗縣公館鄉大同路７８號,120.8281,24.50026,(037)237849,羅氏家用新冠病毒抗原自我檢測套組,6,2022/05/07 11:13:02,實名制快篩試劑販售時間:星期一到星期六下午3點，周日不販售!
5936010039,裕安藥局,臺中市豐原區南陽路南陽市場１１號,120.7239,24.24718,(04)25223494,羅氏家用新冠病毒抗原自我檢測套組,24,2022/05/07 11:13:02,無
5936010628,協安大藥局,臺中市豐原區府前街６３號,120.7184,24.24957,(04)25200808,羅氏家用新冠病毒抗原自我檢測套組,4,2022/05/07 11:13:02,實名制快篩販售時間為每日下午兩點。
5936040021,持田健保藥局,臺中市清水區鰲峰路24號,120.5742,24.26938,(04)26229133,羅氏家用新冠病毒抗原自我檢測套組,143,2022/05/07 11:13:02,週一至週六早上8:30發送快篩號碼牌，請勿離開現場售完為止.
5936040135,德厚藥局,臺中市清水區慷榔里慷榔２街５０號,121.4874,25.07275,(04)26560733,羅氏家用新冠病毒抗原自我檢測套組,51,2022/05/07 11:13:02,實名制快篩試劑於週一至週日10:00開始發送號碼牌，請勿離開現場，售完為止。
5936050364,沙鹿福倫藥局,臺中市沙鹿區中山路４３５號１樓,120.5612,24.24291,(04)26657718,羅氏家用新冠病毒抗原自我檢測套組,11,2022/05/07 11:13:02,實名制快篩早上11點開賣。 賣完為止。謝謝。
5936080077,明興藥局,臺中市神岡區北庄里中山路１０３７號,120.6711,24.25617,(04)25621030,羅氏家用新冠病毒抗原自我檢測套組,39,2022/05/07 11:13:02,週日店休，快篩11:00
5936101893,新信和藥局,臺中市大雅區民興街５０號,120.6482,24.22531,(04)25603058,羅氏家用新冠病毒抗原自我檢測套組,30,2022/05/07 11:13:02,5／7（六）11點準時開賣！！健保卡尾數雙數可以領！
5936102970,正豐藥局,臺中市大雅區民生路２段４號,120.6545,24.22937,(04)25678858,羅氏家用新冠病毒抗原自我檢測套組,50,2022/05/07 11:13:02,周一至週六上午11點開始販售快篩試劑
5936171359,健安藥局,臺中市龍井區國際街１５３號,120.5955,24.18746,(04)26527296,羅氏家用新冠病毒抗原自我檢測套組,34,2022/05/07 11:13:02,口罩販賣時段：週一至週六全天，週日晚上6：00
5936190327,富眾藥局,臺中市太平區永豐路３５號,120.7131,24.12447,(04)22706009,羅氏家用新冠病毒抗原自我檢測套組,71,2022/05/07 11:13:02,111年平安吉祥年:星期一至星期六.下午1點.星期日:休息.
5936190649,杏原藥局,臺中市太平區新坪里樹孝路７７號,120.7199,24.15663,(04)23918768,羅氏家用新冠病毒抗原自我檢測套組,1,2022/05/07 11:13:02,早上9點現場排隊販賣口罩.快篩試劑
5936190710,東亞藥師大藥局,臺中市太平區中興路６６號,120.7167,24.12806,(04)22787987,羅氏家用新冠病毒抗原自我檢測套組,69,2022/05/07 11:13:02,每日早上9:00先領號碼牌下午2:00~10:00領快篩試劑
5937010426,正忠藥局,彰化縣彰化市福安里福鎮街１６號,120.5427,24.07324,(04)7244669,羅氏家用新冠病毒抗原自我檢測套組,30,2022/05/07 11:13:02,5月9日起周一~周六下午2:00~9:00販售快篩，售完為止.
5937012117,媽咪藥局,彰化縣彰化市彰南路２段１１５號,120.5793,24.08538,(04)7321517,羅氏家用新冠病毒抗原自我檢測套組,65,2022/05/07 11:13:02,實名制快篩:周一至周六下午3:00，週日早上9:00開始販售，售完為止
5937013196,彰化啄木鳥藥局,彰化縣彰化市茄南里金馬路２段２７號,120.5483,24.09616,(04)7330661,羅氏家用新冠病毒抗原自我檢測套組,1,2022/05/07 11:13:02,無
5937013418,曉陽藥局,彰化縣彰化市西安里曉陽路２０２號,120.5373,24.07311,(04)7270989,羅氏家用新冠病毒抗原自我檢測套組,78,2022/05/07 11:13:02,現場排隊，請自備零錢。週一至週五早上9：30，週六下午3：30 （休息：中午12：00-15：30，18：00-19：30 ）
5937013436,大埔藥局,彰化縣彰化市大埔路４０６、４０８、４１０、４１２號,120.5439,24.06298,(04)7117511,羅氏家用新冠病毒抗原自我檢測套組,78,2022/05/07 11:13:02,快篩實名制，每天16:00開始販售，售完為止。
5937013552,芳澤藥局,彰化縣彰化市中山路三段４３４號,120.5658,24.08861,(04)7380381,羅氏家用新冠病毒抗原自我檢測套組,4,2022/05/07 11:13:02,快篩實名制-週一至週五下午3點開始販售，星期六日休息
5937013570,彰化藥局,彰化縣彰化市永安街２７８、２８０號,120.5438,24.08977,(04)7287877,羅氏家用新冠病毒抗原自我檢測套組,78,2022/05/07 11:13:02,快篩實名制，每天16:00開始販售，售完為止。
5937013605,大佳好藥局,彰化縣彰化市平和七街６號,120.5293,24.06697,(09)33520331,羅氏家用新冠病毒抗原自我檢測套組,10,2022/05/07 11:13:02,0507快篩10:00後暫時停售，勿來電詢問
5937013669,康是美藥局曉陽店,彰化縣彰化市民族路２９１號１、２樓,120.5392,24.07272,(04)7221460,羅氏家用新冠病毒抗原自我檢測套組,64,2022/05/07 11:13:02,無
5937013749,中央啄木鳥藥局,彰化縣彰化市中央路２０６號,120.5285,24.06637,(04)7639581,羅氏家用新冠病毒抗原自我檢測套組,1,2022/05/07 11:13:02,13:30開始販售，若未收到配送，則以收到時間開始
5937031541,友誼藥局和美店,彰化縣和美鎮和東里仁化路１４７、１４９號,120.4964,24.11017,(04)7550866,羅氏家用新冠病毒抗原自我檢測套組,154,2022/05/07 11:13:02,早上9::00-10:00發快篩，六日不發售。
5937031747,大樹和美藥局,彰化縣和美鎮道周路５０１號,120.494,24.10896,(04)7550090,羅氏家用新冠病毒抗原自我檢測套組,78,2022/05/07 11:13:02,快篩實名制，每天16:00開始販售，售完為止。
5937031783,和美啄木鳥藥局,彰化縣和美鎮德美路２７０號,120.502,24.11371,(04)7552924,羅氏家用新冠病毒抗原自我檢測套組,66,2022/05/07 11:13:02,領藥到啄木鳥~今日5／6下午2點開始販賣實名制快篩
5937050395,裕良大藥局,彰化縣員林市莒光路３號,120.5663,23.95163,(04)8360388,羅氏家用新冠病毒抗原自我檢測套組,66,2022/05/07 11:13:02,全年無休
5937052059,華衛藥局,彰化縣員林市惠來里南昌路９６號,120.5719,23.95464,(04)8397503,羅氏家用新冠病毒抗原自我檢測套組,75,2022/05/07 11:13:02,快篩販售時間8:20至09:50
5937052264,醫聯藥師藥局,彰化縣員林市三條里員東路二段４１０號１樓,120.5811,23.95898,(04)8360617,羅氏家用新冠病毒抗原自我檢測套組,21,2022/05/07 11:13:02,無
5937052273,員林鼎澄藥局,彰化縣員林市仁愛里三民東街２５２號,120.58,23.95997,(04)8330918,羅氏家用新冠病毒抗原自我檢測套組,156,2022/05/07 11:13:02,實名制快篩，星期一-六每日下午2點開始依現場排隊販售
5937052317,員郭藥局,彰化縣員林市三民街３８－１號,120.573,23.95862,(04)8356201,羅氏家用新冠病毒抗原自我檢測套組,13,2022/05/07 11:13:02,無
5937052399,裕良藥局大同店,彰化縣員林市大同路二段２０３－１號,120.5746,23.96891,(04)8344612,羅氏家用新冠病毒抗原自我檢測套組,26,2022/05/07 11:13:02,全年無休
5937052433,迪迪連鎖藥局員林店,彰化縣員林市林森路１６３號１樓,120.5777,23.95715,(04)8312898,羅氏家用新冠病毒抗原自我檢測套組,5,2022/05/07 11:13:02,快篩實名制販售時間：每日十點發放，依物流配送時間為準。
5937052451,統信藥局,彰化縣員林市正興街３７２號,120.5722,23.95997,(04)8367089,羅氏家用新冠病毒抗原自我檢測套組,32,2022/05/07 11:13:02,無
5937052497,家家藥局,彰化縣員林市惠來街８７號,120.5704,23.95526,(04)8367007,羅氏家用新冠病毒抗原自我檢測套組,23,2022/05/07 11:13:02,無
5937052504,佑全員林中正藥局,彰化縣員林市中正路１３５，１３７號１樓,120.5714,23.96324,(04)8368669,羅氏家用新冠病毒抗原自我檢測套組,2,2022/05/07 11:13:02,無
5937061432,康健藥局,彰化縣溪湖鎮光平里彰水路３段３８８號,120.4802,23.96206,(04)8822549,羅氏家用新冠病毒抗原自我檢測套組,13,2022/05/07 11:13:02,每天8:30開門即開始配售防疫口罩及快篩試劑（星期日休）5／2正常作業
5937061718,東環藥局,彰化縣溪湖鎮湖東街８１巷７０－３、７０－４、７０－５號,120.4833,23.95861,(04)8820001,羅氏家用新冠病毒抗原自我檢測套組,78,2022/05/07 11:13:02,快篩實名制，每天16:00開始販售，售完為止。
5937071474,田中藥局,彰化縣田中鎮新生街１５０巷２號,120.5862,23.8621,(04)8761988,羅氏家用新冠病毒抗原自我檢測套組,78,2022/05/07 11:13:02,快篩實名制，每天16:00開始販售，售完為止。
5937081596,二林藥局,彰化縣二林鎮斗苑路五段３９號,120.3709,23.89951,(04)8950010,羅氏家用新冠病毒抗原自我檢測套組,78,2022/05/07 11:13:02,快篩實名制，每天16:00開始販售，售完為止。
5937121317,彰水藥局,彰化縣秀水鄉彰水路二段４２５、４２７、４２９號１樓,120.4943,24.02791,(04)7685880,羅氏家用新冠病毒抗原自我檢測套組,78,2022/05/07 11:13:02,快篩實名制，每天16:00開始販售，售完為止。
5937131233,春生藥局花壇店,彰化縣花壇鄉花壇村中正路５７－１號,120.5225,24.03964,(04)7867715,羅氏家用新冠病毒抗原自我檢測套組,4,2022/05/07 11:13:02,周一至周日8:30開始販賣
5937170098,普生藥師藥局,彰化縣埔心鄉東門村中正路１段１４號,120.5501,23.95193,(04)8294449,羅氏家用新冠病毒抗原自我檢測套組,1,2022/05/07 11:13:02,週一至週日早上9:00開始販售＜中午12:00-15:00休息＞ 六日中午休息至18:00＜早上晚上營業＞
5937171166,永康藥局,彰化縣埔心鄉東門村員鹿路２段３２９號１樓,120.5437,23.95273,(04)8280957,羅氏家用新冠病毒抗原自我檢測套組,14,2022/05/07 11:13:02,快篩試劑週一至週五上午12：30開始販售，周六日不販售
5937181279,佳恩藥局,彰化縣永靖鄉永西村瑚璉路３０２號,120.547,23.92421,(04)8235753,羅氏家用新冠病毒抗原自我檢測套組,75,2022/05/07 11:13:02,快篩實名制 :電話預約制，當日早上9點開始預約（已額滿）
5937181304,永靖藥局,彰化縣永靖鄉瑚璉路１１６號,120.5505,23.92624,(04)8230220,羅氏家用新冠病毒抗原自我檢測套組,78,2022/05/07 11:13:02,快篩實名制，每天16:00開始販售，售完為止。
5937201061,長春藥局,彰化縣二水鄉文化村光文路１０３號,120.6167,23.81189,(04)8795289,羅氏家用新冠病毒抗原自我檢測套組,78,2022/05/07 11:13:02,早上8:00發放號碼牌，13:00開始販售至17:00止
5937201105,安利藥局,彰化縣二水鄉光化村員集路４段３號,120.6159,23.81147,(04)8794933,羅氏家用新冠病毒抗原自我檢測套組,74,2022/05/07 11:13:02,快篩下午3點現場販售 不發號碼牌 身障.醫護可優先購買
5937221198,祐幼藥局,彰化縣埤頭鄉合興村彰水路3段496號,120.4594,23.89158,(04)8911910,羅氏家用新冠病毒抗原自我檢測套組,50,2022/05/07 11:13:02,無
5937261236,溪州貓頭鷹藥局,彰化縣溪州鄉中山路三段臨２９１號、２９３號,120.4933,23.85328,(04)8890101,羅氏家用新冠病毒抗原自我檢測套組,1,2022/05/07 11:13:02,無
5938011730,明安大藥局,南投縣南投市復興路４８７、４８９號,120.6769,23.91728,(049)2248922,羅氏家用新冠病毒抗原自我檢測套組,75,2022/05/07 11:13:02,早上9:30開始領快篩號碼牌，14:00後領健保卡
5938011918,聖宸健保藥局,南投縣南投市彰南路三段１６２號１樓,120.6744,23.92727,(049)2251741,羅氏家用新冠病毒抗原自我檢測套組,1,2022/05/07 11:13:02,早上10點發號碼牌銷售 離開視同放棄
5938030735,草屯福倫藥局,南投縣草屯鎮中山街１４２號,120.6828,23.9769,(049) 2314218,羅氏家用新冠病毒抗原自我檢測套組,19,2022/05/07 11:13:02,早上11:00開始販賣＜實名制快篩＞，售完為止。
5938041729,早安藥局,南投縣竹山鎮雲林路４１號,120.6834,23.75608,(049)2651032,羅氏家用新冠病毒抗原自我檢測套組,3,2022/05/07 11:13:02,實名制快篩試劑早上10點開始販售
5938041881,明仁藥局,南投縣竹山鎮集山路三段９４８－２號,120.6834,23.75737,(049)2659650,羅氏家用新冠病毒抗原自我檢測套組,4,2022/05/07 11:13:02,防疫口罩販售時間：每日上午9時至12時
5938041925,耀聖藥局,南投縣竹山鎮集山路三段８１６之５號,120.6862,23.7596,(049)2652267,羅氏家用新冠病毒抗原自我檢測套組,1,2022/05/07 11:13:02,無
5939011832,汶藥局,雲林縣斗六市大同路１０３號２樓,120.5451,23.70965,(05)5344728,羅氏家用新冠病毒抗原自我檢測套組,3,2022/05/07 11:13:02,快篩實名制: 每天早上80:00開賣，售完為止。三、五下午，六晚上，日全天，以上時間休診。
5939011850,明真西藥局,雲林縣斗六市自由路１號,120.5447,23.70513,(05)5321605,羅氏家用新冠病毒抗原自我檢測套組,16,2022/05/07 11:13:02,口罩販售:早上0800-1200中午1200-1400休息下午1400到2100賣完為止
5939012400,陽光藥局,雲林縣斗六市永安路６９號,120.548,23.70923,(05)5362097,羅氏家用新冠病毒抗原自我檢測套組,69,2022/05/07 11:13:02,快篩16:00開賣~現場排隊，請勿電話詢問
5939012428,德昌藥局,雲林縣斗六市明德路１０１號,120.5374,23.69834,(05)5340870,羅氏家用新冠病毒抗原自我檢測套組,1,2022/05/07 11:13:02,快篩每日9點30至11點30現場排隊.當日有剩.下午3點30至售完
5939012580,林博彥藥師藥局,雲林縣斗六市莊敬路６５號,120.5495,23.70354,(05)5361258,羅氏家用新冠病毒抗原自我檢測套組,14,2022/05/07 11:13:02,無
5939030177,上方藥局,雲林縣虎尾鎮中山里中正路１７７號,120.4325,23.70765,(05)6332828,羅氏家用新冠病毒抗原自我檢測套組,4,2022/05/07 11:13:02,星期天不定時營業，需要服務者請提前電話詢問（6332828）
5939030355,祥惠藥局,雲林縣虎尾鎮惠來里惠來８１之５號,120.4892,23.72847,(05)6224308,羅氏家用新冠病毒抗原自我檢測套組,74,2022/05/07 11:13:02,週日請先電話洽詢
5939031996,端發藥局,雲林縣虎尾鎮林森路一段３２９號,120.4368,23.71237,(05)6314168,羅氏家用新冠病毒抗原自我檢測套組,60,2022/05/07 11:13:02,販賣快篩時間:周一至周日08:30-賣完為止
5939121271,崙背台丞藥局,雲林縣崙背鄉建國路５６號,120.3548,23.76012,(05)6966789,羅氏家用新冠病毒抗原自我檢測套組,78,2022/05/07 11:13:02,週日公休，下午２：３０開賣，售完為止。
5939171039,嘉民藥局,雲林縣元長鄉長南村元南路６２號,120.3124,23.64811,(05)7880513,羅氏家用新冠病毒抗原自我檢測套組,8,2022/05/07 11:13:02,無
5939171093,和平藥局,雲林縣元長鄉下寮村東興路３３號,120.334,23.61849,(05)7862551,羅氏家用新冠病毒抗原自我檢測套組,15,2022/05/07 11:13:02,販賣口罩時間：0800開賣，賣完為止
5940011302,開元藥局,嘉義縣朴子市開元路１５４號,120.2446,23.46725,(05)3700014,羅氏家用新冠病毒抗原自我檢測套組,2,2022/05/07 11:13:02,週一至週五08:30~售完為止，週六、週日到貨即賣~售完為止。
5940040081,惠民藥局,嘉義縣民雄鄉福樂村埤角１０２號,120.4413,23.52544,(05)2211466,羅氏家用新冠病毒抗原自我檢測套組,14,2022/05/07 11:13:02,星期一~星期六.上午10:30開始販售
5940040232,鈞安藥局,嘉義縣民雄鄉山中村１８７之５號,120.4103,23.51833,(05)2218622,羅氏家用新冠病毒抗原自我檢測套組,58,2022/05/07 11:13:02,上午7:00-晚上9:30，六日不定期休息
5940041837,雄讚藥局,嘉義縣民雄鄉北斗村北勢子５６－３８號１樓,120.4547,23.5327,(05)2212226,羅氏家用新冠病毒抗原自我檢測套組,38,2022/05/07 11:13:02,快篩實名制每日中午12點開始販售!
5940131283,一心藥局,嘉義縣中埔鄉富收村頂中下街３１、３１－１號１樓,120.4885,23.45077,(05)2303553,羅氏家用新冠病毒抗原自我檢測套組,60,2022/05/07 11:13:02,無
5940141314,竹崎啄木鳥藥師藥局,嘉義縣竹崎鄉竹崎村中華路９２號,120.5481,23.52055,(05)2617786,羅氏家用新冠病毒抗原自我檢測套組,1,2022/05/07 11:13:02,09:00~售罄
5940150073,科有藥局,嘉義縣梅山鄉北興街１２號,120.5591,23.58304,(05)2621106,羅氏家用新冠病毒抗原自我檢測套組,1,2022/05/07 11:13:02,08:30~售罄
5941010185,安立藥局,臺南市新營區王公里中正路９８號,120.3166,23.31499,(06)6321689,羅氏家用新冠病毒抗原自我檢測套組,76,2022/05/07 11:13:02,5／7快篩10點開賣，煩請備好零錢，減少鈔票觸摸.最新訊息都在FB（臉書）新營安立藥局公告（勿8點來排隊）週日公休
5941040012,杏林藥局,臺南市麻豆區晉江里興中路１３６號,120.2521,23.18357,(06)5722692,羅氏家用新冠病毒抗原自我檢測套組,76,2022/05/07 11:13:02,星期一~日  下午14:00開賣~售完為止（可提早排隊）
5941051579,永星藥局,臺南市佳里區文化路１７６號,120.1779,23.16325,(06)7234300,羅氏家用新冠病毒抗原自我檢測套組,66,2022/05/07 11:13:02,禮拜一~日 08:00–21:30
5941080043,心得藥局,臺南市學甲區仁得里建國路８２號,120.1791,23.23062,(06)7835087,羅氏家用新冠病毒抗原自我檢測套組,2,2022/05/07 11:13:02,實名制快篩:早上09:30發號碼牌，早上09:40開始販售至售完
5941081193,信忠藥局,臺南市學甲區中正路２７４號,120.1804,23.23411,(06)7832363,羅氏家用新冠病毒抗原自我檢測套組,21,2022/05/07 11:13:02,快篩販售時間：到貨時間～售完
5941090049,美安藥局,臺南市柳營區士林里柳營路二段１５號,120.3122,23.27697,(06)6222906,羅氏家用新冠病毒抗原自我檢測套組,77,2022/05/07 11:13:02,無
5941181054,年豐藥局,臺南市將軍區忠嘉里忠興４２－１０號１樓,120.158,23.20163,(06)7946247,羅氏家用新冠病毒抗原自我檢測套組,44,2022/05/07 11:13:02,星期一、四、五、六08:00~09:00 星期二~三08:30~09:30買快篩時間
5941230016,玉井藥局,臺南市玉井區玉田里中華路４７號,120.4623,23.12381,(06)5742271,羅氏家用新冠病毒抗原自我檢測套組,72,2022/05/07 11:13:02,星期一-日07:30-售完
5941280043,道仁藥局,臺南市歸仁區許厝里中山路一段４７８號,120.2973,22.96654,(06)2301967,羅氏家用新冠病毒抗原自我檢測套組,80,2022/05/07 11:13:02,08:00開始.12:00-13:30午休.售完為止
5941310715,都都藥局,臺南市永康區中山南路１２８號,120.2302,23.01319,(06)2037887,羅氏家用新冠病毒抗原自我檢測套組,52,2022/05/07 11:13:02,快篩實名制:每日11:00開始販售
5942010349,長英藥局,高雄市鳳山區八德路二段２６７號,120.3519,22.64479,(07)7805002,羅氏家用新冠病毒抗原自我檢測套組,3,2022/05/07 11:13:02,4／29起-營業日15:00~17:00為快篩販賣時間，售完為止。
5942013411,長喜藥局,高雄市鳳山區大明路７６號,120.342,22.60811,(07)7671007,羅氏家用新冠病毒抗原自我檢測套組,10,2022/05/07 11:13:02,固定周一至周六09:00-22:00  周日14:00-17:00購買快篩
5942013797,北京藥局,高雄市鳳山區一甲里五甲二路３４２號１樓,120.3377,22.59963,(07)7117100,羅氏家用新冠病毒抗原自我檢測套組,78,2022/05/07 11:13:02,營業時間早上8點到下午11點，下午2點開始販售快篩
5942020185,鴻興大藥局,高雄市岡山區中華路１３６號,120.2882,22.79476,(07)6259903,羅氏家用新冠病毒抗原自我檢測套組,49,2022/05/07 11:13:02,有營業  就有賣快篩。
5942060152,洋洋藥局,高雄市大寮區中庄里鳳屏一路５１２號,120.3936,22.63664,(07)7034256,羅氏家用新冠病毒抗原自我檢測套組,47,2022/05/07 11:13:02,無
5942060385,義和藥局,高雄市大寮區義和里義和路１６１號,120.4205,22.64125,(07)6527206,羅氏家用新冠病毒抗原自我檢測套組,13,2022/05/07 11:13:02,無
5942081384,大安藥局,高雄市仁武區仁雄路８１－４號,120.3472,22.67789,(07)3743293,羅氏家用新冠病毒抗原自我檢測套組,36,2022/05/07 11:13:02,快篩早上11點後，過卡販售快篩，若當日較晚到貨則依到貨時間銷售，售完為止
5942190039,立達藥局,高雄市彌陀區中正西路２５９－２號,120.2453,22.785,(07)6179277,羅氏家用新冠病毒抗原自我檢測套組,38,2022/05/07 11:13:02,★快篩以到貨時間為主，到貨即販售，建議電話詢問以免撲空，恕不預留★
5942220023,維康藥局,高雄市甲仙區西安里中正路２２號,120.5885,23.08291,(07)6752585,羅氏家用新冠病毒抗原自我檢測套組,3,2022/05/07 11:13:02,自2／11日~2／29日，營業日07:00起為販賣口罩時間，售完為止
5943013853,復順藥局,屏東縣屏東市公園東路８４－２號,120.4986,22.67217,(08)7215662,羅氏家用新冠病毒抗原自我檢測套組,43,2022/05/07 11:13:02,自2／11日~12／31日，營業日0930，1600為販賣快篩時間（13:00-15:00休息）
5943013915,怡安生活藥粧藥局,屏東縣屏東市大連里瑞光路２段１３８號１樓,120.5092,22.67687,(08)7377162,羅氏家用新冠病毒抗原自我檢測套組,49,2022/05/07 11:13:02,快篩試劑販售時間：下午1-3 點，一次僅限一人入場購買。
5943014332,千甲台安藥局,屏東縣屏東市武廟里逢甲路９２號,120.4867,22.67045,(08)7330663,羅氏家用新冠病毒抗原自我檢測套組,68,2022/05/07 11:13:02,因政府物流不穩定 每日塊篩販售時間公告於LINE社群https:／／reurl.cc／M0b5VX
5943021588,成昌藥局,屏東縣潮州鎮永春里光春路９６號１樓,120.5375,22.54291,(08)7801199,羅氏家用新冠病毒抗原自我檢測套組,58,2022/05/07 11:13:02,無
5943031735,愛樂活藥局,屏東縣東港鎮長春一路１１３－１號,120.4594,22.47111,(08)8312388,羅氏家用新冠病毒抗原自我檢測套組,75,2022/05/07 11:13:02,快篩販賣時間: 週一，二，四，五晚上7點開賣，週三，六（有夜市）下午3點開賣
5943031851,大眾藥局,屏東縣東港鎮朝隆路７６號,120.4463,22.46862,(08)8354752,羅氏家用新冠病毒抗原自我檢測套組,77,2022/05/07 11:13:02,實名制快篩下午三點開始販售
5943041357,西門藥局,屏東縣恆春鎮西門路１０８號,120.7437,22.00793,(08)8896980,羅氏家用新冠病毒抗原自我檢測套組,78,2022/05/07 11:13:02,快篩實名制，每天16:00開始販售，販售完為止
5943050169,新萬安藥局,屏東縣萬丹鄉萬安村萬丹路一段１１３號,120.4894,22.58628,(08)7772035,羅氏家用新冠病毒抗原自我檢測套組,51,2022/05/07 11:13:02,實名制快篩販售時間中午 12:30  至售完
5943125125,昕妙春藥局,屏東縣萬巒鄉新置村新隆路４８號,120.6254,22.5264,(08)7850153,羅氏家用新冠病毒抗原自我檢測套組,75,2022/05/07 11:13:02,5／3~5／7快篩下午2:30開始販售售完為止
5943131561,南寧藥局,屏東縣內埔鄉南寧路２３號,120.5655,22.61723,(08)7690330,羅氏家用新冠病毒抗原自我檢測套組,78,2022/05/07 11:13:02,快篩實名制，每天16:00開始販售，售完為止。
5943161078,水底寮健人藥師藥局,屏東縣枋寮鄉中華路２６５號,120.5974,22.38741,(08)8716828,羅氏家用新冠病毒抗原自我檢測套組,1,2022/05/07 11:13:02,快篩早上10點開賣（售完止）週日不販售
5943170095,長安中西藥局,屏東縣新園鄉中洲村南興路１９４號,120.4586,22.48776,(08)8336986,羅氏家用新冠病毒抗原自我檢測套組,1,2022/05/07 11:13:02,自2／11~2／29日，販賣口罩時間9:00起，售完為止。
5943221051,明德藥局,屏東縣琉球鄉本福村中山路１５１號,120.3818,22.35203,(08)8611278,羅氏家用新冠病毒抗原自我檢測套組,10,2022/05/07 11:13:02,8:30 發放號碼牌  10:00-12:00 販賣實名制快篩
5944020558,全民藥局,澎湖縣湖西鄉湖西村１５０－３號,119.6603,23.5844,(06)9920403,羅氏家用新冠病毒抗原自我檢測套組,39,2022/05/07 11:13:02,中午12:00-13:30休息
5945010056,健安藥局,花蓮縣花蓮市中山路５３７號,121.6019,23.98627,(03)8323031,羅氏家用新冠病毒抗原自我檢測套組,15,2022/05/07 11:13:02,快篩領取時間早上11:00開始 上班時間am8；30-pm9；00 周日 休
5945010154,郭藥局,花蓮縣花蓮市中美路９５號之３,121.6246,23.99018,(03)8230761,羅氏家用新冠病毒抗原自我檢測套組,62,2022/05/07 11:13:02,服務時段：上午10-12、下午2:30-4:30、晚上7-8:30
5945012434,博文藥局,花蓮縣花蓮市光復街２２號,121.6088,23.97541,(03)8345657,羅氏家用新冠病毒抗原自我檢測套組,47,2022/05/07 11:13:02,銷售快篩試劑時間週一至周五:下午3 點開始至售完為止*周六早上08:30開始
5945013299,柏陞藥局,花蓮縣花蓮市和平路４９８號,121.6013,23.97698,(03)8315339,羅氏家用新冠病毒抗原自我檢測套組,1,2022/05/07 11:13:02,快篩銷售 週一至週六:上午11:00至12:00
5945021086,安康鳳林藥局,花蓮縣鳳林鎮仁愛街１０號１樓,121.4503,23.74937,(03)8762227,羅氏家用新冠病毒抗原自我檢測套組,1,2022/05/07 11:13:02,快篩發放時間，依現場公告為主，售完為止。
5945051271,小叮噹藥局,花蓮縣吉安鄉建國路１段６３號１樓,121.5945,23.98501,(03)8576886,羅氏家用新冠病毒抗原自我檢測套組,3,2022/05/07 11:13:02,星期一至星期六早上8:30左右開始領購快篩
5945051619,仁愛藥局,花蓮縣吉安鄉慶豐村中山路三段２８０號,121.5712,23.97783,(03)8511635,羅氏家用新冠病毒抗原自我檢測套組,85,2022/05/07 11:13:02,5／7.28.29店休 實名制快篩早上8:30開賣!
5945070561,合康藥局,花蓮縣光復鄉中正路一段８５號１樓,121.4235,23.66588,(03)8700306,羅氏家用新冠病毒抗原自我檢測套組,2,2022/05/07 11:13:02,無
5946012205,欣華藥局,臺東縣臺東市更生路７７號１樓,121.1486,22.75825,(089)320676,羅氏家用新冠病毒抗原自我檢測套組,34,2022/05/07 11:13:02,快篩販賣時段:滾動式配送，滾動示販售
5946012312,仁愛藥局,臺東縣臺東市光明路４０號,121.1539,22.75747,(089)350360,羅氏家用新冠病毒抗原自我檢測套組,1,2022/05/07 11:13:02,快篩實名制代售時間為8:00
5946080552,伯安健康藥局,臺東縣長濱鄉長濱村１０鄰長濱路１０５號,121.4515,23.31496,(089)832519,羅氏家用新冠病毒抗原自我檢測套組,96,2022/05/07 11:13:02,無
5946101118,伯安藥局,臺東縣池上鄉新生路１１６號,121.2187,23.12315,(089)863585,羅氏家用新冠病毒抗原自我檢測套組,158,2022/05/07 11:13:02,早0800-1200，午1400-1800，晚1800-2000
5990010695,百泰藥局,金門縣金城鎮西海路１段１號,118.2864,24.41566,(082)312832,羅氏家用新冠病毒抗原自我檢測套組,78,2022/05/07 11:13:02,快篩實名制，每天16:00開始販售，售完為止。
