醫事機構代碼,醫事機構名稱,醫事機構地址,經度,緯度,醫事機構電話,廠牌項目,快篩試劑截至目前結餘存貨數量,來源資料時間,備註
2331200010,新北市坪林區衛生所,新北市坪林區坪林街１０４號,121.7095,24.93592,(02)26656272,羅氏家用新冠病毒抗原自我檢測套組,154,2022/04/30 12:36:02,防疫口罩販售服務時間，星期一至五09:00-12:00 。（倘若遇政府規定補班日，仍會提供販售口罩服務）
2331240014,新北市平溪區衛生所,新北市平溪區公園街１７號１樓,121.7365,25.02469,(02)24951015,羅氏家用新冠病毒抗原自我檢測套組,156,2022/04/30 12:36:02,快篩試劑販售時間:週一至週五上午9:00至12:00 ，上午9:00開始發放號碼牌，限額78盒，若提前售完，即截止當日販售服務。
2331260016,新北市貢寮區衛生所,新北市貢寮區朝陽街７０巷１０號、新北市貢寮區仁愛路１２８號,121.9095,25.02258,(02)24901431,羅氏家用新冠病毒抗原自我檢測套組,156,2022/04/30 12:36:02,星期一至星期日上午8點購買防疫口罩，售完為止.
2331290014,新北市烏來區衛生所,新北市烏來區新烏路５段１０９號,121.548,24.87197,(02)26617200,羅氏家用新冠病毒抗原自我檢測套組,171,2022/04/30 12:36:02,無
2333140017,新竹縣五峰鄉衛生所,新竹縣五峰鄉大隘村六鄰９９號,121.1194,24.63184,(03)5851005,羅氏家用新冠病毒抗原自我檢測套組,151,2022/04/30 12:36:02,無
2334110013,宜蘭縣大同鄉衛生所,宜蘭縣大同鄉崙埤村朝陽４０號,121.6088,24.67785,(03)9801175,羅氏家用新冠病毒抗原自我檢測套組,76,2022/04/30 12:36:02,防疫口罩販賣時間本所（週一到週六）8:20-10:20  衛生室販賣時間為星期一、二、四、五下午，詳細事項請至本所網站查詢.
2335110017,苗栗縣南庄鄉衛生所,苗栗縣南庄鄉東村大同路１７號,121,24.59733,(037)822024,羅氏家用新冠病毒抗原自我檢測套組,156,2022/04/30 12:36:02,口罩販賣時段:週一至週五上午8:00~下午5:00
2335150011,苗栗縣造橋鄉衛生所,苗栗縣造橋鄉造橋村１４鄰８－２號,120.8643,24.63672,(037)542755,羅氏家用新冠病毒抗原自我檢測套組,142,2022/04/30 12:36:02,口罩販賣時段：08:30-售完（含假日）
2335170013,苗栗縣獅潭鄉衛生所,苗栗縣獅潭鄉新店村１３０之６號,120.9201,24.53961,(037)931309,羅氏家用新冠病毒抗原自我檢測套組,156,2022/04/30 12:36:02,口罩販賣時段：08:30-16:00
2335180019,苗栗縣泰安鄉衛生所,苗栗縣泰安鄉清安村２鄰７２號,120.9083,24.44722,(037)941054,羅氏家用新冠病毒抗原自我檢測套組,156,2022/04/30 12:36:02,口罩販賣時段：星期一~五：8:30~15：00。
2336210034,臺中市和平區梨山衛生所,臺中市和平區中正路１２號１樓、６８號１樓,121.2592,24.25678,(04)25989540,羅氏家用新冠病毒抗原自我檢測套組,78,2022/04/30 12:36:02,提供24小時急診待診服務，111年4月28日起，快篩試劑販售時段為周一至周五0900-12:00，六日及國定假日為0900-1100
2338070010,南投縣鹿谷鄉衛生所,南投縣鹿谷鄉中正路二段２０號,120.7542,23.74488,(049)2752002,羅氏家用新冠病毒抗原自我檢測套組,156,2022/04/30 12:36:02,快篩試劑販售時間 上班日（星期一至星期五）14:00~16:00
2338120015,南投縣信義鄉衛生所,南投縣信義鄉明德村玉山路４５號,120.8547,23.69653,(049)2791148,羅氏家用新冠病毒抗原自我檢測套組,156,2022/04/30 12:36:02,快篩試劑販售時間星期一至星期五上午09：00-11：00，現場排隊發售，國定假日不販賣。
2340170016,嘉義縣大埔鄉衛生所,嘉義縣大埔鄉大埔村５３－１號,120.5928,23.29397,(05)2521214,羅氏家用新冠病毒抗原自我檢測套組,156,2022/04/30 12:36:02,無
2342130010,高雄市田寮區衛生所,高雄市田寮區南安里崗北路３２號,120.3594,22.87301,(07)6361504,羅氏家用新冠病毒抗原自我檢測套組,85,2022/04/30 12:36:02,巡迴醫療:每星期一、四下午及每月第一個有上班的星期三下午巡迴醫療
2342180010,高雄市永安區衛生所,高雄市永安區永安路２６號,120.2254,22.81879,(07)6912015,羅氏家用新冠病毒抗原自我檢測套組,78,2022/04/30 12:36:02,無
2342250017,高雄市茂林區衛生所,高雄市茂林區茂林里茂林巷８－４號,120.6641,22.88641,(07)6801046,羅氏家用新冠病毒抗原自我檢測套組,267,2022/04/30 12:36:02,夜間急診，請先撥電話07-6801046
2342260013,高雄市桃源區衛生所,高雄市桃源區桃源里南進巷１８８－１號,120.7642,23.15845,(07)6861126,羅氏家用新冠病毒抗原自我檢測套組,185,2022/04/30 12:36:02,IDS提供24小時服務
2342270019,高雄市那瑪夏區衛生所,高雄市那瑪夏區瑪雅里６鄰平和巷２５２號,120.7024,23.24708,(07)6701142,羅氏家用新冠病毒抗原自我檢測套組,243,2022/04/30 12:36:02,春節期間正常門診
2343240015,屏東縣滿州鄉衛生所,屏東縣滿州鄉滿州村中山路３１號,120.8381,22.01898,(08)8801279,羅氏家用新冠病毒抗原自我檢測套組,78,2022/04/30 12:36:02,無
2343260017,屏東縣三地門鄉衛生所,屏東縣三地門鄉三地村行政街４號,120.653,22.71477,(08)7991284,羅氏家用新冠病毒抗原自我檢測套組,111,2022/04/30 12:36:02,假日及夜間提供待診；星期一至五快篩販售時間0900~1200；1400~1700賣完為止
2343270013,屏東縣霧台鄉衛生所,屏東縣霧台鄉霧台村神山巷６８號,120.7261,22.74989,(08)7902232,羅氏家用新冠病毒抗原自我檢測套組,207,2022/04/30 12:36:02,無
2343290015,屏東縣泰武鄉衛生所,屏東縣泰武鄉佳平村１７９號,120.6327,22.59212,(08)7832059,羅氏家用新冠病毒抗原自我檢測套組,125,2022/04/30 12:36:02,4／2-4／5門診照常
2343300016,屏東縣來義鄉衛生所,屏東縣來義鄉古樓村中正路９０號,120.632,22.52584,(08)7850103,羅氏家用新冠病毒抗原自我檢測套組,106,2022/04/30 12:36:02,無
2343320018,屏東縣獅子鄉衛生所,屏東縣獅子鄉楓林村楓林二巷３１號,120.7057,22.18402,(08)8771324,羅氏家用新冠病毒抗原自我檢測套組,126,2022/04/30 12:36:02,特休日：每年農曆除夕、初一
2343330014,屏東縣牡丹鄉衛生所,屏東縣牡丹鄉石門村１９號,120.7469,22.10105,(08)8831013,羅氏家用新冠病毒抗原自我檢測套組,88,2022/04/30 12:36:02,無
2344011036,澎湖縣馬公市第三衛生所,澎湖縣馬公市西文里１１８之２號,119.5836,23.56813,(06)9211723,羅氏家用新冠病毒抗原自我檢測套組,156,2022/04/30 12:36:02,本所口罩販售以離島（虎井、桶盤）為主，時間星期一至星期五08:30-17:00售完為止，星期六、日國定假日09:00-12:00。
2344030013,澎湖縣白沙鄉衛生所,澎湖縣白沙鄉赤崁村３５９號,119.5982,23.66669,(06)9931044,羅氏家用新冠病毒抗原自我檢測套組,156,2022/04/30 12:36:02,星期日上午門診看診（每月最後一個星期日休診）； 星期五上午巡迴醫療
2344030022,澎湖縣白沙鄉鳥嶼衛生所,澎湖縣白沙鄉鳥嶼村漁港新村３號,119.6599,23.66008,(06)9916092,羅氏家用新冠病毒抗原自我檢測套組,165,2022/04/30 12:36:02,非上班時間提供急診服務
2344030031,澎湖縣白沙鄉吉貝衛生所,澎湖縣白沙鄉吉貝村８－１３號,119.6138,23.74056,(06)9911430,羅氏家用新冠病毒抗原自我檢測套組,235,2022/04/30 12:36:02,無
2344050015,澎湖縣望安鄉衛生所,澎湖縣望安鄉西安村３６－７號,119.4972,23.36161,(06)9991036,羅氏家用新冠病毒抗原自我檢測套組,131,2022/04/30 12:36:02,夜間急診。口罩、快篩試劑販售時間為:每日08:00-12:00、13:30-17:30售完為止，如有餘數為離島未售出（東嶼坪、花嶼衛生室）。
2344050024,澎湖縣望安鄉將軍衛生所,澎湖縣望安鄉將軍村１２鄰將軍澳１之３號,119.5216,23.3615,(06)9902066,羅氏家用新冠病毒抗原自我檢測套組,239,2022/04/30 12:36:02,24小時急診
2344060011,澎湖縣七美鄉衛生所,澎湖縣七美鄉中和村埔內５４號,119.431,23.2041,(06)9971005,羅氏家用新冠病毒抗原自我檢測套組,146,2022/04/30 12:36:02,無
2345080017,花蓮縣豐濱鄉衛生所,花蓮縣豐濱鄉豐濱村光豐路３９號,121.5215,23.60195,(03)8791156,羅氏家用新冠病毒抗原自我檢測套組,107,2022/04/30 12:36:02,*本院口罩每天販售，時間自上午8點至晚上9點  *本院週一至週五上下午皆有門診，星期六隔週提供門診，及24小時急診。
2345100014,花蓮縣富里鄉衛生所,花蓮縣富里鄉富里村中山路２０３號,121.2491,23.17847,(03)8831029,羅氏家用新冠病毒抗原自我檢測套組,78,2022/04/30 12:36:02,*內科:每週二下午東里玉蓮寺巡診 **牙科:每週二至卓溪醫療站***口罩販賣時間8:30起至11:00止
2345110010,花蓮縣秀林鄉衛生所,花蓮縣秀林鄉秀林村１２鄰秀林路８８號,121.6334,24.1269,(03)8612122,羅氏家用新冠病毒抗原自我檢測套組,48,2022/04/30 12:36:02,口罩代售時間上班日上午8:10至12時止（口罩限量故售完為止）
2345120016,花蓮縣萬榮鄉衛生所,花蓮縣萬榮鄉萬榮村１鄰１６號,121.4092,23.71558,(03)8751651,羅氏家用新冠病毒抗原自我檢測套組,78,2022/04/30 12:36:02,快篩試劑代售時間：週一至週五下午2點至下午4點，販售為止。
2345130012,花蓮縣卓溪鄉衛生所,花蓮縣卓溪鄉卓溪村中正路６５號,121.3033,23.33294,(03)8882592,羅氏家用新冠病毒抗原自我檢測套組,78,2022/04/30 12:36:02,販賣口罩服務時段每周一至周五早上8點45分至11點45分，星期一至星期四安排巡迴醫療點販售（售完即結束）
2346050013,台東縣大武鄉衛生所,臺東縣大武鄉大武村復興路２－２號,120.9078,22.36414,(089)791143,羅氏家用新冠病毒抗原自我檢測套組,159,2022/04/30 12:36:02,24小時急診服務
2346070015,臺東縣東河鄉衛生所,臺東縣東河鄉東河村南東河路１０鄰３００號,121.3031,22.96846,(089)896289,羅氏家用新冠病毒抗原自我檢測套組,156,2022/04/30 12:36:02,快篩試劑販售時間:◆平日（星期一三四五）上午9-11時販售，星期二下午13-15時販售售完為止。
2346120010,台東縣延平鄉衛生所,臺東縣延平鄉桃源村昇平路１１號,121.0855,22.90217,(089)561358,羅氏家用新冠病毒抗原自我檢測套組,78,2022/04/30 12:36:02,星期一至星期五上午8:30-11:30下午13:30-16:30販售快篩試劑並發放號碼牌，遇國定假日休息
2346130016,台東縣海端鄉衛生所,臺東縣海端鄉海端村３鄰２９號,121.1767,23.10094,(089)931391,羅氏家用新冠病毒抗原自我檢測套組,78,2022/04/30 12:36:02,星期一至星期五口罩販售時間上午8點~12點（售完為止）
2346150018,台東縣金峰鄉衛生所,臺東縣金峰鄉賓茂村１鄰１４號,120.9606,22.53248,(089)772201,羅氏家用新冠病毒抗原自我檢測套組,156,2022/04/30 12:36:02,代售口罩時間:星期一至星期五為上午8:00-12:00，下午1:30-5:30
2346160014,台東縣蘭嶼鄉衛生所,臺東縣蘭嶼鄉紅頭村３６號,121.5546,22.02493,(089)732575,羅氏家用新冠病毒抗原自我檢測套組,156,2022/04/30 12:36:02,販售口罩時間 星期一至星期五 8:00~12:00 13:30~17:30
2390050032,金門縣烈嶼鄉衛生所,金門縣烈嶼鄉西口村西方６－５號,118.2395,24.43519,(082)362078,羅氏家用新冠病毒抗原自我檢測套組,156,2022/04/30 12:36:02,快篩試劑販售時間:周一至周五下午1點至3點
2391020010,連江縣北竿鄉衛生所,連江縣北竿鄉塘岐村２８１－６號,119.9991,26.22617,(083)655592,羅氏家用新冠病毒抗原自我檢測套組,78,2022/04/30 12:36:02,新冠快篩試劑販售於週一至周六每日上午08:30-12:00開放購買。
2391030016,連江縣莒光鄉西莒衛生所,連江縣莒光鄉青帆村１４－１號,119.9331,25.97157,(083)689122,羅氏家用新冠病毒抗原自我檢測套組,218,2022/04/30 12:36:02,防疫口罩星期一至五09:00-17:00、（六）09:00-12:00現場購買
2391030026,連江縣莒光鄉東莒衛生所,連江縣莒光鄉大坪村３０－１號,119.9731,25.96113,(083)689038,羅氏家用新冠病毒抗原自我檢測套組,228,2022/04/30 12:36:02,防疫口罩星期一至星期日上午10:00-12:00收取健保卡，下午3:30至本所領取口罩。
2391040012,連江縣東引鄉衛生所,連江縣東引鄉中柳村１２３號,120.4904,26.36701,(083)677206,羅氏家用新冠病毒抗原自我檢測套組,83,2022/04/30 12:36:02,防疫口罩每日10:00-12:00現場購買
5901010192,益華藥局,臺北市松山區民生東路５段１３８巷６號,121.5615,25.05827,(02)27624898,羅氏家用新冠病毒抗原自我檢測套組,4,2022/04/30 12:36:02,無
5901010272,德靈藥局,臺北市松山區富錦街５４８號,121.5667,25.06178,(02)27646998,羅氏家用新冠病毒抗原自我檢測套組,78,2022/04/30 12:36:02,節期間2／4-2／10休息. .
5901012203,博荃藥局,臺北市松山區敦化北路４巷５１號,121.5447,25.05006,(02)27316736,羅氏家用新冠病毒抗原自我檢測套組,78,2022/04/30 12:36:02,快篩銷售時間為下午2~6點，憑健保卡開始購買 ! 星期日，連續假期公休
5901012598,婕登藥局,臺北市松山區八德路４段６９９號,121.5766,25.05021,(02)27482893,羅氏家用新冠病毒抗原自我檢測套組,78,2022/04/30 12:36:02,無
5901012632,晨安藥局,臺北市松山區八德路３段１５５巷２０弄２號,121.5553,25.04914,(02)25798460,羅氏家用新冠病毒抗原自我檢測套組,80,2022/04/30 12:36:02,3／7起，星期六停止販賣口罩；星期一至星期五，15:00~17:00、星期日12:00~14:00，直行販售口罩業務。
5901012767,晨新藥局,臺北市松山區八德路４段９１巷１－１號,121.5608,25.04894,(02)27422951,羅氏家用新冠病毒抗原自我檢測套組,78,2022/04/30 12:36:02,無
5901013095,康采藥局,臺北市松山區南京東路５段２９１巷１７－２號,121.5663,25.05236,(02)27670271,羅氏家用新冠病毒抗原自我檢測套組,1,2022/04/30 12:36:02,快篩試劑每日12點販售，週日沒有販售
5901013200,專品南京藥局,臺北市松山區南京東路４段７３號,121.5532,25.05185,(02)25147685,羅氏家用新冠病毒抗原自我檢測套組,78,2022/04/30 12:36:02,無
5901013399,一安正昇藥局,臺北市松山區南京東路５段３０９號,121.5667,25.05155,(02)27680993,羅氏家用新冠病毒抗原自我檢測套組,78,2022/04/30 12:36:02,無
5901013442,松山八德藥局,臺北市松山區八德路２段４００號,121.5466,25.04804,(02)27782773,羅氏家用新冠病毒抗原自我檢測套組,78,2022/04/30 12:36:02,快篩實名制，每天16:00開始販售，售完為止。
5901013693,民生盛康藥局,臺北市松山區民生東路５段２０４號１樓,121.5648,25.05826,(02)27460758,羅氏家用新冠病毒抗原自我檢測套組,107,2022/04/30 12:36:02,每日早上9:00發號碼牌，11:00~20:00拿號碼牌回來領取，每人限兩張，逾時不候
5901013700,杏一台北台安藥局,臺北市松山區八德路２段３９９號１樓,121.5465,25.04833,(02)87728295,羅氏家用新冠病毒抗原自我檢測套組,78,2022/04/30 12:36:02,無
5901013728,康麗藥局,臺北市松山區南京東路３段３０３巷２０號（１樓）,121.5468,25.05374,(02)27174117,羅氏家用新冠病毒抗原自我檢測套組,78,2022/04/30 12:36:02,無
5901020303,宏恩藥局,臺北市大安區大安路１段１８１號,121.5461,25.03619,(02)27000956,羅氏家用新冠病毒抗原自我檢測套組,78,2022/04/30 12:36:02,實名制快篩每周一~六，10:00發放號碼牌， 另於12:00~21:00自由擇時，持號碼牌領取快篩並收費
5901020376,靜園藥局,臺北市大安區和平東路２段１１８巷５７之１號,121.5429,25.02254,(02)27336390,羅氏家用新冠病毒抗原自我檢測套組,78,2022/04/30 12:36:02,無
5901020385,延吉大藥局,臺北市大安區延吉街１５３號１樓,121.5548,25.04066,(02)27819227,羅氏家用新冠病毒抗原自我檢測套組,78,2022/04/30 12:36:02,無
5901020465,杏友藥局,臺北市大安區復興南路２段１５１巷２５號,121.5446,25.02847,(02)27079451,羅氏家用新冠病毒抗原自我檢測套組,78,2022/04/30 12:36:02,週一-週六 下午3:00開始發放快篩，發完為止
5901020563,施寶藥局,臺北市大安區安東街５０－５號１樓,121.5426,25.04277,(02)27114175,羅氏家用新冠病毒抗原自我檢測套組,78,2022/04/30 12:36:02,週一至週五早上11點到下午8點.周六周日及公訂例假日公休
5901020689,四維藥局,臺北市大安區復興南路２段１５１巷４３號１樓,121.5454,25.02846,(02)27094222,羅氏家用新冠病毒抗原自我檢測套組,78,2022/04/30 12:36:02,假日可先打電話聯絡
5901021408,生百藥局,臺北市大安區臨江街１２４號,121.5539,25.03024,(02)27371011,羅氏家用新冠病毒抗原自我檢測套組,78,2022/04/30 12:36:02,無
5901023073,世中欣藥局,臺北市大安區永康街２巷８號,121.5294,25.03315,(02)23938947,羅氏家用新冠病毒抗原自我檢測套組,78,2022/04/30 12:36:02,健保快篩：周一至周五， 早上10點開始販售。週六下午4點販售。週日停售.。
5901023331,佑安藥局,臺北市大安區延吉街２３３巷９號,121.5561,25.03708,(02)27069339,羅氏家用新冠病毒抗原自我檢測套組,78,2022/04/30 12:36:02,週六快篩實名制下午兩點開始
5901023653,信安健康藥局,臺北市大安區仁愛路４段１２２巷５８號,121.5501,25.03392,(02)27084858,羅氏家用新冠病毒抗原自我檢測套組,78,2022/04/30 12:36:02,無
5901023680,新富川藥局,臺北市大安區大安路１段５１巷４號,121.5464,25.04303,(02)27114758,羅氏家用新冠病毒抗原自我檢測套組,78,2022/04/30 12:36:02,無提供急診服務
5901024098,杏一瑞安藥局,臺北市大安區瑞安街２０８巷１１弄１號,121.5406,25.02866,(02)27096710,羅氏家用新冠病毒抗原自我檢測套組,78,2022/04/30 12:36:02,3點發快篩，前5分鐘發牌
5901024114,好安心藥局,臺北市大安區和平東路２段９８之２號,121.5415,25.02493,(02)23772166,羅氏家用新冠病毒抗原自我檢測套組,78,2022/04/30 12:36:02,快篩發放: 週一至週六 15:30現場開始販售，不發號碼牌。
5901024347,博大藥局,臺北市大安區安和路２段６５號,121.5526,25.03063,(02)27027858,羅氏家用新冠病毒抗原自我檢測套組,78,2022/04/30 12:36:02,若有配給．下午兩點開始販售。
5901024472,忠孝康承健保藥局,臺北市大安區復興南路１段１０７巷４號,121.5444,25.04357,(02)87733378,羅氏家用新冠病毒抗原自我檢測套組,1,2022/04/30 12:36:02,周一公休
5901024490,明星大藥局,臺北市大安區光復南路４３０之１號,121.5574,25.03618,(02)27023747,羅氏家用新冠病毒抗原自我檢測套組,78,2022/04/30 12:36:02,無
5901024516,博昱師大藥局,臺北市大安區羅斯福路３段１８９號,121.5281,25.02109,(02)23696966,羅氏家用新冠病毒抗原自我檢測套組,73,2022/04/30 12:36:02,實名制快篩販售時間為下午14:00~15:30
5901024678,大安健康人生藥局,臺北市大安區信義路４段３４號,121.5447,25.03316,(02)27025553,羅氏家用新冠病毒抗原自我檢測套組,78,2022/04/30 12:36:02,無
5901024838,昶青藥局,臺北市大安區濟南路３段２２之１號,121.5346,25.04008,(02)27515678,羅氏家用新冠病毒抗原自我檢測套組,78,2022/04/30 12:36:02,每天下午13:00販售快篩實名制
5901024892,太醫藥局,臺北市大安區師大路１２號,121.5283,25.02568,(02)23685125,羅氏家用新冠病毒抗原自我檢測套組,52,2022/04/30 12:36:02,口罩發放時間:周一到周五:13:30~20:00
5901024918,康祥藥局,臺北市大安區忠孝東路４段２１６巷２１號,121.5531,25.04025,(02)27817891,羅氏家用新冠病毒抗原自我檢測套組,78,2022/04/30 12:36:02,星期天11:00-19:00
5901024981,專品六張犁藥局,臺北市大安區基隆路２段２１７號１樓,121.5513,25.02299,(02)87322226,羅氏家用新冠病毒抗原自我檢測套組,78,2022/04/30 12:36:02,無
5901025013,頤品中西藥局,臺北市大安區浦城街２４之２號１樓,121.5267,25.02295,(02)23685656,羅氏家用新冠病毒抗原自我檢測套組,9,2022/04/30 12:36:02,無
5901025022,躍獅敦和藥局,臺北市大安區和平東路３段１０號,121.547,25.02453,(02)23785767,羅氏家用新冠病毒抗原自我檢測套組,78,2022/04/30 12:36:02,無
5901025031,中力信義藥局,臺北市大安區信義路４段５１號（１樓）,121.545,25.03354,(02)23250266,羅氏家用新冠病毒抗原自我檢測套組,71,2022/04/30 12:36:02,下午一點到三點販售實名制快篩
5901025059,博醫仁愛藥局,臺北市大安區仁愛路４段８巷２號１樓,121.5443,25.0375,(02)27019107,羅氏家用新冠病毒抗原自我檢測套組,17,2022/04/30 12:36:02,無
5901025077,敦南春天藥局,臺北市大安區敦化南路２段８１巷６３號１樓,121.5513,25.03002,(02)27553266,羅氏家用新冠病毒抗原自我檢測套組,78,2022/04/30 12:36:02,無
5901090289,正利民藥局,臺北市大同區延平北路３段１０５號,121.511,25.06806,(02)25924842,羅氏家用新冠病毒抗原自我檢測套組,71,2022/04/30 12:36:02,快篩劑:週一到週五早上10點開始，週六下午1:00開始，週日彈性.
5901090341,正中藥局,臺北市大同區民族西路２１３號,121.5142,25.06874,(02)25976937,羅氏家用新冠病毒抗原自我檢測套組,78,2022/04/30 12:36:02,無
5901091473,快安藥局,臺北市大同區南京西路２８２、２８４號,121.5146,25.05349,(02)25561925,羅氏家用新冠病毒抗原自我檢測套組,78,2022/04/30 12:36:02,下午2:00開始販售口罩，  至傍晚18:00，星期六日休息
5901091544,得意藥師藥局,臺北市大同區延平北路２段２２９號,121.5115,25.06029,(02)25534294,羅氏家用新冠病毒抗原自我檢測套組,10,2022/04/30 12:36:02,無
5901091884,躍獅雙蓮藥局,臺北市大同區涼州街４號,121.5147,25.06078,(02)25537551,羅氏家用新冠病毒抗原自我檢測套組,78,2022/04/30 12:36:02,周一-周六11:00-7:00.日.不發口罩
5901092014,旭豐藥局,臺北市大同區昌吉街９６號,121.5151,25.06582,(02)25853880,羅氏家用新冠病毒抗原自我檢測套組,78,2022/04/30 12:36:02,無
5901092103,新聖安藥局,臺北市大同區昌吉街１３０號,121.5143,25.06584,(02)25977877,羅氏家用新冠病毒抗原自我檢測套組,78,2022/04/30 12:36:02,無
5901092112,酒泉春天藥局,臺北市大同區酒泉街９４號、９４號２樓,121.5146,25.07193,(02)25977932,羅氏家用新冠病毒抗原自我檢測套組,78,2022/04/30 12:36:02,無
5901092130,大同民生藥局,臺北市大同區民生西路１２８號１樓、２樓及１３０號１樓、２樓,121.5191,25.05734,(02)25558886,羅氏家用新冠病毒抗原自我檢測套組,78,2022/04/30 12:36:02,快篩實名制，每天16:00開始販售，售完為止。
5901100057,百源堂大藥局,臺北市中山區長安東路２段４７－５號,121.5322,25.04857,(02)25364362,羅氏家用新冠病毒抗原自我檢測套組,78,2022/04/30 12:36:02,週休2 日及國定假日休營業時間上午8時30分至晚間7點
5901100155,大信藥局,臺北市中山區林森北路１５９巷６號,121.5255,25.0517,(02)25719080,羅氏家用新冠病毒抗原自我檢測套組,78,2022/04/30 12:36:02,無
5901100333,明美藥局,臺北市中山區長春路６９號,121.5266,25.05502,(02)25365419,羅氏家用新冠病毒抗原自我檢測套組,78,2022/04/30 12:36:02,口罩周一至周五，16:30-18:30販售
5901100628,貢玄藥局,臺北市中山區錦州街２０７號,121.532,25.06039,(02)25637847,羅氏家用新冠病毒抗原自我檢測套組,78,2022/04/30 12:36:02,早上10點~11點領口罩
5901101250,美日藥局,臺北市中山區天津街６６號１樓,121.5233,25.05136,(02)25631662,羅氏家用新冠病毒抗原自我檢測套組,78,2022/04/30 12:36:02,實名制快篩於營業日下午4點開始發號碼牌
5901101321,文德藥局,臺北市中山區龍江路３５６巷１９號１樓,121.5401,25.06607,(02)25181178,羅氏家用新冠病毒抗原自我檢測套組,78,2022/04/30 12:36:02,無
5901101509,永直藥局,臺北市中山區北安路５９５巷２弄６號,121.5483,25.08192,(02)85098059,羅氏家用新冠病毒抗原自我檢測套組,78,2022/04/30 12:36:02,無
5901101607,蓁榛健康生活藥局,臺北市中山區合江街１００－２號１樓,121.5391,25.05845,(02)25099333,羅氏家用新冠病毒抗原自我檢測套組,78,2022/04/30 12:36:02,營業時間均可購買防疫口罩。
5901101652,祥泰藥局,臺北市中山區林森北路１３６號,121.5251,25.05142,(02)25313097,羅氏家用新冠病毒抗原自我檢測套組,78,2022/04/30 12:36:02,無
5901101910,嘉恩藥局,臺北市中山區錦州街３２１號,121.5385,25.06033,(02)25181418,羅氏家用新冠病毒抗原自我檢測套組,78,2022/04/30 12:36:02,無
5901101929,樂活苑藥局,臺北市中山區北安路５４６號１樓,121.548,25.08014,(02)25323296,羅氏家用新冠病毒抗原自我檢測套組,78,2022/04/30 12:36:02,實名制快篩代售時間為18:00~19:00.
5901102060,專心藥局,臺北市中山區伊通街１１２－２號,121.5347,25.05426,(02)25155847,羅氏家用新冠病毒抗原自我檢測套組,78,2022/04/30 12:36:02,無
5901102597,德惠藥局,臺北市中山區德惠街１２２號,121.53,25.06652,(02)25971131,羅氏家用新冠病毒抗原自我檢測套組,78,2022/04/30 12:36:02,每日下午3點30分開始販售快篩實名制
5901102686,富宥康藥局,臺北市中山區北安路６０８巷５弄２２號,121.5496,25.08263,(02)25325277,羅氏家用新冠病毒抗原自我檢測套組,78,2022/04/30 12:36:02,無
5901102837,正傑健保藥局,臺北市中山區長安東路２段１８１號,121.5426,25.04839,(02)27310181,羅氏家用新冠病毒抗原自我檢測套組,78,2022/04/30 12:36:02,下午四點開始販售
5901102855,錦西春天生活藥局,臺北市中山區錦西街１０號,121.5216,25.06024,(02)25312658,羅氏家用新冠病毒抗原自我檢測套組,78,2022/04/30 12:36:02,口罩15:30領號碼牌 即行販售至16:30
5901103147,娸淇藥局,臺北市中山區伊通街９５號,121.5349,25.05305,(02)25082762,羅氏家用新冠病毒抗原自我檢測套組,78,2022/04/30 12:36:02,口罩販售時間2:30PM（六日無發口罩）4／2-4／5 清明休息
5901103192,昶青林森藥局,臺北市中山區林森北路１１９巷５２號,121.5269,25.05018,(02)25639939,羅氏家用新冠病毒抗原自我檢測套組,78,2022/04/30 12:36:02,口罩代售平日10:30-20:00，例假日13:30-18:00 售完為止
5901103236,誠意中西藥局,臺北市中山區林森北路６１３號,121.5258,25.06647,(02)25950951,羅氏家用新冠病毒抗原自我檢測套組,1,2022/04/30 12:36:02,無
5901103272,長安藥局,臺北市中山區長安東路２段１７１－３號,121.5418,25.0484,(02)27772740,羅氏家用新冠病毒抗原自我檢測套組,78,2022/04/30 12:36:02,實名制快篩下午四點開始發放，周日公休
5901103405,大直永安藥局,臺北市中山區北安路５６７之２號,121.5482,25.08073,(02)25332125,羅氏家用新冠病毒抗原自我檢測套組,78,2022/04/30 12:36:02,週一到週日下午兩點  開始銷售快篩試劑
5901103423,農安藥局,臺北市中山區農安街１８之１號,121.5248,25.06483,(02)25959293,羅氏家用新冠病毒抗原自我檢測套組,78,2022/04/30 12:36:02,無
5901103487,錦州春天生活藥局,臺北市中山區錦州街２１３號、２１３號２樓,121.5321,25.06039,(02)25213586,羅氏家用新冠病毒抗原自我檢測套組,78,2022/04/30 12:36:02,快篩14:40發號碼牌15:00販賣 每天78盒
5901103629,十二願藥局,臺北市中山區林森北路３０９號,121.5256,25.05588,(02)25311223,羅氏家用新冠病毒抗原自我檢測套組,79,2022/04/30 12:36:02,快篩晚上8點開始發放.營業時間下午1點至凌晨3點
5901103647,禾康藥局,臺北市中山區植福路２９６號（實際營業地址：１層）,121.5612,25.08125,(02)26562156,羅氏家用新冠病毒抗原自我檢測套組,1,2022/04/30 12:36:02,國定假日不執行調劑業務
5901103656,大樹龍江藥局,臺北市中山區龍江路２４２號,121.5406,25.05889,(02)25035666,羅氏家用新冠病毒抗原自我檢測套組,78,2022/04/30 12:36:02,國定假日仍執行調劑業務
5901103683,東東藥局,臺北市中山區長春路２５７之２號１樓,121.5408,25.05477,(02)25031730,羅氏家用新冠病毒抗原自我檢測套組,78,2022/04/30 12:36:02,快篩發放時間:星期一至六 .15點開始銷售至16點前結束
5901103745,吉林藥局,臺北市中山區吉林路３７１號（１樓）,121.5305,25.06511,(02)25865990,羅氏家用新冠病毒抗原自我檢測套組,78,2022/04/30 12:36:02,快篩實名制，每天16:00開始販售，售完為止。
5901103781,龍江台安藥局,臺北市中山區龍江路２４７號（１樓）,121.5408,25.05862,(02)25091007,羅氏家用新冠病毒抗原自我檢測套組,78,2022/04/30 12:36:02,實名制快篩下午2:00開始拿號碼牌
5901103790,可康藥局,臺北市中山區林森北路３７３號（１樓）,121.5257,25.05826,(02)25361078,羅氏家用新冠病毒抗原自我檢測套組,1,2022/04/30 12:36:02,實名制快篩販售時間4／30（六）、5／1（日）為早上10:00；5／2（一）起為早上07:00
5901103807,專品龍江藥局,臺北市中山區龍江路３１１號１樓,121.5409,25.06127,(02)25178870,羅氏家用新冠病毒抗原自我檢測套組,78,2022/04/30 12:36:02,實名制快篩下午三點開始發號碼牌販售
5901110311,永安藥局,臺北市內湖區文德路２１０巷３０弄４８號,121.5852,25.07723,(02)26586658,羅氏家用新冠病毒抗原自我檢測套組,13,2022/04/30 12:36:02,口罩販售時間早上10點開始發號碼牌  同時販售
5901110446,清白藥局,臺北市內湖區東湖路１０８號,121.6157,25.06828,(02)26305743,羅氏家用新冠病毒抗原自我檢測套組,78,2022/04/30 12:36:02,無
5901111890,安康藥局,臺北市內湖區安康路４８２號,121.6158,25.06785,(02)26327675,羅氏家用新冠病毒抗原自我檢測套組,78,2022/04/30 12:36:02,無
5901112682,富康東湖藥局,臺北市內湖區東湖路１１９巷４９弄１６號,121.617,25.06988,(02)26323222,羅氏家用新冠病毒抗原自我檢測套組,73,2022/04/30 12:36:02,週一至週六，每天9:00~22:00販售口罩，請記得攜帶健保卡與零錢（恕不找零）
5901112726,高昱藥局,臺北市內湖區陽光街３２１巷２６號２樓之１５,121.5786,25.07236,(02)87519962,羅氏家用新冠病毒抗原自我檢測套組,78,2022/04/30 12:36:02,週六日預約
5901112977,瑞光藥局,臺北市內湖區瑞光路２１２號,121.5763,25.07525,(02)87513365,羅氏家用新冠病毒抗原自我檢測套組,78,2022/04/30 12:36:02,實名制快篩每日PM14:00開賣
5901113438,晶龍藥局,臺北市內湖區成功路４段２１８號,121.5961,25.08456,(02)27956255,羅氏家用新冠病毒抗原自我檢測套組,78,2022/04/30 12:36:02,快篩試劑販售時間:星期一~六下午2:30 售完為止
5901113456,佑全內湖康寧藥局,臺北市內湖區康寧路３段３９號、３９號２樓、４１號、４３號,121.6078,25.07264,(02)26346578,羅氏家用新冠病毒抗原自我檢測套組,78,2022/04/30 12:36:02,實名制快篩每日14:00販售
5901113643,博昱東福藥局,臺北市內湖區東湖路１４７號,121.6172,25.06815,(02)26308599,羅氏家用新冠病毒抗原自我檢測套組,78,2022/04/30 12:36:02,無
5901113661,內湖藥局,臺北市內湖區康寧路１段１１６號１樓,121.5934,25.07948,(02)27940545,羅氏家用新冠病毒抗原自我檢測套組,78,2022/04/30 12:36:02,快篩實名制，每天16:00開始販售，售完為止。
5901120022,旭村藥局,臺北市南港區興華路１１２號,121.6055,25.05661,(02)27820948,羅氏家用新冠病毒抗原自我檢測套組,26,2022/04/30 12:36:02,無
5901121618,新東發藥局,臺北市南港區成福路１９８號,121.5883,25.04092,(02)27855190,羅氏家用新冠病毒抗原自我檢測套組,78,2022/04/30 12:36:02,營業時間 早上10:00至晚上10:00
5901121627,富康活力藥局,臺北市南港區研究院路１段１０１巷８號,121.6165,25.05181,(02)27828810,羅氏家用新冠病毒抗原自我檢測套組,68,2022/04/30 12:36:02,週一至週六，每天09:00-21:00販售口罩，請記得帶健保卡&零錢，售完為止。
5901121672,亞博藥師藥局,臺北市南港區興華路８１號,121.6061,25.05545,(02)27838090,羅氏家用新冠病毒抗原自我檢測套組,78,2022/04/30 12:36:02,無
5901121734,湳港藥局,臺北市南港區研究院路１段１０１巷１２號,121.6167,25.05175,(02)27892200,羅氏家用新冠病毒抗原自我檢測套組,78,2022/04/30 12:36:02,週一至週日，2:30開賣（政府有配送的況狀下）（沒有發放號碼牌），售完為止
5901121850,健涵藥局,臺北市南港區舊莊街１段１４７號,121.6205,25.03985,(02)27837285,羅氏家用新冠病毒抗原自我檢測套組,79,2022/04/30 12:36:02,發口罩時間：周間（一到五）早上8點 周末（六日） 早上9點 發放至晚上8點
5901121985,勝安藥局,臺北市南港區舊莊街１段１６５號,121.6211,25.03949,(02)27828450,羅氏家用新冠病毒抗原自我檢測套組,78,2022/04/30 12:36:02,實名制快篩固定晚上21:00提供，現場排隊不分號碼牌
5901122062,躍獅忠孝藥局,臺北市南港區成福路１６號,121.586,25.04561,(02)27862829,羅氏家用新冠病毒抗原自我檢測套組,78,2022/04/30 12:36:02,無
5901122115,上丞藥師藥局,臺北市南港區成福路１０號１樓,121.5859,25.04574,(02)26535589,羅氏家用新冠病毒抗原自我檢測套組,78,2022/04/30 12:36:02,實名制快篩下午三點開賣，無發放號碼牌
5901122124,杏安藥局,臺北市南港區昆陽街１４０巷１６號１樓,121.5938,25.04969,(02)27864119,羅氏家用新冠病毒抗原自我檢測套組,78,2022/04/30 12:36:02,無
5901150235,杏城藥局,臺北市士林區天母東路２４號,121.5322,25.11764,(02)28725144,羅氏家用新冠病毒抗原自我檢測套組,78,2022/04/30 12:36:02,無
5901150575,日康藥局,臺北市士林區士東路１２號１樓,121.5267,25.11168,(02)28358558,羅氏家用新冠病毒抗原自我檢測套組,47,2022/04/30 12:36:02,無
5901150593,安寧藥局,臺北市士林區劍潭路９１號,121.5199,25.08285,(02)28803319,羅氏家用新冠病毒抗原自我檢測套組,78,2022/04/30 12:36:02,領藥星期1.3.5為 9:00~12:00.及16:00~20:00*星期2.4.6.--上午
5901152079,資生堂藥局,臺北市士林區承德路４段４０巷１７號１Ｆ,121.522,25.08107,(02)28857588,羅氏家用新冠病毒抗原自我檢測套組,78,2022/04/30 12:36:02,快篩購買時間週一到週六下午1:30
5901152471,得安藥局,臺北市士林區文林路１４０號,121.5267,25.08878,(02)28836336,羅氏家用新冠病毒抗原自我檢測套組,78,2022/04/30 12:36:02,星期一二三五六下午3:30---10:00   星期 四日下午5:00--10:00
5901152640,仁大藥局,臺北市士林區社子街１３號１樓,121.5083,25.08769,(02)88113793,羅氏家用新冠病毒抗原自我檢測套組,78,2022/04/30 12:36:02,111.4.30.本日尚未收到配送快篩試劑，暫停販售
5901152793,信光藥局,臺北市士林區文昌路６８號,121.5214,25.09619,(02)28366277,羅氏家用新冠病毒抗原自我檢測套組,78,2022/04/30 12:36:02,庫存僅為物流配送中的量，收到貨會更新販售時間
5901152873,幸福藥局,臺北市士林區德行東路１０９巷８號,121.5284,25.10812,(02)28346650,羅氏家用新冠病毒抗原自我檢測套組,78,2022/04/30 12:36:02,Covid-19試劑販售時間:每日下午2點至下午5點販售（含星日）
5901153263,健揚藥局,臺北市士林區延平北路５段２５１號,121.5097,25.08483,(02)28163698,羅氏家用新冠病毒抗原自我檢測套組,78,2022/04/30 12:36:02,無
5901153272,光榮藥局,臺北市士林區社中街１１８號,121.5103,25.0899,(02)28136060,羅氏家用新冠病毒抗原自我檢測套組,78,2022/04/30 12:36:02,實名制快篩販售時間~下午兩點半（14:30）開始販售~另外若當日未收到快篩無法販售會公告，謝謝大家~
5901153432,大南春天生活藥局,臺北市士林區大南路３１７、３１９號,121.518,25.08888,(02)28882196,羅氏家用新冠病毒抗原自我檢測套組,78,2022/04/30 12:36:02,本藥局可領慢箋 快篩每天下午3點販售 售完為止
5901153496,躍獅忠誠藥局,臺北市士林區忠義街７０號,121.5314,25.10594,(02)28387948,羅氏家用新冠病毒抗原自我檢測套組,156,2022/04/30 12:36:02,實名制快篩下午兩點販售
5901153521,天母台安藥局,臺北市士林區天母西路３４號,121.5262,25.11835,(02)28728017,羅氏家用新冠病毒抗原自我檢測套組,77,2022/04/30 12:36:02,下午2點開始販售實名制快篩試劑
5901153567,華齡春天生活藥局,臺北市士林區華齡街３６、３８號,121.5195,25.08359,(02)28882156,羅氏家用新冠病毒抗原自我檢測套組,78,2022/04/30 12:36:02,下午3點開始發號碼牌持健保卡購買快篩售完為止
5901153585,德行春天生活藥局,臺北市士林區德行東路７６號,121.5275,25.1073,(02)28380306,羅氏家用新冠病毒抗原自我檢測套組,78,2022/04/30 12:36:02,下午2點40持健保卡領號碼牌販售快篩到晚上10點售完為止
5901153674,愛佳藥局,臺北市士林區承德路４段２２２之１號,121.5215,25.0885,(02)28811199,羅氏家用新冠病毒抗原自我檢測套組,78,2022/04/30 12:36:02,實名制快篩平日一~五下午3:00販售，假日（六、日）不販售
5901153969,杏一士林延平藥局,臺北市士林區延平北路５段２５０號（１樓）、２５２號１樓,121.51,25.08468,(02)28112937,羅氏家用新冠病毒抗原自我檢測套組,1,2022/04/30 12:36:02,每日中午12點販售實名制快篩試劑
5901154091,社正藥局,臺北市士林區社正路１２號１樓,121.5093,25.08854,(02)28118704,羅氏家用新冠病毒抗原自我檢測套組,72,2022/04/30 12:36:02,無
5901154108,藥本家藥局,臺北市士林區中山北路７段１４巷２６號１樓,121.5328,25.11884,(02)28766682,羅氏家用新冠病毒抗原自我檢測套組,78,2022/04/30 12:36:02,無
5901160053,天蓮藥局,臺北市北投區石牌路１段１６６巷１１５號,121.5155,25.11192,(02)28211824,羅氏家用新冠病毒抗原自我檢測套組,39,2022/04/30 12:36:02,週六，週日各販售39劑快篩
5901160099,進春藥局,臺北市北投區明德路１５１號,121.5206,25.11086,(02)28216938,羅氏家用新冠病毒抗原自我檢測套組,233,2022/04/30 12:36:02,無休
5901160222,新祥藥局,臺北市北投區知行路２０８號－１,121.4668,25.11935,(02)28582551,羅氏家用新冠病毒抗原自我檢測套組,78,2022/04/30 12:36:02,實名制快篩下午1:30分發放號碼牌，隨後依照號碼牌發售
5901160400,世全藥局,臺北市北投區知行路２７３號,121.4672,25.12134,(02)28585378,羅氏家用新冠病毒抗原自我檢測套組,78,2022/04/30 12:36:02,早0000-0100，午1300-1600，晚1600-2400
5901160517,弘安藥局,臺北市北投區懷德街３３號１樓,121.5193,25.11219,(02)28206390,羅氏家用新冠病毒抗原自我檢測套組,78,2022/04/30 12:36:02,快篩每日下午2:00開賣，現場購買售完為止
5901160544,黎明藥局,臺北市北投區尊賢街２５３－１號,121.5066,25.11817,(02)28223795,羅氏家用新冠病毒抗原自我檢測套組,78,2022/04/30 12:36:02,早上900至1230 下午1600至2100
5901161890,良興藥局,臺北市北投區中和街２８６號,121.5004,25.14047,(02)28933360,羅氏家用新冠病毒抗原自我檢測套組,79,2022/04/30 12:36:02,18點30分點開始營業
5901162306,上頤藥局,臺北市北投區中和街３２７號１樓,121.4997,25.14097,(02)28981230,羅氏家用新冠病毒抗原自我檢測套組,78,2022/04/30 12:36:02,無
5901163152,石牌健康人生藥局,臺北市北投區石牌路２段１８７號,121.5183,25.11868,(02)28225169,羅氏家用新冠病毒抗原自我檢測套組,78,2022/04/30 12:36:02,政府快篩每日14點賣（星期一到五13:30發號碼牌）；週末不發號碼牌，請自行排隊
5901163296,天禧大藥局,臺北市北投區實踐街３５號,121.5087,25.11521,(02)28213558,羅氏家用新冠病毒抗原自我檢測套組,78,2022/04/30 12:36:02,實名制快篩下午1:30現場販售
5901163376,北投春天藥局,臺北市北投區中央南路１段７６號,121.5011,25.13135,(02)28916668,羅氏家用新冠病毒抗原自我檢測套組,78,2022/04/30 12:36:02,每日14:40發號碼牌 15:00販售
5901163394,致遠春天藥局,臺北市北投區致遠一路１段１３２號１、２樓,121.5149,25.11051,(02)28253258,羅氏家用新冠病毒抗原自我檢測套組,78,2022/04/30 12:36:02,15:30開始發放號碼牌15:30開始販售口罩
5901163410,尊賢藥局,臺北市北投區尊賢街２１２號,121.508,25.11551,(02)28270505,羅氏家用新冠病毒抗原自我檢測套組,60,2022/04/30 12:36:02,4／30（六）12點半開始。5月起周一至週六下午1點半直接販售，周日休息。
5901163509,吉利春天生活藥局,臺北市北投區吉利街１２０號,121.5068,25.11851,(02)28253256,羅氏家用新冠病毒抗原自我檢測套組,78,2022/04/30 12:36:02,無
5901170059,必欣藥局,臺北市信義區松仁路２６４號,121.5696,25.02425,(02)27225060,羅氏家用新冠病毒抗原自我檢測套組,78,2022/04/30 12:36:02,實名制快篩販售時間：星期一至星期六晚上20：00開始
5901170139,福華藥局,臺北市信義區吳興街２８１巷３號１樓,121.5643,25.02656,(02)27208527,羅氏家用新冠病毒抗原自我檢測套組,78,2022/04/30 12:36:02,現階段下午1:30~5:30配合政府發售口罩
5901170906,吳興藥局,臺北市信義區吳興街２７９號１樓,121.5642,25.02658,(02)27208328,羅氏家用新冠病毒抗原自我檢測套組,78,2022/04/30 12:36:02,無
5901170915,杏仁藥局,臺北市信義區大道路１３５號,121.5834,25.03901,(02)27262541,羅氏家用新冠病毒抗原自我檢測套組,78,2022/04/30 12:36:02,春節期間看診時段請電洽
5901172240,德康大藥局,臺北市信義區松山路５４１巷２１號,121.579,25.03794,(02)27272502,羅氏家用新冠病毒抗原自我檢測套組,78,2022/04/30 12:36:02,物流未到貨4／30暫停1天
5901172651,康杏藥局,臺北市信義區福德街３０６號１樓,121.5874,25.03931,(02)27591510,羅氏家用新冠病毒抗原自我檢測套組,78,2022/04/30 12:36:02,無
5901172697,綠杏大藥局,臺北市信義區吳興街２４１號,121.5635,25.02745,(02)27582378,羅氏家用新冠病毒抗原自我檢測套組,78,2022/04/30 12:36:02,因快篩未及時到貨，4／30（六）5／1（日）暫停公費快篩購買兩天
5901172820,安心藥局,臺北市信義區永吉路３０巷１４８弄４之１號,121.5685,25.04266,(02)27474992,羅氏家用新冠病毒抗原自我檢測套組,78,2022/04/30 12:36:02,口罩代售時間14:00起現場排隊
5901172924,躍獅松仁藥局,臺北市信義區松仁路２３３號（實際營業地址：１樓）,121.5688,25.02617,(02)27238626,羅氏家用新冠病毒抗原自我檢測套組,78,2022/04/30 12:36:02,快篩販售時段:下午13:30開始售完至晚上19:00前
5901173372,新永春藥局,臺北市信義區忠孝東路５段４２３巷１號,121.5753,25.04126,(02)27667385,羅氏家用新冠病毒抗原自我檢測套組,78,2022/04/30 12:36:02,無
5901173390,馨馨藥局,臺北市信義區虎林街８２巷１９號,121.5764,25.04336,(02)27491208,羅氏家用新冠病毒抗原自我檢測套組,65,2022/04/30 12:36:02,無
5901173407,康怡健保藥局,臺北市信義區吳興街４６７巷２弄１２號,121.5695,25.02381,(02)27206193,羅氏家用新冠病毒抗原自我檢測套組,78,2022/04/30 12:36:02,成人口罩領取時間14:00~18:00，兒童營業時間皆可領.其餘時間仍以調劑為主，謝謝配合
5901173710,專品光復藥局,臺北市信義區光復南路４６７之１號,121.5577,25.03384,(02)27586682,羅氏家用新冠病毒抗原自我檢測套組,78,2022/04/30 12:36:02,禮拜一到六下午三點販售口罩
5901173738,尚頤中西藥局,臺北市信義區虎林街１４５號,121.5767,25.03959,(02)27253818,羅氏家用新冠病毒抗原自我檢測套組,78,2022/04/30 12:36:02,無
5901173783,北一健康人生藥局,臺北市信義區吳興街２５５號,121.5637,25.02715,(02)27583945,羅氏家用新冠病毒抗原自我檢測套組,78,2022/04/30 12:36:02,下午3點開始販售實名制快篩
5901173943,躍獅興雅藥局,臺北市信義區松德路１２８號,121.5745,25.03734,(02)87808429,羅氏家用新冠病毒抗原自我檢測套組,78,2022/04/30 12:36:02,14:00發號碼牌且同步開賣快篩，販賣至15:00或售完為止，因未收到快篩，4／30、5／1停售!
5901174002,吳興春天藥局,臺北市信義區吳興街１３７號１樓,121.5618,25.02947,(02)27585618,羅氏家用新冠病毒抗原自我檢測套組,78,2022/04/30 12:36:02,下午2:40發號碼牌
5901174011,寶春藥局,臺北市信義區虎林街１１９之１９號１樓,121.5771,25.04112,(02)27566501,羅氏家用新冠病毒抗原自我檢測套組,78,2022/04/30 12:36:02,無
5901174066,愛維喜藥局,臺北市信義區莊敬路２７８號１樓,121.5627,25.02882,(02)27586989,羅氏家用新冠病毒抗原自我檢測套組,78,2022/04/30 12:36:02,無
5901174084,市政藥局,臺北市信義區忠孝東路５段１６９號１樓、１７１號１樓,121.5688,25.0412,(02)27560050,羅氏家用新冠病毒抗原自我檢測套組,78,2022/04/30 12:36:02,快篩實名制，每天16:00開始販售，售完為止。
5901180215,上海聯合藥局,臺北市中正區衡陽路３２號１樓,121.5126,25.04221,(02)23117744,羅氏家用新冠病毒抗原自我檢測套組,7,2022/04/30 12:36:02,無
5901180368,古亭藥局,臺北市中正區汀州路３段１１７號,121.5301,25.01667,(02)23683618,羅氏家用新冠病毒抗原自我檢測套組,78,2022/04/30 12:36:02,實名制  快篩  每晚7:30  開始賣
5901183387,丞良藥局,臺北市中正區南昌路１段７８號地下１樓,121.5173,25.03099,(02)33938868,羅氏家用新冠病毒抗原自我檢測套組,78,2022/04/30 12:36:02,週一~週五 晚上9:00~9:30現場領取
5901183396,慶安藥局,臺北市中正區徐州路２６號,121.5234,25.04061,(02)23582385,羅氏家用新冠病毒抗原自我檢測套組,78,2022/04/30 12:36:02,無
5901183510,怡誠藥局,臺北市中正區汀州路２段２１２號,121.5237,25.02236,(02)23626905,羅氏家用新冠病毒抗原自我檢測套組,78,2022/04/30 12:36:02,無
5901183529,達昌藥局,臺北市中正區汀州路１段２０７號,121.5116,25.02692,(02)23390109,羅氏家用新冠病毒抗原自我檢測套組,78,2022/04/30 12:36:02,口罩配發時間 每日下午13:00開始
5901183645,大愛生活藥局,臺北市中正區汀州路２段２３２號,121.5243,25.02189,(02)23661155,羅氏家用新冠病毒抗原自我檢測套組,78,2022/04/30 12:36:02,下午14:30開始發放快篩（不發號碼牌直接買）~~不要太早開始排隊啊啊啊啊
5901183789,佑康大藥局,臺北市中正區汀州路２段６４號,121.5184,25.02513,(02)23683602,羅氏家用新冠病毒抗原自我檢測套組,54,2022/04/30 12:36:02,無
5901183985,正康藥局,臺北市中正區漢口街１段２２號,121.5142,25.04507,(02)23712831,羅氏家用新冠病毒抗原自我檢測套組,78,2022/04/30 12:36:02,無
5901184222,豐仁藥局,臺北市中正區寧波西街１６１號,121.5109,25.02736,(02)23033908,羅氏家用新冠病毒抗原自我檢測套組,60,2022/04/30 12:36:02,周一至周六 15:00 ／ 周日 17:30
5901184375,大盛藥局,臺北市中正區中華路１段２１巷１６號,121.5105,25.04645,(02)23713838,羅氏家用新冠病毒抗原自我檢測套組,78,2022/04/30 12:36:02,周日及國定假日公休
5901184446,北車維康藥局,臺北市中正區青島西路１１號,121.5178,25.04499,(02)23613623,羅氏家用新冠病毒抗原自我檢測套組,11,2022/04/30 12:36:02,無
5901184491,躍獅南門藥局,臺北市中正區中華路２段３９巷１０號,121.5074,25.03484,(02)23141111,羅氏家用新冠病毒抗原自我檢測套組,78,2022/04/30 12:36:02,口罩販售時段：成人早上9點及晚上7點各200個
5901184553,珍忻藥局,臺北市中正區南昌路１段６５號,121.5174,25.03107,(02)23965115,羅氏家用新冠病毒抗原自我檢測套組,78,2022/04/30 12:36:02,健保快篩發放:13:20及18:20分兩梯次發號碼牌
5901184660,南昌春天藥局,臺北市中正區南昌路１段１５７號１樓,121.5188,25.02927,(02)23972886,羅氏家用新冠病毒抗原自我檢測套組,78,2022/04/30 12:36:02,無
5901184679,汀州藥局,臺北市中正區汀州路１段１８７、１８９、１９１號（１樓）,121.5112,25.02704,(02)23090705,羅氏家用新冠病毒抗原自我檢測套組,78,2022/04/30 12:36:02,快篩實名制，每天16:00開始販售，售完為止。
5901190515,日昇藥局,臺北市萬華區廣州街１２４號,121.5016,25.03654,(02)23062975,羅氏家用新冠病毒抗原自我檢測套組,78,2022/04/30 12:36:02,實名制快篩04／30無配額（沒貨賣）
5901190668,聯慶大藥局,臺北市萬華區萬大路３０６號１樓,121.5003,25.02495,(02)23039850,羅氏家用新冠病毒抗原自我檢測套組,79,2022/04/30 12:36:02,無
5901190784,欣安藥局,臺北市萬華區東園街１９０、１９２號,121.4983,25.02177,(02)23327830,羅氏家用新冠病毒抗原自我檢測套組,78,2022/04/30 12:36:02,每日販售時間13:00售完為止
5901192180,康之友藥局,臺北市萬華區青年路２０號,121.5055,25.02592,(02)23011598,羅氏家用新冠病毒抗原自我檢測套組,78,2022/04/30 12:36:02,下午兩點發號碼牌
5901192822,專品藥局,臺北市萬華區長沙街２段７１－１號,121.5051,25.04062,(02)23718892,羅氏家用新冠病毒抗原自我檢測套組,85,2022/04/30 12:36:02,快篩實名制下午3點發放
5901192975,萬華藥局,臺北市萬華區萬大路２４８號實際營業地址１樓、２樓,121.5003,25.02626,(02)23012221,羅氏家用新冠病毒抗原自我檢測套組,78,2022/04/30 12:36:02,快篩實名制，每天16:00開始販售，售完為止。
5901193070,榮勝藥局,臺北市萬華區萬大路２３３號,121.5006,25.02649,(02)23331121,羅氏家用新冠病毒抗原自我檢測套組,1,2022/04/30 12:36:02,口罩代售時間禮拜一~禮拜六早上9:00開始，現場排隊／ 看診時間早上8:30-12:00，下午3:00-6:00，晚上6:30-10:00
5901193150,日森人文藥局,臺北市萬華區和平西路３段１４９號,121.4988,25.03543,(02)23082100,羅氏家用新冠病毒抗原自我檢測套組,3,2022/04/30 12:36:02,快篩每日11點現場發放號碼牌購買
5901193169,柏祥藥局,臺北市萬華區西藏路１４１號,121.5017,25.02944,(02)23018272,羅氏家用新冠病毒抗原自我檢測套組,77,2022/04/30 12:36:02,1快篩服務時間pm6:00起售完提前截止。2每日pm5:00前預留8份給醫療人員（需本人親持執業執照健保卡）。3現場僅發放70份。
5901193230,啟仁藥局,臺北市萬華區環河南路２段１７７號,121.492,25.03259,(02)23362771,羅氏家用新冠病毒抗原自我檢測套組,78,2022/04/30 12:36:02,六日沒配送停售，一般時間下午2點開始發號碼牌， 發完為止
5901193338,艾米力藥師藥局,臺北市萬華區西藏路１０７－２號１樓,121.5035,25.02955,(02)23036583,羅氏家用新冠病毒抗原自我檢測套組,78,2022/04/30 12:36:02,快篩實名制:上午9:00開始販售（政府固定配送情況下）。4／30因政府配送不穩定，調整為：晚上7:00。
5901200105,建興藥局,臺北市文山區木柵路２段８１號１樓,121.561,24.98889,(02)29399993,羅氏家用新冠病毒抗原自我檢測套組,78,2022/04/30 12:36:02,無
5901200114,健群藥局,臺北市文山區景興路４１號,121.5448,24.99717,(02)29328898,羅氏家用新冠病毒抗原自我檢測套組,78,2022/04/30 12:36:02,無
5901200123,瑞安藥局,臺北市文山區溪口街６９－１號１樓,121.5393,24.99512,(02)29312888,羅氏家用新冠病毒抗原自我檢測套組,78,2022/04/30 12:36:02,早上8:30起服務星期日休息
5901200141,景美藥局,臺北市文山區景文街１２５號,121.5412,24.99033,(02)29335741,羅氏家用新冠病毒抗原自我檢測套組,1,2022/04/30 12:36:02,無
5901200490,永明大藥局,臺北市文山區興隆路１段２９７號１樓,121.5449,24.99875,(02)29314428,羅氏家用新冠病毒抗原自我檢測套組,78,2022/04/30 12:36:02,無
5901201568,康宜庭生活藥局,臺北市文山區興隆路４段６４號,121.5613,24.98514,(02)29385363,羅氏家用新冠病毒抗原自我檢測套組,78,2022/04/30 12:36:02,實名快篩14:00開賣 現場排隊
5901201728,東京晟藥局,臺北市文山區辛亥路４段９７號,121.5587,25.00684,(02)29356354,羅氏家用新冠病毒抗原自我檢測套組,18,2022/04/30 12:36:02,周日不銷售實名制快篩，預領號碼牌購買
5901202047,華君藥局,臺北市文山區興隆路２段６０號,121.5478,24.99955,(02)29319510,羅氏家用新冠病毒抗原自我檢測套組,1,2022/04/30 12:36:02,每天12:00開始販售快篩
5901202627,杏隆藥局,臺北市文山區羅斯福路５段２６１號,121.5395,25.00115,(02)29313151,羅氏家用新冠病毒抗原自我檢測套組,65,2022/04/30 12:36:02,快篩實名制採預約登記，至5／5已登記額滿。
5901202645,永源大藥局,臺北市文山區興隆路３段３０２號,121.5588,24.99312,(02)22396166,羅氏家用新冠病毒抗原自我檢測套組,78,2022/04/30 12:36:02,口罩販售時段原本21:00，但藥局會視人數多寡滾動式調整提早發放快篩避免群聚，根據4／28情況約20:00開始發售，約45鐘完售
5901202654,康宜庭萬隆藥局,臺北市文山區羅斯福路５段２０２號,121.5384,25.00322,(02)29348662,羅氏家用新冠病毒抗原自我檢測套組,78,2022/04/30 12:36:02,實名快篩 今日配量已到店 14:00開賣 現場排隊
5901202841,欣安景美藥局,臺北市文山區景文街７７號,121.5414,24.99126,(02)29316008,羅氏家用新冠病毒抗原自我檢測套組,78,2022/04/30 12:36:02,每天快篩劑AM10：00發號碼牌PM14:00開始販賣售完為止
5901202958,杏一萬安藥局,臺北市文山區萬安街１５號,121.5706,25.00139,(02)22302126,羅氏家用新冠病毒抗原自我檢測套組,78,2022/04/30 12:36:02,營業時間0900-2200
5901203062,大樹文山藥局,臺北市文山區興隆路３段１３號（１、２、３樓）,121.555,25.00088,(02)29342226,羅氏家用新冠病毒抗原自我檢測套組,78,2022/04/30 12:36:02,口罩販售時間：14:00 - 16:00
5901203124,福興藥局,臺北市文山區福興路５６號,121.5505,25.00345,(02)89313868,羅氏家用新冠病毒抗原自我檢測套組,78,2022/04/30 12:36:02,領快篩時間:周一到周六，下午2點開放購買快篩，1人1卡1份
5901203179,健安藥局,臺北市文山區景興路１６５號,121.5447,24.99346,(02)29323757,羅氏家用新冠病毒抗原自我檢測套組,76,2022/04/30 12:36:02,周一到周六.每天下午三點開賣.現場排隊不發號碼牌
5901203213,綠杏萬芳藥局,臺北市文山區興隆路３段１１１號,121.5583,25.00031,(02)29349516,羅氏家用新冠病毒抗原自我檢測套組,3,2022/04/30 12:36:02,快篩販售時間週一至週六08:30-13:00（發號碼牌）
5901203295,專品政大藥局,臺北市文山區指南路２段８號,121.5742,24.98784,(02)22343010,羅氏家用新冠病毒抗原自我檢測套組,78,2022/04/30 12:36:02,無
5901203366,大樹木柵藥局,臺北市文山區木柵路３段１０８號、１１０號（１樓、２樓）,121.5676,24.98866,(02)22340110,羅氏家用新冠病毒抗原自我檢測套組,78,2022/04/30 12:36:02,快篩實名制，每天16:00開始販售，售完為止。
5901203375,大樹景美藥局,臺北市文山區羅斯福路６段２３４之１號,121.5404,24.99244,(02)29322951,羅氏家用新冠病毒抗原自我檢測套組,78,2022/04/30 12:36:02,快篩實名制，每天16:00開始販售，售完為止。
5901203400,富康活力睦新藥局,臺北市文山區木新路３段２１６號,121.5595,24.98153,(02)29393666,羅氏家用新冠病毒抗原自我檢測套組,78,2022/04/30 12:36:02,無
5901203419,康宜庭興隆藥局,臺北市文山區興隆路３段２００號１樓,121.559,24.99779,(02)22304866,羅氏家用新冠病毒抗原自我檢測套組,78,2022/04/30 12:36:02,無
5901203428,康宜庭景文藥局,臺北市文山區景文街９７號１樓,121.5413,24.99093,(02)29302801,羅氏家用新冠病毒抗原自我檢測套組,79,2022/04/30 12:36:02,營業時間為08:30-22:30；14:00開始發放快篩實名制號碼牌並立即販售，謝謝您的配合
5901203446,景華盛康藥局,臺北市文山區景華街６９號１樓,121.545,24.99524,(02)29310188,羅氏家用新冠病毒抗原自我檢測套組,78,2022/04/30 12:36:02,快篩販售時間:早上9點開賣，現場發送號碼牌
5901203464,大愛幸福藥局,臺北市文山區木新路２段２２１號１樓,121.5675,24.98344,(02)29379977,羅氏家用新冠病毒抗原自我檢測套組,78,2022/04/30 12:36:02,無
5901203473,晴天藥局,臺北市文山區萬壽路１５號（１樓）,121.576,24.98811,(02)29363131,羅氏家用新冠病毒抗原自我檢測套組,78,2022/04/30 12:36:02,實名制快篩: 周一~周六下午3點憑卡（一人限2張卡）販售喔! 祝您身心愉快、有如晴天、疫情早日退散!
5901203482,健康家藥局,臺北市文山區興隆路２段１３３號１樓,121.5481,25.00011,(02)29330858,羅氏家用新冠病毒抗原自我檢測套組,78,2022/04/30 12:36:02,實名制快篩下午一點開始販售，5／1店休
5902010132,宏恩藥局,高雄市鹽埕區教仁里瀨南街１３３號,120.2823,22.62472,(07)5211318,羅氏家用新冠病毒抗原自我檢測套組,78,2022/04/30 12:36:02,早上10點開始執業「藥局販售口罩時間，依藥局門口公告時間為主（售完為止）」
5902011291,長庚藥局,高雄市鹽埕區五福四路１６３號一樓,120.2834,22.62347,(07)5513436,羅氏家用新冠病毒抗原自我檢測套組,72,2022/04/30 12:36:02,無
5902020012,永松藥局,高雄市鼓山區鼓山三路１３０－１５號,120.2802,22.66454,(07)5810657,羅氏家用新冠病毒抗原自我檢測套組,85,2022/04/30 12:36:02,周一到周日早上9點開始賣口罩，到晚上10點.
5902021377,藍玉藥局,高雄市鼓山區鼓峰里九如四路２００２號,120.2861,22.66774,(07)5837528,羅氏家用新冠病毒抗原自我檢測套組,6,2022/04/30 12:36:02,賣口罩時間：周一至週五早上9:30起，售完為止。
5902022794,定國藥局,高雄市鼓山區九如四路１１３５號,120.2791,22.65936,(07)5815858,羅氏家用新冠病毒抗原自我檢測套組,71,2022/04/30 12:36:02,無
5902022801,裕康中西大藥局,高雄市鼓山區裕誠路１５１９號,120.2951,22.66479,(07)5555352,羅氏家用新冠病毒抗原自我檢測套組,2,2022/04/30 12:36:02,藥局販售口罩時間，依藥局門口公告時間為主（售完為止）
5902022874,康爾喜藥局,高雄市鼓山區慶豐街５０號,120.2935,22.66647,(07)5222650,羅氏家用新冠病毒抗原自我檢測套組,66,2022/04/30 12:36:02,早上9點半後開始販售口罩，營業時間為早上9:10至晚間10:00
5902022972,高雄藥局,高雄市鼓山區九如四路９２４號,120.2793,22.65466,(07)5214266,羅氏家用新冠病毒抗原自我檢測套組,49,2022/04/30 12:36:02,賣口罩時間為週一～週六晚上6點，售完為止
5902030643,新高橋藥局,高雄市左營區民族一路１０２８號,120.3201,22.68255,(07)3100696,羅氏家用新冠病毒抗原自我檢測套組,2,2022/04/30 12:36:02,下午2:30開始販售口罩
5902031999,平安藥局,高雄市左營區中華一路５之１號,120.287,22.66961,(07)5833688,羅氏家用新冠病毒抗原自我檢測套組,20,2022/04/30 12:36:02,無
5902032174,光明健保藥局,高雄市左營區翠華路６０１巷８３號,120.2893,22.67277,(07)5812499,羅氏家用新冠病毒抗原自我檢測套組,3,2022/04/30 12:36:02,固定周一至周六08:30開始現場排隊販售口罩售完為止周六營業半天
5902032432,威林藥局,高雄市左營區華夏路７２１號,120.3023,22.67845,(07)3414243,羅氏家用新冠病毒抗原自我檢測套組,62,2022/04/30 12:36:02,營業時間販售口罩（售完為止），星期一~五早上9:00~晚上9:00，星期六早上09:00~下午5:00執業
5902032441,健怡藥局,高雄市左營區翠峰路４０號,120.2897,22.67229,(07)5821891,羅氏家用新冠病毒抗原自我檢測套組,49,2022/04/30 12:36:02,快篩星期一~星期日早上8:30開始販售
5902032450,可達藥局,高雄市左營區榮德街１７７號,120.3205,22.68359,(07)3420182,羅氏家用新冠病毒抗原自我檢測套組,45,2022/04/30 12:36:02,無
5902032530,杏光藥局,高雄市左營區果峰街４７巷１號１樓,120.2869,22.6703,(07)5837060,羅氏家用新冠病毒抗原自我檢測套組,25,2022/04/30 12:36:02,上午營業時間為9 :00~12:00；晚上營業至21:30
5902032674,辰暘藥局,高雄市左營區富民路１２０號１、２樓,120.3054,22.66066,(07)5588545,羅氏家用新冠病毒抗原自我檢測套組,72,2022/04/30 12:36:02,口罩販售時間09:30-21:30
5902040014,成吉藥局,高雄市楠梓區楠梓東街７４號,120.3301,22.72966,(07)3513339,羅氏家用新冠病毒抗原自我檢測套組,78,2022/04/30 12:36:02,下午6點開始販賣實名制快篩，售完為止!!!星期日店休
5902040069,新友藥局,高雄市楠梓區萬昌路１１１號,120.2895,22.71194,(07)3653534,羅氏家用新冠病毒抗原自我檢測套組,35,2022/04/30 12:36:02,藥局販售口罩時間，依藥局門口公告時間為主（售完為止）
5902040087,世詠藥局,高雄市楠梓區楠都東街１３８號,120.3262,22.72532,(07)3539869,羅氏家用新冠病毒抗原自我檢測套組,78,2022/04/30 12:36:02,快篩周一~周五早上9:00-21:30周六.日下午15:00-21:30，售完為止
5902040210,益民藥局,高雄市楠梓區建楠路４７號,120.3287,22.72659,(07)3522161,羅氏家用新冠病毒抗原自我檢測套組,78,2022/04/30 12:36:02,星期一至星期五 號碼牌發放時間自10:00  星期六   不發放口罩   星期日號碼牌發放時間自 15:00
5902040498,順明藥局,高雄市楠梓區和光街６５號,120.2939,22.70717,(07)3615574,羅氏家用新冠病毒抗原自我檢測套組,10,2022/04/30 12:36:02,營業時間早上 9:00～晚上9:30
5902040532,聯亞藥局,高雄市楠梓區軍校路７１０號,120.293,22.70779,(07)3638387,羅氏家用新冠病毒抗原自我檢測套組,78,2022/04/30 12:36:02,口罩販賣時段：上午8：30起至售完為止
5902042563,天健藥局,高雄市楠梓區後昌路１０８７號,120.2922,22.71718,(07)3634179,羅氏家用新冠病毒抗原自我檢測套組,4,2022/04/30 12:36:02,早上九點販售口罩
5902042769,家安藥局,高雄市楠梓區後昌新路１３號１樓,120.2917,22.71844,(07)3600066,羅氏家用新冠病毒抗原自我檢測套組,47,2022/04/30 12:36:02,無
5902050092,明曜藥局,高雄市三民區澄和路９６號,120.3441,22.64481,(07)3803807,羅氏家用新冠病毒抗原自我檢測套組,78,2022/04/30 12:36:02,營業日13:30販售快篩當場排隊.當場販售.售完為止
5902050298,瑞鶴藥局,高雄市三民區寶德里義德路２５號,120.3352,22.64301,(07)3862757,羅氏家用新冠病毒抗原自我檢測套組,19,2022/04/30 12:36:02,下午2:00至4:30午休勿擾，每日09:00至21:00發售快篩。
5902050350,日星藥局,高雄市三民區寶龍里惠德街３８號,120.3241,22.64741,(07)3845188,羅氏家用新冠病毒抗原自我檢測套組,55,2022/04/30 12:36:02,銷售口罩時間:星期一至五16:00-22:00；星期六09:00-11:30，售完為止
5902050412,春仁藥局,高雄市三民區覺民路２２５號,120.3391,22.63944,(07)3962341,羅氏家用新冠病毒抗原自我檢測套組,32,2022/04/30 12:36:02,4／1-4／30售時間自9；00-22:00現場排隊.（賣完為止）
5902050565,澄和藥局,高雄市三民區澄和路６６號,120.3445,22.64474,(07)3923111,羅氏家用新冠病毒抗原自我檢測套組,78,2022/04/30 12:36:02,快篩試劑- 販售時間自下午14:00起至售完為止
5902050636,嘉益藥局,高雄市三民區重慶街３０號,120.302,22.64223,(07)3110157,羅氏家用新冠病毒抗原自我檢測套組,43,2022/04/30 12:36:02,無
5902050798,友泰藥局,高雄市三民區中和街１６９號,120.2868,22.6388,(07)3125236,羅氏家用新冠病毒抗原自我檢測套組,76,2022/04/30 12:36:02,無
5902050903,皇安藥局,高雄市三民區九如一路４６１號,120.3296,22.63865,(07)3866779,羅氏家用新冠病毒抗原自我檢測套組,49,2022/04/30 12:36:02,營業日08:15~08:30可先領取號碼牌，上午08:30~12:00及下午3:00~10:.00為販賣口罩時間，售完為止
5902051240,明皇藥局,高雄市三民區寶國里義華路１８１號,120.3399,22.64276,(07)3860121,羅氏家用新冠病毒抗原自我檢測套組,52,2022/04/30 12:36:02,藥局販售口罩時間，依藥局門口公告時間為主（售完為止）
5902051642,安寧藥局,高雄市三民區嫩江街３９號,120.2981,22.64208,(07)3217585,羅氏家用新冠病毒抗原自我檢測套組,23,2022/04/30 12:36:02,星日不賣口罩
5902051786,億生藥局,高雄市三民區南台路２００號,120.2982,22.63706,(07)2873436,羅氏家用新冠病毒抗原自我檢測套組,78,2022/04/30 12:36:02,「藥局販售口罩時間，依藥局門口公告時間為主（售完為止）」
5902053833,建銘藥局,高雄市三民區吉林街２６２號,120.3068,22.64818,(07)3133460,羅氏家用新冠病毒抗原自我檢測套組,19,2022/04/30 12:36:02,0900營業時間販賣口罩.售完為止
5902054689,善全藥局,高雄市三民區義華路３９１號,120.3332,22.64339,(07)3960269,羅氏家用新冠病毒抗原自我檢測套組,16,2022/04/30 12:36:02,口罩代售有營業即販售，.其它看休息公告
5902056718,岱安藥局,高雄市三民區熱河二街２３號,120.3018,22.6439,(07)3219946,羅氏家用新冠病毒抗原自我檢測套組,73,2022/04/30 12:36:02,下午1點開始販售實名制快篩（日公休）
5902056754,大家藥局,高雄市三民區鼎中路２２９號１樓,120.3191,22.66421,(07)3107632,羅氏家用新冠病毒抗原自我檢測套組,74,2022/04/30 12:36:02,實名制快篩販售時間-08:30-12:00
5902056807,長慶藥局,高雄市三民區金鼎路３１０號,120.3207,22.66513,(07)3105835,羅氏家用新冠病毒抗原自我檢測套組,48,2022/04/30 12:36:02,自110／01／01-110／12／31，營業日早上08:30至晚上10:30為販賣口罩時間.售完為止
5902057126,民安藥局,高雄市三民區嫩江街７０號,120.2985,22.64282,(07)3121381,羅氏家用新冠病毒抗原自我檢測套組,15,2022/04/30 12:36:02,藥局販售口罩時間，依藥局門口公告時間為主（售完為止），週日休息
5902057288,育英藥局,高雄市三民區灣子里和順街３９號,120.3159,22.65336,(07)3824467,羅氏家用新冠病毒抗原自我檢測套組,33,2022/04/30 12:36:02,營業時間:8:30-21:00， 週日休息
5902057368,崧民藥師藥局,高雄市三民區金鼎路２２８號,120.3238,22.66483,(07)3102496,羅氏家用新冠病毒抗原自我檢測套組,78,2022/04/30 12:36:02,服務時間9:00-22:30自01／01日~1月29日
5902057484,永勝藥局,高雄市三民區褒忠街１１４號,120.334,22.64262,(07)3814643,羅氏家用新冠病毒抗原自我檢測套組,62,2022/04/30 12:36:02,口罩代售時間14:00--16:00.現場排隊.週日休
5902057493,上泰藥局,高雄市三民區鼎山街５６９號,120.3177,22.65148,(07)3987396,羅氏家用新冠病毒抗原自我檢測套組,1,2022/04/30 12:36:02,販售實名制口罩時間早上10:00開始.晚上10點為止假日店休
5902057546,華南藥局,高雄市三民區中和街１２４號,120.2878,22.63941,(07)3127483,羅氏家用新冠病毒抗原自我檢測套組,78,2022/04/30 12:36:02,快篩代售時間9:00起，售完為止，12點-1點，5點-6點30分用餐時間不代售，週日不代售。
5902057902,利安藥局,高雄市三民區建工路５４５號,120.3213,22.64854,(07)3965550,羅氏家用新冠病毒抗原自我檢測套組,1,2022/04/30 12:36:02,營業日9:00AM起販賣口罩，售完為止
5902060025,連作藥局,高雄市新興區大同一路２０３－１號,120.3003,22.62856,(07)2154716,羅氏家用新冠病毒抗原自我檢測套組,83,2022/04/30 12:36:02,快篩試紙領用時間為每日下午2點  4／29日起，28日已售完
5902060150,永明藥局,高雄市新興區仁智街２２３號,120.3027,22.62084,(07)2619832,羅氏家用新冠病毒抗原自我檢測套組,8,2022/04/30 12:36:02,無
5902061540,長青藥局,高雄市新興區六合路１１４號,120.3159,22.63223,(07)2223969,羅氏家用新冠病毒抗原自我檢測套組,62,2022/04/30 12:36:02,上午8點40分   領完為止
5902071546,中華藥局,高雄市前金區中華四路３６３號,120.2987,22.62137,(07)2712779,羅氏家用新冠病毒抗原自我檢測套組,78,2022/04/30 12:36:02,星期日固定休假
5902080474,弘宗藥局,高雄市苓雅區武智街２號,120.3356,22.62303,(07)7211088,羅氏家用新冠病毒抗原自我檢測套組,63,2022/04/30 12:36:02,8:00~22:00（營業時段）
5902080858,福興藥局,高雄市苓雅區成功一路５２號,120.2983,22.6131,(07)3331862,羅氏家用新冠病毒抗原自我檢測套組,39,2022/04/30 12:36:02,每日上午九點販賣快篩試劑售完止.營業時間9-21時.
5902081015,明群藥局,高雄市苓雅區英明路５４號,120.3253,22.61276,(07)7254953,羅氏家用新冠病毒抗原自我檢測套組,43,2022/04/30 12:36:02,周一至周日每日8:00開始販售防疫口罩依現場排隊序販賣售完為止
5902081186,寶麒藥局,高雄市苓雅區三多一路１４４號,120.3315,22.62306,(07)7610355,羅氏家用新冠病毒抗原自我檢測套組,46,2022/04/30 12:36:02,防疫口罩販售時段:周一至周六早上約9點開始販售，滿規定2小時後視狀況再延長販售時間，周日休息.
5902084703,瑞生藥局,高雄市苓雅區自強三路３１號,120.2996,22.61376,(07)3305239,羅氏家用新冠病毒抗原自我檢測套組,3,2022/04/30 12:36:02,自6／1日~12／31日，營業日09:30~23:00為販賣口罩時間.售完為止
5902084785,新良安藥局,高雄市苓雅區苓雅二路１０６號,120.2987,22.61731,(07)3386980,羅氏家用新冠病毒抗原自我檢測套組,78,2022/04/30 12:36:02,無
5902084801,邱吉祥藥局,高雄市苓雅區凱旋二路１３５號,120.3218,22.62917,(07)2226055,羅氏家用新冠病毒抗原自我檢測套組,34,2022/04/30 12:36:02,口罩代售時間週一至週六早上08:30現場賣
5902085031,上好藥局,高雄市苓雅區四維一路六三號一樓,120.3294,22.6257,(07)7266863,羅氏家用新冠病毒抗原自我檢測套組,43,2022/04/30 12:36:02,快篩販售時間.每日上午11:00~下午13:00
5902085148,召祐健保藥局,高雄市苓雅區正義路９３號,120.3385,22.63037,(07)7493719,羅氏家用新冠病毒抗原自我檢測套組,36,2022/04/30 12:36:02,無
5902085184,惠春藥局,高雄市苓雅區武慶三路９６號,120.3319,22.62043,(07)7611358,羅氏家用新冠病毒抗原自我檢測套組,63,2022/04/30 12:36:02,「藥局販售口罩時間，依藥局門口公告時間為主（售完為止）」
5902085228,永森藥局,高雄市苓雅區建國一路２９０號,120.3262,22.63308,(07)7163087,羅氏家用新冠病毒抗原自我檢測套組,27,2022/04/30 12:36:02,快篩代售時間:營業時間
5902085344,意祥藥局,高雄市苓雅區武廟路１４２之１號,120.3276,22.63125,(07)7224835,羅氏家用新冠病毒抗原自我檢測套組,15,2022/04/30 12:36:02,藥局販售口罩時間，依藥局門口公告時間為主（售完為止）
5902085371,加和藥局,高雄市苓雅區和平一路１４３之７號,120.3205,22.62331,(07)7219332,羅氏家用新冠病毒抗原自我檢測套組,78,2022/04/30 12:36:02,無
5902090032,全國大藥局,高雄市前鎮區三多二路４０３號１樓,120.3166,22.61777,(07)3345775,羅氏家用新冠病毒抗原自我檢測套組,78,2022/04/30 12:36:02,快篩實名制下午13:30開始..賣完為止
5902090087,久億藥局,高雄市前鎮區保泰路３５１號,120.3341,22.60289,(07)7619333,羅氏家用新冠病毒抗原自我檢測套組,78,2022/04/30 12:36:02,無實名制口罩
5902090827,博平藥局,高雄市前鎮區草衙二路３７７號,120.3224,22.57808,(07)8311814,羅氏家用新冠病毒抗原自我檢測套組,78,2022/04/30 12:36:02,藥局販售口罩時間，依藥局門口公告時間為主（售完為止）
5902091100,佳加藥局,高雄市前鎮區瑞北路１１４號,120.3325,22.60923,(07)7228112,羅氏家用新冠病毒抗原自我檢測套組,78,2022/04/30 12:36:02,無
5902091128,北京藥局,高雄市前鎮區公正路３１號,120.3322,22.60291,(07)7113100,羅氏家用新冠病毒抗原自我檢測套組,78,2022/04/30 12:36:02,口罩發放方式，上午9；00現場過健保卡領取口罩。
5902092296,迎廣藥局,高雄市前鎮區林森三路１５０號２樓,120.3089,22.61357,(07)3321466,羅氏家用新冠病毒抗原自我檢測套組,39,2022/04/30 12:36:02,週一至周六08:30至12:00  15:00至18:00   星期日休
5902092410,旺盛藥局,高雄市前鎮區永豐路１０８號,120.3337,22.6065,(07)7512899,羅氏家用新冠病毒抗原自我檢測套組,76,2022/04/30 12:36:02,過年期間 111／01／31下午至111／02／03  休診
5902092896,廣泰藥局,高雄市前鎮區瑞北路５６號,120.3346,22.60931,(07)7162166,羅氏家用新冠病毒抗原自我檢測套組,78,2022/04/30 12:36:02,固定周一至周六，依店內公告為準
5902092910,健家藥局,高雄市前鎮區二聖二路４５號,120.3165,22.61293,(07)3389986,羅氏家用新冠病毒抗原自我檢測套組,78,2022/04/30 12:36:02,早上9:30開始販售口罩，售完為止，週日不販售
5902092956,慈濟健保藥局,高雄市前鎮區鎮州路２１１號,120.3082,22.58819,(07)8159788,羅氏家用新冠病毒抗原自我檢測套組,78,2022/04/30 12:36:02,每天早上8點開始賣.售完為止藥局販售口罩時間，依藥局門口公告時間為主（售完為止）
5902100033,旗后藥局,高雄市旗津區中洲三路７１５號,120.2705,22.61096,(07)5715838,羅氏家用新冠病毒抗原自我檢測套組,78,2022/04/30 12:36:02,無
5902110093,鳳明中西大藥局,高雄市小港區二苓路２４７號,120.3477,22.56534,(07)8011846,羅氏家用新冠病毒抗原自我檢測套組,78,2022/04/30 12:36:02,實名制快篩 :星期1 到 星期6 下午2點開賣
5902110422,臨生藥局,高雄市小港區鳳鳴路１４６－４號,120.3588,22.51445,(07)8711290,羅氏家用新冠病毒抗原自我檢測套組,47,2022/04/30 12:36:02,早上9:00開始販售快篩劑售完為止。
5902110628,悅是康藥局,高雄市小港區漢民路２７６號,120.3536,22.56665,(07)8010012,羅氏家用新冠病毒抗原自我檢測套組,78,2022/04/30 12:36:02,4／30下午3:30開賣
5902111670,桂林活力藥師藥局,高雄市小港區桂陽路４０號,120.3575,22.58194,(07)7931248,羅氏家用新冠病毒抗原自我檢測套組,78,2022/04/30 12:36:02,自2／11日~2／29日，營業日08:30及13:00各50份為販賣口罩時間.售完為止
5903010127,友誠藥局,臺中市豐原區豐東路４０１號１樓,120.7336,24.25457,(04)25132371,羅氏家用新冠病毒抗原自我檢測套組,78,2022/04/30 12:36:02,禮拜一至禮拜日快篩發放時間下午兩點開始販售，售完為止。
5903010261,豐原西勢藥局,臺中市豐原區西勢路２００號１樓,120.7067,24.24379,(04)25262330,羅氏家用新冠病毒抗原自我檢測套組,78,2022/04/30 12:36:02,實名制快篩販售時間:下午兩點開始，至銷售完畢
5903010350,甲蒂健保藥局,臺中市豐原區豐東路３０８號,120.7331,24.25093,(04)25256028,羅氏家用新冠病毒抗原自我檢測套組,58,2022/04/30 12:36:02,9點開始發號碼牌購買
5903010458,心之藥局,臺中市豐原區中山路５０４號,120.7149,24.25009,(04)25254959,羅氏家用新冠病毒抗原自我檢測套組,77,2022/04/30 12:36:02,周一至周五 12:30
5903010485,大樹圓環藥局,臺中市豐原區圓環東路６１７號１樓,120.7283,24.25084,(04)25122212,羅氏家用新冠病毒抗原自我檢測套組,78,2022/04/30 12:36:02,口罩販售時間：14:00 - 16:00
5903020034,國良豐藥局,臺中市東勢區豐勢路２１號１樓,120.8318,24.24779,(04)25885778,羅氏家用新冠病毒抗原自我檢測套組,78,2022/04/30 12:36:02,快篩試劑下午2:00開始
5903040036,得康藥局,臺中市清水區高美路１１７號,120.5753,24.27879,(04)26260622,羅氏家用新冠病毒抗原自我檢測套組,78,2022/04/30 12:36:02,4／30因延遲到貨，於15:00開賣
5903050103,北勢進騰藥局,臺中市沙鹿區北勢東路５０９之７號１樓,120.576,24.22526,(04)26330893,羅氏家用新冠病毒抗原自我檢測套組,78,2022/04/30 12:36:02,營業時間12:00-22:00，每日12:00販售實名制快篩
5903050194,樂齊藥局,臺中市沙鹿區北中路８６－１、８６－２號,120.5692,24.22827,(04)26338867,羅氏家用新冠病毒抗原自我檢測套組,78,2022/04/30 12:36:02,防疫家用快篩試劑每日19點開賣，售完為止，庫存請依現場為主。
5903050238,百岳大藥局,臺中市沙鹿區鎮南路二段７７號１樓,120.5697,24.21895,(04)26359825,羅氏家用新冠病毒抗原自我檢測套組,78,2022/04/30 12:36:02,9:00憑健保卡購買口罩
5903050274,鹿寮藥局,臺中市沙鹿區中山路４６１、４６１－１號１、２樓,120.5615,24.24387,(04)26630677,羅氏家用新冠病毒抗原自我檢測套組,78,2022/04/30 12:36:02,快篩實名制，每天16:00開始販售，售完為止。
5903060010,大芳藥局,臺中市梧棲區中央路１段９０７號,120.5381,24.24742,(04)26561755,羅氏家用新冠病毒抗原自我檢測套組,78,2022/04/30 12:36:02,快篩試劑.下午兩點開始販售
5903060092,佑全梧棲文化藥局,臺中市梧棲區文化路二段１５０號１樓,120.531,24.25526,(04)26566433,羅氏家用新冠病毒抗原自我檢測套組,78,2022/04/30 12:36:02,無
5903070098,祐恩藥局,臺中市后里區甲后路一段４７８號１樓,120.6819,24.3157,(04)25587518,羅氏家用新冠病毒抗原自我檢測套組,78,2022/04/30 12:36:02,固定周一到周六，國定例假日照常調劑藥服務。清明、端午、中秋節晚上休息。
5903070132,內埔瑞士藥師藥局,臺中市后里區中山路３７號１樓,120.7113,24.30446,(04)25566959,羅氏家用新冠病毒抗原自我檢測套組,78,2022/04/30 12:36:02,發放口罩以藥局店內公告為主
5903070169,佑全后里甲后藥局,臺中市后里區甲后路一段７２８號１、２樓,120.7193,24.30951,(04)25583116,羅氏家用新冠病毒抗原自我檢測套組,78,2022/04/30 12:36:02,實名制快篩每日14:00販售。13:50發放號碼牌。
5903080094,灃洲大藥局,臺中市神岡區豐洲路４６６－３號１樓,120.7045,24.26179,(04)25150169,羅氏家用新冠病毒抗原自我檢測套組,2,2022/04/30 12:36:02,星期日公休
5903080138,佑全神岡中山藥局,臺中市神岡區中山路５４９、５４９之１、５４９之２號１樓,120.6842,24.24638,(04)25634677,羅氏家用新冠病毒抗原自我檢測套組,78,2022/04/30 12:36:02,無
5903090072,元康健保藥局,臺中市潭子區圓通南路１９６號１樓,120.7043,24.20725,(04)25353893,羅氏家用新冠病毒抗原自我檢測套組,78,2022/04/30 12:36:02,下午3點現場分號碼後  依序賣口罩
5903090143,佳福藥局,臺中市潭子區中山路１段４３－１號,120.7023,24.19138,(04)25332982,羅氏家用新冠病毒抗原自我檢測套組,78,2022/04/30 12:36:02,每日中午12:00至下午3:00休息，星期六公休
5903090330,潭子炘星藥局,臺中市潭子區中山路一段９７號１樓,120.7023,24.19319,(04)25320107,羅氏家用新冠病毒抗原自我檢測套組,72,2022/04/30 12:36:02,12:00~15:00中午休息時間 4／30快篩下午3:30開始販售
5903090429,佑全潭子中山藥局,臺中市潭子區中山路一段９之１號,120.7023,24.18847,(04)25356140,羅氏家用新冠病毒抗原自我檢測套組,78,2022/04/30 12:36:02,健保實聯制購買時間:14:00開始販售，13:50開始發號碼牌，售完為止。
5903100135,大雅安德藥局,臺中市大雅區中清東路２２９號１樓,120.6469,24.22459,(04)25604133,羅氏家用新冠病毒抗原自我檢測套組,78,2022/04/30 12:36:02,實名制快篩試劑13:30現場領取號碼牌，14:00開始販賣
5903100180,杏一大雅中清藥局,臺中市大雅區中清路四段３１、３３、３５號１樓,120.6448,24.22615,(04)25601791,羅氏家用新冠病毒抗原自我檢測套組,78,2022/04/30 12:36:02,無
5903100206,民生藥局,臺中市大雅區民生路一段２２１號１樓,120.6512,24.22789,(04)25662229,羅氏家用新冠病毒抗原自我檢測套組,78,2022/04/30 12:36:02,快篩實名制，每天16:00開始販售，售完為止。
5903100215,佑全大雅雅環藥局,臺中市大雅區雅環路二段８８號１樓,120.653,24.22634,(04)25605942,羅氏家用新冠病毒抗原自我檢測套組,78,2022/04/30 12:36:02,無
5903150135,全品藥局,臺中市烏日區公園路２４０之１號１樓,120.6254,24.10234,(04)23362690,羅氏家用新冠病毒抗原自我檢測套組,78,2022/04/30 12:36:02,防疫口罩每日上午8時30分開始販售
5903150153,溪南藥局,臺中市烏日區溪南路一段５６５號１樓,120.6431,24.07523,(04)23353666,羅氏家用新冠病毒抗原自我檢測套組,78,2022/04/30 12:36:02,快篩實名制，每天16:00開始販售，售完為止。
5903150180,九德藥局,臺中市烏日區中山路一段４３８、４４０號１樓,120.6365,24.10748,(04)23385456,羅氏家用新冠病毒抗原自我檢測套組,78,2022/04/30 12:36:02,快篩實名制，每天16:00開始販售，售完為止。
5903160042,大肚新庄藥局,臺中市大肚區遊園路２段２２１－３號１樓,120.5808,24.17376,(04)26912119,羅氏家用新冠病毒抗原自我檢測套組,78,2022/04/30 12:36:02,每天下午3點開始排隊販賣，賣完為止
5903170048,龍井新庄藥局,臺中市龍井區遊園南路１７９號１樓,120.5843,24.18216,(04)26322169,羅氏家用新冠病毒抗原自我檢測套組,78,2022/04/30 12:36:02,實名制快篩每日下午3點半開賣
5903180062,霧峰安德藥局,臺中市霧峰區中正路１１３５號１樓,120.6992,24.07002,(04)23300365,羅氏家用新冠病毒抗原自我檢測套組,77,2022/04/30 12:36:02,快篩代售時間14:00。售完即提早結束。
5903180115,永合藥局,臺中市霧峰區中正路９６５號,120.6989,24.06597,(04)23391910,羅氏家用新冠病毒抗原自我檢測套組,78,2022/04/30 12:36:02,無
5903180133,正開心大藥局,臺中市霧峰區中正路９５１號１樓,120.6987,24.06565,(04)23396940,羅氏家用新冠病毒抗原自我檢測套組,77,2022/04/30 12:36:02,0900開始販賣快篩。
5903180142,峰正藥局,臺中市霧峰區中正路８３０號１樓,120.6987,24.06244,(04)23303353,羅氏家用新冠病毒抗原自我檢測套組,78,2022/04/30 12:36:02,快篩實名制，每天16:00開始販售，售完為止。
5903190139,劍橋藥局,臺中市太平區宜昌路５５２號１樓,120.7157,24.14758,(04)22776619,羅氏家用新冠病毒抗原自我檢測套組,78,2022/04/30 12:36:02,星期一到星期六
5903190148,亞洲藥師連鎖大藥局,臺中市太平區中山路２段４５８號,120.7253,24.14984,(04)23921681,羅氏家用新冠病毒抗原自我檢測套組,78,2022/04/30 12:36:02,實名制快篩，每天14:30開賣，一人一卡，請自備500元
5903190228,中山德侑藥局,臺中市太平區中山路３段２之２號１樓,120.7222,24.14942,(04)23920682,羅氏家用新冠病毒抗原自我檢測套組,64,2022/04/30 12:36:02,每日上午現場9:00販售口罩
5903190273,太平小林健保藥局,臺中市太平區育賢路５１８號,120.7133,24.15883,(04)23954436,羅氏家用新冠病毒抗原自我檢測套組,56,2022/04/30 12:36:02,每天早上8點發號碼牌，下午4:30販售口罩
5903190291,新平和藥局,臺中市太平區光興路８２７號１樓,120.7307,24.11198,(04)22771262,羅氏家用新冠病毒抗原自我檢測套組,1,2022/04/30 12:36:02,如需領藥請先電話洽詢。口罩現場販售.不用排隊
5903190362,太平中山藥局,臺中市太平區中山路４段１１號,120.7139,24.14931,(04)23959200,羅氏家用新冠病毒抗原自我檢測套組,78,2022/04/30 12:36:02,快篩實名制，每天16:00開始販售，售完為止。
5903190380,及宏藥局,臺中市太平區樹孝路５０２號,120.7205,24.15806,(04)23919911,羅氏家用新冠病毒抗原自我檢測套組,33,2022/04/30 12:36:02,5／3起快篩發放時段為晚間6:30開始，詳情請隨時看臉書公告
5903190497,太平惠民藥師藥局,臺中市太平區東平路３６８號１樓,120.7267,24.13433,(04)22768799,羅氏家用新冠病毒抗原自我檢測套組,78,2022/04/30 12:36:02,周一到周日
5903190586,樹孝炘星藥局,臺中市太平區樹孝路４７６號１樓,120.7203,24.15735,(04)23929578,羅氏家用新冠病毒抗原自我檢測套組,78,2022/04/30 12:36:02,快篩早上8:00開賣，售完為止！周六固定休息
5903190666,川越藥局,臺中市太平區新興二街１３６號１樓,120.7056,24.15992,(04)23935719,羅氏家用新冠病毒抗原自我檢測套組,44,2022/04/30 12:36:02,4／30 11:40  開始販售
5903190675,德芳太平藥局,臺中市太平區中興路１３３巷１－１號１樓,120.7146,24.12617,(04)23511588,羅氏家用新冠病毒抗原自我檢測套組,78,2022/04/30 12:36:02,快篩販售時間:下午3點~6點
5903200096,仁化藥局,臺中市大里區仁化路５４０號,120.7012,24.09623,(04)24915902,羅氏家用新冠病毒抗原自我檢測套組,78,2022/04/30 12:36:02,快篩試劑每日 18:00 發放  W6 休息
5903200176,聖康藥局,臺中市大里區立仁路７９號１樓,120.7036,24.1078,(04)22700625,羅氏家用新冠病毒抗原自我檢測套組,7,2022/04/30 12:36:02,無
5903200229,信元藥局,臺中市大里區益民路２段３７２號１樓,120.684,24.11545,(04)24876051,羅氏家用新冠病毒抗原自我檢測套組,75,2022/04/30 12:36:02,下午5點發號碼牌並依序販賣
5903200514,大明永欣藥局,臺中市大里區大明路５３９號１樓、５４１號１樓,120.6735,24.11478,(04)24068864,羅氏家用新冠病毒抗原自我檢測套組,78,2022/04/30 12:36:02,實名制快篩每天下午2點開始發號碼牌
5903200541,大里康媞藥局,臺中市大里區塗城路４９４號,120.7024,24.08867,(04)24966627,羅氏家用新冠病毒抗原自我檢測套組,78,2022/04/30 12:36:02,快篩下午兩點開始
5903200596,大樹大里藥局,臺中市大里區中興路二段１０１號,120.6885,24.10305,(04)24861133,羅氏家用新冠病毒抗原自我檢測套組,78,2022/04/30 12:36:02,快篩實名制，每天16:00開始販售，售完為止。
5903200621,德芳東榮藥局,臺中市大里區東榮路８號,120.6893,24.1102,(04)24863898,羅氏家用新冠病毒抗原自我檢測套組,78,2022/04/30 12:36:02,快篩販售時間：下午3點~6點，現場排隊，完售即停
5903200658,德芳成功藥局,臺中市大里區成功路５３５－３號１樓,120.7033,24.0913,(04)24920298,羅氏家用新冠病毒抗原自我檢測套組,154,2022/04/30 12:36:02,快篩販售時間:下午3點~6點
5903200667,永欣東榮藥局,臺中市大里區東榮路３７０號１樓,120.6836,24.11032,(04)24810599,羅氏家用新冠病毒抗原自我檢測套組,44,2022/04/30 12:36:02,無
5903200685,塗城藥局,臺中市大里區中興路一段１８７、１８９、１９１號１樓,120.6933,24.09008,(04)24967234,羅氏家用新冠病毒抗原自我檢測套組,78,2022/04/30 12:36:02,快篩實名制，每天16:00開始販售，售完為止。
5903200701,大益藥局,臺中市大里區益民路二段３３５號１、２樓,120.6837,24.11311,(04)24811551,羅氏家用新冠病毒抗原自我檢測套組,78,2022/04/30 12:36:02,快篩實名制，每天16:00開始販售，售完為止。
5903200738,杏一大里國光藥局,臺中市大里區國光路二段４１１號１樓,120.6796,24.10921,(04)24071492,羅氏家用新冠病毒抗原自我檢測套組,78,2022/04/30 12:36:02,周一至周六16:00~19:00，周日及補假日人力不足不販售
5903220114,鄧博士藥局,臺中市中區中山路３２５號１樓,120.6756,24.14434,(04)22256851,羅氏家用新冠病毒抗原自我檢測套組,78,2022/04/30 12:36:02,政府快篩 星期六中午才會送到
5903220141,雙十小林健保藥局,臺中市中區雙十路一段３５號,120.6855,24.14172,(04)22253662,羅氏家用新冠病毒抗原自我檢測套組,51,2022/04/30 12:36:02,每日8點販賣
5903220169,公園大藥局,臺中市中區公園路９５號１樓,120.6796,24.1462,(04)22062682,羅氏家用新冠病毒抗原自我檢測套組,77,2022/04/30 12:36:02,每日上午8點至下午11點59分
5903220196,日安藥局,臺中市中區臺灣大道一段３３０號１樓,120.6801,24.1422,(04)22234246,羅氏家用新冠病毒抗原自我檢測套組,88,2022/04/30 12:36:02,無
5903230209,東京藥師藥局,臺中市東區復興路五段１４９號１樓,120.6893,24.14543,(04)22132278,羅氏家用新冠病毒抗原自我檢測套組,57,2022/04/30 12:36:02,無
5903230218,十甲東亞藥師大藥局,臺中市東區十甲路４１０號１樓,120.7081,24.14425,(04)22118879,羅氏家用新冠病毒抗原自我檢測套組,78,2022/04/30 12:36:02,無
5903230227,東區小林健保藥局,臺中市東區十甲路４８５號１樓,120.7104,24.14464,(04)22135148,羅氏家用新冠病毒抗原自我檢測套組,68,2022/04/30 12:36:02,無
5903230236,佳境藥局,臺中市東區大智路１－１號１樓,120.6881,24.13635,(04)22211395,羅氏家用新冠病毒抗原自我檢測套組,78,2022/04/30 12:36:02,下午14:00開始販售實名制快篩
5903240143,利民藥局,臺中市西區四維街２３號１樓,120.6758,24.13714,(04)22292931,羅氏家用新冠病毒抗原自我檢測套組,78,2022/04/30 12:36:02,平日營業時間10-20，周六10-15，周日休。實名制快篩下午1點半開始販售至售完或營業結束。
5903240385,喆星藥局,臺中市西區精誠路４２２號,120.655,24.14522,(04)24715301,羅氏家用新冠病毒抗原自我檢測套組,74,2022/04/30 12:36:02,快篩試劑下午2點現場排隊領號碼牌，售完為止
5903240410,德芳美村藥局,臺中市西區美村路一段６８１、６８３號１樓,120.6618,24.13545,(04)23782848,羅氏家用新冠病毒抗原自我檢測套組,78,2022/04/30 12:36:02,快篩販售時間:下午3點~6點
5903240447,大樹五權藥局,臺中市西區五權路９７－１號１樓,120.6717,24.14626,(04)22022910,羅氏家用新冠病毒抗原自我檢測套組,78,2022/04/30 12:36:02,快篩實名制，每天16:00開始販售，售完為止。
5903240456,杏一台中美村藥局,臺中市西區美村路一段２４２、２４６號１樓,120.6615,24.14825,(04)23013310,羅氏家用新冠病毒抗原自我檢測套組,1,2022/04/30 12:36:02,4／30快篩販售時間:早上10:00~晚上19:00（或售完為止）；5／1週日不販售快篩
5903240465,德恩藥師藥局,臺中市西區精誠路２５２號１樓,120.6549,24.14949,(04)23102358,羅氏家用新冠病毒抗原自我檢測套組,78,2022/04/30 12:36:02,無
5903240474,佑全台中向上藥局,臺中市西區向上路一段３８６、３８８號１樓,120.6559,24.14688,(04)23204732,羅氏家用新冠病毒抗原自我檢測套組,78,2022/04/30 12:36:02,因政府配貨時間不一，依照門市現場公告時間為主
5903240483,名華藥局,臺中市西區中華路一段７號１樓,120.6732,24.14209,(04)22231187,羅氏家用新冠病毒抗原自我檢測套組,1,2022/04/30 12:36:02,實名制快篩，每日AM8:00開賣
5903250041,小林健保藥局,臺中市南區美村路２段１８２號,120.6631,24.12549,(04)22622099,羅氏家用新冠病毒抗原自我檢測套組,23,2022/04/30 12:36:02,固定周一到周日，早上8:00發號碼牌，下午4:30開始販賣防疫口罩
5903250176,弘大美妝藥局,臺中市南區南門路１１５號１樓,120.6798,24.12222,(04)22859180,羅氏家用新冠病毒抗原自我檢測套組,8,2022/04/30 12:36:02,4月30日上午10點30分開始販售快篩，一人限一張健保卡
5903250381,大樹美村藥局,臺中市南區美村南路１２４號,120.667,24.11499,(04)22621113,羅氏家用新冠病毒抗原自我檢測套組,78,2022/04/30 12:36:02,口罩販售時間：14:00 - 16:00
5903250443,千美台安藥局,臺中市南區美村南路２６３號,120.6666,24.11426,(04)22602101,羅氏家用新冠病毒抗原自我檢測套組,77,2022/04/30 12:36:02,周一到周日，下午3:00發放號碼牌，開始販售防疫口罩
5903250505,心安藥局,臺中市南區國光路２４１號１樓,120.6794,24.12676,(04)22858773,羅氏家用新冠病毒抗原自我檢測套組,78,2022/04/30 12:36:02,下次販售時間5／2（一）下午三點。一人限一卡，依現場庫存為準。
5903250578,樂碩藥局,臺中市南區建國南路一段２５９號１樓,120.6583,24.12491,(04)22601288,羅氏家用新冠病毒抗原自我檢測套組,78,2022/04/30 12:36:02,快篩試劑15:00發放號碼牌，售完為止，快篩地圖與庫存餘量會有誤差，敬請見諒
5903250612,杏一南區台中藥局,臺中市南區台中路６６、６８號１樓,120.683,24.1339,(04)22220652,羅氏家用新冠病毒抗原自我檢測套組,2,2022/04/30 12:36:02,每日早上10點開始販售實名制快篩，售完為止。
5903260314,喜悅健保藥局,臺中市北區健行路４１４號１樓,120.6818,24.15927,(04)22333988,羅氏家用新冠病毒抗原自我檢測套組,22,2022/04/30 12:36:02,星期一到星期五早上10點到晚上9點半，星期六中午12點到晚上6點半.
5903260449,喜樂藥局,臺中市北區中清路１段３１號,120.677,24.1529,(04)22060423,羅氏家用新冠病毒抗原自我檢測套組,58,2022/04/30 12:36:02,無
5903260501,瑞鋒藥師藥局,臺中市北區育德路１６號,120.6795,24.15763,(04)22020786,羅氏家用新冠病毒抗原自我檢測套組,78,2022/04/30 12:36:02,依排班人力，周一至周六早上10點半或下午2點發號碼牌
5903260654,康新藥局,臺中市北區五權路２３２號,120.677,24.15078,(04)22020008,羅氏家用新冠病毒抗原自我檢測套組,78,2022/04/30 12:36:02,無
5903260681,昭德藥師藥局,臺中市北區西屯路一段３４５號,120.6654,24.16007,(04)23235655,羅氏家用新冠病毒抗原自我檢測套組,3,2022/04/30 12:36:02,早上八點至下午十一點營業，上午九點至下午九點現場排隊過卡買口罩，售完為止
5903260707,新藥林藥局,臺中市北區健行路４４５－５號１樓,120.6803,24.15896,(04)22053458,羅氏家用新冠病毒抗原自我檢測套組,78,2022/04/30 12:36:02,快篩:星期一~星期五 下午3點開始，星期六下午一點，星期三.日公休，現場排隊
5903260743,黎明安德藥局,臺中市北區中清路１段８５２號１樓,120.6718,24.17295,(04)22956098,羅氏家用新冠病毒抗原自我檢測套組,78,2022/04/30 12:36:02,禮拜四公休、禮拜日下午2點開始營業，下午3點開始販賣快篩
5903260761,杏一北區忠明藥局,臺中市北區忠明路４４２號１樓,120.67,24.16267,(04)22081273,羅氏家用新冠病毒抗原自我檢測套組,4,2022/04/30 12:36:02,111／04／28實名制快篩每周一至周六12:00~18:00販售。每周日、國定假日因人力不足因素暫停販售。
5903260798,光恒藥局,臺中市北區五權路２６１號１樓,120.6767,24.15097,(04)22068638,羅氏家用新冠病毒抗原自我檢測套組,78,2022/04/30 12:36:02,快篩 周一到周六早上8:00到12:00 開放購買
5903260814,杏一北區文心藥局,臺中市北區文心路４段２１０－８號１、２樓,120.678,24.1729,(04)22993847,羅氏家用新冠病毒抗原自我檢測套組,31,2022/04/30 12:36:02,防疫口罩每日中午12時開始販售
5903260832,維康學士藥局,臺中市北區學士路１９號１樓,120.6822,24.15384,(04)22080545,羅氏家用新冠病毒抗原自我檢測套組,78,2022/04/30 12:36:02,無
5903260878,927達霖藥師藥局,臺中市北區中華路二段２０１號１樓,120.6822,24.15278,(04)22060030,羅氏家用新冠病毒抗原自我檢測套組,78,2022/04/30 12:36:02,無
5903260967,正尚藥局,臺中市北區榮華街１６６號１樓,120.6868,24.16444,(04)22350347,羅氏家用新冠病毒抗原自我檢測套組,78,2022/04/30 12:36:02,實名制快篩18:00發放，周日09:00（若有剩餘）
5903261008,台中大樹藥局,臺中市北區漢口路三段２６１號,120.6726,24.16703,(04)22981113,羅氏家用新冠病毒抗原自我檢測套組,78,2022/04/30 12:36:02,快篩實名制，每天16:00開始販售，售完為止。
5903261017,多倫多藥局,臺中市北區太原路二段１１號１樓,120.6753,24.16558,(04)22980210,羅氏家用新冠病毒抗原自我檢測套組,78,2022/04/30 12:36:02,無
5903270310,弘福藥師藥局,臺中市西屯區西屯路３段１６６－２１號１樓,120.6159,24.18918,(04)24611916,羅氏家用新冠病毒抗原自我檢測套組,78,2022/04/30 12:36:02,每日15:00發放號碼牌，發完即開始販售（全年無休）
5903270365,麒霖藥局,臺中市西屯區福順路３０７號１樓,120.6185,24.1832,(04)24638978,羅氏家用新冠病毒抗原自我檢測套組,28,2022/04/30 12:36:02,販售健保快篩時間：週一至週六10:00開始至售完、週日公休。
5903270516,中科何藥局,臺中市西屯區福康路４０號,120.6173,24.18421,(04)24612570,羅氏家用新冠病毒抗原自我檢測套組,78,2022/04/30 12:36:02,防疫快篩每日15:00開始販售。（全年無休）
5903270721,舒健藥局,臺中市西屯區西屯路二段２５５號２樓,120.6459,24.17179,(04)27077858,羅氏家用新冠病毒抗原自我檢測套組,78,2022/04/30 12:36:02,公費快篩試劑於周一至周六晚上7點現場排隊購買。
5903270749,大墩藥局,臺中市西屯區大墩１９街６８號１樓,120.6518,24.15734,(04)23209602,羅氏家用新冠病毒抗原自我檢測套組,78,2022/04/30 12:36:02,每天下午三點開賣，請提早來排隊
5903270801,榮友藥局,臺中市西屯區臺灣大道四段１７４２號,120.6024,24.18286,(04)23508392,羅氏家用新冠病毒抗原自我檢測套組,6,2022/04/30 12:36:02,4／30販賣快篩試劑上午11:00開賣
5903270847,分子藥局,臺中市西屯區惠來路二段２３６－１號,120.6421,24.16318,(04)22513080,羅氏家用新冠病毒抗原自我檢測套組,1,2022/04/30 12:36:02,口罩發放時間週一至週六早上10點起售完為止
5903270874,熊健康藥局,臺中市西屯區太原路一段２３２號,120.6632,24.16394,(04)23163505,羅氏家用新冠病毒抗原自我檢測套組,78,2022/04/30 12:36:02,快篩實名制販售時間: 14:30-15:30 ，星期日公休。
5903270918,全成西屯藥局,臺中市西屯區黎明路三段２２１、２２３號1樓,120.6373,24.17723,(04)24512290,羅氏家用新冠病毒抗原自我檢測套組,78,2022/04/30 12:36:02,星期一至星期六15點開始販售實名制快篩
5903270963,源興大藥局,臺中市西屯區西屯路二段１２號,120.6622,24.16387,(04)23143045,羅氏家用新冠病毒抗原自我檢測套組,156,2022/04/30 12:36:02,口罩販售時間：每日早上9點至售完為止。
5903271022,西屯藥局,臺中市西屯區西屯路三段１５０－４５號１樓,120.621,24.18716,(04)24621822,羅氏家用新冠病毒抗原自我檢測套組,78,2022/04/30 12:36:02,快篩實名制，每天16:00開始販售，售完為止。
5903271031,美十樂中科藥局,臺中市西屯區西屯路三段１６６－６５號１樓,120.6129,24.19035,(04)24610219,羅氏家用新冠病毒抗原自我檢測套組,234,2022/04/30 12:36:02,固定周一至周日10:00開始販售口罩
5903271059,安德藥局,臺中市西屯區福康路１７號１樓,120.6165,24.1833,(04)24638302,羅氏家用新冠病毒抗原自我檢測套組,78,2022/04/30 12:36:02,實名制快篩下午2:00開始販售（請排隊自備現金不找零）
5903271068,西墩藥局,臺中市西屯區黎明路三段２７５、２７７號１樓,120.6373,24.17812,(04)24510770,羅氏家用新冠病毒抗原自我檢測套組,78,2022/04/30 12:36:02,快篩實名制，每天16:00開始販售，售完為止。
5903271086,常春藤藥局,臺中市西屯區福康路８０號１樓,120.618,24.18603,(04)24619296,羅氏家用新冠病毒抗原自我檢測套組,78,2022/04/30 12:36:02,每日下午兩點到四點、晚上七點到九點 販賣防疫家用快篩
5903271102,杏東美藥局,臺中市西屯區智惠街１５６號１樓,120.6438,24.17032,(04)24523798,羅氏家用新冠病毒抗原自我檢測套組,78,2022/04/30 12:36:02,快篩實名制13:00發售 現場排隊 售完為止
5903271139,百吉藥局,臺中市西屯區青海路一段７１號１樓,120.6547,24.1644,(04)23135698,羅氏家用新冠病毒抗原自我檢測套組,78,2022/04/30 12:36:02,無
5903271193,何安藥局,臺中市西屯區西屯路二段１０１號Ｂ棟１樓,120.6531,24.16616,(04)23161110,羅氏家用新冠病毒抗原自我檢測套組,78,2022/04/30 12:36:02,快篩實名制，每天16:00開始販售，售完為止。
5903271246,柏醫藥局,臺中市西屯區上安路５６號１樓,120.6412,24.17052,(04)24526391,羅氏家用新冠病毒抗原自我檢測套組,78,2022/04/30 12:36:02,公費快篩試劑10:00、15:00、19:00開放過卡領取
5903271282,禾安藥局,臺中市西屯區西屯路二段１２６之８號,120.6518,24.16682,(04)23176162,羅氏家用新冠病毒抗原自我檢測套組,1,2022/04/30 12:36:02,無
5903271291,西屯長安藥局,臺中市西屯區成都路３６８號１樓,120.6641,24.17322,(04)22981221,羅氏家用新冠病毒抗原自我檢測套組,78,2022/04/30 12:36:02,快篩實名制，每天16:00開始販售，售完為止。
5903280067,博川健保藥局,臺中市南屯區大墩５街２９８號１樓,120.6486,24.14257,(04)24732995,羅氏家用新冠病毒抗原自我檢測套組,4,2022/04/30 12:36:02,實名制快篩12:00開始販售
5903280325,亞洲連鎖大藥局,臺中市南屯區黎明路２段１３３、１３５號,120.6336,24.15977,(04)23812886,羅氏家用新冠病毒抗原自我檢測套組,75,2022/04/30 12:36:02,無
5903280334,長益藥局,臺中市南屯區忠勇路９９號,120.6155,24.14971,(04)23899383,羅氏家用新冠病毒抗原自我檢測套組,78,2022/04/30 12:36:02,週一至週六下午13點開始排隊並開始販售口罩
5903280450,瑞安藥局,臺中市南屯區大墩路２６１號,120.6497,24.14302,(04)24750818,羅氏家用新冠病毒抗原自我檢測套組,39,2022/04/30 12:36:02,周一到周日每日早上9:00開始，賣完為止，營業至晚上22:00。
5903280521,百康健保藥局,臺中市南屯區黎明路二段３６３號,120.6353,24.15033,(04)22547776,羅氏家用新冠病毒抗原自我檢測套組,78,2022/04/30 12:36:02,營業每日上午8:30到晚上22:30!實名制快篩販售下午三點開始
5903280567,康總藥局,臺中市南屯區南屯路二段１０１號１樓,120.6524,24.13579,(04)24735285,羅氏家用新冠病毒抗原自我檢測套組,4,2022/04/30 12:36:02,周一到周日每日上午9:30開始販賣，賣完為止（營業時間到晚上10:00）。
5903280585,康得藥局,臺中市南屯區向上路三段４５號,120.6354,24.14623,(04)23820981,羅氏家用新冠病毒抗原自我檢測套組,78,2022/04/30 12:36:02,4／30下午3點開始販售實名制快篩試劑.（偶有變更）
5903280601,方昇藥局,臺中市南屯區大墩路８１３號１樓,120.6495,24.15515,(04)23288818,羅氏家用新冠病毒抗原自我檢測套組,2,2022/04/30 12:36:02,無
5903280647,澄光人文藥局,臺中市南屯區干城街３０５號,120.6345,24.1526,(04)22530303,羅氏家用新冠病毒抗原自我檢測套組,78,2022/04/30 12:36:02,周一~六8:30開始販售，現場排隊購買，售完為止。
5903280656,熊大心藥局,臺中市南屯區河南路四段３７６號,120.6369,24.15208,(04)22516252,羅氏家用新冠病毒抗原自我檢測套組,78,2022/04/30 12:36:02,周一至周六，下午15:00-16:00販售實名制快篩
5903280683,詠悅藥局,臺中市南屯區大墩十二街６３７號,120.6369,24.15009,(04)22515012,羅氏家用新冠病毒抗原自我檢測套組,78,2022/04/30 12:36:02,周一至周六上午9:00，周三上午10:00開始販售口罩、快篩。
5903280745,亨宇藥局,臺中市南屯區東興路二段２９－２號１樓,120.6529,24.13688,(04)24711206,羅氏家用新冠病毒抗原自我檢測套組,52,2022/04/30 12:36:02,無
5903280807,大樹南屯藥局,臺中市南屯區向上路一段６４３號１樓,120.6486,24.14659,(04)24758887,羅氏家用新冠病毒抗原自我檢測套組,78,2022/04/30 12:36:02,快篩實名制，每天16:00開始販售，售完為止。
5903280816,大育藥局,臺中市南屯區東興路二段７１號１樓,120.6528,24.13835,(04)24755656,羅氏家用新冠病毒抗原自我檢測套組,78,2022/04/30 12:36:02,每日固定晚上6點開賣 現場發放號碼牌
5903280889,精科藥局,臺中市南屯區嶺東路３２１號１樓,120.6106,24.14513,(04)23806288,羅氏家用新冠病毒抗原自我檢測套組,77,2022/04/30 12:36:02,4／30發放時間下午3:00 發完為止!
5903290063,承恩藥局,臺中市北屯區北屯路４４１－１號１樓,120.7008,24.17977,(04)22467857,羅氏家用新冠病毒抗原自我檢測套組,78,2022/04/30 12:36:02,實名制快篩販售時間為早上11點開始（12:00-15:00中午休息） ； 星期六休息
5903290518,佳美藥局,臺中市北屯區東山路１段２６５號１樓,120.7184,24.17583,(04)24363658,羅氏家用新冠病毒抗原自我檢測套組,73,2022/04/30 12:36:02,無
5903290661,康博中西健保藥局,臺中市北屯區后庄一街７號１樓,120.6644,24.1865,(04)24252468,羅氏家用新冠病毒抗原自我檢測套組,78,2022/04/30 12:36:02,快篩發放於下午01:00作業.週六.日及假日下午06:30開始
5903290849,新盛藥局,臺中市北屯區松竹路二段１５７號１樓,120.6959,24.18312,(04)22467779,羅氏家用新冠病毒抗原自我檢測套組,78,2022/04/30 12:36:02,下午2:30至8:30賣快篩試劑週一至週六
5903290876,北屯軍功藥局,臺中市北屯區軍功路一段７５２號,120.7193,24.17513,(04)24375111,羅氏家用新冠病毒抗原自我檢測套組,78,2022/04/30 12:36:02,快篩實名制，每天16:00開始販售，售完為止。
5903290901,帥帥藥局,臺中市北屯區東山路一段３００－２號,120.7204,24.1759,(04)24378188,羅氏家用新冠病毒抗原自我檢測套組,78,2022/04/30 12:36:02,星期一至星期五下午15:00販賣快篩試劑，六.日無販售。
5903290947,德寶健保藥局,臺中市北屯區熱河路一段７０號１樓,120.687,24.1674,(04)22325511,羅氏家用新冠病毒抗原自我檢測套組,78,2022/04/30 12:36:02,早上9點發號碼牌，當場販賣口罩
5903290974,興安永佳藥局,臺中市北屯區興安路一段３３３號１樓,120.6944,24.17431,(04)22437876,羅氏家用新冠病毒抗原自我檢測套組,77,2022/04/30 12:36:02,下午2點發號碼牌，直接販賣口罩
5903290983,祥和藥局,臺中市北屯區太原路三段１４７號１樓,120.6901,24.16507,(04)22369603,羅氏家用新冠病毒抗原自我檢測套組,75,2022/04/30 12:36:02,快篩販售4／30後：下午2點開始
5903291006,五和健保藥局,臺中市北屯區崇德路二段４６０號１樓,120.6863,24.18001,(04)22415533,羅氏家用新冠病毒抗原自我檢測套組,78,2022/04/30 12:36:02,週六公休 。周一至周五 14:30 發號碼牌 15:00販售； 週日 9:00發號碼牌 10:00販售
5903291042,全成北屯藥局,臺中市北屯區北屯路４３９－１１號１樓,120.7004,24.17913,(04)22463518,羅氏家用新冠病毒抗原自我檢測套組,71,2022/04/30 12:36:02,快篩每日下午3:00開始販售
5903291060,大樹北屯藥局,臺中市北屯區松竹路二段４１１號１樓,120.6895,24.18192,(04)22422262,羅氏家用新冠病毒抗原自我檢測套組,78,2022/04/30 12:36:02,快篩實名制，每天16:00開始販售，售完為止。
5903291131,兩隻老虎藥局,臺中市北屯區崇德路２段１２號１樓,120.6855,24.16869,(04)22364635,羅氏家用新冠病毒抗原自我檢測套組,78,2022/04/30 12:36:02,營業時間早上九點到晚上九點半（快篩下午兩點開賣）
5903291140,興安藥局,臺中市北屯區興安路二段５２號１、２樓,120.6949,24.1762,(04)22460369,羅氏家用新冠病毒抗原自我檢測套組,78,2022/04/30 12:36:02,快篩實名制，每天16:00開始販售，售完為止。
5903291159,均福藥局,臺中市北屯區軍福十三路１００號１樓,120.7308,24.17096,(04)24391169,羅氏家用新冠病毒抗原自我檢測套組,78,2022/04/30 12:36:02,快篩實名制規則:晚上七點依現場排隊順序發號碼牌 （周日公休不販售）
5903291195,匯百鴻藥局,臺中市北屯區昌平東二路１５６號１樓,120.6877,24.18922,(04)24222288,羅氏家用新冠病毒抗原自我檢測套組,49,2022/04/30 12:36:02,無
5903291202,好心情藥局,臺中市北屯區昌平路一段１７之３號,120.6941,24.16607,(04)22335663,羅氏家用新冠病毒抗原自我檢測套組,68,2022/04/30 12:36:02,無
5903291257,新一代何藥局,臺中市北屯區環中東路二段２６６、２６８號１樓,120.7207,24.17576,(04)24364366,羅氏家用新冠病毒抗原自我檢測套組,78,2022/04/30 12:36:02,4／30（六）因配送問題下午4點開始販售   其他日期早上9點開始販售（依收到試劑後確認）
5903291266,佑全台中興安藥局,臺中市北屯區興安路一段２５３號,120.6941,24.17221,(04)22490355,羅氏家用新冠病毒抗原自我檢測套組,78,2022/04/30 12:36:02,無
5905010250,大樹新營藥局,臺南市新營區民權路７４、７６、７８號１樓,120.3127,23.30615,(06)6328300,羅氏家用新冠病毒抗原自我檢測套組,77,2022/04/30 12:36:02,快篩實名制，每天16:00開始販售，售完為止。
5905020023,大樹鹽水藥局,臺南市鹽水區朝琴路１２６－３號１樓,120.271,23.32228,(06)6520432,羅氏家用新冠病毒抗原自我檢測套組,78,2022/04/30 12:36:02,快篩實名制，每天16:00開始販售，售完為止。
5905030038,美尚藥局,臺南市白河區白河里康樂路４３號,120.4148,23.34833,(06)6853538,羅氏家用新冠病毒抗原自我檢測套組,78,2022/04/30 12:36:02,口罩販售時間：星期一~五7:00-21:40 六07:00-18:30 禮拜天視診所上班而定
5905030092,大樹白河藥局,臺南市白河區中山路１５３號１樓,120.417,23.35255,(06)6830006,羅氏家用新冠病毒抗原自我檢測套組,78,2022/04/30 12:36:02,快篩實名制，每天16:00開始販售，售完為止。
5905040105,幸福藥局,臺南市麻豆區光復路１２７號１樓,120.245,23.18435,(06)5720977,羅氏家用新冠病毒抗原自我檢測套組,78,2022/04/30 12:36:02,早8:30~12:00  午2:30~6:00  星期日固定休
5905050209,大樹佳里藥局,臺南市佳里區延平路２３７號１樓,120.1783,23.1599,(06)7231323,羅氏家用新冠病毒抗原自我檢測套組,78,2022/04/30 12:36:02,快篩實名制，每天16:00開始販售，售完為止。
5905060161,和德藥局新化店,臺南市新化區清水里中山路４２０號１樓,120.3047,23.0359,(06)5802518,羅氏家用新冠病毒抗原自我檢測套組,78,2022/04/30 12:36:02,快篩販售時間:星期一~星期六 一人限2 張卡下午3點~售完
5905060198,大樹新化藥局,臺南市新化區中正路５３１號１樓,120.3072,23.03764,(06)5901331,羅氏家用新冠病毒抗原自我檢測套組,78,2022/04/30 12:36:02,快篩實名制，每天16:00開始販售，售完為止。
5905070050,晶德昌藥局,臺南市善化區文光里中山路８５號,120.3034,23.13298,(06)5856141,羅氏家用新冠病毒抗原自我檢測套組,78,2022/04/30 12:36:02,14:30-16:00.依號碼牌售完為止
5905070112,健登藥局,臺南市善化區大成路２１２號１樓,120.3004,23.13021,(06)5831133,羅氏家用新冠病毒抗原自我檢測套組,78,2022/04/30 12:36:02,快篩實名制販售 : 週一~六 下午兩點開始 週日不販售
5905070121,大樹善化藥局,臺南市善化區民權路５４、５６、５８號１樓,120.3034,23.1322,(06)5830550,羅氏家用新冠病毒抗原自我檢測套組,78,2022/04/30 12:36:02,快篩實名制，每天16:00開始販售，售完為止。
5905070158,南科健登藥局,臺南市善化區龍目井路４１３號１樓,120.3058,23.10922,(06)5836266,羅氏家用新冠病毒抗原自我檢測套組,78,2022/04/30 12:36:02,快篩實名制販售 : 週一~六 下午兩點開始 週日不販售
5905070185,宇康藥局,臺南市善化區蓮潭里蓮潭南街１５０號１樓,120.3077,23.11199,(06)5830963,羅氏家用新冠病毒抗原自我檢測套組,218,2022/04/30 12:36:02,無
5905080056,大樹學甲藥局,臺南市學甲區中正路１３５號１樓,120.1793,23.23029,(06)7820001,羅氏家用新冠病毒抗原自我檢測套組,78,2022/04/30 12:36:02,快篩實名制，每天16:00開始販售，售完為止。
5905200030,新和德健保藥局,臺南市新市區中正路３１９－１號,120.2939,23.07958,(06)5997603,羅氏家用新冠病毒抗原自我檢測套組,78,2022/04/30 12:36:02,政府防疫口罩發放時間-下午2點至8點，售完為止
5905200085,大樹新市藥局,臺南市新市區中正路４９、５１號１樓,120.2916,23.07223,(06)5892552,羅氏家用新冠病毒抗原自我檢測套組,78,2022/04/30 12:36:02,快篩實名制，每天16:00開始販售，售完為止。
5905210027,愛心藥師藥局,臺南市安定區港南里港口１４７號,120.233,23.09041,(06)5935104,羅氏家用新冠病毒抗原自我檢測套組,51,2022/04/30 12:36:02,春節營業時間請電洽或依現場公告
5905270176,大樹仁德藥局,臺南市仁德區中正路二段１１５２號１樓,120.2519,22.97062,(06)2797466,羅氏家用新冠病毒抗原自我檢測套組,78,2022/04/30 12:36:02,快篩實名制，每天16:00開始販售，售完為止。
5905280109,大樹青青藥局,臺南市歸仁區中山路三段１２號,120.2875,22.96765,(06)2300301,羅氏家用新冠病毒抗原自我檢測套組,78,2022/04/30 12:36:02,快篩實名制，每天16:00開始販售，售完為止。
5905290034,大樹關廟藥局,臺南市關廟區中央路２６３號１樓,120.3272,22.96109,(06)5965889,羅氏家用新冠病毒抗原自我檢測套組,78,2022/04/30 12:36:02,快篩實名制，每天16:00開始販售，售完為止。
5905310264,仁安藥師藥局,臺南市永康區崑山里大仁街６１號,120.2566,23.00183,(06)2056055,羅氏家用新冠病毒抗原自我檢測套組,11,2022/04/30 12:36:02,快篩實名制中午12點開始販售
5905310344,昱賢藥師藥局中正店,臺南市永康區中正路１４１、１４３號１樓,120.2375,23.04097,(06)2021535,羅氏家用新冠病毒抗原自我檢測套組,78,2022/04/30 12:36:02,快篩販售時間：星期一~星期日每天14點購買快篩
5905310353,家嘉藥局,臺南市永康區復國一路２０６號,120.2462,23.00644,(06)3121328,羅氏家用新冠病毒抗原自我檢測套組,78,2022/04/30 12:36:02,販售時間 早上11:00 ／ 晚上8:00 4／30 中央未配送請見諒
5905310540,裕安藥局,臺南市永康區中華二路３８５號,120.2315,23.0083,(06)3133251,羅氏家用新冠病毒抗原自我檢測套組,78,2022/04/30 12:36:02,早8:30-1200／午15:00-18:00／晚18:30-21:00。周日午14:00-17:00
5905310755,德昌藥局永康店,臺南市永康區中華路４６２號,120.2327,23.01082,(06)3020628,羅氏家用新冠病毒抗原自我檢測套組,78,2022/04/30 12:36:02,快篩販售時間：星期一~星期日14:30~16:00
5905310988,小東藥局,臺南市永康區小東路５７３號１樓,120.2369,22.99867,(06)3127169,羅氏家用新冠病毒抗原自我檢測套組,78,2022/04/30 12:36:02,周一至周五PM 3:00-5:00時段內販售快篩，售完為止
5905311001,和德藥局復國店,臺南市永康區復國里復國一路３３９之７號１樓,120.2464,23.01155,(06)2038728,羅氏家用新冠病毒抗原自我檢測套組,78,2022/04/30 12:36:02,每日／星期日 下午3:00-5:00購買快篩  限一人2張卡
5905311074,中華長億藥局,臺南市永康區中華路７３４、７３６號１樓,120.2288,23.0167,(06)3022322,羅氏家用新冠病毒抗原自我檢測套組,78,2022/04/30 12:36:02,快篩實名制，每天16:00開始販售，售完為止。
5905311127,台南永康藥局,臺南市永康區中山南路８１６、８１６─１、２、３號１樓,120.2471,23.02099,(06)2020201,羅氏家用新冠病毒抗原自我檢測套組,78,2022/04/30 12:36:02,快篩實名制，每天16:00開始販售，售完為止。
5905311172,美日新藥局,臺南市永康區塩行里中正北路６２號１樓,120.2406,23.04138,(06)2420980,羅氏家用新冠病毒抗原自我檢測套組,62,2022/04/30 12:36:02,快篩販售資訊:下午一點開始販售
5905311190,和德藥局大灣店,臺南市永康區崑山里永大路二段９號１樓,120.2595,23.00127,(06)2735049,羅氏家用新冠病毒抗原自我檢測套組,78,2022/04/30 12:36:02,快篩販售時間14:30-17:00
5905320466,佑全中華藥局,臺南市東區中華東路三段２１５號,120.2253,22.97603,(06)2906386,羅氏家用新冠病毒抗原自我檢測套組,77,2022/04/30 12:36:02,星期一-六08:00-21:00
5905320564,杏一台南崇德藥局,臺南市東區崇德路６７４號,120.2274,22.96762,(06)2671939,羅氏家用新冠病毒抗原自我檢測套組,78,2022/04/30 12:36:02,防疫口罩發送時間:周一至周日:下午:15:00
5905320635,晉大藥局,臺南市東區東光里東興路２６４號１樓,120.2298,22.99522,(06)2092580,羅氏家用新冠病毒抗原自我檢測套組,78,2022/04/30 12:36:02,快篩實名制下午3點開始販售
5905320742,榮記藥健康藥局,臺南市東區成大里育樂街１５６－４號底層,120.2147,22.99538,(06)2760588,羅氏家用新冠病毒抗原自我檢測套組,2,2022/04/30 12:36:02,09:00~12:00，14:00~17:00. 育樂街158巷下去右手邊第一間即達本藥局
5905320797,大樹自由藥局,臺南市東區自由路三段３８２號１樓,120.2373,22.98241,(06)2890800,羅氏家用新冠病毒抗原自我檢測套組,78,2022/04/30 12:36:02,快篩實名制，每天16:00開始販售，售完為止。
5905320804,大樹大同藥局,臺南市東區大同路二段２２７、２２９號１樓,120.2143,22.97567,(06)2158700,羅氏家用新冠病毒抗原自我檢測套組,78,2022/04/30 12:36:02,快篩實名制，每天16:00開始販售，售完為止。
5905320868,大樹東寧藥局,臺南市東區東寧路４３６號１樓,120.2291,22.9895,(06)2360006,羅氏家用新冠病毒抗原自我檢測套組,78,2022/04/30 12:36:02,快篩實名制，每天16:00開始販售，售完為止。
5905320911,大樹崇道藥局,臺南市東區崇道路６３號１樓,120.2272,22.97227,(06)2680456,羅氏家用新冠病毒抗原自我檢測套組,78,2022/04/30 12:36:02,快篩實名制，每天16:00開始販售，售完為止。
5905320975,萬錠藥局,臺南市東區崇成里崇德路６１９號１樓,120.2277,22.97181,(06)2679299,羅氏家用新冠病毒抗原自我檢測套組,78,2022/04/30 12:36:02,無
5905330024,聖安健保藥局,臺南市南區健康路二段１７３號１樓,120.193,22.98142,(06)2916898,羅氏家用新冠病毒抗原自我檢測套組,78,2022/04/30 12:36:02,4／30到貨才會開始販售，目前時間不確定，週日店休
5905330275,太子藥局大同店,臺南市南區大同路二段３４８號１樓,120.2138,22.97574,(06)2158339,羅氏家用新冠病毒抗原自我檢測套組,9,2022/04/30 12:36:02,口罩販售時段：星期一至星期日，9:00起至售完為止。
5905330284,大樹佳華藥局,臺南市南區金華路二段１２９號１樓,120.1911,22.98035,(06)2641238,羅氏家用新冠病毒抗原自我檢測套組,78,2022/04/30 12:36:02,快篩實名制，每天16:00開始販售，售完為止。
5905330337,千薏台安藥局,臺南市南區金華路二段２號１樓,120.1912,22.97556,(06)2638265,羅氏家用新冠病毒抗原自我檢測套組,78,2022/04/30 12:36:02,快篩試劑每天下午兩點開始銷售
5905340075,麗欣健保藥局,臺南市中西區永華路一段１９４號１樓,120.1917,22.98835,(06)2209393,羅氏家用新冠病毒抗原自我檢測套組,6,2022/04/30 12:36:02,w1~w6早上9:00開始發放快篩
5905340164,田邊藥局,臺南市中西區中正路２３６號,120.1969,22.99326,(06)2200106,羅氏家用新冠病毒抗原自我檢測套組,3,2022/04/30 12:36:02,口罩下午1:00販售售完為止.請自備零錢，
5905340235,人人藥局,臺南市中西區和緯路５段１９７號１樓,120.1845,23.00393,(06)3583668,羅氏家用新冠病毒抗原自我檢測套組,78,2022/04/30 12:36:02,快篩，每日下午兩點開始過卡販售。
5905350026,良佑堂藥局,臺南市北區文賢路２９９號,120.1935,23.00631,(06)2586223,羅氏家用新冠病毒抗原自我檢測套組,78,2022/04/30 12:36:02,4／30.5／1不販售快篩試劑
5905350035,海安藥師藥局,臺南市北區北成路４１８號１樓,120.202,23.01928,(06)2814600,羅氏家用新冠病毒抗原自我檢測套組,67,2022/04/30 12:36:02,快篩販售時間.週一至週五中午12點
5905350133,大昌藥局,臺南市北區北安路１段１３２號１樓,120.2127,23.01481,(06)2519121,羅氏家用新冠病毒抗原自我檢測套組,78,2022/04/30 12:36:02,下午3點開賣快篩
5905350259,樂森藥局,臺南市北區和緯路二段３３６號１樓,120.2048,23.01259,(06)2511338,羅氏家用新冠病毒抗原自我檢測套組,78,2022/04/30 12:36:02,快篩領取時間為下午兩點
5905350302,旻恩藥局,臺南市北區公園里北門路二段３７－１號,120.2123,22.99817,(06)2260590,羅氏家用新冠病毒抗原自我檢測套組,61,2022/04/30 12:36:02,口罩領取時間:週一至周五早上09:00-12:00 下午2:30-5:30 晚間6:30-9:00。周六早上09-12下午2:30-5:30售完為止
5905350366,千多藥局,臺南市北區金華路五段１號,120.1962,23.0016,(06)2228641,羅氏家用新冠病毒抗原自我檢測套組,78,2022/04/30 12:36:02,晚上6點開始銷售實名制快篩試劑，賣完為止
5905350428,大正藥局,臺南市北區公園南路３２４號１樓,120.2033,23.00268,(06)2226899,羅氏家用新冠病毒抗原自我檢測套組,72,2022/04/30 12:36:02,快篩試劑下午13:30發放~售完
5905350535,開元台安藥局,臺南市北區開元路２８８號１樓,120.2226,23.00852,(06)2818061,羅氏家用新冠病毒抗原自我檢測套組,78,2022/04/30 12:36:02,4／30停賣快篩
5905370224,上振藥局,臺南市安南區安中路三段４３號１樓,120.1828,23.04721,(06)2551061,羅氏家用新冠病毒抗原自我檢測套組,78,2022/04/30 12:36:02,星期一~星期六 14:00~售完
5905370304,大樹安南藥局,臺南市安南區安和路四段５５７號１樓,120.2185,23.06181,(06)3563370,羅氏家用新冠病毒抗原自我檢測套組,78,2022/04/30 12:36:02,口罩販賣時段：14:00 - 16:00
5905370331,草湖寮王藥局,臺南市安南區梅花里安中路一段６３３號１樓,120.1977,23.04163,(06)2465859,羅氏家用新冠病毒抗原自我檢測套組,17,2022/04/30 12:36:02,4／30  11:30開始販售
5905370402,普得中西藥局,臺南市安南區淵東里本原街三段２５５號１樓,120.1741,23.05183,(06)2450082,羅氏家用新冠病毒抗原自我檢測套組,44,2022/04/30 12:36:02,無
5905370466,大樹北安藥局,臺南市安南區北安路三段１５８號１樓,120.2036,23.04256,(06)2553633,羅氏家用新冠病毒抗原自我檢測套組,78,2022/04/30 12:36:02,快篩實名制，每天16:00開始販售，售完為止。
5905370484,安中台安藥局,臺南市安南區北安路２段３６３之２４號１樓,120.2022,23.039,(06)2470015,羅氏家用新冠病毒抗原自我檢測套組,78,2022/04/30 12:36:02,實名制快篩劑:週1-週5 早上:10:30開賣    週6-周日下午:2:30開賣
5905380177,凱順藥局,臺南市安平區育平里健康三街３９號１樓,120.168,22.98595,(06)2999752,羅氏家用新冠病毒抗原自我檢測套組,17,2022/04/30 12:36:02,快篩試劑每日9:00開始，售完為止。
5907010150,育英藥局文德店,高雄市鳳山區文德路２９號,120.3527,22.63836,(07)7777059,羅氏家用新冠病毒抗原自我檢測套組,78,2022/04/30 12:36:02,營業時間上午12:00~下午10:00藥局發口罩時間為下午:12:00售完為止
5907010178,華美藥局,高雄市鳳山區建國路三段１６１號,120.3535,22.6367,(07)7452732,羅氏家用新冠病毒抗原自我檢測套組,21,2022/04/30 12:36:02,快篩營業時間即開始販售，若有患者領藥會優先處理領藥
5907010212,北京藥局中崙店,高雄市鳳山區中崙四路１６號１樓,120.3519,22.59971,(07)7550655,羅氏家用新冠病毒抗原自我檢測套組,78,2022/04/30 12:36:02,營業時間上午08:00~下午11:00發口罩時間為上午:9:00售完為止00
5907010301,高大藥局,高雄市鳳山區南華路１８２號,120.3381,22.60295,(07)7718671,羅氏家用新冠病毒抗原自我檢測套組,78,2022/04/30 12:36:02,快篩試劑每日 12:00 - 20:00 發放。  周日店休
5907010365,科健藥局,高雄市鳳山區八德路２４６－５號１樓,120.3568,22.63853,(07)7777868,羅氏家用新冠病毒抗原自我檢測套組,78,2022/04/30 12:36:02,下午3:30開始換購
5907010454,上泰健保藥局,高雄市鳳山區鎮西里中華街２７號１樓,120.3559,22.62698,(07)7455127,羅氏家用新冠病毒抗原自我檢測套組,55,2022/04/30 12:36:02,快篩實名制，每天10:00開始販售，售完為止。
5907011086,閤康藥局,高雄市鳳山區忠義里中山西路３７６－７號１樓,120.3412,22.62897,(07)7197787,羅氏家用新冠病毒抗原自我檢測套組,78,2022/04/30 12:36:02,無
5907011095,鳳山五甲藥局,高雄市鳳山區正義里五甲二路１３９號１樓,120.3409,22.6014,(07)7269899,羅氏家用新冠病毒抗原自我檢測套組,78,2022/04/30 12:36:02,快篩實名制，每天16:00開始販售，售完為止。
5907011111,壹然藥局,高雄市鳳山區中正里瑞興路４６２號１樓,120.3713,22.63084,(07)7014755,羅氏家用新冠病毒抗原自我檢測套組,24,2022/04/30 12:36:02,每日早上8:30開始販售家用實名制快篩至售完為止
5907011148,大樹國泰藥局,高雄市鳳山區興仁里五甲一路２９２號,120.3539,22.61698,(07)7407234,羅氏家用新冠病毒抗原自我檢測套組,78,2022/04/30 12:36:02,快篩實名制，每天16:00開始販售，售完為止。
5907011175,鳳西藥局,高雄市鳳山區忠義里中山西路２３８號１樓,120.3471,22.62831,(07)7902717,羅氏家用新冠病毒抗原自我檢測套組,78,2022/04/30 12:36:02,快篩實名制，每天16:00開始販售，售完為止。
5907011184,肉豆公藥局南榮店,高雄市鳳山區善美里南榮路１６９號１樓,120.3366,22.60186,(07)7278385,羅氏家用新冠病毒抗原自我檢測套組,1,2022/04/30 12:36:02,自2／11日~2／29日，營業日14:00~22:30為販賣口罩時間
5907011228,鳳山青年藥局,高雄市鳳山區文德里青年路二段３９９號１樓,120.3513,22.64292,(07)7678383,羅氏家用新冠病毒抗原自我檢測套組,78,2022/04/30 12:36:02,口罩販售時間：14:00 - 16:00
5907011264,新高橋藥局青年店,高雄市鳳山區文衡里青年路二段２８９號１樓,120.3508,22.63964,(07)7676179,羅氏家用新冠病毒抗原自我檢測套組,5,2022/04/30 12:36:02,下午2:30開始販售口罩
5907011317,凱旋藥局,高雄市鳳山區國隆里新富路３７３號１樓,120.3475,22.61494,(07)7671181,羅氏家用新冠病毒抗原自我檢測套組,78,2022/04/30 12:36:02,快篩實名制，每天16:00開始販售，售完為止。
5907011362,佑全鳳山藥局,高雄市鳳山區文德里青年路二段４６３號１－２樓,120.3498,22.64513,(07)7801568,羅氏家用新冠病毒抗原自我檢測套組,78,2022/04/30 12:36:02,無
5907011371,大樹五甲藥局,高雄市鳳山區福祥里五甲三路２４號１－２樓．２６號１－２樓,120.3278,22.59317,(07)8224926,羅氏家用新冠病毒抗原自我檢測套組,78,2022/04/30 12:36:02,快篩實名制，每天16:00開始販售，售完為止。
5907011406,長青連鎖藥局大士店,高雄市鳳山區五甲一路１３９號１樓,120.3562,22.61968,(07)7104618,羅氏家用新冠病毒抗原自我檢測套組,78,2022/04/30 12:36:02,無
5907020030,鑫德昌藥局,高雄市岡山區溪東路３８號１樓,120.2915,22.79249,(07)6233338,羅氏家用新冠病毒抗原自我檢測套組,78,2022/04/30 12:36:02,實名制快篩 販售時間 14:30-16:00
5907020076,千千藥局,高雄市岡山區平和路１２５號１樓,120.2934,22.79455,(07)6216850,羅氏家用新冠病毒抗原自我檢測套組,78,2022/04/30 12:36:02,4／30 星期六 13:00 開始販售 排隊直接領取 售完為止
5907020085,大德藥局,高雄市岡山區大德一路９８號,120.3025,22.79689,(07)6221456,羅氏家用新冠病毒抗原自我檢測套組,78,2022/04/30 12:36:02,快篩實名制，每天16:00開始販售，售完為止。
5907020094,大樹岡山藥局,高雄市岡山區岡山路１３６號,120.2967,22.78913,(07)6219477,羅氏家用新冠病毒抗原自我檢測套組,78,2022/04/30 12:36:02,快篩實名制，每天16:00開始販售，售完為止。
5907030090,睛好活力藥局,高雄市旗山區湄洲里中山路１２７號,120.482,22.88873,(07)6625119,羅氏家用新冠病毒抗原自我檢測套組,78,2022/04/30 12:36:02,無
5907030134,旗山啄木鳥藥局,高雄市旗山區中華路１０５０號,120.4828,22.87904,(07)6625728,羅氏家用新冠病毒抗原自我檢測套組,30,2022/04/30 12:36:02,發口罩時間:09:00-19:00
5907030152,旗山藥局,高雄市旗山區中華路２３號,120.4841,22.88027,(07)6621158,羅氏家用新冠病毒抗原自我檢測套組,78,2022/04/30 12:36:02,快篩實名制，每天16:00開始販售，售完為止。
5907040023,大佳藥局,高雄市美濃區獅山里中華路５９－７號,120.5704,22.87774,(07)6852988,羅氏家用新冠病毒抗原自我檢測套組,27,2022/04/30 12:36:02,營業日 08:30 - 20:30 為快篩試劑販售時間。
5907050010,新朋友藥師連鎖藥局,高雄市林園區東林東路４４號,120.3971,22.50389,(07)6460588,羅氏家用新冠病毒抗原自我檢測套組,78,2022/04/30 12:36:02,快篩於每日下午3:30，開始發放
5907050029,林園健人藥師藥局,高雄市林園區林園北路３７２號,120.3951,22.5126,(07)6421598,羅氏家用新冠病毒抗原自我檢測套組,78,2022/04/30 12:36:02,營業日14:00~16:00為販賣時間，售完為止，週日不販售。
5907050109,林園藥局,高雄市林園區仁愛路１３號１樓,120.3928,22.50418,(07)6425855,羅氏家用新冠病毒抗原自我檢測套組,78,2022/04/30 12:36:02,快篩實名制，每天16:00開始販售，售完為止。
5907060221,淑德健保藥局,高雄市大寮區內坑里淑德新村１號３樓,120.3707,22.58833,(07)7923556,羅氏家用新冠病毒抗原自我檢測套組,80,2022/04/30 12:36:02,無
5907060267,加嘉藥局,高雄市大寮區山頂里內厝路１９１號１樓,120.3901,22.60793,(07)7860683,羅氏家用新冠病毒抗原自我檢測套組,2,2022/04/30 12:36:02,無
5907070012,舒康藥師藥局,高雄市大樹區久堂路１２９號,120.4167,22.65781,(07)6520268,羅氏家用新冠病毒抗原自我檢測套組,78,2022/04/30 12:36:02,14:00~18:00若提前售完，銷售時間提前結束。
5907070030,久堂藥局,高雄市大樹區久堂里久堂路１３６號１樓,120.4178,22.65813,(07)6512800,羅氏家用新冠病毒抗原自我檢測套組,78,2022/04/30 12:36:02,快篩實名制，每天16:00開始販售，售完為止。
5907080189,德昌藥局仁雄店,高雄市仁武區灣內里仁雄路３８、３８－１、３８－２號,120.3506,22.68074,(07)3749166,羅氏家用新冠病毒抗原自我檢測套組,73,2022/04/30 12:36:02,固定週一至週日14:30~16:00開始發放號碼牌並依序販售快篩.售完為止
5907080232,大樹仁武藥局,高雄市仁武區赤山里仁雄路８０－９號,120.3469,22.67811,(07)3744777,羅氏家用新冠病毒抗原自我檢測套組,78,2022/04/30 12:36:02,快篩實名制，每天16:00開始販售，售完為止。
5907080269,興德昌藥局,高雄市仁武區文武里中華路２３２號,120.3516,22.69985,(07)3757005,羅氏家用新冠病毒抗原自我檢測套組,78,2022/04/30 12:36:02,實名制快篩販售時間14:30-16:00
5907080303,群邦藥局,高雄市仁武區八德東路１８０號１樓,120.3422,22.68538,(07)3745985,羅氏家用新冠病毒抗原自我檢測套組,76,2022/04/30 12:36:02,每日下午2:00開始販售公費快篩（售完為止），星期日藥局休息不賣公費快篩
5907080330,文武藥局,高雄市仁武區文武里中華路３５３號,120.3535,22.7011,(07)3733551,羅氏家用新冠病毒抗原自我檢測套組,78,2022/04/30 12:36:02,快篩實名制，每天16:00開始販售，售完為止。
5907090087,安泰專業藥師藥局,高雄市大社區中山路２６７號１樓,120.3492,22.73194,(07)3553715,羅氏家用新冠病毒抗原自我檢測套組,78,2022/04/30 12:36:02,快篩每日下午2點20分發號碼牌，2點30分準時發放
5907090167,大樹大社藥局,高雄市大社區中山路３０８號１樓,120.3503,22.73145,(07)3531682,羅氏家用新冠病毒抗原自我檢測套組,78,2022/04/30 12:36:02,快篩實名制，每天16:00開始販售，售完為止。
5907100088,本館藥局,高雄市鳥松區大華里本館路１９０號１樓,120.3361,22.65556,(07)3707655,羅氏家用新冠病毒抗原自我檢測套組,78,2022/04/30 12:36:02,營業時間每日09:00-22:00  實名制快篩販賣時間15:00-20:00
5907140108,德昌藥局阿蓮店,高雄市阿蓮區阿蓮里中正路４５６號,120.3321,22.88075,(07)6318868,羅氏家用新冠病毒抗原自我檢測套組,78,2022/04/30 12:36:02,固定周一至周日14:30-16:00販售快篩，售完為止
5907150097,金德昌藥師藥局,高雄市路竹區大社路９０之６號,120.263,22.86382,(07)6978143,羅氏家用新冠病毒抗原自我檢測套組,67,2022/04/30 12:36:02,快篩販售時間:14:30~16:00或售完為止
5907150202,永昌藥局,高雄市路竹區延平路８１號,120.2579,22.85786,(07)6964321,羅氏家用新冠病毒抗原自我檢測套組,36,2022/04/30 12:36:02,周一至周六上午10:00~12:30；下午15:30-18:00開始依序販售快篩試劑，售完為止。星期日休息。
5907150239,固德藥局,高雄市路竹區金平路３１２號,120.269,22.86954,(07)6978641,羅氏家用新冠病毒抗原自我檢測套組,78,2022/04/30 12:36:02,無
5907150257,大樹大立藥局,高雄市路竹區國昌路５１號,120.26,22.85409,(07)6961663,羅氏家用新冠病毒抗原自我檢測套組,78,2022/04/30 12:36:02,快篩實名制，每天16:00開始販售，售完為止。
5907160039,華安藥局,高雄市湖內區中山路一段４５１－１９號,120.2459,22.88472,(07)6938208,羅氏家用新冠病毒抗原自我檢測套組,78,2022/04/30 12:36:02,今日（4／30）快篩 尚未到貨
5907160093,保生藥局,高雄市湖內區葉厝里保生路３４０．３４２號,120.2195,22.90733,(07)6990800,羅氏家用新冠病毒抗原自我檢測套組,78,2022/04/30 12:36:02,快篩實名制，每天16:00開始販售，售完為止。
5907240014,博林健保藥局,高雄市內門區觀亭里中正路１６０巷５１號,120.4539,22.9232,(07)6671883,羅氏家用新冠病毒抗原自我檢測套組,78,2022/04/30 12:36:02,自2／11日~2／29日，營業日07:40~18:00為販賣口罩時間，售完為止
5907280036,七賢藥局,高雄市鹽埕區七賢三路１６２號１樓,120.2829,22.62712,(07)5330616,羅氏家用新冠病毒抗原自我檢測套組,78,2022/04/30 12:36:02,快篩實名制，每天16:00開始販售，售完為止。
5907290158,美館久億藥局,高雄市鼓山區美術東二路２４５、２４７號,120.2883,22.66526,(07)5227762,羅氏家用新冠病毒抗原自我檢測套組,57,2022/04/30 12:36:02,星期一~星期六10:00開始販賣口罩.售完為止
5907290238,聯合藥師藥局,高雄市鼓山區中華一路９７０號１樓,120.2919,22.65515,(07)5500558,羅氏家用新冠病毒抗原自我檢測套組,61,2022/04/30 12:36:02,無
5907290265,新美館藥局,高雄市鼓山區中華一路９７２號,120.2919,22.65513,(07)5522006,羅氏家用新冠病毒抗原自我檢測套組,77,2022/04/30 12:36:02,無
5907290274,明誠丁丁藥局,高雄市鼓山區明誠三路４６５號,120.3011,22.66097,(07)5520120,羅氏家用新冠病毒抗原自我檢測套組,72,2022/04/30 12:36:02,口罩代售時間自09:00
5907290309,鼓山藥局,高雄市鼓山區華榮路１０號,120.2973,22.66156,(07)5520017,羅氏家用新冠病毒抗原自我檢測套組,78,2022/04/30 12:36:02,快篩實名制，每天16:00開始販售，售完為止。
5907290327,金好藥局,高雄市鼓山區青海路４１８號１樓,120.2845,22.65177,(07)5869556,羅氏家用新冠病毒抗原自我檢測套組,78,2022/04/30 12:36:02,無
5907290354,文昇藥局,高雄市鼓山區慶豐街１２５號,120.2942,22.66724,(07)5525314,羅氏家用新冠病毒抗原自我檢測套組,67,2022/04/30 12:36:02,無
5907300168,金元藥局,高雄市左營區重愛路２２０號,120.3156,22.68562,(07)3458378,羅氏家用新冠病毒抗原自我檢測套組,1,2022/04/30 12:36:02,口罩販售時間08:30開始，星期四，星期六營業時間到中午12點，平常日營業時間到晚上9點
5907300239,左野藥局,高雄市左營區崇德路２２２號,120.3052,22.675,(07)3486883,羅氏家用新冠病毒抗原自我檢測套組,78,2022/04/30 12:36:02,營業時間09:00-22:30（實名制快篩試劑販售時間15:00-20:00售完為止!）
5907300319,士凱藥局,高雄市左營區孟子路１７８號,120.3126,22.67387,(07)3430257,羅氏家用新冠病毒抗原自我檢測套組,78,2022/04/30 12:36:02,快篩實名制，每天14:30開始販售，售完為止。
5907300346,正心藥師藥局,高雄市左營區左營大路４７３之２號,120.295,22.68946,(07)5880386,羅氏家用新冠病毒抗原自我檢測套組,78,2022/04/30 12:36:02,無
5907300408,安闔藥局,高雄市左營區榮總路２３號１樓,120.3217,22.67851,(07)3596913,羅氏家用新冠病毒抗原自我檢測套組,7,2022/04/30 12:36:02,實名制快篩販售時間 : 早上8 : 30至售完為止
5907300417,森森藥師藥局,高雄市左營區緯六路２１５號１樓,120.2874,22.69707,(07)5853600,羅氏家用新冠病毒抗原自我檢測套組,38,2022/04/30 12:36:02,星期一至五 8~19點；星期六 8:30~12點
5907300631,大樹孟子藥局,高雄市左營區孟子路２２６、２２８號,120.3112,22.67415,(07)3461772,羅氏家用新冠病毒抗原自我檢測套組,78,2022/04/30 12:36:02,快篩實名制，每天16:00開始販售，售完為止。
5907300659,維康藥局高榮店,高雄市左營區榮總路１６３號、１６５號,120.3216,22.6809,(07)3494540,羅氏家用新冠病毒抗原自我檢測套組,2,2022/04/30 12:36:02,4／29起平常日0900-1700為快篩販賣時間賣完為止！假日1000-1800
5907300677,佳寧峰藥局,高雄市左營區部後街２號,120.2886,22.6834,(07)5886408,羅氏家用新冠病毒抗原自我檢測套組,60,2022/04/30 12:36:02,口罩，快篩試劑販賣時段:上午8:30起至售完為止
5907300686,左營自由藥局,高雄市左營區自由二路３５０、３５０－１號,120.3091,22.66599,(07)5589991,羅氏家用新冠病毒抗原自我檢測套組,78,2022/04/30 12:36:02,快篩實名制，每天16:00開始販售，售完為止。
5907300702,禾順左營藥局,高雄市左營區自由三路４１０號２樓,120.3127,22.67563,(07)3592582,羅氏家用新冠病毒抗原自我檢測套組,78,2022/04/30 12:36:02,星期一~星期六 實名制快篩劑發放時間13:30~15:00 （周日公休）
5907300711,富元聯合健康藥局,高雄市左營區博愛三路３７號,120.3038,22.67145,(07)3488585,羅氏家用新冠病毒抗原自我檢測套組,10,2022/04/30 12:36:02,無
5907300748,翔生藥局合群店,高雄市左營區緯六路２５６號,120.2871,22.6976,(07)5880055,羅氏家用新冠病毒抗原自我檢測套組,78,2022/04/30 12:36:02,實名制快篩販售時間：星期一至星期五，售完為止
5907300766,悠仁藥局,高雄市左營區自由三路１７０號,120.3113,22.67165,(07)3457979,羅氏家用新冠病毒抗原自我檢測套組,2,2022/04/30 12:36:02,一~五的營業時間為0800~1200／1530~1800／1830~2100 六日的營業時間為0900
5907300800,元大藥師健保藥局,高雄市左營區榮德街３２７號,120.3211,22.68636,(07)3507531,羅氏家用新冠病毒抗原自我檢測套組,78,2022/04/30 12:36:02,09:30開始販賣口罩.售完為止
5907300819,志全藥局,高雄市左營區富國路１６８號１樓,120.3068,22.66075,(07)5568217,羅氏家用新冠病毒抗原自我檢測套組,2,2022/04/30 12:36:02,藥局販售口罩時間，依藥局門口公告時間為主（售完為止）
5907300882,得孚社區藥局,高雄市左營區重立路５３３號１樓,120.3098,22.67955,(07)3410121,羅氏家用新冠病毒抗原自我檢測套組,46,2022/04/30 12:36:02,營業日上午09:30-11:30為販賣口罩時間.售完為止
5907300926,高鐵藥局,高雄市左營區華夏路１３２２．１３２６號,120.312,22.68587,(07)3452797,羅氏家用新冠病毒抗原自我檢測套組,78,2022/04/30 12:36:02,快篩實名制，每天16:00開始販售，售完為止。
5907300944,左營藥局,高雄市左營區華夏路３２５號,120.2972,22.67167,(07)5501017,羅氏家用新冠病毒抗原自我檢測套組,78,2022/04/30 12:36:02,快篩實名制，每天16:00開始販售，售完為止。
5907300971,健勝藥局,高雄市左營區勝利路１２７－１號１樓,120.2896,22.6806,(07)5811169,羅氏家用新冠病毒抗原自我檢測套組,2,2022/04/30 12:36:02,春節期間營業時段請電洽藥局
5907300980,大路藥局,高雄市左營區左營大路５５－２號１樓,120.2877,22.6813,(07)5851001,羅氏家用新冠病毒抗原自我檢測套組,78,2022/04/30 12:36:02,快篩實名制，每天16:00開始販售，售完為止。
5907301012,新高橋藥局華夏店,高雄市左營區華夏路１１１０號,120.3085,22.68343,(07)3410915,羅氏家用新冠病毒抗原自我檢測套組,78,2022/04/30 12:36:02,無
5907301021,杏一左營自由藥局,高雄市左營區自由二路３９７號,120.3084,22.66541,(07)5509511,羅氏家用新冠病毒抗原自我檢測套組,78,2022/04/30 12:36:02,週日無提供快篩實聯制服務
5907301094,杏一高榮二店藥局,高雄市左營區榮總路１７７號１樓,120.3213,22.6811,(07)3463348,羅氏家用新冠病毒抗原自我檢測套組,75,2022/04/30 12:36:02,一~五09:25開始發號碼牌／週六14:25開始發號碼牌
5907310137,青田藥局,高雄市楠梓區監理南街６８號,120.3188,22.72897,(07)3648257,羅氏家用新冠病毒抗原自我檢測套組,78,2022/04/30 12:36:02,無
5907310173,安健藥局,高雄市楠梓區鳳楠路２５０號,120.3296,22.72617,(07)3520167,羅氏家用新冠病毒抗原自我檢測套組,60,2022/04/30 12:36:02,2／06起營業日早上8點開始販賣，周六日早上8:30 .售完為止
5907310262,大樹楠梓藥局,高雄市楠梓區軍校路９０８號,120.2919,22.71246,(07)3632322,羅氏家用新冠病毒抗原自我檢測套組,78,2022/04/30 12:36:02,快篩實名制，每天16:00開始販售，售完為止。
5907310351,惠民楠梓藥局,高雄市楠梓區建楠路２１７號,120.3248,22.72689,(07)3521896,羅氏家用新冠病毒抗原自我檢測套組,78,2022/04/30 12:36:02,下午二點開始發放快篩試劑，發完為止；防疫要記得多備防疫包，增強免疫力。
5907310379,德昌藥局,高雄市楠梓區德賢路２１５號,120.3053,22.72632,(07)3619998,羅氏家用新冠病毒抗原自我檢測套組,77,2022/04/30 12:36:02,實名制快篩販售時間：周一至週日，14:30至16:00，售完為止。
5907310388,宸實藥局,高雄市楠梓區後昌路４７巷２３－１號,120.3129,22.71975,(07)3642142,羅氏家用新冠病毒抗原自我檢測套組,58,2022/04/30 12:36:02,快篩到貨!12:00開始發放號碼牌及販售!_當日有效，一次限領一張，當日19:30前皆可購買，逾時失效，釋出名額!
5907310404,藍田藥局,高雄市楠梓區藍田路１號,120.2953,22.72643,(07)3601236,羅氏家用新冠病毒抗原自我檢測套組,78,2022/04/30 12:36:02,快篩實名制，每天16:00開始販售，售完為止。
5907310468,黃藥局,高雄市楠梓區建楠路１８６號１樓,120.3261,22.72716,(07)3515700,羅氏家用新冠病毒抗原自我檢測套組,74,2022/04/30 12:36:02,無
5907310477,新高橋藥局藍昌店,高雄市楠梓區藍昌路３８７號１樓,120.2915,22.72658,(07)3485857,羅氏家用新冠病毒抗原自我檢測套組,45,2022/04/30 12:36:02,無
5907320179,新高橋藥局天祥店,高雄市三民區天祥一路１１７號,120.3205,22.66711,(07)3102683,羅氏家用新冠病毒抗原自我檢測套組,1,2022/04/30 12:36:02,上午10:00開始販售口罩
5907320259,明誠藥局,高雄市三民區明誠一路１７２號,120.3273,22.65994,(07)3108636,羅氏家用新冠病毒抗原自我檢測套組,76,2022/04/30 12:36:02,星期一到星期六早上9點售快篩.星期日下午3點售快篩
5907320295,新高橋藥局澄清店,高雄市三民區澄和路２號１樓,120.3461,22.64438,(07)3815186,羅氏家用新冠病毒抗原自我檢測套組,78,2022/04/30 12:36:02,下午1:30開始販售口罩
5907320302,新高橋藥局明誠店,高雄市三民區明誠一路４９２號,120.3226,22.66046,(07)3107072,羅氏家用新冠病毒抗原自我檢測套組,78,2022/04/30 12:36:02,早上10:00開始販售口罩
5907320428,東京藥局,高雄市三民區建工路６８５號,120.3173,22.6478,(07)3874567,羅氏家用新冠病毒抗原自我檢測套組,78,2022/04/30 12:36:02,實名制快篩販售時間: 每日15:00-晚上20:00
5907320535,康誠藥局,高雄市三民區建工路６１６號,120.3228,22.64934,(07)3893889,羅氏家用新冠病毒抗原自我檢測套組,57,2022/04/30 12:36:02,無
5907320633,勁康健保藥局,高雄市三民區義華路４０２號１樓,120.3331,22.64371,(07)3966716,羅氏家用新冠病毒抗原自我檢測套組,33,2022/04/30 12:36:02,早上9點30分
5907320697,鄰好藥師藥局,高雄市三民區褒揚街２８７號,120.3398,22.64097,(07)3909589,羅氏家用新冠病毒抗原自我檢測套組,78,2022/04/30 12:36:02,購買實名制快篩時間下午14:00-16:00，各類防疫用品販售中
5907320704,建工台安藥局,高雄市三民區建工路４９９號之１,120.3224,22.64884,(07)3807521,羅氏家用新冠病毒抗原自我檢測套組,77,2022/04/30 12:36:02,防疫口罩每天下午三點發號碼牌，3點半販售，售完為止
5907320768,心樂保健藥局,高雄市三民區光裕路７８號１樓,120.3331,22.63789,(07)3855377,羅氏家用新冠病毒抗原自我檢測套組,78,2022/04/30 12:36:02,星期一到星期四上午8:30-12:00，下午15:00-18:00（口罩售完為止）. 星期五下午14:00-17:00，18:00-20:30（售完為止）
5907320811,力生藥局,高雄市三民區鼎中路１６８號１樓,120.3194,22.6622,(07)3105231,羅氏家用新冠病毒抗原自我檢測套組,78,2022/04/30 12:36:02,營業日星期一~星期五11點起、星期六~星期日晚上6點 開始販賣（實名制快篩）.售完為止
5907320875,耀美麗藥局,高雄市三民區中華三路２８３號,120.2931,22.63585,(07)2153885,羅氏家用新冠病毒抗原自我檢測套組,9,2022/04/30 12:36:02,中午12:00販售現場排隊:
5907320893,大樹天祥藥局,高雄市三民區天祥一路１６７號,120.3191,22.66737,(07)3429902,羅氏家用新冠病毒抗原自我檢測套組,78,2022/04/30 12:36:02,快篩實名制，每天16:00開始販售，售完為止。
5907320919,心寬福藥局,高雄市三民區大順二路７１８號一樓,120.3193,22.65359,(07)3832366,羅氏家用新冠病毒抗原自我檢測套組,74,2022/04/30 12:36:02,週一到週五上午9:00-12:00、下午14:00-20:00，週六下午14:00-20:00販售口罩，週日公休。
5907320946,熊安心藥局,高雄市三民區陽明路４０８號,120.3429,22.64609,(07)3815212,羅氏家用新冠病毒抗原自我檢測套組,78,2022/04/30 12:36:02,週一 ~ 週六 AM8:00-PM10:00，快篩分兩梯次販售，14:00有63份，19:00有15份
5907321023,富容健保藥局,高雄市三民區覺民路３３６－１號,120.3357,22.64045,(07)3850208,羅氏家用新冠病毒抗原自我檢測套組,78,2022/04/30 12:36:02,周一至周六下午13:00開始，售完為止
5907321032,三民明誠藥局,高雄市三民區明誠一路５００號１－２Ｆ及５０２號,120.3223,22.66046,(07)3493137,羅氏家用新冠病毒抗原自我檢測套組,78,2022/04/30 12:36:02,營業時間早上9點至晚上10點
5907321069,桂林活力藥局九如店,高雄市三民區懷安街１１２號１樓,120.3176,22.64095,(07)3981009,羅氏家用新冠病毒抗原自我檢測套組,78,2022/04/30 12:36:02,無
5907321078,振源藥局,高雄市三民區熱河一街３５５號１樓,120.3061,22.64365,(07)3112541,羅氏家用新冠病毒抗原自我檢測套組,89,2022/04/30 12:36:02,4／30起15:00開始販售快篩，六日皆有營業
5907321096,建工丁丁藥局,高雄市三民區建工路５６８號,120.3244,22.65015,(07)3830841,羅氏家用新冠病毒抗原自我檢測套組,57,2022/04/30 12:36:02,無
5907321103,自由藥局,高雄市三民區自由一路７８號,120.3089,22.64422,(07)3223113,羅氏家用新冠病毒抗原自我檢測套組,78,2022/04/30 12:36:02,快篩實名制，每天16:00開始販售，售完為止。
5907321158,窩窩香藥局,高雄市三民區明哲路４２－１號１樓,120.312,22.66176,(07)3505883,羅氏家用新冠病毒抗原自我檢測套組,78,2022/04/30 12:36:02,週一~周五 10:00／週六 14:00／週日公休
5907321167,高杏健保藥局,高雄市三民區義華路４３２號,120.3325,22.6437,(07)3920588,羅氏家用新冠病毒抗原自我檢測套組,78,2022/04/30 12:36:02,無
5907330040,維康藥局,高雄市新興區中正三路６５號,120.3078,22.63077,(07)2615396,羅氏家用新冠病毒抗原自我檢測套組,78,2022/04/30 12:36:02,快篩代售時間:星期一至星期六15:00-18:00，星期日9:00-12:00
5907330148,康園藥局,高雄市新興區六合一路５３－１２號,120.3089,22.63241,(07)2372069,羅氏家用新冠病毒抗原自我檢測套組,78,2022/04/30 12:36:02,快篩領取限下午15:30~20:00，星期日早上10點營業至晚上10點
5907330200,新興復興藥局,高雄市新興區復興一路７６號１樓,120.3085,22.63312,(07)2352550,羅氏家用新冠病毒抗原自我檢測套組,78,2022/04/30 12:36:02,快篩實名制，每天16:00開始販售，售完為止。
5907330219,美麗島台安藥局,高雄市新興區中山一路１１５號地下２樓（轉換層）,120.3015,22.63155,(07)2365490,羅氏家用新冠病毒抗原自我檢測套組,78,2022/04/30 12:36:02,無
5907350113,英祥藥局,高雄市苓雅區英祥街１９號,120.3257,22.61678,(07)7522786,羅氏家用新冠病毒抗原自我檢測套組,78,2022/04/30 12:36:02,無
5907350177,佳康藥局,高雄市苓雅區建國一路３３４號,120.3247,22.63293,(07)2266685,羅氏家用新冠病毒抗原自我檢測套組,74,2022/04/30 12:36:02,口罩代售時間:一至四8:30-21:00、五六8:30-16:30
5907350186,中美藥局,高雄市苓雅區武廟路９８號,120.3303,22.6307,(07)7151149,羅氏家用新冠病毒抗原自我檢測套組,13,2022/04/30 12:36:02,快篩試劑販售週一~週五09:30
5907350220,仁愛藥師藥局,高雄市苓雅區中正一路２３０號,120.3296,22.62921,(07)7222300,羅氏家用新冠病毒抗原自我檢測套組,47,2022/04/30 12:36:02,快篩販售一到五10:30開始，紅字假日12:30開始
5907350300,辰安藥局,高雄市苓雅區青年一路１８５－２號,120.3069,22.62138,(07)5365545,羅氏家用新冠病毒抗原自我檢測套組,61,2022/04/30 12:36:02,自3／1日~3／31日，星期一至五09:00開始販售口罩.售完為止 六日11點開賣
5907350319,御康藥局,高雄市苓雅區光華一路３５號,120.3172,22.61918,(07)3313535,羅氏家用新冠病毒抗原自我檢測套組,78,2022/04/30 12:36:02,快篩實名制，星期一到五下午1:00開始販售，現場排隊，售完為止
5907350328,安杏藥局,高雄市苓雅區四維二路９４－１７號,120.3197,22.62273,(07)7511739,羅氏家用新冠病毒抗原自我檢測套組,78,2022/04/30 12:36:02,快篩試劑代售時間自早上9:00點服務
5907350346,武廟幸福藥局,高雄市苓雅區武廟路３５號,120.3316,22.62999,(07)7170085,羅氏家用新冠病毒抗原自我檢測套組,1,2022/04/30 12:36:02,快篩代售時間為08:50；現場排隊領取號碼牌 售完為止
5907350480,健森藥局,高雄市苓雅區林森二路１３８號１、２樓,120.3066,22.62054,(07)3365169,羅氏家用新冠病毒抗原自我檢測套組,65,2022/04/30 12:36:02,早上9點領牌 下午3~5點領口罩
5907350499,鑫美健保特約藥局,高雄市苓雅區光華一路１４８－５８號１樓,120.3158,22.62389,(07)7715088,羅氏家用新冠病毒抗原自我檢測套組,1,2022/04/30 12:36:02,09:00開賣實名制快篩，依照配送狀況販售
5907350506,大樹苓雅藥局,高雄市苓雅區中華四路１５３號,120.3001,22.61783,(07)5353111,羅氏家用新冠病毒抗原自我檢測套組,78,2022/04/30 12:36:02,快篩實名制，每天16:00開始販售，售完為止。
5907350533,健群藥局,高雄市苓雅區安業路４０號,120.3231,22.62731,(07)7150097,羅氏家用新冠病毒抗原自我檢測套組,78,2022/04/30 12:36:02,無
5907350551,大樹武廟藥局,高雄市苓雅區武廟路４３、４５號１樓,120.3314,22.63005,(07)7222268,羅氏家用新冠病毒抗原自我檢測套組,78,2022/04/30 12:36:02,快篩實名制，每天16:00開始販售，售完為止。
5907350560,成功合豐藥局,高雄市苓雅區成功一路１７０號１樓,120.2972,22.61595,(07)2695657,羅氏家用新冠病毒抗原自我檢測套組,45,2022/04/30 12:36:02,早上9點開始賣口罩~晚上9點   售完為止
5907350631,三多藥局,高雄市苓雅區三多二路２９２號１樓,120.3173,22.61838,(07)3365889,羅氏家用新冠病毒抗原自我檢測套組,78,2022/04/30 12:36:02,快篩實名制，每天16:00開始販售，售完為止。
5907350659,北京藥局林泉店,高雄市苓雅區林泉里３鄰林泉街３５號１樓,120.3192,22.62323,(07)7263030,羅氏家用新冠病毒抗原自我檢測套組,234,2022/04/30 12:36:02,無
5907360360,親親藥局,高雄市前鎮區天山路１０巷６號,120.3151,22.60991,(07)3391078,羅氏家用新冠病毒抗原自我檢測套組,32,2022/04/30 12:36:02,周日休假，停售!!!
5907360379,金服安藥局,高雄市前鎮區鎮興路１９１號,120.3115,22.59249,(07)8150061,羅氏家用新冠病毒抗原自我檢測套組,78,2022/04/30 12:36:02,每日上午9點-21點半販賣口罩.
5907360413,益源藥局,高雄市前鎮區草衙二路４１８號,120.3226,22.57903,(07)8412120,羅氏家用新冠病毒抗原自我檢測套組,78,2022/04/30 12:36:02,無
5907360566,祥安健保藥局,高雄市前鎮區復興三路３９３號１樓,120.3116,22.61373,(07)3340393,羅氏家用新冠病毒抗原自我檢測套組,26,2022/04/30 12:36:02,無
5907360584,聖名健保藥局,高雄市前鎮區復興三路２４６號１樓,120.312,22.61558,(07)3319431,羅氏家用新冠病毒抗原自我檢測套組,77,2022/04/30 12:36:02,無
5907360600,桂林活力藥師藥局草衙店,高雄市前鎮區草衙二路３６０號,120.323,22.57801,(07)8131819,羅氏家用新冠病毒抗原自我檢測套組,78,2022/04/30 12:36:02,營業期間9:00~22:00為販賣口罩時間.售完為止
5907360664,忠純藥局,高雄市前鎮區中華五路１００９號１樓,120.3056,22.60341,(07)3366886,羅氏家用新冠病毒抗原自我檢測套組,78,2022/04/30 12:36:02,快篩實名制，每天16:00開始販售，售完為止。
5907360673,前鎮大樹藥局,高雄市前鎮區瑞隆路４７２號１樓,120.3291,22.60547,(07)7137171,羅氏家用新冠病毒抗原自我檢測套組,78,2022/04/30 12:36:02,快篩實名制，每天16:00開始販售，售完為止。
5907380175,新朋友藥師藥局小港店,高雄市小港區漢民路２５４號,120.3531,22.56653,(07)8065361,羅氏家用新冠病毒抗原自我檢測套組,78,2022/04/30 12:36:02,每週六公休
5907380184,桂林活力藥師藥局孔鳳店,高雄市小港區孔鳳路５６１號１樓,120.3586,22.58393,(07)7912331,羅氏家用新冠病毒抗原自我檢測套組,78,2022/04/30 12:36:02,無
5907380255,安安藥師藥局,高雄市小港區孔鳳路５６５號１樓,120.3586,22.58393,(07)7915933,羅氏家用新冠病毒抗原自我檢測套組,78,2022/04/30 12:36:02,週一至週六
5907380264,大樹孔鳳藥局,高雄市小港區孔鳳路５１９、５２１號,120.3587,22.5828,(07)7918521,羅氏家用新冠病毒抗原自我檢測套組,78,2022/04/30 12:36:02,快篩實名制，每天16:00開始販售，售完為止。
5907380353,桂林活力藥師藥局漢民店,高雄市小港區漢民路６９１－１及６９１－２號１樓,120.3614,22.56762,(07)8010636,羅氏家用新冠病毒抗原自我檢測套組,79,2022/04/30 12:36:02,無
5907380380,祐昇健保藥局,高雄市小港區漢民路３３３號１樓,120.3551,22.56704,(07)8070976,羅氏家用新冠病毒抗原自我檢測套組,52,2022/04/30 12:36:02,快篩販售時間 每周一~周六中午12:30開始；週日早上9:00開始販售
5907380424,大樹小港藥局,高雄市小港區康莊路７５號１樓,120.3559,22.56853,(07)8068328,羅氏家用新冠病毒抗原自我檢測套組,78,2022/04/30 12:36:02,快篩實名制，每天16:00開始販售，售完為止。
5911010015,喬寶藥局,基隆市中正區義二路６６號１樓,121.7461,25.13187,(02)24202827,羅氏家用新冠病毒抗原自我檢測套組,78,2022/04/30 12:36:02,下午2點開賣
5911011334,海大藥局,基隆市中正區新豐街２５５號１樓,121.7879,25.13621,(02)24699222,羅氏家用新冠病毒抗原自我檢測套組,78,2022/04/30 12:36:02,平日：8：30~12：00，15：00~21：30；星期日：~12：00
5911011469,維元社區藥局,基隆市中正區新豐街４４８號,121.7859,25.13568,(02)24601388,羅氏家用新冠病毒抗原自我檢測套組,77,2022/04/30 12:36:02,營業時間:早上8:30-晚上10:30
5911011478,天康新豐藥局,基隆市中正區新豐街２５１巷４弄９號１樓,121.7885,25.13594,(02)24695168,羅氏家用新冠病毒抗原自我檢測套組,78,2022/04/30 12:36:02,無
5911011512,八斗子東亞藥局,基隆市中正區北寧路３７８號,121.7958,25.13944,(02)24698829,羅氏家用新冠病毒抗原自我檢測套組,11,2022/04/30 12:36:02,中午12點鐘開賣實名制快篩，售完為止
5911011594,禾新藥局,基隆市中正區新豐街２０５巷７號,121.7895,25.138,(02)24698940,羅氏家用新冠病毒抗原自我檢測套組,78,2022/04/30 12:36:02,快篩實名制販售時間:下午3點開始
5911011638,中正藥局,基隆市中正區新豐街３８５號１、２樓,121.7856,25.13537,(02)24690660,羅氏家用新冠病毒抗原自我檢測套組,78,2022/04/30 12:36:02,快篩實名制，每天16:00開始販售，售完為止。
5911021394,百福專業藥師藥局,基隆市七堵區自治街１３號１樓,121.7131,25.09609,(02)24556688,羅氏家用新冠病毒抗原自我檢測套組,78,2022/04/30 12:36:02,＊代售口罩每日下午2點發號碼牌，現場排隊購買!
5911030026,欣華藥局,基隆市暖暖區源遠路１９７號,121.7517,25.09843,(02)24576741,羅氏家用新冠病毒抗原自我檢測套組,20,2022/04/30 12:36:02,10
5911030035,陸記藥局,基隆市暖暖區源遠路２４１號,121.7543,25.09882,(02)24576712,羅氏家用新冠病毒抗原自我檢測套組,78,2022/04/30 12:36:02,每日下午兩點販售快篩試劑
5911031238,碇內東亞藥師藥局,基隆市暖暖區源遠路３１９號１樓,121.7574,25.09941,(02)24590033,羅氏家用新冠病毒抗原自我檢測套組,78,2022/04/30 12:36:02,無
5911031283,福安藥局,基隆市暖暖區暖暖街５５２號,121.7365,25.09258,(02)24588550,羅氏家用新冠病毒抗原自我檢測套組,6,2022/04/30 12:36:02,4／29-4／30 中午12:00販售實名制家用快篩試劑
5911031318,安安藥局,基隆市暖暖區源遠路１６８號,121.7492,25.09815,(02)24585577,羅氏家用新冠病毒抗原自我檢測套組,78,2022/04/30 12:36:02,每週六公休，每日08:30販售快篩
5911041305,婕登藥局,基隆市仁愛區愛三路５３號１、２樓,121.7425,25.12841,(02)24222582,羅氏家用新冠病毒抗原自我檢測套組,78,2022/04/30 12:36:02,成人口罩：每天下午三點開始發放號碼牌
5911041510,聯安藥局,基隆市仁愛區仁二路２５１號２樓,121.7428,25.1296,(02)24288809,羅氏家用新冠病毒抗原自我檢測套組,78,2022/04/30 12:36:02,安東耳鼻喉科二樓循環站正對面 快篩販售時間9:00-11:50，14:30-20:00 假日9:00-11:00 售完為止
5911041618,永樂藥局,基隆市仁愛區忠二路２２號,121.7401,25.13013,(02)24214878,羅氏家用新冠病毒抗原自我檢測套組,78,2022/04/30 12:36:02,無
5911041903,長虹藥師藥局,基隆市仁愛區仁三路８８號１樓,121.7419,25.12926,(02)24261318,羅氏家用新冠病毒抗原自我檢測套組,11,2022/04/30 12:36:02,無
5911041949,捷登藥局,基隆市仁愛區孝三路９２號１樓,121.7399,25.1309,(02)24237888,羅氏家用新冠病毒抗原自我檢測套組,78,2022/04/30 12:36:02,國定假日有提供藥事調劑服務
5911041958,百福仁愛專業藥局,基隆市仁愛區仁四路５０號１樓,121.7413,25.12829,(02)24266699,羅氏家用新冠病毒抗原自我檢測套組,78,2022/04/30 12:36:02,4／30起，早上8:00販售快篩
5911041967,東隆藥局,基隆市仁愛區仁二路１０５號２樓,121.7482,25.12742,(02)24260727,羅氏家用新冠病毒抗原自我檢測套組,78,2022/04/30 12:36:02,無
5911050073,中山藥局,基隆市中山區中山二路４５號,121.7405,25.13788,(02)24269996,羅氏家用新冠病毒抗原自我檢測套組,71,2022/04/30 12:36:02,星期一~五中午12點賣快篩售完為止 星期六下午1點 星期日休息不賣
5911050162,錦泰藥局,基隆市中山區中山二路４３號,121.7405,25.13786,(02)24228523,羅氏家用新冠病毒抗原自我檢測套組,78,2022/04/30 12:36:02,快篩販賣時間星期一至五晚上7點，星期六，星期日休息
5911051481,仁登藥局,基隆市中山區復興路１２２號,121.7262,25.14453,(02)24375789,羅氏家用新冠病毒抗原自我檢測套組,78,2022/04/30 12:36:02,無
5911051507,百福安一藥局,基隆市中山區安一路８１號,121.7358,25.1314,(02)24258068,羅氏家用新冠病毒抗原自我檢測套組,76,2022/04/30 12:36:02,每天下午兩點現場代售防疫口罩，售完為止
5911051543,復興藥局,基隆市中山區復興路１２８、１３０、１３２、１３４號１、２樓,121.7262,25.1446,(02)24362566,羅氏家用新冠病毒抗原自我檢測套組,78,2022/04/30 12:36:02,快篩實名制，每天16:00開始販售，售完為止。
5911060015,福泰藥局,基隆市安樂區麥金路４３３號,121.7194,25.12511,(02)24311631,羅氏家用新冠病毒抗原自我檢測套組,70,2022/04/30 12:36:02,無
5911061272,立登藥局,基隆市安樂區麥金路１９７號１樓,121.7216,25.12079,(02)24334477,羅氏家用新冠病毒抗原自我檢測套組,78,2022/04/30 12:36:02,藥局快篩劑代售15:00開始販售 現場排隊
5911061370,佑全基隆麥金藥局,基隆市安樂區麥金路２０１號地下１樓之１,121.7211,25.12158,(02)24347816,羅氏家用新冠病毒抗原自我檢測套組,78,2022/04/30 12:36:02,實名制快篩下午兩點開買，營業時間09:00-21:00
5911071536,小不點健保藥局,基隆市信義區深溪路１２６號１樓,121.7827,25.13375,(02)24683985,羅氏家用新冠病毒抗原自我檢測套組,78,2022/04/30 12:36:02,無
5911071572,元登藥局,基隆市信義區深溪路１４９號,121.7826,25.13475,(02)24663826,羅氏家用新冠病毒抗原自我檢測套組,78,2022/04/30 12:36:02,無
5911071607,家安藥師藥局,基隆市信義區信二路２５７、２５９號１樓,121.7478,25.1301,(02)24223917,羅氏家用新冠病毒抗原自我檢測套組,78,2022/04/30 12:36:02,星期一 ~ 星期六 13:30開始銷售，星期日早上9點開始。
5912010528,華安中西藥局,新竹市東區振興里南大路６４８號一樓,120.9627,24.79286,(03)5610088,羅氏家用新冠病毒抗原自我檢測套組,78,2022/04/30 12:36:02,早上8:30販售快篩試劑
5912012979,哈佛藥局,新竹市東區北大路７２－１號,120.971,24.81178,(03)5326777,羅氏家用新冠病毒抗原自我檢測套組,78,2022/04/30 12:36:02,快篩販售時間：平日14:50
5912012988,杏康健保特約藥局,新竹市東區光復路一段５２５巷２３號１樓,121.0135,24.78384,(03)5772966,羅氏家用新冠病毒抗原自我檢測套組,78,2022/04/30 12:36:02,週一至五09:00-21:00 （週六公休） 週日09:00-18:00
5912013494,田美藥局,新竹市東區田美三街３５之１號１樓,120.9767,24.81572,(03)5350233,羅氏家用新冠病毒抗原自我檢測套組,78,2022/04/30 12:36:02,快篩實名制，每天16:00開始販售，售完為止。
5912013529,新莊藥局,新竹市東區光復路１段４７３號１樓,121.015,24.78421,(03)5634775,羅氏家用新冠病毒抗原自我檢測套組,78,2022/04/30 12:36:02,快篩販賣時間周六下午3點
5912013565,合康連鎖藥局關新店,新竹市東區關新北路１６１號１樓,121.0204,24.78614,(03)5679666,羅氏家用新冠病毒抗原自我檢測套組,78,2022/04/30 12:36:02,快篩販售時間:17:00
5912013672,關東藥局,新竹市東區光復路１段３３２、３３４號１至２樓,121.0187,24.78289,(03)5777077,羅氏家用新冠病毒抗原自我檢測套組,78,2022/04/30 12:36:02,快篩實名制，每天16:00開始販售，售完為止。
5912042098,欣欣藥局,新竹市北區西大路736巷1號,120.9591,24.81011,(03)5351205,羅氏家用新冠病毒抗原自我檢測套組,78,2022/04/30 12:36:02,上午8:00-12:00 ；下午15:00-18:00 ；晚上18:30-21:30快篩代售周二~周五上午9點，周一跟周六下午4點，售完為止
5912042422,幼能健保藥局,新竹市北區竹光路１０８號１樓,120.9592,24.8133,(03)5339750,羅氏家用新冠病毒抗原自我檢測套組,78,2022/04/30 12:36:02,快篩實際販售時間 下午3點
5912042459,閎安專業藥局,新竹市北區延平路三段６８７號１樓,120.9367,24.8407,(03)5368675,羅氏家用新冠病毒抗原自我檢測套組,11,2022/04/30 12:36:02,無
5912042664,永沛藥局,新竹市北區湳雅街２０９號,120.9741,24.82093,(03)5328563,羅氏家用新冠病毒抗原自我檢測套組,78,2022/04/30 12:36:02,快篩販售時間：15~17  備註:
5912042815,合康連鎖藥局西大店,新竹市北區西大路６３６、６３８號１樓,120.9585,24.8101,(03)5233111,羅氏家用新冠病毒抗原自我檢測套組,78,2022/04/30 12:36:02,09:00
5912042897,立新藥師藥局,新竹市北區延平路一段２４５號１樓,120.9532,24.80494,(03)5228968,羅氏家用新冠病毒抗原自我檢測套組,78,2022/04/30 12:36:02,AM9:00販售快篩
5912042940,新竹北門藥局,新竹市北區中正路３６０、３６２號１樓,120.9629,24.81414,(03)5333234,羅氏家用新冠病毒抗原自我檢測套組,78,2022/04/30 12:36:02,無
5912042968,大樹新竹藥局,新竹市北區西大路５４０、５４２號１、２樓,120.9619,24.80676,(03)5250388,羅氏家用新冠病毒抗原自我檢測套組,78,2022/04/30 12:36:02,快篩實名制，每天16:00開始販售，售完為止。
5912051430,三姓藥局,新竹市香山區中華路四段５７６號１、２樓,120.9297,24.78886,(03)5385886,羅氏家用新冠病毒抗原自我檢測套組,78,2022/04/30 12:36:02,快篩實名制，每天16:00開始販售，售完為止。
5912051467,健佑藥局,新竹市香山區大庄路４５巷２、６號,120.9284,24.78931,(03)5306555,羅氏家用新冠病毒抗原自我檢測套組,78,2022/04/30 12:36:02,快篩試劑下午兩點開始販售
5917010082,仁壽藥局,臺中市中區東墩里三民路三段１號,120.6817,24.14482,(04)22228058,羅氏家用新冠病毒抗原自我檢測套組,49,2022/04/30 12:36:02,週一至週六上午9時30分起販售快篩劑
5917010126,永大藥局,臺中市中區錦上里民族路１２２號,120.6786,24.14054,(04)22210180,羅氏家用新冠病毒抗原自我檢測套組,76,2022/04/30 12:36:02,09:00開始代售口罩，人多會發號碼牌 （周日休息）
5917011847,郭藥局,臺中市中區平等街一二四號,120.682,24.1426,(04)22200005,羅氏家用新冠病毒抗原自我檢測套組,6,2022/04/30 12:36:02,無
5917011934,一安堂藥局,臺中市中區臺灣大道一段２０號１樓,120.6847,24.13819,(04)22259616,羅氏家用新冠病毒抗原自我檢測套組,78,2022/04/30 12:36:02,14:00開始領取實名制快篩劑
5917011945,正三吉藥局,臺中市中區臺灣大道一段９５號,120.6831,24.13911,(04)22207700,羅氏家用新冠病毒抗原自我檢測套組,76,2022/04/30 12:36:02,快篩販售時間 14:00~17:00
5917021549,福倫藥局,臺中市東區精武東路１９８號,120.71,24.14933,(04)22139918,羅氏家用新冠病毒抗原自我檢測套組,3,2022/04/30 12:36:02,快篩代售:每天早上08:00開始販售 售完為止.（口罩代售，售完為止）
5917021656,仁康中西藥局,臺中市東區振興路４３９號１樓,120.7055,24.13032,(04)22151232,羅氏家用新冠病毒抗原自我檢測套組,2,2022/04/30 12:36:02,周一至周六，早上8:30發放號碼牌並開始販售.（販售至中午12:00止）
5917021718,中大藥局,臺中市東區十甲路５０５號,120.7109,24.14466,(04)22131348,羅氏家用新冠病毒抗原自我檢測套組,78,2022/04/30 12:36:02,無
5917030066,立安藥局,臺中市西區土庫里忠明南路３４８號,120.6576,24.14276,(04)23719125,羅氏家用新冠病毒抗原自我檢測套組,61,2022/04/30 12:36:02,每天09:00開始依排隊先後序開始發放號碼牌並配售口罩，售完為止。
5917030128,太信藥局,臺中市西區三民路一段９５－１號１樓,120.6698,24.13322,(04)23718318,羅氏家用新冠病毒抗原自我檢測套組,67,2022/04/30 12:36:02,請早上09:00→健保卡&快篩
5917030146,新永富藥局,臺中市西區吉龍里美村路一段６７０號,120.6615,24.13555,(04)23766127,羅氏家用新冠病毒抗原自我檢測套組,1,2022/04/30 12:36:02,每日中午12:00~13:00 販售..健保卡實名制快篩 請自備500元／份
5917030271,國良藥局,臺中市西區西屯路１段２２０號,120.6707,24.15344,(04)22018772,羅氏家用新冠病毒抗原自我檢測套組,78,2022/04/30 12:36:02,快篩試劑，下午2點開始販售，售完為止。
5917030280,德星藥局,臺中市西區忠明里美村路一段９６號,120.6615,24.1521,(04)23212293,羅氏家用新冠病毒抗原自我檢測套組,78,2022/04/30 12:36:02,快篩營業時間10:00~20:00週六13:30~20:00營業，上午休息，週日休息
5917030646,華隆藥局,臺中市西區樂群街６之２號,120.6735,24.14025,(04)22243785,羅氏家用新冠病毒抗原自我檢測套組,78,2022/04/30 12:36:02,販售口罩時間為週一至週日早上09:30開始，售完為止。
5917030860,振聲藥局,臺中市西區公正里向上路１段４４７號１樓,120.6541,24.14654,(04)24721100,羅氏家用新冠病毒抗原自我檢測套組,78,2022/04/30 12:36:02,週一至週六早上9:00開始販售口罩，售完為止
5917030995,麗新健保大藥局,臺中市西區向上路一段１６２號,120.6612,24.1469,(04)23017100,羅氏家用新冠病毒抗原自我檢測套組,75,2022/04/30 12:36:02,週一至週日下午15:00至受完為止
5917032220,匯康藥局,臺中市西區向上路一段二七七號一樓,120.6585,24.14651,(04)23014038,羅氏家用新冠病毒抗原自我檢測套組,11,2022/04/30 12:36:02,週一至週六早上09:30開始販售至口罩售完為止
5917032382,中港大藥局,臺中市西區臺灣大道２段１３２號,120.6714,24.14995,(04)22080708,羅氏家用新冠病毒抗原自我檢測套組,79,2022/04/30 12:36:02,無
5917032613,向日睽藥局,臺中市西區林森路９８－２號１樓,120.6707,24.1379,(04)23731893,羅氏家用新冠病毒抗原自我檢測套組,69,2022/04/30 12:36:02,每日早上9點開始當場販售口罩.星期日也賣
5917032800,壹藥局,臺中市西區美村路１段７７５號１樓,120.6618,24.13306,(04)23721998,羅氏家用新冠病毒抗原自我檢測套組,78,2022/04/30 12:36:02,星期一到星期日每天下午二點開始販售快篩試劑售完為止謝謝
5917040106,侑民藥局,臺中市南區興大路３９６巷４９號１樓,120.6712,24.11564,(04)22860146,羅氏家用新冠病毒抗原自我檢測套組,58,2022/04/30 12:36:02,週一至週五上午9點販賣防疫口罩，週六、日口罩停止販賣，2／8、2／15、2／22有販賣口罩，2／28有販賣口罩
5917040393,鴻儀大藥局,臺中市南區樹義里大慶街二段３－４號,120.6528,24.11405,(04)22611769,羅氏家用新冠病毒抗原自我檢測套組,78,2022/04/30 12:36:02,周一到周六下午3:00-5:00販賣防疫口罩，周日休息
5917040464,陳信安藥局,臺中市南區永興里高工路３４９號,120.6665,24.11425,(04)22619560,羅氏家用新冠病毒抗原自我檢測套組,78,2022/04/30 12:36:02,實名制快篩 周一至六14:00開賣，庫存依現場為準，周日依政府配送調整
5917041836,健康人生藥局,臺中市南區美村南路１３１號,120.6666,24.11725,(04)22633936,羅氏家用新冠病毒抗原自我檢測套組,78,2022/04/30 12:36:02,因政府配貨時間不一，依照門市現場公告時間為主!
5917050719,百鴻藥局,臺中市北區金龍里北屯路１３－１號,120.6914,24.15981,(04)22336330,羅氏家用新冠病毒抗原自我檢測套組,31,2022/04/30 12:36:02,固定周一至周五10.00--16.00 17.00--21.00開始販售口罩售完為止
5917050880,欣康藥局,臺中市北區館前路２１號,120.6657,24.15543,(04)23226837,羅氏家用新冠病毒抗原自我檢測套組,78,2022/04/30 12:36:02,週一至週六上午9時開始發放號碼牌，週日上午10時開始發放號碼牌。
5917050933,英才藥局,臺中市北區英才路２２９號,120.674,24.15558,(04)22012325,羅氏家用新冠病毒抗原自我檢測套組,78,2022/04/30 12:36:02,上午9~10:30及下午5~6:30依序發售口罩，週日公休。
5917051449,格霖大藥局,臺中市北區山西路二段７０號１樓,120.6758,24.1689,(04)22925076,羅氏家用新冠病毒抗原自我檢測套組,5,2022/04/30 12:36:02,早上10點-晚上9點
5917052928,盈佑藥局,臺中市北區進化路６３９號１樓,120.6941,24.16091,(04)22376737,羅氏家用新冠病毒抗原自我檢測套組,44,2022/04/30 12:36:02,週一至週五上午9點到下午9點賣口罩 下午12~15點休息週六下午晚上都休息
5917053756,中心旗艦藥局,臺中市北區五權路４０４號,120.6821,24.15288,(04)22068113,羅氏家用新冠病毒抗原自我檢測套組,78,2022/04/30 12:36:02,固定周一到周日，下午2:00開始販賣防疫口罩
5917060108,博新藥局,臺中市西屯區福安里中工三路２２０號,120.6153,24.17541,(04)23583412,羅氏家用新冠病毒抗原自我檢測套組,2,2022/04/30 12:36:02,星期一至六早上9點開始販賣無號碼牌星期日休營
5917062406,健康藥局,臺中市西屯區何南里大墩１９街２６號１樓,120.6568,24.15693,(04)23190305,羅氏家用新冠病毒抗原自我檢測套組,15,2022/04/30 12:36:02,原則上W1-W6 10:00開始販售快篩（視排隊狀況提前），星期日休息
5917062531,久揚大藥局,臺中市西屯區工業區一路９８之１６號,120.6138,24.17453,(04)23580738,羅氏家用新冠病毒抗原自我檢測套組,8,2022/04/30 12:36:02,未發號碼牌，星期一至六早上9:00開始販賣口罩，星期日不一定
5917063065,達康藥局,臺中市西屯區中工三路１３９號,120.6186,24.17779,(04)23586332,羅氏家用新冠病毒抗原自我檢測套組,78,2022/04/30 12:36:02,週一~周日下午2點販售快篩售完為止，無發放號碼牌.
5917063725,永旭大藥局,臺中市西屯區逢甲路９２號１樓,120.6439,24.17883,(04)27087952,羅氏家用新冠病毒抗原自我檢測套組,12,2022/04/30 12:36:02,星期一到六每日10:00開始販售。星期日中午12點開始販售，售完為止
5917070186,濟安堂藥局,臺中市南屯區南屯路二段７８８號,120.6378,24.14028,(04)23899603,羅氏家用新冠病毒抗原自我檢測套組,78,2022/04/30 12:36:02,快篩~早上7點40分開始販售，售完為止.（不發號碼牌）
5917070355,承諭藥局,臺中市南屯區黎明路２段１９９號,120.636,24.14698,(04)23849128,羅氏家用新冠病毒抗原自我檢測套組,78,2022/04/30 12:36:02,快篩實名制周一、二、四、五早上10:30；周三、六晚上7:00
5917070382,得安藥局,臺中市南屯區溝墘里大墩路５９６號,120.6495,24.15136,(04)23234168,羅氏家用新冠病毒抗原自我檢測套組,78,2022/04/30 12:36:02,4月30日下午2點開始現場購買快篩試劑，售完為止。
5917070515,裕登藥局,臺中市南屯區大墩二街９１號１Ｆ,120.6515,24.13873,(04)24715280,羅氏家用新冠病毒抗原自我檢測套組,4,2022/04/30 12:36:02,固定周一到周日早上9:00開始販賣防疫口罩。
5917070659,德安藥局,臺中市南屯區文山里忠勇路１１５－６號１樓,120.6157,24.15096,(04)23894920,羅氏家用新冠病毒抗原自我檢測套組,78,2022/04/30 12:36:02,週一至週六，快篩實名制：下午1點販賣 （限量78份）
5917071727,大愛藥局,臺中市南屯區向心南路９６２．９６４號１樓,120.644,24.13718,(04)24733646,羅氏家用新冠病毒抗原自我檢測套組,78,2022/04/30 12:36:02,無
5917072242,政豐大愛藥局,臺中市南屯區大業路１４５、１４７號１樓,120.6516,24.15344,(04)23274726,羅氏家用新冠病毒抗原自我檢測套組,78,2022/04/30 12:36:02,因貨運問題，再另行通知
5917072251,五六藥局,臺中市南屯區南屯路２段２４０號,120.6493,24.13696,(04)24757156,羅氏家用新冠病毒抗原自我檢測套組,78,2022/04/30 12:36:02,4／30 下午 16 : 00 開始販售， 售完為止. （不發號碼牌）
5917072644,全成藥局,臺中市南屯區大墩６街２２３號,120.6464,24.14254,(04)24712897,羅氏家用新冠病毒抗原自我檢測套組,78,2022/04/30 12:36:02,實名制快篩每日15:00開始販售-售完為止（庫存以現場為主）
5917072724,百芳大藥局,臺中市南屯區向上路二段４２１號,120.6377,24.1469,(04)23818307,羅氏家用新冠病毒抗原自我檢測套組,78,2022/04/30 12:36:02,周一到周六，早上9:30開始販賣快篩，不發號碼牌。
5917080262,寶麒藥局,臺中市北屯區旅順路２段１５０號,120.6895,24.174,(04)22433918,羅氏家用新冠病毒抗原自我檢測套組,66,2022/04/30 12:36:02,周一~周六每天下午1:00開始販售實名制快篩試劑，售完為止5／1，周日有營業。
