醫事機構代碼,醫事機構名稱,醫事機構地址,經度,緯度,醫事機構電話,廠牌項目,快篩試劑截至目前結餘存貨數量,來源資料時間,備註
2331260016,新北市貢寮區衛生所,新北市貢寮區朝陽街７０巷１０號、新北市貢寮區仁愛路１２８號,121.9095,25.02258,(02)24901431,羅氏家用新冠病毒抗原自我檢測套組,156,2022/04/29 11:49:02,星期一至星期日上午8點購買防疫口罩，售完為止.
2331290014,新北市烏來區衛生所,新北市烏來區新烏路５段１０９號,121.548,24.87197,(02)26617200,羅氏家用新冠病毒抗原自我檢測套組,171,2022/04/29 11:49:02,無
2333070010,新竹縣橫山鄉衛生所,新竹縣橫山鄉大肚村３鄰新興街１４１巷１０號,121.1393,24.71756,(03)5932004,羅氏家用新冠病毒抗原自我檢測套組,234,2022/04/29 11:49:02,口罩販賣時段：星期一至星期五，上午9:00~11:00；週六、週日及國定假日不販售。
2333120015,新竹縣峨眉鄉衛生所,新竹縣峨眉鄉峨眉村峨眉街２鄰５號,121.0214,24.68842,(03)5800314,羅氏家用新冠病毒抗原自我檢測套組,234,2022/04/29 11:49:02,本所星期三下午中醫門診，販賣口罩及快篩試劑12時至13時止，國定及例假日不賣
2333140017,新竹縣五峰鄉衛生所,新竹縣五峰鄉大隘村六鄰９９號,121.1194,24.63184,(03)5851005,羅氏家用新冠病毒抗原自我檢測套組,211,2022/04/29 11:49:02,無
2335110017,苗栗縣南庄鄉衛生所,苗栗縣南庄鄉東村大同路１７號,121,24.59733,(037)822024,羅氏家用新冠病毒抗原自我檢測套組,156,2022/04/29 11:49:02,口罩販賣時段:週一至週五上午8:00~下午5:00
2335150011,苗栗縣造橋鄉衛生所,苗栗縣造橋鄉造橋村１４鄰８－２號,120.8643,24.63672,(037)542755,羅氏家用新冠病毒抗原自我檢測套組,142,2022/04/29 11:49:02,口罩販賣時段：08:30-售完（含假日）
2335170013,苗栗縣獅潭鄉衛生所,苗栗縣獅潭鄉新店村１３０之６號,120.9201,24.53961,(037)931309,羅氏家用新冠病毒抗原自我檢測套組,158,2022/04/29 11:49:02,口罩販賣時段：08:30-16:00
2335180019,苗栗縣泰安鄉衛生所,苗栗縣泰安鄉清安村２鄰７２號,120.9083,24.44722,(037)941054,羅氏家用新冠病毒抗原自我檢測套組,156,2022/04/29 11:49:02,口罩販賣時段：星期一~五：8:30~15：00。
2336210034,臺中市和平區梨山衛生所,臺中市和平區中正路１２號１樓、６８號１樓,121.2592,24.25678,(04)25989540,羅氏家用新冠病毒抗原自我檢測套組,156,2022/04/29 11:49:02,提供24小時急診待診服務，111年4月28日起，快篩試劑販售時段為周一至周五0900-12:00，六日及國定假日為0900-1100
2338070010,南投縣鹿谷鄉衛生所,南投縣鹿谷鄉中正路二段２０號,120.7542,23.74488,(049)2752002,羅氏家用新冠病毒抗原自我檢測套組,229,2022/04/29 11:49:02,快篩試劑販售時間 上班日（星期一至星期五）14:00~16:00
2338120015,南投縣信義鄉衛生所,南投縣信義鄉明德村玉山路４５號,120.8547,23.69653,(049)2791148,羅氏家用新冠病毒抗原自我檢測套組,156,2022/04/29 11:49:02,快篩試劑販售時間星期一至星期五上午09：00-11：00，現場排隊發售，國定假日不販賣。
2340170016,嘉義縣大埔鄉衛生所,嘉義縣大埔鄉大埔村５３－１號,120.5928,23.29397,(05)2521214,羅氏家用新冠病毒抗原自我檢測套組,156,2022/04/29 11:49:02,無
2341300018,臺南市龍崎區衛生所,臺南市龍崎區崎頂里新市子１５８號,120.3618,22.96521,(06)5941397,羅氏家用新冠病毒抗原自我檢測套組,156,2022/04/29 11:49:02,口罩販售時間:星期一~五上午8:00-12:00，下午13:30-17:00；星期六~日及國定假日不販售。
2342130010,高雄市田寮區衛生所,高雄市田寮區南安里崗北路３２號,120.3594,22.87301,(07)6361504,羅氏家用新冠病毒抗原自我檢測套組,8,2022/04/29 11:49:02,巡迴醫療:每星期一、四下午及每月第一個有上班的星期三下午巡迴醫療
2342250017,高雄市茂林區衛生所,高雄市茂林區茂林里茂林巷８－４號,120.6641,22.88641,(07)6801046,羅氏家用新冠病毒抗原自我檢測套組,267,2022/04/29 11:49:02,夜間急診，請先撥電話07-6801046
2342260013,高雄市桃源區衛生所,高雄市桃源區桃源里南進巷１８８－１號,120.7642,23.15845,(07)6861126,羅氏家用新冠病毒抗原自我檢測套組,223,2022/04/29 11:49:02,IDS提供24小時服務
2342270019,高雄市那瑪夏區衛生所,高雄市那瑪夏區瑪雅里６鄰平和巷２５２號,120.7024,23.24708,(07)6701142,羅氏家用新冠病毒抗原自我檢測套組,243,2022/04/29 11:49:02,春節期間正常門診
2343270013,屏東縣霧台鄉衛生所,屏東縣霧台鄉霧台村神山巷６８號,120.7261,22.74989,(08)7902232,羅氏家用新冠病毒抗原自我檢測套組,246,2022/04/29 11:49:02,無
2343280019,屏東縣瑪家鄉衛生所,屏東縣瑪家鄉北葉村風景巷８６號,120.6496,22.70801,(08)7991164,羅氏家用新冠病毒抗原自我檢測套組,156,2022/04/29 11:49:02,口罩販售時間:星期一至星期五8:30-12:00 13:00-16:30
2343290015,屏東縣泰武鄉衛生所,屏東縣泰武鄉佳平村１７９號,120.6327,22.59212,(08)7832059,羅氏家用新冠病毒抗原自我檢測套組,209,2022/04/29 11:49:02,4／2-4／5門診照常
2343300016,屏東縣來義鄉衛生所,屏東縣來義鄉古樓村中正路９０號,120.632,22.52584,(08)7850103,羅氏家用新冠病毒抗原自我檢測套組,185,2022/04/29 11:49:02,無
2343320018,屏東縣獅子鄉衛生所,屏東縣獅子鄉楓林村楓林二巷３１號,120.7057,22.18402,(08)8771324,羅氏家用新冠病毒抗原自我檢測套組,164,2022/04/29 11:49:02,特休日：每年農曆除夕、初一
2344011036,澎湖縣馬公市第三衛生所,澎湖縣馬公市西文里１１８之２號,119.5836,23.56813,(06)9211723,羅氏家用新冠病毒抗原自我檢測套組,166,2022/04/29 11:49:02,本所口罩販售以離島（虎井、桶盤）為主，時間星期一至星期五08:30-17:00售完為止，星期六、日國定假日09:00-12:00。
2344030013,澎湖縣白沙鄉衛生所,澎湖縣白沙鄉赤崁村３５９號,119.5982,23.66669,(06)9931044,羅氏家用新冠病毒抗原自我檢測套組,157,2022/04/29 11:49:02,星期日上午門診看診（每月最後一個星期日休診）； 星期五上午巡迴醫療
2344030022,澎湖縣白沙鄉鳥嶼衛生所,澎湖縣白沙鄉鳥嶼村漁港新村３號,119.6599,23.66008,(06)9916092,羅氏家用新冠病毒抗原自我檢測套組,230,2022/04/29 11:49:02,非上班時間提供急診服務
2344030031,澎湖縣白沙鄉吉貝衛生所,澎湖縣白沙鄉吉貝村８－１３號,119.6138,23.74056,(06)9911430,羅氏家用新冠病毒抗原自我檢測套組,273,2022/04/29 11:49:02,無
2344050015,澎湖縣望安鄉衛生所,澎湖縣望安鄉西安村３６－７號,119.4972,23.36161,(06)9991036,羅氏家用新冠病毒抗原自我檢測套組,167,2022/04/29 11:49:02,夜間急診。口罩、快篩試劑販售時間為:每日08:00-12:00、13:30-17:30售完為止，如有餘數為離島未售出（東嶼坪、花嶼衛生室）。
2344050024,澎湖縣望安鄉將軍衛生所,澎湖縣望安鄉將軍村１２鄰將軍澳１之３號,119.5216,23.3615,(06)9902066,羅氏家用新冠病毒抗原自我檢測套組,271,2022/04/29 11:49:02,24小時急診
2344060011,澎湖縣七美鄉衛生所,澎湖縣七美鄉中和村埔內５４號,119.431,23.2041,(06)9971005,羅氏家用新冠病毒抗原自我檢測套組,204,2022/04/29 11:49:02,無
2345080017,花蓮縣豐濱鄉衛生所,花蓮縣豐濱鄉豐濱村光豐路３９號,121.5215,23.60195,(03)8791156,羅氏家用新冠病毒抗原自我檢測套組,107,2022/04/29 11:49:02,*本院口罩每天販售，時間自上午8點至晚上9點  *本院週一至週五上下午皆有門診，星期六隔週提供門診，及24小時急診。
2345110010,花蓮縣秀林鄉衛生所,花蓮縣秀林鄉秀林村１２鄰秀林路８８號,121.6334,24.1269,(03)8612122,羅氏家用新冠病毒抗原自我檢測套組,48,2022/04/29 11:49:02,口罩代售時間上班日上午8:10至12時止（口罩限量故售完為止）
2345120016,花蓮縣萬榮鄉衛生所,花蓮縣萬榮鄉萬榮村１鄰１６號,121.4092,23.71558,(03)8751651,羅氏家用新冠病毒抗原自我檢測套組,78,2022/04/29 11:49:02,口罩代售時間：週一至週五上午8點至11點30分，販售為止。
2346050013,台東縣大武鄉衛生所,臺東縣大武鄉大武村復興路２－２號,120.9078,22.36414,(089)791143,羅氏家用新冠病毒抗原自我檢測套組,159,2022/04/29 11:49:02,24小時急診服務
2346070015,臺東縣東河鄉衛生所,臺東縣東河鄉東河村南東河路１０鄰３００號,121.3031,22.96846,(089)896289,羅氏家用新冠病毒抗原自我檢測套組,156,2022/04/29 11:49:02,口罩販售時間:◆平日早上08時30分~11時30分販售，售完為止。
2346140012,台東縣達仁鄉衛生所,臺東縣達仁鄉安朔村復興路１２２號,120.8836,22.29488,(089)702209,羅氏家用新冠病毒抗原自我檢測套組,157,2022/04/29 11:49:02,12／31 元旦連假
2346150018,台東縣金峰鄉衛生所,臺東縣金峰鄉賓茂村１鄰１４號,120.9606,22.53248,(089)772201,羅氏家用新冠病毒抗原自我檢測套組,158,2022/04/29 11:49:02,代售口罩時間:星期一至星期五為上午8:00-12:00，下午1:30-5:30
2346160014,台東縣蘭嶼鄉衛生所,臺東縣蘭嶼鄉紅頭村３６號,121.5546,22.02493,(089)732575,羅氏家用新冠病毒抗原自我檢測套組,173,2022/04/29 11:49:02,販售口罩時間 星期一至星期五 8:00~12:00 13:30~17:30
2390050032,金門縣烈嶼鄉衛生所,金門縣烈嶼鄉西口村西方６－５號,118.2395,24.43519,(082)362078,羅氏家用新冠病毒抗原自我檢測套組,234,2022/04/29 11:49:02,快篩試劑販售時間:周一至周五下午1點至3點
2391020010,連江縣北竿鄉衛生所,連江縣北竿鄉塘岐村２８１－６號,119.9991,26.22617,(083)655592,羅氏家用新冠病毒抗原自我檢測套組,156,2022/04/29 11:49:02,防疫口罩每日08:30-10:00於北竿衛生所購買。
2391030016,連江縣莒光鄉西莒衛生所,連江縣莒光鄉青帆村１４－１號,119.9331,25.97157,(083)689122,羅氏家用新冠病毒抗原自我檢測套組,254,2022/04/29 11:49:02,防疫口罩星期一至五09:00-17:00、（六）09:00-12:00現場購買
2391030026,連江縣莒光鄉東莒衛生所,連江縣莒光鄉大坪村３０－１號,119.9731,25.96113,(083)689038,羅氏家用新冠病毒抗原自我檢測套組,260,2022/04/29 11:49:02,防疫口罩星期一至星期日上午10:00-12:00收取健保卡，下午3:30至本所領取口罩。
2391040012,連江縣東引鄉衛生所,連江縣東引鄉中柳村１２３號,120.4904,26.36701,(083)677206,羅氏家用新冠病毒抗原自我檢測套組,164,2022/04/29 11:49:02,防疫口罩每日10:00-12:00現場購買
5901010165,傑安藥局,臺北市松山區八德路２段４３７巷７弄８號１樓,121.5473,25.04914,(02)27524155,羅氏家用新冠病毒抗原自我檢測套組,10,2022/04/29 11:49:02,9:30開始發號碼牌
5901010174,仁弘藥局,臺北市松山區民生東路３段１１３巷２５弄６號１樓,121.5466,25.05948,(02)27136764,羅氏家用新冠病毒抗原自我檢測套組,1,2022/04/29 11:49:02,每日早上九點，不用領號碼牌開始發放口罩.
5901012203,博荃藥局,臺北市松山區敦化北路４巷５１號,121.5447,25.05006,(02)27316736,羅氏家用新冠病毒抗原自我檢測套組,78,2022/04/29 11:49:02,快篩銷售時間為下午2~6點，憑健保卡開始購買 ! 星期日，連續假期公休
5901012409,家音藥局,臺北市松山區民生東路５段７３號,121.5585,25.05871,(02)37652080,羅氏家用新冠病毒抗原自我檢測套組,77,2022/04/29 11:49:02,無
5901012516,惠登藥局,臺北市松山區民生東路３段１３０巷３４號,121.5461,25.0562,(02)25472432,羅氏家用新冠病毒抗原自我檢測套組,78,2022/04/29 11:49:02,無
5901012570,予志藥局,臺北市松山區富錦街５２１號,121.5649,25.06119,(02)27623522,羅氏家用新冠病毒抗原自我檢測套組,77,2022/04/29 11:49:02,快篩 星期一到三 下午2點 四-六 晚上8點
5901012598,婕登藥局,臺北市松山區八德路４段６９９號,121.5766,25.05021,(02)27482893,羅氏家用新冠病毒抗原自我檢測套組,7,2022/04/29 11:49:02,無
5901012632,晨安藥局,臺北市松山區八德路３段１５５巷２０弄２號,121.5553,25.04914,(02)25798460,羅氏家用新冠病毒抗原自我檢測套組,2,2022/04/29 11:49:02,3／7起，星期六停止販賣口罩；星期一至星期五，15:00~17:00、星期日12:00~14:00，直行販售口罩業務。
5901012749,躍獅松和藥局,臺北市松山區八德路四段６６６－１號,121.5761,25.04979,(02)27492569,羅氏家用新冠病毒抗原自我檢測套組,78,2022/04/29 11:49:02,實名制快篩販售時段，下午16:00起，售完為止
5901012758,京東藥局,臺北市松山區南京東路五段２７２號,121.5669,25.05114,(02)27679503,羅氏家用新冠病毒抗原自我檢測套組,78,2022/04/29 11:49:02,無
5901012767,晨新藥局,臺北市松山區八德路４段９１巷１－１號,121.5608,25.04894,(02)27422951,羅氏家用新冠病毒抗原自我檢測套組,78,2022/04/29 11:49:02,無
5901012963,綠之家藥局,臺北市松山區延壽街４２８號,121.5562,25.0562,(02)25289595,羅氏家用新冠病毒抗原自我檢測套組,1,2022/04/29 11:49:02,禮拜日不販售口罩
5901013095,康采藥局,臺北市松山區南京東路５段２９１巷１７－２號,121.5663,25.05236,(02)27670271,羅氏家用新冠病毒抗原自我檢測套組,76,2022/04/29 11:49:02,快篩試劑每日12點販售，週日沒有販售
5901013120,誠康中西藥局,臺北市松山區南京東路５段５９巷３１弄４３號,121.5607,25.05346,(02)27619679,羅氏家用新冠病毒抗原自我檢測套組,3,2022/04/29 11:49:02,無
5901013148,唯康藥局,臺北市松山區八德路３段２１１號,121.5566,25.0482,(02)25775000,羅氏家用新冠病毒抗原自我檢測套組,78,2022/04/29 11:49:02,無
5901013200,專品南京藥局,臺北市松山區南京東路４段７３號,121.5532,25.05185,(02)25147685,羅氏家用新冠病毒抗原自我檢測套組,78,2022/04/29 11:49:02,無
5901013308,立赫敦北藥局,臺北市松山區敦化北路２２２巷２０號,121.5477,25.05945,(02)27199277,羅氏家用新冠病毒抗原自我檢測套組,20,2022/04/29 11:49:02,快篩星期一至六早上9:30發號碼牌開賣，星期日中午12:00發號碼牌開賣
5901013399,一安正昇藥局,臺北市松山區南京東路５段３０９號,121.5667,25.05155,(02)27680993,羅氏家用新冠病毒抗原自我檢測套組,77,2022/04/29 11:49:02,無
5901013442,松山八德藥局,臺北市松山區八德路２段４００號,121.5466,25.04804,(02)27782773,羅氏家用新冠病毒抗原自我檢測套組,78,2022/04/29 11:49:02,快篩實名制，每天16:00開始販售，售完為止。
5901013586,安禾大藥局,臺北市松山區撫遠街３８２號,121.5656,25.06443,(02)27602952,羅氏家用新冠病毒抗原自我檢測套組,75,2022/04/29 11:49:02,無
5901013595,巧心藥局,臺北市松山區八德路３段１２巷５７弄３９之３號１樓,121.5521,25.04567,(02)25703728,羅氏家用新冠病毒抗原自我檢測套組,6,2022/04/29 11:49:02,快篩試劑販售時間:週二晚間18:00-20:00.週三下午14:00-16:00，售完為止
5901013620,躍獅敦北藥局,臺北市松山區民生東路４段８０巷５號１樓,121.5531,25.05713,(02)27155691,羅氏家用新冠病毒抗原自我檢測套組,78,2022/04/29 11:49:02,無
5901013693,民生盛康藥局,臺北市松山區民生東路５段２０４號１樓,121.5648,25.05826,(02)27460758,羅氏家用新冠病毒抗原自我檢測套組,91,2022/04/29 11:49:02,每日早上9:00發號碼牌，11:00~20:00拿號碼牌回來領取，每人限兩張，逾時不候
5901013700,杏一台北台安藥局,臺北市松山區八德路２段３９９號１樓,121.5465,25.04833,(02)87728295,羅氏家用新冠病毒抗原自我檢測套組,3,2022/04/29 11:49:02,無
5901013719,大樹松山藥局,臺北市松山區民生東路５段１０７號１樓,121.5601,25.05878,(02)27562226,羅氏家用新冠病毒抗原自我檢測套組,78,2022/04/29 11:49:02,無
5901013728,康麗藥局,臺北市松山區南京東路３段３０３巷２０號（１樓）,121.5468,25.05374,(02)27174117,羅氏家用新冠病毒抗原自我檢測套組,47,2022/04/29 11:49:02,無
5901013737,全欣藥局,臺北市松山區復興北路７３號２樓,121.5442,25.05104,(02)87729066,羅氏家用新冠病毒抗原自我檢測套組,45,2022/04/29 11:49:02,無
5901013746,富景藥局,臺北市松山區三民路１４５號１樓,121.5631,25.06078,(02)27455666,羅氏家用新冠病毒抗原自我檢測套組,49,2022/04/29 11:49:02,無
5901020303,宏恩藥局,臺北市大安區大安路１段１８１號,121.5461,25.03619,(02)27000956,羅氏家用新冠病毒抗原自我檢測套組,4,2022/04/29 11:49:02,實名制快篩每周一~六，10:00發放號碼牌， 另於12:00~21:00自由擇時，持號碼牌領取快篩並收費
5901020465,杏友藥局,臺北市大安區復興南路２段１５１巷２５號,121.5446,25.02847,(02)27079451,羅氏家用新冠病毒抗原自我檢測套組,78,2022/04/29 11:49:02,週一-週六 下午3:00開始發放快篩，發完為止
5901020563,施寶藥局,臺北市大安區安東街５０－５號１樓,121.5426,25.04277,(02)27114175,羅氏家用新冠病毒抗原自我檢測套組,22,2022/04/29 11:49:02,週一至週五早上11點到下午8點.周六周日及公訂例假日公休
5901020787,吉成藥局,臺北市大安區泰順街７號,121.5316,25.02557,(02)23636475,羅氏家用新冠病毒抗原自我檢測套組,78,2022/04/29 11:49:02,每日下午三點發放號碼牌，同時間開始販賣實名制快篩，五點結束，週日無發放
5901021248,永誠藥局,臺北市大安區忠孝東路４段２１６巷２５之１號,121.5531,25.03997,(02)27520273,羅氏家用新冠病毒抗原自我檢測套組,60,2022/04/29 11:49:02,無
5901021408,生百藥局,臺北市大安區臨江街１２４號,121.5539,25.03024,(02)27371011,羅氏家用新冠病毒抗原自我檢測套組,78,2022/04/29 11:49:02,無
5901022898,永康藥局,臺北市大安區麗水街６之２號,121.529,25.03289,(02)23279362,羅氏家用新冠病毒抗原自我檢測套組,78,2022/04/29 11:49:02,無
5901023215,大愛健康藥局,臺北市大安區敦化南路２段６３巷６５號,121.552,25.03103,(02)27092156,羅氏家用新冠病毒抗原自我檢測套組,78,2022/04/29 11:49:02,無
5901023313,安和藥局,臺北市大安區安和路１段１０２巷３號,121.5519,25.03433,(02)27092349,羅氏家用新冠病毒抗原自我檢測套組,78,2022/04/29 11:49:02,平日下午三點開始販賣，九點結束
5901023331,佑安藥局,臺北市大安區延吉街２３３巷９號,121.5561,25.03708,(02)27069339,羅氏家用新冠病毒抗原自我檢測套組,60,2022/04/29 11:49:02,週六快篩實名制下午兩點開始
5901023386,弘昇藥局,臺北市大安區復興南路１段１０７巷３２號,121.5458,25.04349,(02)27110061,羅氏家用新冠病毒抗原自我檢測套組,4,2022/04/29 11:49:02,上午11點以後至晚上11點
5901023411,長虹藥局,臺北市大安區忠孝東路４段２１６巷 ６３號,121.5531,25.0382,(02)27210232,羅氏家用新冠病毒抗原自我檢測套組,78,2022/04/29 11:49:02,2:30pm 發放實名制快篩 （現場排隊現場買）
5901023653,信安健康藥局,臺北市大安區仁愛路４段１２２巷５８號,121.5501,25.03392,(02)27084858,羅氏家用新冠病毒抗原自我檢測套組,78,2022/04/29 11:49:02,無
5901023680,新富川藥局,臺北市大安區大安路１段５１巷４號,121.5464,25.04303,(02)27114758,羅氏家用新冠病毒抗原自我檢測套組,2,2022/04/29 11:49:02,無提供急診服務
5901024098,杏一瑞安藥局,臺北市大安區瑞安街２０８巷１１弄１號,121.5406,25.02866,(02)27096710,羅氏家用新冠病毒抗原自我檢測套組,78,2022/04/29 11:49:02,無
5901024114,好安心藥局,臺北市大安區和平東路２段９８之２號,121.5415,25.02493,(02)23772166,羅氏家用新冠病毒抗原自我檢測套組,77,2022/04/29 11:49:02,快篩發放: 週一至週六 15:30現場開始販售，不發號碼牌。
5901024221,安居藥局,臺北市大安區安居街１９號,121.5549,25.02085,(02)23773537,羅氏家用新冠病毒抗原自我檢測套組,78,2022/04/29 11:49:02,領快篩注意事項:週一到週五晚上7:30-9:00 週六早上8:30-12:00直接排隊購買 .週日不營業
5901024347,博大藥局,臺北市大安區安和路２段６５號,121.5526,25.03063,(02)27027858,羅氏家用新冠病毒抗原自我檢測套組,78,2022/04/29 11:49:02,無
5901024472,忠孝康承健保藥局,臺北市大安區復興南路１段１０７巷４號,121.5444,25.04357,(02)87733378,羅氏家用新冠病毒抗原自我檢測套組,45,2022/04/29 11:49:02,周一公休
5901024490,明星大藥局,臺北市大安區光復南路４３０之１號,121.5574,25.03618,(02)27023747,羅氏家用新冠病毒抗原自我檢測套組,77,2022/04/29 11:49:02,無
5901024516,博昱師大藥局,臺北市大安區羅斯福路３段１８９號,121.5281,25.02109,(02)23696966,羅氏家用新冠病毒抗原自我檢測套組,72,2022/04/29 11:49:02,執業時間8點到22點
5901024525,國泰維康藥局,臺北市大安區仁愛路４段２６６巷１５弄２０號,121.5541,25.03654,(02)27542185,羅氏家用新冠病毒抗原自我檢測套組,78,2022/04/29 11:49:02,星期一到星期六下午3點到5點販賣實名制快篩（不發號碼牌）
5901024678,大安健康人生藥局,臺北市大安區信義路４段３４號,121.5447,25.03316,(02)27025553,羅氏家用新冠病毒抗原自我檢測套組,78,2022/04/29 11:49:02,無
5901024687,博昱大藥局,臺北市大安區樂業街１４８號、１５０號,121.5529,25.01998,(02)23776199,羅氏家用新冠病毒抗原自我檢測套組,78,2022/04/29 11:49:02,快篩發放為周一至周五1600開始發放
5901024703,吾家藥局,臺北市大安區信義路４段２６５巷６之１號,121.5542,25.03372,(02)27066425,羅氏家用新冠病毒抗原自我檢測套組,78,2022/04/29 11:49:02,無
5901024767,杏一樂業藥局,臺北市大安區樂業街１６２號,121.5535,25.01958,(02)27383194,羅氏家用新冠病毒抗原自我檢測套組,78,2022/04/29 11:49:02,快篩下午三點現場直接販售（不發號碼牌）
5901024838,昶青藥局,臺北市大安區濟南路３段２２之１號,121.5346,25.04008,(02)27515678,羅氏家用新冠病毒抗原自我檢測套組,78,2022/04/29 11:49:02,每天下午13:00販售快篩實名制
5901024865,沛林東區生活藥粧藥局,臺北市大安區忠孝東路４段１８１巷７弄５號,121.551,25.04219,(02)27763759,羅氏家用新冠病毒抗原自我檢測套組,75,2022/04/29 11:49:02,口罩號碼牌發放時間平日11:00，假日14:00，領取時間平日11:00-20:00，假日14:00
5901024892,太醫藥局,臺北市大安區師大路１２號,121.5283,25.02568,(02)23685125,羅氏家用新冠病毒抗原自我檢測套組,75,2022/04/29 11:49:02,口罩發放時間:周一到周五:13:30~20:00
5901024918,康祥藥局,臺北市大安區忠孝東路４段２１６巷２１號,121.5531,25.04025,(02)27817891,羅氏家用新冠病毒抗原自我檢測套組,78,2022/04/29 11:49:02,星期天11:00-19:00
5901024945,威康藥局,臺北市大安區和平東路２段２９７號,121.5447,25.02495,(02)27061149,羅氏家用新冠病毒抗原自我檢測套組,2,2022/04/29 11:49:02,無
5901024981,專品六張犁藥局,臺北市大安區基隆路２段２１７號１樓,121.5513,25.02299,(02)87322226,羅氏家用新冠病毒抗原自我檢測套組,71,2022/04/29 11:49:02,無
5901025004,早安藥局,臺北市大安區建國南路２段１５１巷４２號１樓,121.5396,25.02865,(02)27002209,羅氏家用新冠病毒抗原自我檢測套組,13,2022/04/29 11:49:02,早上9點發號碼牌下午2點領取
5901025013,頤品中西藥局,臺北市大安區浦城街２４之２號１樓,121.5267,25.02295,(02)23685656,羅氏家用新冠病毒抗原自我檢測套組,3,2022/04/29 11:49:02,無
5901025022,躍獅敦和藥局,臺北市大安區和平東路３段１０號,121.547,25.02453,(02)23785767,羅氏家用新冠病毒抗原自我檢測套組,1,2022/04/29 11:49:02,無
5901025031,中力信義藥局,臺北市大安區信義路４段５１號（１樓）,121.545,25.03354,(02)23250266,羅氏家用新冠病毒抗原自我檢測套組,78,2022/04/29 11:49:02,下午一點到三點販售實名制快篩
5901025059,博醫仁愛藥局,臺北市大安區仁愛路４段８巷２號１樓,121.5443,25.0375,(02)27019107,羅氏家用新冠病毒抗原自我檢測套組,78,2022/04/29 11:49:02,無
5901025077,敦南春天藥局,臺北市大安區敦化南路２段８１巷６３號１樓,121.5513,25.03002,(02)27553266,羅氏家用新冠病毒抗原自我檢測套組,78,2022/04/29 11:49:02,無
5901090154,柯藥局,臺北市大同區重慶北路３段３３５巷６號,121.5144,25.07452,(02)25948515,羅氏家用新冠病毒抗原自我檢測套組,16,2022/04/29 11:49:02,無
5901090323,泰元藥局,臺北市大同區哈密街９１號,121.5146,25.07303,(02)25914592,羅氏家用新冠病毒抗原自我檢測套組,1,2022/04/29 11:49:02,無
5901090369,保慶藥局,臺北市大同區保安街２１號,121.5129,25.05926,(02)25538988,羅氏家用新冠病毒抗原自我檢測套組,78,2022/04/29 11:49:02,快篩販售時間:晚上9:00-10:00（週日不販售），晚上8:50發號碼牌
5901091473,快安藥局,臺北市大同區南京西路２８２、２８４號,121.5146,25.05349,(02)25561925,羅氏家用新冠病毒抗原自我檢測套組,78,2022/04/29 11:49:02,下午2:00開始販售口罩，  至傍晚18:00，星期六日休息
5901091624,健康美藥局,臺北市大同區民族西路１６５號,121.5155,25.06872,(02)25976707,羅氏家用新冠病毒抗原自我檢測套組,78,2022/04/29 11:49:02,無
5901091688,宏泰藥師藥局,臺北市大同區酒泉街１３１號,121.5145,25.07213,(02)25957025,羅氏家用新冠病毒抗原自我檢測套組,78,2022/04/29 11:49:02,發放口罩時間上午9:30-晚間9:00  其餘時間不販賣。75%酒精到貨供應
5901091759,儷安藥局,臺北市大同區錦西街５３巷１６號,121.5158,25.06065,(02)25578033,羅氏家用新冠病毒抗原自我檢測套組,77,2022/04/29 11:49:02,無
5901091857,佳禾藥局,臺北市大同區大龍街２６２號,121.5158,25.07061,(02)25953806,羅氏家用新冠病毒抗原自我檢測套組,78,2022/04/29 11:49:02,無
5901091884,躍獅雙蓮藥局,臺北市大同區涼州街４號,121.5147,25.06078,(02)25537551,羅氏家用新冠病毒抗原自我檢測套組,78,2022/04/29 11:49:02,周一-周六11:00-7:00.日.不發口罩
5901092014,旭豐藥局,臺北市大同區昌吉街９６號,121.5151,25.06582,(02)25853880,羅氏家用新冠病毒抗原自我檢測套組,78,2022/04/29 11:49:02,無
5901092069,躍獅遠東藥局,臺北市大同區延平北路２段１３１號（實際營業地址：１樓）,121.5116,25.05751,(02)25594835,羅氏家用新冠病毒抗原自我檢測套組,78,2022/04/29 11:49:02,實名制快篩販賣時間：下午2點~下午3點；晚上7點~晚上8點。售完為止。
5901092087,躍獅文昌藥局,臺北市大同區民生西路１０８號（實際營業：一層）,121.5197,25.0574,(02)25586189,羅氏家用新冠病毒抗原自我檢測套組,1,2022/04/29 11:49:02,無
5901092103,新聖安藥局,臺北市大同區昌吉街１３０號,121.5143,25.06584,(02)25977877,羅氏家用新冠病毒抗原自我檢測套組,71,2022/04/29 11:49:02,無
5901092112,酒泉春天藥局,臺北市大同區酒泉街９４號、９４號２樓,121.5146,25.07193,(02)25977932,羅氏家用新冠病毒抗原自我檢測套組,78,2022/04/29 11:49:02,無
5901092130,大同民生藥局,臺北市大同區民生西路１２８號１樓、２樓及１３０號１樓、２樓,121.5191,25.05734,(02)25558886,羅氏家用新冠病毒抗原自我檢測套組,78,2022/04/29 11:49:02,無
5901092149,123宅藥局,臺北市大同區鄭州路１２３號（１樓）,121.5109,25.05033,(02)25588699,羅氏家用新冠病毒抗原自我檢測套組,35,2022/04/29 11:49:02,【家用快篩實名制】每日兩時段可購買:（1）09:30 （2）18:00 ★前十分鐘開始發放號碼牌
5901100057,百源堂大藥局,臺北市中山區長安東路２段４７－５號,121.5322,25.04857,(02)25364362,羅氏家用新冠病毒抗原自我檢測套組,39,2022/04/29 11:49:02,週休2 日及國定假日休營業時間上午8時30分至晚間7點
5901100333,明美藥局,臺北市中山區長春路６９號,121.5266,25.05502,(02)25365419,羅氏家用新冠病毒抗原自我檢測套組,78,2022/04/29 11:49:02,口罩周一至周五，16:30-18:30販售
5901100628,貢玄藥局,臺北市中山區錦州街２０７號,121.532,25.06039,(02)25637847,羅氏家用新冠病毒抗原自我檢測套組,78,2022/04/29 11:49:02,早上10點~11點領口罩
5901101250,美日藥局,臺北市中山區天津街６６號１樓,121.5233,25.05136,(02)25631662,羅氏家用新冠病毒抗原自我檢測套組,78,2022/04/29 11:49:02,實名制快篩於營業日下午4點開始發號碼牌
5901101321,文德藥局,臺北市中山區龍江路３５６巷１９號１樓,121.5401,25.06607,(02)25181178,羅氏家用新冠病毒抗原自我檢測套組,78,2022/04/29 11:49:02,無
5901101509,永直藥局,臺北市中山區北安路５９５巷２弄６號,121.5483,25.08192,(02)85098059,羅氏家用新冠病毒抗原自我檢測套組,85,2022/04/29 11:49:02,無
5901101607,蓁榛健康生活藥局,臺北市中山區合江街１００－２號１樓,121.5391,25.05845,(02)25099333,羅氏家用新冠病毒抗原自我檢測套組,78,2022/04/29 11:49:02,營業時間均可購買防疫口罩。
5901101652,祥泰藥局,臺北市中山區林森北路１３６號,121.5251,25.05142,(02)25313097,羅氏家用新冠病毒抗原自我檢測套組,78,2022/04/29 11:49:02,無
5901101910,嘉恩藥局,臺北市中山區錦州街３２１號,121.5385,25.06033,(02)25181418,羅氏家用新冠病毒抗原自我檢測套組,78,2022/04/29 11:49:02,無
5901101929,樂活苑藥局,臺北市中山區北安路５４６號１樓,121.548,25.08014,(02)25323296,羅氏家用新冠病毒抗原自我檢測套組,76,2022/04/29 11:49:02,實名制快篩代售時間為18:00~19:00.
5901101992,大愛藥師藥局,臺北市中山區吉林路２５５號１樓,121.5304,25.06165,(02)25424723,羅氏家用新冠病毒抗原自我檢測套組,78,2022/04/29 11:49:02,週一~週五13:55發放號碼牌14:00發放快篩，週六、週日休息
5901102015,久大藥局,臺北市中山區林森北路４８０號,121.5255,25.06127,(02)25111594,羅氏家用新冠病毒抗原自我檢測套組,78,2022/04/29 11:49:02,即日起周一至周六下午1:00-4:00領取口罩。 周日休息
5901102444,啟美藥師藥局,臺北市中山區錦州街２８２號,121.5352,25.06024,(02)25178032,羅氏家用新冠病毒抗原自我檢測套組,78,2022/04/29 11:49:02,快篩 販售時間 20點開賣到21點，星期六日公休
5901102560,龍江藥局,臺北市中山區龍江路３５６巷１４號,121.5403,25.06591,(02)25023724,羅氏家用新冠病毒抗原自我檢測套組,78,2022/04/29 11:49:02,無
5901102579,躍獅晴光藥局,臺北市中山區農安街２３之２號,121.5245,25.06501,(02)25951393,羅氏家用新冠病毒抗原自我檢測套組,78,2022/04/29 11:49:02,口罩販賣時段:下午2點晚上8點，售完會提前結束
5901102597,德惠藥局,臺北市中山區德惠街１２２號,121.53,25.06652,(02)25971131,羅氏家用新冠病毒抗原自我檢測套組,78,2022/04/29 11:49:02,每日下午3點30分開始販售快篩實名制
5901102677,興康源藥局,臺北市中山區中山北路１段１４０巷８號,121.5214,25.05143,(02)25311248,羅氏家用新冠病毒抗原自我檢測套組,8,2022/04/29 11:49:02,無
5901102686,富宥康藥局,臺北市中山區北安路６０８巷５弄２２號,121.5496,25.08263,(02)25325277,羅氏家用新冠病毒抗原自我檢測套組,78,2022/04/29 11:49:02,無
5901102837,正傑健保藥局,臺北市中山區長安東路２段１８１號,121.5426,25.04839,(02)27310181,羅氏家用新冠病毒抗原自我檢測套組,78,2022/04/29 11:49:02,無
5901102855,錦西春天生活藥局,臺北市中山區錦西街１０號,121.5216,25.06024,(02)25312658,羅氏家用新冠病毒抗原自我檢測套組,78,2022/04/29 11:49:02,口罩15:30領號碼牌 即行販售至16:30
5901103110,大直健康藥局,臺北市中山區北安路５９１號,121.5486,25.08194,(02)25323310,羅氏家用新冠病毒抗原自我檢測套組,96,2022/04/29 11:49:02,無
5901103192,昶青林森藥局,臺北市中山區林森北路１１９巷５２號,121.5269,25.05018,(02)25639939,羅氏家用新冠病毒抗原自我檢測套組,5,2022/04/29 11:49:02,口罩代售平日10:30-20:00，例假日13:30-18:00 售完為止
5901103209,麗恩藥局,臺北市中山區林森北路５７５之５號,121.5258,25.0653,(02)25981982,羅氏家用新冠病毒抗原自我檢測套組,78,2022/04/29 11:49:02,無
5901103227,建誠中西藥局,臺北市中山區龍江路３８５之１號,121.541,25.06511,(02)25158608,羅氏家用新冠病毒抗原自我檢測套組,78,2022/04/29 11:49:02,無
5901103272,長安藥局,臺北市中山區長安東路２段１７１－３號,121.5418,25.0484,(02)27772740,羅氏家用新冠病毒抗原自我檢測套組,78,2022/04/29 11:49:02,實名制快篩下午四點開始發放
5901103325,仁一藥局,臺北市中山區林森北路５２０號,121.5255,25.06232,(02)25711742,羅氏家用新冠病毒抗原自我檢測套組,78,2022/04/29 11:49:02,口罩發放時間930-1600發放50份其餘1600後釋出到2000
5901103405,大直永安藥局,臺北市中山區北安路５６７之２號,121.5482,25.08073,(02)25332125,羅氏家用新冠病毒抗原自我檢測套組,78,2022/04/29 11:49:02,週一到週日下午兩點  開始銷售快篩試劑
5901103423,農安藥局,臺北市中山區農安街１８之１號,121.5248,25.06483,(02)25959293,羅氏家用新冠病毒抗原自我檢測套組,78,2022/04/29 11:49:02,無
5901103487,錦州春天生活藥局,臺北市中山區錦州街２１３號、２１３號２樓,121.5321,25.06039,(02)25213586,羅氏家用新冠病毒抗原自我檢測套組,78,2022/04/29 11:49:02,營業全年無休.8:30~22:30 除夕到16:30， 初一~三10:00~20:00，初四正常
5901103530,農安盛康藥局,臺北市中山區農安街２６７號,121.5358,25.06477,(02)25038205,羅氏家用新冠病毒抗原自我檢測套組,1,2022/04/29 11:49:02,早上九點發號碼牌 開始發放實名制快篩
5901103558,佳頤中西藥局,臺北市中山區長春路１４７之１號,121.5323,25.05495,(02)25641479,羅氏家用新冠病毒抗原自我檢測套組,78,2022/04/29 11:49:02,實名制快篩販售時間為下午1點起，售完為止，其他販售細節以店內公告為主
5901103585,禾全藥局,臺北市中山區龍江路３３２號,121.5409,25.06532,(02)25165721,羅氏家用新冠病毒抗原自我檢測套組,78,2022/04/29 11:49:02,口罩代售時間：1400、20:00  ；現場排隊
5901103629,十二願藥局,臺北市中山區林森北路３０９號,121.5256,25.05588,(02)25311223,羅氏家用新冠病毒抗原自我檢測套組,84,2022/04/29 11:49:02,營業時間下午1點至凌晨3點
5901103656,大樹龍江藥局,臺北市中山區龍江路２４２號,121.5406,25.05889,(02)25035666,羅氏家用新冠病毒抗原自我檢測套組,78,2022/04/29 11:49:02,國定假日仍執行調劑業務
5901103665,安悅藥局,臺北市中山區吉林路１８９號,121.5304,25.0597,(02)25419879,羅氏家用新冠病毒抗原自我檢測套組,26,2022/04/29 11:49:02,國定假日未執行調劑業務
5901103674,康廷藥局,臺北市中山區北安路６１１號（實際營業地址：１層）,121.5488,25.08253,(02)25335890,羅氏家用新冠病毒抗原自我檢測套組,78,2022/04/29 11:49:02,國定假日執行調劑業務
5901103683,東東藥局,臺北市中山區長春路２５７之２號１樓,121.5408,25.05477,(02)25031730,羅氏家用新冠病毒抗原自我檢測套組,78,2022/04/29 11:49:02,國定假日仍執行調劑業務
5901103745,吉林藥局,臺北市中山區吉林路３７１號（１樓）,121.5305,25.06511,(02)25865990,羅氏家用新冠病毒抗原自我檢測套組,78,2022/04/29 11:49:02,國定假日仍執行調劑業務
5901103772,興耀生活藥局,臺北市中山區林森北路４０５號（１樓）,121.5257,25.05943,(02)25818210,羅氏家用新冠病毒抗原自我檢測套組,1,2022/04/29 11:49:02,國定假日仍執行調劑業務
5901103790,可康藥局,臺北市中山區林森北路３７３號（１樓）,121.5257,25.05826,(02)25361078,羅氏家用新冠病毒抗原自我檢測套組,1,2022/04/29 11:49:02,國定假日仍執行調劑業務
5901103807,專品龍江藥局,臺北市中山區龍江路３１１號１樓,121.5409,25.06127,(02)25178870,羅氏家用新冠病毒抗原自我檢測套組,78,2022/04/29 11:49:02,國定假日仍執行調劑業務
5901110133,泰成藥局,臺北市內湖區內湖路３段１３５號１樓,121.5899,25.08685,(02)27921231,羅氏家用新冠病毒抗原自我檢測套組,68,2022/04/29 11:49:02,口罩販售:上午9:00開始發號碼牌，9點同步販售.
5901110268,赫得藥局,臺北市內湖區康樂街７２巷１７弄４號１Ｆ,121.6178,25.06976,(02)26328642,羅氏家用新冠病毒抗原自我檢測套組,2,2022/04/29 11:49:02,營業時間:08:30-13:00及14:30-23:00每周日公休。快篩試劑於4／28早上8:30開賣，一三五單號，二四六雙號領取。
5901110446,清白藥局,臺北市內湖區東湖路１０８號,121.6157,25.06828,(02)26305743,羅氏家用新冠病毒抗原自我檢測套組,78,2022/04/29 11:49:02,無
5901110624,宏光藥局,臺北市內湖區成功路２段２２１號１樓,121.5909,25.06738,(02)27919068,羅氏家用新冠病毒抗原自我檢測套組,78,2022/04/29 11:49:02,快篩實名制13:30開始販售現場排隊售完為止（周日休息）
5901111890,安康藥局,臺北市內湖區安康路４８２號,121.6158,25.06785,(02)26327675,羅氏家用新冠病毒抗原自我檢測套組,78,2022/04/29 11:49:02,無
5901112351,康信藥局,臺北市內湖區民權東路６段２９６巷２９號,121.6062,25.07203,(02)26342088,羅氏家用新冠病毒抗原自我檢測套組,78,2022/04/29 11:49:02,兒童口罩:全天供應.成人口罩發放時間:下午4:00.售完為止
5901112593,康健藥局,臺北市內湖區康樂街８０號,121.6189,25.07015,(02)26305825,羅氏家用新冠病毒抗原自我檢測套組,15,2022/04/29 11:49:02,無
5901112780,樂康藥妝藥局,臺北市內湖區文德路１１７號,121.5841,25.0787,(02)26562110,羅氏家用新冠病毒抗原自我檢測套組,78,2022/04/29 11:49:02,無
5901112977,瑞光藥局,臺北市內湖區瑞光路２１２號,121.5763,25.07525,(02)87513365,羅氏家用新冠病毒抗原自我檢測套組,78,2022/04/29 11:49:02,實名制快篩每日PM14:00開賣
5901112995,昇龍藥局,臺北市內湖區東湖路１５１號,121.6174,25.0681,(02)26316783,羅氏家用新冠病毒抗原自我檢測套組,77,2022/04/29 11:49:02,早0800-1200，午1200-1700，晚1800-2200
5901113018,桔子藥局,臺北市內湖區內湖路２段３３３號,121.5917,25.08319,(02)27930052,羅氏家用新冠病毒抗原自我檢測套組,78,2022/04/29 11:49:02,早0900-1200，午1400-1700，晚1900-2100
5901113205,新安健保藥局,臺北市內湖區新明路４０２號,121.5797,25.05466,(02)27932289,羅氏家用新冠病毒抗原自我檢測套組,2,2022/04/29 11:49:02,口罩代售時間自上午9點15分起至中午13點止
5901113269,樂齡藥師藥局,臺北市內湖區內湖路３段１０３號,121.5909,25.08641,(02)27919707,羅氏家用新冠病毒抗原自我檢測套組,1,2022/04/29 11:49:02,有事會外出
5901113330,躍獅大湖藥局,臺北市內湖區成功路４段３２９號,121.599,25.08454,(02)27945376,羅氏家用新冠病毒抗原自我檢測套組,78,2022/04/29 11:49:02,星期一~星期六下午4點開始販售快篩 售完為止
5901113385,躍獅康成藥局,臺北市內湖區成功路４段６１巷１１號,121.5928,25.0814,(02)87922031,羅氏家用新冠病毒抗原自我檢測套組,78,2022/04/29 11:49:02,每日早上10:00及下午3:00，每時段各100份大人口罩，50份兒童口罩，排隊人多時會發號碼牌。
5901113438,晶龍藥局,臺北市內湖區成功路４段２１８號,121.5961,25.08456,(02)27956255,羅氏家用新冠病毒抗原自我檢測套組,78,2022/04/29 11:49:02,快篩試劑販售時間:星期一~六下午2:30 售完為止
5901113456,佑全內湖康寧藥局,臺北市內湖區康寧路３段３９號、３９號２樓、４１號、４３號,121.6078,25.07264,(02)26346578,羅氏家用新冠病毒抗原自我檢測套組,78,2022/04/29 11:49:02,實名制快篩每日14:00販售
5901113563,耀元藥局,臺北市內湖區康樂街１５０號,121.6192,25.07263,(02)26337369,羅氏家用新冠病毒抗原自我檢測套組,78,2022/04/29 11:49:02,實名制快篩販售時間每日下午兩點（賣完為止），週六週日要看政府的快篩是否到貨
5901113590,維安藥局,臺北市內湖區成功路３段１７４巷２３號,121.5906,25.08143,(02)27944520,羅氏家用新冠病毒抗原自我檢測套組,1,2022/04/29 11:49:02,快篩每日10:00開賣，視人數發號台
5901113625,富康文德藥局,臺北市內湖區文德路２２巷２７弄４號,121.58,25.0766,(02)26272000,羅氏家用新冠病毒抗原自我檢測套組,78,2022/04/29 11:49:02,無
5901113643,博昱東福藥局,臺北市內湖區東湖路１４７號,121.6172,25.06815,(02)26308599,羅氏家用新冠病毒抗原自我檢測套組,76,2022/04/29 11:49:02,無
5901113661,內湖藥局,臺北市內湖區康寧路１段１１６號１樓,121.5934,25.07948,(02)27940545,羅氏家用新冠病毒抗原自我檢測套組,78,2022/04/29 11:49:02,快篩實名制，每天16:00開始販售，售完為止。
5901113705,富康活力湖光藥局,臺北市內湖區康寧路１段２５號１樓,121.5914,25.08062,(02)87927999,羅氏家用新冠病毒抗原自我檢測套組,74,2022/04/29 11:49:02,無
5901113723,杏一港墘藥局,臺北市內湖區港墘路８３號（１樓）,121.5781,25.08078,(02)87978746,羅氏家用新冠病毒抗原自我檢測套組,78,2022/04/29 11:49:02,無
5901120022,旭村藥局,臺北市南港區興華路１１２號,121.6055,25.05661,(02)27820948,羅氏家用新冠病毒抗原自我檢測套組,44,2022/04/29 11:49:02,無
5901121627,富康活力藥局,臺北市南港區研究院路１段１０１巷８號,121.6165,25.05181,(02)27828810,羅氏家用新冠病毒抗原自我檢測套組,6,2022/04/29 11:49:02,週一至週六，每天09:00-21:00販售口罩，請記得帶健保卡&零錢，售完為止。
5901121672,亞博藥師藥局,臺北市南港區興華路８１號,121.6061,25.05545,(02)27838090,羅氏家用新冠病毒抗原自我檢測套組,72,2022/04/29 11:49:02,無
5901121725,佳龍藥局,臺北市南港區研究院路２段８０號,121.6152,25.0454,(02)27885951,羅氏家用新冠病毒抗原自我檢測套組,45,2022/04/29 11:49:02,每日下午1:30開放領取實名制快篩
5901121734,湳港藥局,臺北市南港區研究院路１段１０１巷１２號,121.6167,25.05175,(02)27892200,羅氏家用新冠病毒抗原自我檢測套組,78,2022/04/29 11:49:02,週一至週六，8:00準時開賣，售完為止
5901121850,健涵藥局,臺北市南港區舊莊街１段１４７號,121.6205,25.03985,(02)27837285,羅氏家用新冠病毒抗原自我檢測套組,81,2022/04/29 11:49:02,發口罩時間：周間（一到五）早上8點 周末（六日） 早上9點 發放至晚上8點
5901121903,景星藥局,臺北市南港區南港路３段２６號,121.5924,25.05434,(02)27838816,羅氏家用新冠病毒抗原自我檢測套組,78,2022/04/29 11:49:02,無
5901121958,心亮藥局,臺北市南港區玉成街６６之７號,121.5818,25.04692,(02)27881677,羅氏家用新冠病毒抗原自我檢測套組,78,2022/04/29 11:49:02,無
5901121985,勝安藥局,臺北市南港區舊莊街１段１６５號,121.6211,25.03949,(02)27828450,羅氏家用新冠病毒抗原自我檢測套組,78,2022/04/29 11:49:02,實名制快篩固定晚上21:00提供，現場排隊不分號碼牌
5901122062,躍獅忠孝藥局,臺北市南港區成福路１６號,121.586,25.04561,(02)27862829,羅氏家用新冠病毒抗原自我檢測套組,77,2022/04/29 11:49:02,無
5901122080,成福大藥局,臺北市南港區成福路８號,121.5859,25.04578,(02)27859221,羅氏家用新冠病毒抗原自我檢測套組,78,2022/04/29 11:49:02,無
5901122115,上丞藥師藥局,臺北市南港區成福路１０號１樓,121.5859,25.04574,(02)26535589,羅氏家用新冠病毒抗原自我檢測套組,78,2022/04/29 11:49:02,無
5901122124,杏安藥局,臺北市南港區昆陽街１４０巷１６號１樓,121.5938,25.04969,(02)27864119,羅氏家用新冠病毒抗原自我檢測套組,78,2022/04/29 11:49:02,無
5901150235,杏城藥局,臺北市士林區天母東路２４號,121.5322,25.11764,(02)28725144,羅氏家用新冠病毒抗原自我檢測套組,78,2022/04/29 11:49:02,無
5901150271,建芳藥局,臺北市士林區德行東路１４８號,121.5296,25.10804,(02)28357172,羅氏家用新冠病毒抗原自我檢測套組,1,2022/04/29 11:49:02,無
5901150548,田倉藥局,臺北市士林區士東路１２４號,121.5302,25.11219,(02)88662188,羅氏家用新冠病毒抗原自我檢測套組,77,2022/04/29 11:49:02,每日19:00（傍晚7點）開始販售.
5901150575,日康藥局,臺北市士林區士東路１２號１樓,121.5267,25.11168,(02)28358558,羅氏家用新冠病毒抗原自我檢測套組,78,2022/04/29 11:49:02,無
5901150771,天母大和藥師藥局,臺北市士林區德行東路１８９－１號１樓,121.5317,25.10897,(02)28310142,羅氏家用新冠病毒抗原自我檢測套組,1,2022/04/29 11:49:02,快篩實名制 配合營業時間  賣完為止
5901152079,資生堂藥局,臺北市士林區承德路４段４０巷１７號１Ｆ,121.522,25.08107,(02)28857588,羅氏家用新冠病毒抗原自我檢測套組,78,2022/04/29 11:49:02,快篩購買時間週一到週六下午1:30
5901152293,安泰藥師藥局,臺北市士林區延平北路六段８３號（實際使用：１、２樓）,121.5087,25.08844,(02)28166977,羅氏家用新冠病毒抗原自我檢測套組,78,2022/04/29 11:49:02,發放口罩時間 早上9:30-晚上10:00
5901152453,家赫藥局,臺北市士林區忠義街８０號１樓,121.5317,25.10614,(02)28346453,羅氏家用新冠病毒抗原自我檢測套組,8,2022/04/29 11:49:02,無
5901152471,得安藥局,臺北市士林區文林路１４０號,121.5267,25.08878,(02)28836336,羅氏家用新冠病毒抗原自我檢測套組,78,2022/04/29 11:49:02,星期一二三五六下午3:30---10:00   星期 四日下午5:00--10:00
5901152720,博信藥局,臺北市士林區延平北路６段６１號,121.5088,25.08788,(02)28128295,羅氏家用新冠病毒抗原自我檢測套組,78,2022/04/29 11:49:02,門口寫還有可直接進來領
5901152793,信光藥局,臺北市士林區文昌路６８號,121.5214,25.09619,(02)28366277,羅氏家用新冠病毒抗原自我檢測套組,68,2022/04/29 11:49:02,無
5901152873,幸福藥局,臺北市士林區德行東路１０９巷８號,121.5284,25.10812,(02)28346650,羅氏家用新冠病毒抗原自我檢測套組,78,2022/04/29 11:49:02,成人&兒童防疫口罩:每日早上九點至晚上十點販售（含星期日），以下時段暫停販售:中午12:00~13:30，晚上:17:00~18:30. 售完為止.
5901152971,石川藥師藥局,臺北市士林區忠義街７０號,121.5314,25.10594,(02)28385850,羅氏家用新冠病毒抗原自我檢測套組,78,2022/04/29 11:49:02,每日下午 2:00 購買實名制快篩劑，一人一卡限購一組，現場排隊購買，不發放號碼牌，謝謝
5901153245,大東健保藥局,臺北市士林區大東路８６－４號,121.5257,25.09131,(02)28834672,羅氏家用新冠病毒抗原自我檢測套組,61,2022/04/29 11:49:02,販售實名制快篩以前一日下午六點貼公告為主，其餘時間藥局執行藥事服務與行政業務，不便之處敬請見諒
5901153263,健揚藥局,臺北市士林區延平北路５段２５１號,121.5097,25.08483,(02)28163698,羅氏家用新冠病毒抗原自我檢測套組,78,2022/04/29 11:49:02,無
5901153272,光榮藥局,臺北市士林區社中街１１８號,121.5103,25.0899,(02)28136060,羅氏家用新冠病毒抗原自我檢測套組,78,2022/04/29 11:49:02,無
5901153432,大南春天生活藥局,臺北市士林區大南路３１７、３１９號,121.518,25.08888,(02)28882196,羅氏家用新冠病毒抗原自我檢測套組,78,2022/04/29 11:49:02,本藥局可領慢箋 快篩每天下午3點販售 售完為止
5901153496,躍獅忠誠藥局,臺北市士林區忠義街７０號,121.5314,25.10594,(02)28387948,羅氏家用新冠病毒抗原自我檢測套組,156,2022/04/29 11:49:02,無
5901153503,祥新藥局,臺北市士林區社子街６５號,121.5067,25.08751,(02)28110906,羅氏家用新冠病毒抗原自我檢測套組,4,2022/04/29 11:49:02,無
5901153521,天母台安藥局,臺北市士林區天母西路３４號,121.5262,25.11835,(02)28728017,羅氏家用新冠病毒抗原自我檢測套組,65,2022/04/29 11:49:02,下午2點開始販售實名制快篩試劑
5901153567,華齡春天生活藥局,臺北市士林區華齡街３６、３８號,121.5195,25.08359,(02)28882156,羅氏家用新冠病毒抗原自我檢測套組,78,2022/04/29 11:49:02,下午3點開始發號碼牌持健保卡購買快篩售完為止
5901153585,德行春天生活藥局,臺北市士林區德行東路７６號,121.5275,25.1073,(02)28380306,羅氏家用新冠病毒抗原自我檢測套組,78,2022/04/29 11:49:02,下午2點40持健保卡領號碼牌販售快篩到晚上10點售完為止
5901153674,愛佳藥局,臺北市士林區承德路４段２２２之１號,121.5215,25.0885,(02)28811199,羅氏家用新冠病毒抗原自我檢測套組,78,2022/04/29 11:49:02,無
5901153683,安奕藥局,臺北市士林區葫蘆街３０巷１２號,121.5099,25.08034,(02)28133289,羅氏家用新冠病毒抗原自我檢測套組,78,2022/04/29 11:49:02,週日休，4／29還沒收到政府的快篩劑，今日收到貨，立即開賣。
5901153825,太和堂中西藥局,臺北市士林區大東路７４號（實際使用：１樓）,121.5257,25.09037,(02)28814122,羅氏家用新冠病毒抗原自我檢測套組,2,2022/04/29 11:49:02,無
5901153905,躍獅芝山藥局,臺北市士林區福華路１５４號（實際使用：１樓）,121.5227,25.10357,(02)28365822,羅氏家用新冠病毒抗原自我檢測套組,60,2022/04/29 11:49:02,無
5901153941,士東藥局,臺北市士林區士東路９１巷３號,121.5291,25.11256,(02)28760588,羅氏家用新冠病毒抗原自我檢測套組,78,2022/04/29 11:49:02,快篩實名制，每天16:00開始販售，售完為止。
5901153969,杏一士林延平藥局,臺北市士林區延平北路５段２５０號（１樓）、２５２號１樓,121.51,25.08468,(02)28112937,羅氏家用新冠病毒抗原自我檢測套組,78,2022/04/29 11:49:02,每日中午12點販售實名制快篩試劑
5901153996,文昌春天藥局,臺北市士林區文昌路４４號（１樓）,121.5216,25.09562,(02)28838539,羅氏家用新冠病毒抗原自我檢測套組,78,2022/04/29 11:49:02,無
5901154000,文昌大藥局,臺北市士林區文昌路７２號１樓,121.5213,25.09634,(02)28376196,羅氏家用新冠病毒抗原自我檢測套組,71,2022/04/29 11:49:02,無
5901154019,忠義台安藥局,臺北市士林區忠義街７２號１樓,121.5315,25.106,(02)28380685,羅氏家用新冠病毒抗原自我檢測套組,69,2022/04/29 11:49:02,下午2點開始販售快篩試劑
5901154028,向宇藥局,臺北市士林區德行東路２１７號１樓,121.5328,25.10935,(02)88661101,羅氏家用新冠病毒抗原自我檢測套組,78,2022/04/29 11:49:02,無
5901154082,德行盛康藥局,臺北市士林區德行東路２０６之１號１樓,121.532,25.1089,(02)28348756,羅氏家用新冠病毒抗原自我檢測套組,2,2022/04/29 11:49:02,無
5901154108,藥本家藥局,臺北市士林區中山北路７段１４巷２６號１樓,121.5328,25.11884,(02)28766682,羅氏家用新冠病毒抗原自我檢測套組,78,2022/04/29 11:49:02,無
5901160062,丸三大藥局,臺北市北投區自強街１０５號,121.5153,25.11086,(02)28230637,羅氏家用新冠病毒抗原自我檢測套組,78,2022/04/29 11:49:02,無
5901160099,進春藥局,臺北市北投區明德路１５１號,121.5206,25.11086,(02)28216938,羅氏家用新冠病毒抗原自我檢測套組,155,2022/04/29 11:49:02,無休
5901160142,德昇藥局,臺北市北投區裕民二路２０號,121.517,25.11604,(02)28217565,羅氏家用新冠病毒抗原自我檢測套組,78,2022/04/29 11:49:02,週一至週五下午 2:30分 實名制快篩發售
5901160197,川秀藥局,臺北市北投區石牌路２段９９巷９號１樓,121.5166,25.11792,(02)28270702,羅氏家用新冠病毒抗原自我檢測套組,78,2022/04/29 11:49:02,快篩下午2點開賣
5901160222,新祥藥局,臺北市北投區知行路２０８號－１,121.4668,25.11935,(02)28582551,羅氏家用新冠病毒抗原自我檢測套組,78,2022/04/29 11:49:02,無
5901160400,世全藥局,臺北市北投區知行路２７３號,121.4672,25.12134,(02)28585378,羅氏家用新冠病毒抗原自我檢測套組,78,2022/04/29 11:49:02,早0000-0100，午1300-1600，晚1600-2400
5901160428,九福藥局,臺北市北投區公館路２３６號,121.5081,25.12612,(02)28953009,羅氏家用新冠病毒抗原自我檢測套組,78,2022/04/29 11:49:02,★週日店休未營業
5901160517,弘安藥局,臺北市北投區懷德街３３號１樓,121.5193,25.11219,(02)28206390,羅氏家用新冠病毒抗原自我檢測套組,78,2022/04/29 11:49:02,快篩每日下午2:00開賣，現場購買售完為止，週日無
5901161890,良興藥局,臺北市北投區中和街２８６號,121.5004,25.14047,(02)28933360,羅氏家用新冠病毒抗原自我檢測套組,73,2022/04/29 11:49:02,無
5901161934,康揚藥局,臺北市北投區中和街３２２號,121.4998,25.14108,(02)28946520,羅氏家用新冠病毒抗原自我檢測套組,78,2022/04/29 11:49:02,實名制口罩發放時間: 14:00~16:00
5901162119,祐鄰藥局,臺北市北投區尊賢街２５０號,121.5073,25.11707,(02)28281232,羅氏家用新冠病毒抗原自我檢測套組,76,2022/04/29 11:49:02,無
5901162306,上頤藥局,臺北市北投區中和街３２７號１樓,121.4997,25.14097,(02)28981230,羅氏家用新冠病毒抗原自我檢測套組,78,2022/04/29 11:49:02,無
5901162477,長宜藥局,臺北市北投區自強街１１２號,121.5155,25.11074,(02)28216605,羅氏家用新冠病毒抗原自我檢測套組,78,2022/04/29 11:49:02,周一至周日早上9:00-晚上10:00販售口罩，
5901162833,維康藥局,臺北市北投區石牌路２段１９１．１９３號,121.5184,25.11874,(02)28206343,羅氏家用新冠病毒抗原自我檢測套組,78,2022/04/29 11:49:02,口罩發放時間為每日下午3點排隊，現場購賣
5901163152,石牌健康人生藥局,臺北市北投區石牌路２段１８７號,121.5183,25.11868,(02)28225169,羅氏家用新冠病毒抗原自我檢測套組,78,2022/04/29 11:49:02,實名制快篩每日14點開賣。13:30開始發號碼牌。
5901163269,佳祈健保藥局,臺北市北投區明德路１４４號,121.5208,25.11047,(02)28232535,羅氏家用新冠病毒抗原自我檢測套組,78,2022/04/29 11:49:02,無
5901163296,天禧大藥局,臺北市北投區實踐街３５號,121.5087,25.11521,(02)28213558,羅氏家用新冠病毒抗原自我檢測套組,79,2022/04/29 11:49:02,實名制快篩下午1:30現場販售
5901163376,北投春天藥局,臺北市北投區中央南路１段７６號,121.5011,25.13135,(02)28916668,羅氏家用新冠病毒抗原自我檢測套組,78,2022/04/29 11:49:02,每日14:40發號碼牌 15:00販售
5901163394,致遠春天藥局,臺北市北投區致遠一路１段１３２號１、２樓,121.5149,25.11051,(02)28253258,羅氏家用新冠病毒抗原自我檢測套組,78,2022/04/29 11:49:02,15:30開始發放號碼牌15:30開始販售口罩
5901163410,尊賢藥局,臺北市北投區尊賢街２１２號,121.508,25.11551,(02)28270505,羅氏家用新冠病毒抗原自我檢測套組,5,2022/04/29 11:49:02,營業時間內皆提供服務
5901163438,漢藥局,臺北市北投區吉利街１４６號,121.508,25.11854,(02)28236598,羅氏家用新冠病毒抗原自我檢測套組,78,2022/04/29 11:49:02,無
5901163509,吉利春天生活藥局,臺北市北投區吉利街１２０號,121.5068,25.11851,(02)28253256,羅氏家用新冠病毒抗原自我檢測套組,78,2022/04/29 11:49:02,無
5901163527,理得藥局,臺北市北投區石牌路１段１５０號,121.5131,25.11426,(02)28289680,羅氏家用新冠病毒抗原自我檢測套組,6,2022/04/29 11:49:02,每日10:00開賣，售完為止。
5901163536,天富大藥局,臺北市北投區石牌路２段１７１號（實際使用：１樓）,121.518,25.11848,(02)28225812,羅氏家用新冠病毒抗原自我檢測套組,57,2022/04/29 11:49:02,無
5901163545,天康大藥局,臺北市北投區中央南路１段５７號,121.5014,25.13192,(02)28914265,羅氏家用新冠病毒抗原自我檢測套組,78,2022/04/29 11:49:02,無
5901163563,躍獅光明藥局,臺北市北投區光明路５１號、５３號（實際使用：１樓）,121.4998,25.13286,(02)28915993,羅氏家用新冠病毒抗原自我檢測套組,9,2022/04/29 11:49:02,無
5901163572,永欣中西藥局,臺北市北投區中和街５０１號,121.4947,25.1452,(02)28910307,羅氏家用新冠病毒抗原自我檢測套組,17,2022/04/29 11:49:02,無
5901163581,陳藥師藥局,臺北市北投區光明路２巷１３－２號（實際使用：１樓）,121.4997,25.13132,(02)28921971,羅氏家用新冠病毒抗原自我檢測套組,72,2022/04/29 11:49:02,無
5901163616,江南育仁大藥局,臺北市北投區育仁路５５號１樓,121.4981,25.13361,(02)28981850,羅氏家用新冠病毒抗原自我檢測套組,80,2022/04/29 11:49:02,無
5901163643,致遠盛康藥局,臺北市北投區致遠二路１４１號１樓,121.5128,25.1173,(02)28263580,羅氏家用新冠病毒抗原自我檢測套組,4,2022/04/29 11:49:02,早上9點發號碼牌，早上10點開始販售實名制快篩試劑
5901163652,康賢藥局,臺北市北投區西安街１段３５９號１樓,121.5153,25.11429,(02)28219295,羅氏家用新冠病毒抗原自我檢測套組,73,2022/04/29 11:49:02,無
5901170059,必欣藥局,臺北市信義區松仁路２６４號,121.5696,25.02425,(02)27225060,羅氏家用新冠病毒抗原自我檢測套組,78,2022/04/29 11:49:02,實名制快篩販售時間：星期一至星期六晚上20：00開始
5901170139,福華藥局,臺北市信義區吳興街２８１巷３號１樓,121.5643,25.02656,(02)27208527,羅氏家用新冠病毒抗原自我檢測套組,78,2022/04/29 11:49:02,現階段下午1:30~5:30配合政府發售口罩
5901170406,鼎泰藥局,臺北市信義區基隆路１段１５５號１樓,121.5653,25.04222,(02)27620617,羅氏家用新冠病毒抗原自我檢測套組,1,2022/04/29 11:49:02,周一至周五 9：30-21：30 （9:30 開始發口罩） 5／1 有營業
5901170648,立信藥局,臺北市信義區松山路４０３號,121.578,25.04144,(02)27687754,羅氏家用新冠病毒抗原自我檢測套組,62,2022/04/29 11:49:02,快篩試劑販賣時間:晚上七點至九點
5901170906,吳興藥局,臺北市信義區吳興街２７９號１樓,121.5642,25.02658,(02)27208328,羅氏家用新冠病毒抗原自我檢測套組,78,2022/04/29 11:49:02,無
5901170915,杏仁藥局,臺北市信義區大道路１３５號,121.5834,25.03901,(02)27262541,羅氏家用新冠病毒抗原自我檢測套組,72,2022/04/29 11:49:02,春節期間看診時段請電洽
5901172213,華泰藥局,臺北市信義區虎林街８２巷５號,121.5769,25.04335,(02)27601992,羅氏家用新冠病毒抗原自我檢測套組,48,2022/04/29 11:49:02,無
5901172268,皇佳大藥局,臺北市信義區松山路５４１巷１９號,121.5789,25.03793,(02)27269868,羅氏家用新冠病毒抗原自我檢測套組,31,2022/04/29 11:49:02,早上9:00~21:00持健保卡領取實名制口罩，請自備零錢
5901172580,文興藥局,臺北市信義區福德街２４５號,121.5859,25.03874,(02)27590989,羅氏家用新冠病毒抗原自我檢測套組,60,2022/04/29 11:49:02,無
5901172697,綠杏大藥局,臺北市信義區吳興街２４１號,121.5635,25.02745,(02)27582378,羅氏家用新冠病毒抗原自我檢測套組,78,2022/04/29 11:49:02,每天下午1300販售口罩＜如排隊人潮過多將提早開始＞
5901172704,鴻濟藥局,臺北市信義區永吉路３２６巷２號１樓,121.5754,25.04507,(02)27645331,羅氏家用新冠病毒抗原自我檢測套組,46,2022/04/29 11:49:02,無
5901172820,安心藥局,臺北市信義區永吉路３０巷１４８弄４之１號,121.5685,25.04266,(02)27474992,羅氏家用新冠病毒抗原自我檢測套組,79,2022/04/29 11:49:02,口罩代售時間14:00起現場排隊
5901172924,躍獅松仁藥局,臺北市信義區松仁路２３３號（實際營業地址：１樓）,121.5688,25.02617,(02)27238626,羅氏家用新冠病毒抗原自我檢測套組,78,2022/04/29 11:49:02,快篩販售時段:下午13:30開始售完至晚上19:00前
5901173041,皇昇大藥局,臺北市信義區松山路２１０號１樓,121.5776,25.04509,(02)27663488,羅氏家用新冠病毒抗原自我檢測套組,72,2022/04/29 11:49:02,無
5901173238,正和藥局,臺北市信義區吳興街２２５巷６號,121.5634,25.02782,(02)23455186,羅氏家用新冠病毒抗原自我檢測套組,55,2022/04/29 11:49:02,無
5901173283,上禾藥師藥局,臺北市信義區林口街２７號,121.5792,25.03741,(02)27592686,羅氏家用新冠病毒抗原自我檢測套組,1,2022/04/29 11:49:02,無
5901173372,新永春藥局,臺北市信義區忠孝東路５段４２３巷１號,121.5753,25.04126,(02)27667385,羅氏家用新冠病毒抗原自我檢測套組,78,2022/04/29 11:49:02,口罩販售時段：每周一到日，早上10點開始發售至九點
5901173390,馨馨藥局,臺北市信義區虎林街８２巷１９號,121.5764,25.04336,(02)27491208,羅氏家用新冠病毒抗原自我檢測套組,21,2022/04/29 11:49:02,無
5901173694,洪暘藥局,臺北市信義區富陽街８６號,121.5564,25.02127,(02)27337099,羅氏家用新冠病毒抗原自我檢測套組,78,2022/04/29 11:49:02,下午2點開始發號碼牌，領取號碼牌後請於下午4點前購買，否則視同放棄。
5901173710,專品光復藥局,臺北市信義區光復南路４６７之１號,121.5577,25.03384,(02)27586682,羅氏家用新冠病毒抗原自我檢測套組,73,2022/04/29 11:49:02,禮拜一到六下午三點販售口罩
5901173738,尚頤中西藥局,臺北市信義區虎林街１４５號,121.5767,25.03959,(02)27253818,羅氏家用新冠病毒抗原自我檢測套組,78,2022/04/29 11:49:02,無
5901173783,北一健康人生藥局,臺北市信義區吳興街２５５號,121.5637,25.02715,(02)27583945,羅氏家用新冠病毒抗原自我檢測套組,78,2022/04/29 11:49:02,下午3點開始販售實名制快篩
5901173818,博亞藥局,臺北市信義區莊敬路４６２號,121.5677,25.02672,(02)27580506,羅氏家用新冠病毒抗原自我檢測套組,39,2022/04/29 11:49:02,平日早上8:30、晚上8:00；假日早上8:30，發放號碼牌，持號碼牌購買!
5901173854,杏一後山埤藥局,臺北市信義區忠孝東路５段７７８號（實際營業地址：１樓）,121.5816,25.0434,(02)27274357,羅氏家用新冠病毒抗原自我檢測套組,78,2022/04/29 11:49:02,實名制快篩14:30開放排隊／14:55發放號碼牌
5901173863,立赫北醫藥局,臺北市信義區吳興街１１８巷２６弄１７號,121.5599,25.03007,(02)27320100,羅氏家用新冠病毒抗原自我檢測套組,4,2022/04/29 11:49:02,快篩周一至周六早上9:30開始發號碼牌開賣
5901173925,杏一光復藥局,臺北市信義區光復南路４４９之１號,121.5578,25.03488,(02)87804626,羅氏家用新冠病毒抗原自我檢測套組,78,2022/04/29 11:49:02,無
5901173943,躍獅興雅藥局,臺北市信義區松德路１２８號,121.5745,25.03734,(02)87808429,羅氏家用新冠病毒抗原自我檢測套組,78,2022/04/29 11:49:02,下午2點發號碼牌且同步開賣，4／30-5／1停售（未在政府配送名單內）
5901173961,北一忠孝藥局,臺北市信義區忠孝東路５段５２４巷１弄１６號１樓,121.5802,25.04133,(02)23464588,羅氏家用新冠病毒抗原自我檢測套組,3,2022/04/29 11:49:02,無
5901174002,吳興春天藥局,臺北市信義區吳興街１３７號１樓,121.5618,25.02947,(02)27585618,羅氏家用新冠病毒抗原自我檢測套組,78,2022/04/29 11:49:02,下午2:40發號碼牌
5901174011,寶春藥局,臺北市信義區虎林街１１９之１９號１樓,121.5771,25.04112,(02)27566501,羅氏家用新冠病毒抗原自我檢測套組,78,2022/04/29 11:49:02,無
5901174039,日安藥局,臺北市信義區松仁路２４０巷１３號１樓,121.5691,25.02454,(02)27203775,羅氏家用新冠病毒抗原自我檢測套組,78,2022/04/29 11:49:02,無
5901174057,詠晴中西藥局,臺北市信義區松山路４８４之４號（１樓含夾層）,121.5778,25.0389,(02)27266890,羅氏家用新冠病毒抗原自我檢測套組,32,2022/04/29 11:49:02,實名制快篩 - 09:10領號碼牌.當天取貨即可.避免群聚風險
5901174066,愛維喜藥局,臺北市信義區莊敬路２７８號１樓,121.5627,25.02882,(02)27586989,羅氏家用新冠病毒抗原自我檢測套組,76,2022/04/29 11:49:02,無
5901174075,信義盛康藥局,臺北市信義區永吉路２８６號（１樓）,121.5744,25.04538,(02)23460521,羅氏家用新冠病毒抗原自我檢測套組,3,2022/04/29 11:49:02,無
5901174084,市政藥局,臺北市信義區忠孝東路５段１６９號１樓、１７１號１樓,121.5688,25.0412,(02)27560050,羅氏家用新冠病毒抗原自我檢測套組,78,2022/04/29 11:49:02,無
5901180215,上海聯合藥局,臺北市中正區衡陽路３２號１樓,121.5126,25.04221,(02)23117744,羅氏家用新冠病毒抗原自我檢測套組,7,2022/04/29 11:49:02,無
5901180304,祥全藥局,臺北市中正區信義路２段７９巷１５－８號１Ｆ,121.527,25.03545,(02)23939339,羅氏家用新冠病毒抗原自我檢測套組,78,2022/04/29 11:49:02,無
5901180322,南昌大藥局,臺北市中正區南昌路１段８６號１樓,121.5174,25.03086,(02)23510322,羅氏家用新冠病毒抗原自我檢測套組,78,2022/04/29 11:49:02,無
5901180368,古亭藥局,臺北市中正區汀州路３段１１７號,121.5301,25.01667,(02)23683618,羅氏家用新冠病毒抗原自我檢測套組,78,2022/04/29 11:49:02,實名制  快篩  每晚7:30  開始賣
5901182111,東華藥局,臺北市中正區汀州路３段１１３號,121.53,25.01673,(02)23640852,羅氏家用新冠病毒抗原自我檢測套組,78,2022/04/29 11:49:02,星期日店休
5901183387,丞良藥局,臺北市中正區南昌路１段７８號地下１樓,121.5173,25.03099,(02)33938868,羅氏家用新冠病毒抗原自我檢測套組,78,2022/04/29 11:49:02,週一~週五 晚上9:00~9:30現場領取
5901183529,達昌藥局,臺北市中正區汀州路１段２０７號,121.5116,25.02692,(02)23390109,羅氏家用新冠病毒抗原自我檢測套組,60,2022/04/29 11:49:02,口罩配發時間 每日下午13:00開始
5901183645,大愛生活藥局,臺北市中正區汀州路２段２３２號,121.5243,25.02189,(02)23661155,羅氏家用新冠病毒抗原自我檢測套組,66,2022/04/29 11:49:02,下午14:30開始發放快篩
5901183789,佑康大藥局,臺北市中正區汀州路２段６４號,121.5184,25.02513,(02)23683602,羅氏家用新冠病毒抗原自我檢測套組,78,2022/04/29 11:49:02,快篩下午2點開賣
5901183798,佳和藥局,臺北市中正區黎明里公園路３０號,121.5169,25.04448,(02)23117102,羅氏家用新冠病毒抗原自我檢測套組,78,2022/04/29 11:49:02,無
5901183985,正康藥局,臺北市中正區漢口街１段２２號,121.5142,25.04507,(02)23712831,羅氏家用新冠病毒抗原自我檢測套組,78,2022/04/29 11:49:02,無
5901184080,活力健康藥妝藥局,臺北市中正區中華路２段３１５巷１號,121.5062,25.02795,(02)23392625,羅氏家用新冠病毒抗原自我檢測套組,39,2022/04/29 11:49:02,快篩販售1100-1200 1800-1900 週日有
5901184106,信康藥局,臺北市中正區南昌路１段１４３號,121.5186,25.02953,(02)23961979,羅氏家用新冠病毒抗原自我檢測套組,78,2022/04/29 11:49:02,14:00開始販售實名制快篩
5901184179,保德中華藥局,臺北市中正區中華路２段１５９號,121.5042,25.03101,(02)23027720,羅氏家用新冠病毒抗原自我檢測套組,79,2022/04/29 11:49:02,快篩視政府有無配發而販售；有貨的話下午三點開始發號碼牌及販售，限當日購買
5901184213,71恩典藥局,臺北市中正區信義路２段７１號,121.5264,25.03466,(02)23223371,羅氏家用新冠病毒抗原自我檢測套組,78,2022/04/29 11:49:02,快篩==週一到週五19:00／週六17:00購買， 十分鐘前發號碼牌
5901184222,豐仁藥局,臺北市中正區寧波西街１６１號,121.5109,25.02736,(02)23033908,羅氏家用新冠病毒抗原自我檢測套組,78,2022/04/29 11:49:02,周一至周六 15:00 ／ 周日 17:30
5901184240,立赫健保藥局,臺北市中正區新生南路１段１６之２號,121.5326,25.04323,(02)33223231,羅氏家用新冠病毒抗原自我檢測套組,9,2022/04/29 11:49:02,快篩星期一至星期六10:00發號碼牌開賣，星期日12:00發號碼牌開賣
5901184366,宏越藥局,臺北市中正區中華路２段３１３巷４號,121.5061,25.02813,(02)23050880,羅氏家用新冠病毒抗原自我檢測套組,78,2022/04/29 11:49:02,代售防疫口罩時間 每日下午3:00-6:00 其餘時間不便進行代售 敬祈見諒
5901184446,北車維康藥局,臺北市中正區青島西路１１號,121.5178,25.04499,(02)23613623,羅氏家用新冠病毒抗原自我檢測套組,78,2022/04/29 11:49:02,無
5901184473,中力藥局,臺北市中正區襄陽路１３之５號、１５號,121.5155,25.04349,(02)23313768,羅氏家用新冠病毒抗原自我檢測套組,1,2022/04/29 11:49:02,實名制快篩 販售時間：09:30~售完為止
5901184491,躍獅南門藥局,臺北市中正區中華路２段３９巷１０號,121.5074,25.03484,(02)23141111,羅氏家用新冠病毒抗原自我檢測套組,78,2022/04/29 11:49:02,口罩販售時段：成人早上9點及晚上7點各200個
5901184553,珍忻藥局,臺北市中正區南昌路１段６５號,121.5174,25.03107,(02)23965115,羅氏家用新冠病毒抗原自我檢測套組,78,2022/04/29 11:49:02,健保快篩發放:13:20及18:20分兩梯次發號碼牌
5901184599,長頸鹿藥師藥局,臺北市中正區南昌路１段１３２號,121.5183,25.02955,(02)23962120,羅氏家用新冠病毒抗原自我檢測套組,68,2022/04/29 11:49:02,快篩發放時段下午14時至下午15時
5901184633,躍獅東門藥局,臺北市中正區金山南路１段１０８之１號（１樓）,121.5273,25.03538,(02)23920339,羅氏家用新冠病毒抗原自我檢測套組,78,2022/04/29 11:49:02,無
5901184642,康呈安藥局,臺北市中正區汀州路２段１８７號１樓,121.522,25.02403,(02)23672215,羅氏家用新冠病毒抗原自我檢測套組,78,2022/04/29 11:49:02,快篩14:50~14:55發號碼牌15:00開始販售
5901184651,立赫臺大藥局,臺北市中正區公園路２８號１樓,121.517,25.04485,(02)23616162,羅氏家用新冠病毒抗原自我檢測套組,10,2022/04/29 11:49:02,快篩星期一至六9:30發號碼牌開賣，星期日11:00發號碼牌開賣
5901184660,南昌春天藥局,臺北市中正區南昌路１段１５７號１樓,121.5188,25.02927,(02)23972886,羅氏家用新冠病毒抗原自我檢測套組,78,2022/04/29 11:49:02,無
5901184679,汀州藥局,臺北市中正區汀州路１段１８７、１８９、１９１號（１樓）,121.5112,25.02704,(02)23090705,羅氏家用新冠病毒抗原自我檢測套組,78,2022/04/29 11:49:02,快篩實名制，每天16:00開始販售，售完為止。
5901190033,世欣藥局,臺北市萬華區東園街１７３號１Ｆ,121.4973,25.02419,(02)23074263,羅氏家用新冠病毒抗原自我檢測套組,77,2022/04/29 11:49:02,防疫快篩劑服務時間週一至五14:00-16:00週六10:00-12:00
5901190284,民鈺藥局,臺北市萬華區環河南路２段１３９號１樓,121.4933,25.03396,(02)23084270,羅氏家用新冠病毒抗原自我檢測套組,78,2022/04/29 11:49:02,星期一到星期五，每日營業時間為早上9點到晚上10點. 實名制快篩星期一到星期五每日下午3點販售，目前星期六日無販售
5901190426,皇祥藥局,臺北市萬華區萬青街１６５號１樓,121.5016,25.02279,(02)23375676,羅氏家用新冠病毒抗原自我檢測套組,78,2022/04/29 11:49:02,假日先來電確認
5901190515,日昇藥局,臺北市萬華區廣州街１２４號,121.5016,25.03654,(02)23062975,羅氏家用新冠病毒抗原自我檢測套組,10,2022/04/29 11:49:02,實名制快篩早上十點半開始
5901190668,聯慶大藥局,臺北市萬華區萬大路３０６號１樓,121.5003,25.02495,(02)23039850,羅氏家用新冠病毒抗原自我檢測套組,78,2022/04/29 11:49:02,無
5901190686,信義藥局,臺北市萬華區青年路２８號,121.5052,25.02581,(02)23074599,羅氏家用新冠病毒抗原自我檢測套組,77,2022/04/29 11:49:02,下午一點領-（快篩）
5901190784,欣安藥局,臺北市萬華區東園街１９０、１９２號,121.4983,25.02177,(02)23327830,羅氏家用新冠病毒抗原自我檢測套組,78,2022/04/29 11:49:02,每天快篩販售時間13:00售完為止
5901192180,康之友藥局,臺北市萬華區青年路２０號,121.5055,25.02592,(02)23011598,羅氏家用新冠病毒抗原自我檢測套組,78,2022/04/29 11:49:02,下午兩點發號碼牌
5901192546,躍獅西園藥局,臺北市萬華區西園路２段２６０號,121.4946,25.02784,(02)23094063,羅氏家用新冠病毒抗原自我檢測套組,78,2022/04/29 11:49:02,快篩販售時段：下午2點至售完為止（政府有正常配貨的情況下）
5901192822,專品藥局,臺北市萬華區長沙街２段７１－１號,121.5051,25.04062,(02)23718892,羅氏家用新冠病毒抗原自我檢測套組,80,2022/04/29 11:49:02,快篩實名制下午3點發放
5901192975,萬華藥局,臺北市萬華區萬大路２４８號實際營業地址１樓、２樓,121.5003,25.02626,(02)23012221,羅氏家用新冠病毒抗原自我檢測套組,78,2022/04/29 11:49:02,快篩實名制，每天16:00開始販售，售完為止。
5901193070,榮勝藥局,臺北市萬華區萬大路２３３號,121.5006,25.02649,(02)23331121,羅氏家用新冠病毒抗原自我檢測套組,1,2022/04/29 11:49:02,口罩代售時間禮拜一~禮拜六早上9:00開始，現場排隊／ 看診時間早上8:30-12:00，下午3:00-6:00，晚上6:30-10:00
5901193150,日森人文藥局,臺北市萬華區和平西路３段１４９號,121.4988,25.03543,(02)23082100,羅氏家用新冠病毒抗原自我檢測套組,8,2022/04/29 11:49:02,快篩每日11點現場發放號碼牌購買
5901193169,柏祥藥局,臺北市萬華區西藏路１４１號,121.5017,25.02944,(02)23018272,羅氏家用新冠病毒抗原自我檢測套組,78,2022/04/29 11:49:02,快篩服務時間PM06:00-07:00，售完提前截止。
5901193196,青年宏越藥局,臺北市萬華區青年路４４號,121.5042,25.0255,(02)23011037,羅氏家用新冠病毒抗原自我檢測套組,78,2022/04/29 11:49:02,快篩六日不販售，禮拜一~五下午2:30-3:30，現場排隊
5901193221,正盛藥局,臺北市萬華區中華路２段４３４－１號,121.5064,25.02708,(02)23050386,羅氏家用新冠病毒抗原自我檢測套組,78,2022/04/29 11:49:02,公費快篩晚上8點依現場後位順序發放
5901193230,啟仁藥局,臺北市萬華區環河南路２段１７７號,121.492,25.03259,(02)23362771,羅氏家用新冠病毒抗原自我檢測套組,78,2022/04/29 11:49:02,下午2點開始發號碼牌， 發完為止
5901193310,和德藥局,臺北市萬華區西園路２段２９２號１樓,121.4935,25.02698,(02)23331522,羅氏家用新冠病毒抗原自我檢測套組,78,2022/04/29 11:49:02,快篩實名制，每天16:00開始販售，售完為止。
5901193329,西園宏越藥局,臺北市萬華區西園路２段２１３號,121.4942,25.02714,(02)23097336,羅氏家用新冠病毒抗原自我檢測套組,72,2022/04/29 11:49:02,實名制快篩下午4點~5點販售， 4／30  5／1無配送快篩
5901193338,艾米力藥師藥局,臺北市萬華區西藏路１０７－２號１樓,121.5035,25.02955,(02)23036583,羅氏家用新冠病毒抗原自我檢測套組,1,2022/04/29 11:49:02,快篩實名制：上午9:00開始販售，售完為止。
5901193365,企鵝藥局,臺北市萬華區西昌街１７５號（１樓）,121.5007,25.03886,(02)23884691,羅氏家用新冠病毒抗原自我檢測套組,78,2022/04/29 11:49:02,公費快篩試劑，下午2點發號碼牌
5901200114,健群藥局,臺北市文山區景興路４１號,121.5448,24.99717,(02)29328898,羅氏家用新冠病毒抗原自我檢測套組,1,2022/04/29 11:49:02,無
5901200141,景美藥局,臺北市文山區景文街１２５號,121.5412,24.99033,(02)29335741,羅氏家用新冠病毒抗原自我檢測套組,6,2022/04/29 11:49:02,無
5901200490,永明大藥局,臺北市文山區興隆路１段２９７號１樓,121.5449,24.99875,(02)29314428,羅氏家用新冠病毒抗原自我檢測套組,18,2022/04/29 11:49:02,無
5901201568,康宜庭生活藥局,臺北市文山區興隆路４段６４號,121.5613,24.98514,(02)29385363,羅氏家用新冠病毒抗原自我檢測套組,78,2022/04/29 11:49:02,實名快篩14:00開賣 現場排隊
5901201728,東京晟藥局,臺北市文山區辛亥路４段９７號,121.5587,25.00684,(02)29356354,羅氏家用新冠病毒抗原自我檢測套組,17,2022/04/29 11:49:02,周日不銷售實名制快篩，預領號碼牌購買
5901201835,巧康藥局,臺北市文山區木新路３段２６２、２６４號,121.5585,24.98132,(02)29372061,羅氏家用新冠病毒抗原自我檢測套組,77,2022/04/29 11:49:02,每日下午2點30進行快篩發放作業
5901201871,佳醫景美藥局,臺北市文山區羅斯福路６段２９０號,121.5398,24.991,(02)86636659,羅氏家用新冠病毒抗原自我檢測套組,78,2022/04/29 11:49:02,實名制快篩販售時間：每日12:00-15:00，提前售完，提前結束
5901202047,華君藥局,臺北市文山區興隆路２段６０號,121.5478,24.99955,(02)29319510,羅氏家用新冠病毒抗原自我檢測套組,78,2022/04/29 11:49:02,每天12:00開始販售快篩
5901202627,杏隆藥局,臺北市文山區羅斯福路５段２６１號,121.5395,25.00115,(02)29313151,羅氏家用新冠病毒抗原自我檢測套組,78,2022/04/29 11:49:02,快篩實名制採預約登記，至5／5已登記額滿。
5901202645,永源大藥局,臺北市文山區興隆路３段３０２號,121.5588,24.99312,(02)22396166,羅氏家用新冠病毒抗原自我檢測套組,78,2022/04/29 11:49:02,口罩販售時段原本21:00，但藥局會視人數多寡滾動式調整提早發放快篩避免群聚，根據4／28情況約20:00開始發售，約45鐘完售
5901202654,康宜庭萬隆藥局,臺北市文山區羅斯福路５段２０２號,121.5384,25.00322,(02)29348662,羅氏家用新冠病毒抗原自我檢測套組,78,2022/04/29 11:49:02,實名快篩星期一~六 14:00開賣 現場排隊
5901202789,宜康藥局,臺北市文山區保儀路７號,121.5686,24.98872,(02)86619862,羅氏家用新冠病毒抗原自我檢測套組,78,2022/04/29 11:49:02,快篩平日下午一點半開始販售，國定假日及週末沒有販售
5901202841,欣安景美藥局,臺北市文山區景文街７７號,121.5414,24.99126,(02)29316008,羅氏家用新冠病毒抗原自我檢測套組,78,2022/04/29 11:49:02,每天快篩劑AM10：00發號碼牌PM14:00開始販賣售完為止
5901202850,北一藥師藥局,臺北市文山區木新路３段４７號,121.5642,24.98236,(02)22348686,羅氏家用新冠病毒抗原自我檢測套組,77,2022/04/29 11:49:02,無
5901202949,萬隆大藥局,臺北市文山區羅斯福路５段２１８巷１５號,121.538,25.00203,(02)29334580,羅氏家用新冠病毒抗原自我檢測套組,77,2022/04/29 11:49:02,9：00~23：00
5901202958,杏一萬安藥局,臺北市文山區萬安街１５號,121.5706,25.00139,(02)22302126,羅氏家用新冠病毒抗原自我檢測套組,75,2022/04/29 11:49:02,營業時間0900-2200
5901203044,木新健康人生藥局,臺北市文山區木新路３段２０３號,121.5598,24.9814,(02)86611465,羅氏家用新冠病毒抗原自我檢測套組,78,2022/04/29 11:49:02,9：30~22：00
5901203062,大樹文山藥局,臺北市文山區興隆路３段１３號（１、２、３樓）,121.555,25.00088,(02)29342226,羅氏家用新冠病毒抗原自我檢測套組,78,2022/04/29 11:49:02,口罩販售時間：14:00 - 16:00
5901203080,杏一木柵藥局,臺北市文山區木柵路３段９８號,121.5674,24.98861,(02)29371839,羅氏家用新冠病毒抗原自我檢測套組,78,2022/04/29 11:49:02,無
5901203124,福興藥局,臺北市文山區福興路５６號,121.5505,25.00345,(02)89313868,羅氏家用新冠病毒抗原自我檢測套組,78,2022/04/29 11:49:02,領快篩時間:周一到周六，下午2點開放購買快篩，1人1卡1份
5901203213,綠杏萬芳藥局,臺北市文山區興隆路３段１１１號,121.5583,25.00031,(02)29349516,羅氏家用新冠病毒抗原自我檢測套組,6,2022/04/29 11:49:02,快篩販售時間週一至週六08:30-13:00（發號碼牌）
5901203295,專品政大藥局,臺北市文山區指南路２段８號,121.5742,24.98784,(02)22343010,羅氏家用新冠病毒抗原自我檢測套組,78,2022/04/29 11:49:02,無
5901203366,大樹木柵藥局,臺北市文山區木柵路３段１０８號、１１０號（１樓、２樓）,121.5676,24.98866,(02)22340110,羅氏家用新冠病毒抗原自我檢測套組,78,2022/04/29 11:49:02,無
5901203375,大樹景美藥局,臺北市文山區羅斯福路６段２３４之１號,121.5404,24.99244,(02)29322951,羅氏家用新冠病毒抗原自我檢測套組,78,2022/04/29 11:49:02,無
5901203393,躍獅景新藥局,臺北市文山區羅斯福路６段３０號１樓,121.5396,24.99978,(02)29356221,羅氏家用新冠病毒抗原自我檢測套組,78,2022/04/29 11:49:02,無
5901203400,富康活力睦新藥局,臺北市文山區木新路３段２１６號,121.5595,24.98153,(02)29393666,羅氏家用新冠病毒抗原自我檢測套組,78,2022/04/29 11:49:02,無
5901203419,康宜庭興隆藥局,臺北市文山區興隆路３段２００號１樓,121.559,24.99779,(02)22304866,羅氏家用新冠病毒抗原自我檢測套組,78,2022/04/29 11:49:02,無
5901203428,康宜庭景文藥局,臺北市文山區景文街９７號１樓,121.5413,24.99093,(02)29302801,羅氏家用新冠病毒抗原自我檢測套組,78,2022/04/29 11:49:02,營業時間為08:30-22:30；14:00開始發放快篩實名制號碼牌並立即販售，謝謝您的配合
5901203464,大愛幸福藥局,臺北市文山區木新路２段２２１號１樓,121.5675,24.98344,(02)29379977,羅氏家用新冠病毒抗原自我檢測套組,78,2022/04/29 11:49:02,無
5901203473,晴天藥局,臺北市文山區萬壽路１５號（１樓）,121.576,24.98811,(02)29363131,羅氏家用新冠病毒抗原自我檢測套組,73,2022/04/29 11:49:02,實名制快篩: 周一~周六下午3點憑卡（一人限2張卡）販售喔! 祝您身心愉快、有如晴天、疫情早日退散!
5901203482,健康家藥局,臺北市文山區興隆路２段１３３號１樓,121.5481,25.00011,(02)29330858,羅氏家用新冠病毒抗原自我檢測套組,74,2022/04/29 11:49:02,實名制快篩下午一點開始販售
5902011308,昇安藥局,高雄市鹽埕區瀨南街２２５號１樓,120.284,22.62797,(07)5216438,羅氏家用新冠病毒抗原自我檢測套組,4,2022/04/29 11:49:02,無
5902020012,永松藥局,高雄市鼓山區鼓山三路１３０－１５號,120.2802,22.66454,(07)5810657,羅氏家用新冠病毒抗原自我檢測套組,39,2022/04/29 11:49:02,周一到周日早上9點開始賣口罩，到晚上10點.
5902021377,藍玉藥局,高雄市鼓山區鼓峰里九如四路２００２號,120.2861,22.66774,(07)5837528,羅氏家用新冠病毒抗原自我檢測套組,10,2022/04/29 11:49:02,賣口罩時間：周一至週五早上9:30起，售完為止。
5902022794,定國藥局,高雄市鼓山區九如四路１１３５號,120.2791,22.65936,(07)5815858,羅氏家用新冠病毒抗原自我檢測套組,1,2022/04/29 11:49:02,無
5902022874,康爾喜藥局,高雄市鼓山區慶豐街５０號,120.2935,22.66647,(07)5222650,羅氏家用新冠病毒抗原自我檢測套組,11,2022/04/29 11:49:02,早上9點半後開始販售口罩，營業時間為早上9:10至晚間10:00
5902022972,高雄藥局,高雄市鼓山區九如四路９２４號,120.2793,22.65466,(07)5214266,羅氏家用新冠病毒抗原自我檢測套組,2,2022/04/29 11:49:02,賣口罩時間為週一～週六晚上6點，售完為止
5902030090,宏仁藥局,高雄市左營區左營大路３９０號,120.2932,22.68702,(07)5817895,羅氏家用新冠病毒抗原自我檢測套組,1,2022/04/29 11:49:02,口罩代售時間自早上10:00開始，售完為止。
5902030269,立文藥局,高雄市左營區立文路５４號,120.3058,22.66458,(07)5572899,羅氏家用新冠病毒抗原自我檢測套組,1,2022/04/29 11:49:02,0
5902030287,慈德藥局,高雄市左營區重愛路５３號,120.3186,22.68308,(07)3416212,羅氏家用新冠病毒抗原自我檢測套組,4,2022/04/29 11:49:02,快篩發放時間.週一至周六9點-點
5902032432,威林藥局,高雄市左營區華夏路７２１號,120.3023,22.67845,(07)3414243,羅氏家用新冠病毒抗原自我檢測套組,1,2022/04/29 11:49:02,營業時間販售口罩（售完為止），星期一~五早上9:00~晚上9:00，星期六早上09:00~下午5:00執業
5902032530,杏光藥局,高雄市左營區果峰街４７巷１號１樓,120.2869,22.6703,(07)5837060,羅氏家用新冠病毒抗原自我檢測套組,7,2022/04/29 11:49:02,上午營業時間為9 :00~12:00；晚上營業至21:30
5902032674,辰暘藥局,高雄市左營區富民路１２０號１、２樓,120.3054,22.66066,(07)5588545,羅氏家用新冠病毒抗原自我檢測套組,1,2022/04/29 11:49:02,口罩販售時間09:30-21:30
5902040014,成吉藥局,高雄市楠梓區楠梓東街７４號,120.3301,22.72966,(07)3513339,羅氏家用新冠病毒抗原自我檢測套組,78,2022/04/29 11:49:02,下午6點開始販賣實名制快篩，售完為止!!!星期日店休
5902040041,橘井藥局,高雄市楠梓區楠梓路１２９號,120.3286,22.73026,(07)3511869,羅氏家用新冠病毒抗原自我檢測套組,3,2022/04/29 11:49:02,賣口罩時間：周一至週六每天早上8:00發號碼牌，9:00-11:00販售，售完為止。
5902040087,世詠藥局,高雄市楠梓區楠都東街１３８號,120.3262,22.72532,(07)3539869,羅氏家用新冠病毒抗原自我檢測套組,1,2022/04/29 11:49:02,無
5902050092,明曜藥局,高雄市三民區澄和路９６號,120.3441,22.64481,(07)3803807,羅氏家用新冠病毒抗原自我檢測套組,78,2022/04/29 11:49:02,營業日13:30販售快篩當場排隊.當場販售.售完為止
5902050298,瑞鶴藥局,高雄市三民區寶德里義德路２５號,120.3352,22.64301,(07)3862757,羅氏家用新冠病毒抗原自我檢測套組,12,2022/04/29 11:49:02,下午2:00至4:30午休勿擾，每日09:00至21:00發售快篩。
5902050412,春仁藥局,高雄市三民區覺民路２２５號,120.3391,22.63944,(07)3962341,羅氏家用新冠病毒抗原自我檢測套組,6,2022/04/29 11:49:02,4／1-4／30售時間自9；00-22:00現場排隊.（賣完為止）
5902050565,澄和藥局,高雄市三民區澄和路６６號,120.3445,22.64474,(07)3923111,羅氏家用新冠病毒抗原自我檢測套組,78,2022/04/29 11:49:02,快篩試劑- 販售時間下午14:00起至20；00止
5902050636,嘉益藥局,高雄市三民區重慶街３０號,120.302,22.64223,(07)3110157,羅氏家用新冠病毒抗原自我檢測套組,1,2022/04/29 11:49:02,無
5902050798,友泰藥局,高雄市三民區中和街１６９號,120.2868,22.6388,(07)3125236,羅氏家用新冠病毒抗原自我檢測套組,39,2022/04/29 11:49:02,無
5902050903,皇安藥局,高雄市三民區九如一路４６１號,120.3296,22.63865,(07)3866779,羅氏家用新冠病毒抗原自我檢測套組,4,2022/04/29 11:49:02,營業日08:15~08:30可先領取號碼牌，上午08:30~12:00及下午3:00~10:.00為販賣口罩時間，售完為止
5902051240,明皇藥局,高雄市三民區寶國里義華路１８１號,120.3399,22.64276,(07)3860121,羅氏家用新冠病毒抗原自我檢測套組,61,2022/04/29 11:49:02,藥局販售口罩時間，依藥局門口公告時間為主（售完為止）
5902051642,安寧藥局,高雄市三民區嫩江街３９號,120.2981,22.64208,(07)3217585,羅氏家用新冠病毒抗原自我檢測套組,2,2022/04/29 11:49:02,星日不賣口罩
5902051786,億生藥局,高雄市三民區南台路２００號,120.2982,22.63706,(07)2873436,羅氏家用新冠病毒抗原自我檢測套組,1,2022/04/29 11:49:02,「藥局販售口罩時間，依藥局門口公告時間為主（售完為止）」
5902053833,建銘藥局,高雄市三民區吉林街２６２號,120.3068,22.64818,(07)3133460,羅氏家用新冠病毒抗原自我檢測套組,1,2022/04/29 11:49:02,0900營業時間販賣口罩.售完為止
5902056718,岱安藥局,高雄市三民區熱河二街２３號,120.3018,22.6439,(07)3219946,羅氏家用新冠病毒抗原自我檢測套組,62,2022/04/29 11:49:02,晚上20:00~22:00販售口罩（星期六，日公休）
5902056754,大家藥局,高雄市三民區鼎中路２２９號１樓,120.3191,22.66421,(07)3107632,羅氏家用新冠病毒抗原自我檢測套組,1,2022/04/29 11:49:02,營業日08:30-12:00，15:30-21:00為販賣口罩時間.售完為止
5902056807,長慶藥局,高雄市三民區金鼎路３１０號,120.3207,22.66513,(07)3105835,羅氏家用新冠病毒抗原自我檢測套組,1,2022/04/29 11:49:02,自110／01／01-110／12／31，營業日早上08:30至晚上10:30為販賣口罩時間.售完為止
5902057288,育英藥局,高雄市三民區灣子里和順街３９號,120.3159,22.65336,(07)3824467,羅氏家用新冠病毒抗原自我檢測套組,3,2022/04/29 11:49:02,營業時間:8:30-21:00， 週日休息
5902057831,愛橋藥局,高雄市三民區陽明路１９２號,120.3422,22.64207,(07)3945146,羅氏家用新冠病毒抗原自我檢測套組,2,2022/04/29 11:49:02,下午1:30開始販售罩藥局販售口罩時間，依藥局門口公告時間為主（售完為止）
5902060025,連作藥局,高雄市新興區大同一路２０３－１號,120.3003,22.62856,(07)2154716,羅氏家用新冠病毒抗原自我檢測套組,52,2022/04/29 11:49:02,快篩試紙領用時間為每日下午2點  4／29日起，28日已售完
5902061899,元盛藥局,高雄市新興區六合路１５３號,120.3149,22.63186,(07)2228183,羅氏家用新冠病毒抗原自我檢測套組,1,2022/04/29 11:49:02,無
5902071546,中華藥局,高雄市前金區中華四路３６３號,120.2987,22.62137,(07)2712779,羅氏家用新冠病毒抗原自我檢測套組,6,2022/04/29 11:49:02,星期日固定休假
5902080474,弘宗藥局,高雄市苓雅區武智街２號,120.3356,22.62303,(07)7211088,羅氏家用新冠病毒抗原自我檢測套組,1,2022/04/29 11:49:02,8:00~22:00（營業時段）
5902081186,寶麒藥局,高雄市苓雅區三多一路１４４號,120.3315,22.62306,(07)7610355,羅氏家用新冠病毒抗原自我檢測套組,17,2022/04/29 11:49:02,防疫口罩販售時段:周一至周六早上約9點開始販售，滿規定2小時後視狀況再延長販售時間，周日休息.
5902084801,邱吉祥藥局,高雄市苓雅區凱旋二路１３５號,120.3218,22.62917,(07)2226055,羅氏家用新冠病毒抗原自我檢測套組,4,2022/04/29 11:49:02,口罩代售時間週一至週六早上08:30現場賣
5902085031,上好藥局,高雄市苓雅區四維一路六三號一樓,120.3294,22.6257,(07)7266863,羅氏家用新冠病毒抗原自我檢測套組,15,2022/04/29 11:49:02,販售口罩時間.每日下午14:00起.售完為止~
5902085148,召祐健保藥局,高雄市苓雅區正義路９３號,120.3385,22.63037,(07)7493719,羅氏家用新冠病毒抗原自我檢測套組,20,2022/04/29 11:49:02,無
5902085184,惠春藥局,高雄市苓雅區武慶三路９６號,120.3319,22.62043,(07)7611358,羅氏家用新冠病毒抗原自我檢測套組,14,2022/04/29 11:49:02,「藥局販售口罩時間，依藥局門口公告時間為主（售完為止）」
5902085344,意祥藥局,高雄市苓雅區武廟路１４２之１號,120.3276,22.63125,(07)7224835,羅氏家用新冠病毒抗原自我檢測套組,19,2022/04/29 11:49:02,藥局販售口罩時間，依藥局門口公告時間為主（售完為止）
5902085371,加和藥局,高雄市苓雅區和平一路１４３之７號,120.3205,22.62331,(07)7219332,羅氏家用新冠病毒抗原自我檢測套組,78,2022/04/29 11:49:02,無
5902090032,全國大藥局,高雄市前鎮區三多二路４０３號１樓,120.3166,22.61777,(07)3345775,羅氏家用新冠病毒抗原自我檢測套組,78,2022/04/29 11:49:02,快篩實名制下午13:30開始..賣完為止
5902090121,意文藥局,高雄市前鎮區瑞華里武營路１８３號,120.3374,22.60991,(07)7226570,羅氏家用新冠病毒抗原自我檢測套組,5,2022/04/29 11:49:02,星期一~~日 天天 販售口罩 早上 08:00 開賣     *店 休*    另行公告
5902090827,博平藥局,高雄市前鎮區草衙二路３７７號,120.3224,22.57808,(07)8311814,羅氏家用新冠病毒抗原自我檢測套組,78,2022/04/29 11:49:02,藥局販售口罩時間，依藥局門口公告時間為主（售完為止）
5902092410,旺盛藥局,高雄市前鎮區永豐路１０８號,120.3337,22.6065,(07)7512899,羅氏家用新冠病毒抗原自我檢測套組,9,2022/04/29 11:49:02,過年期間 111／01／31下午至111／02／03  休診
5902092554,協和藥局,高雄市前鎮區中華五路９８３號,120.306,22.60221,(07)5377769,羅氏家用新冠病毒抗原自我檢測套組,78,2022/04/29 11:49:02,口罩代售 除星期天休息 周一至周六早上9:00~晚上8:30。
5902092910,健家藥局,高雄市前鎮區二聖二路４５號,120.3165,22.61293,(07)3389986,羅氏家用新冠病毒抗原自我檢測套組,1,2022/04/29 11:49:02,早上9:30開始販售口罩，售完為止，週日不販售
5902092956,慈濟健保藥局,高雄市前鎮區鎮州路２１１號,120.3082,22.58819,(07)8159788,羅氏家用新冠病毒抗原自我檢測套組,5,2022/04/29 11:49:02,每天早上8點開始賣.售完為止藥局販售口罩時間，依藥局門口公告時間為主（售完為止）
5902100033,旗后藥局,高雄市旗津區中洲三路７１５號,120.2705,22.61096,(07)5715838,羅氏家用新冠病毒抗原自我檢測套組,77,2022/04/29 11:49:02,自01／1日~12／31日15:00開賣口罩 ~18:00
5902110093,鳳明中西大藥局,高雄市小港區二苓路２４７號,120.3477,22.56534,(07)8011846,羅氏家用新冠病毒抗原自我檢測套組,78,2022/04/29 11:49:02,實名制快篩 :星期1 到 星期6 下午2點開賣
5902110628,悅是康藥局,高雄市小港區漢民路２７６號,120.3536,22.56665,(07)8010012,羅氏家用新冠病毒抗原自我檢測套組,13,2022/04/29 11:49:02,無
5902111670,桂林活力藥師藥局,高雄市小港區桂陽路４０號,120.3575,22.58194,(07)7931248,羅氏家用新冠病毒抗原自我檢測套組,15,2022/04/29 11:49:02,自2／11日~2／29日，營業日08:30及13:00各50份為販賣口罩時間.售完為止
5903010127,友誠藥局,臺中市豐原區豐東路４０１號１樓,120.7336,24.25457,(04)25132371,羅氏家用新冠病毒抗原自我檢測套組,78,2022/04/29 11:49:02,禮拜一至禮拜六口罩代售時間09:00至21:00，售完為止。
5903010261,豐原西勢藥局,臺中市豐原區西勢路２００號１樓,120.7067,24.24379,(04)25262330,羅氏家用新冠病毒抗原自我檢測套組,78,2022/04/29 11:49:02,實名制快篩販售時間:下午兩點開始，至銷售完畢
5903010350,甲蒂健保藥局,臺中市豐原區豐東路３０８號,120.7331,24.25093,(04)25256028,羅氏家用新冠病毒抗原自我檢測套組,30,2022/04/29 11:49:02,9點開始發號碼牌購買
5903010449,豐原藥局,臺中市豐原區新生北路２０６號之１（１樓）,120.7219,24.2551,(04)25260119,羅氏家用新冠病毒抗原自我檢測套組,62,2022/04/29 11:49:02,週五尚未收到快篩實名制配貨，無快篩提供販售
5903010485,大樹圓環藥局,臺中市豐原區圓環東路６１７號１樓,120.7283,24.25084,(04)25122212,羅氏家用新冠病毒抗原自我檢測套組,78,2022/04/29 11:49:02,口罩販售時間：14:00 - 16:00
5903010501,佑全豐原圓環東藥局,臺中市豐原區圓環東路５４８、５５０、５５２、５５４號１樓,120.7275,24.24948,(04)25246069,羅氏家用新冠病毒抗原自我檢測套組,78,2022/04/29 11:49:02,販售實名制快篩時間14:00~17:00
5903010547,佑全豐原中正藥局,臺中市豐原區中正路２２３、２２５號１、２樓,120.7175,24.25179,(04)25152886,羅氏家用新冠病毒抗原自我檢測套組,78,2022/04/29 11:49:02,實名制快篩販售時間:下午2點開始
5903010609,隔壁藥局,臺中市豐原區一心路２４０之２號１樓,120.7007,24.24613,(04)25231527,羅氏家用新冠病毒抗原自我檢測套組,70,2022/04/29 11:49:02,無
5903020034,國良豐藥局,臺中市東勢區豐勢路２１號１樓,120.8318,24.24779,(04)25885778,羅氏家用新冠病毒抗原自我檢測套組,78,2022/04/29 11:49:02,快篩試劑下午2:00開始
5903050103,北勢進騰藥局,臺中市沙鹿區北勢東路５０９之７號１樓,120.576,24.22526,(04)26330893,羅氏家用新冠病毒抗原自我檢測套組,78,2022/04/29 11:49:02,10:30-22:00
5903050194,樂齊藥局,臺中市沙鹿區北中路８６－１、８６－２號,120.5692,24.22827,(04)26338867,羅氏家用新冠病毒抗原自我檢測套組,78,2022/04/29 11:49:02,防疫家用快篩試劑每日19點開賣，售完為止，庫存請依現場為主。
5903050247,好利藥局,臺中市沙鹿區中山路４８７－１號１樓,120.5619,24.2454,(04)26630087,羅氏家用新冠病毒抗原自我檢測套組,1,2022/04/29 11:49:02,無
5903050274,鹿寮藥局,臺中市沙鹿區中山路４６１、４６１－１號１、２樓,120.5615,24.24387,(04)26630677,羅氏家用新冠病毒抗原自我檢測套組,78,2022/04/29 11:49:02,快篩實名制，每天16:00開始販售，售完為止。
5903060010,大芳藥局,臺中市梧棲區中央路１段９０７號,120.5381,24.24742,(04)26561755,羅氏家用新冠病毒抗原自我檢測套組,78,2022/04/29 11:49:02,快篩試劑.下午兩點開始販售
5903060038,梧棲玖裕藥局,臺中市梧棲區中和街８５號,120.5316,24.25545,(04)26583909,羅氏家用新冠病毒抗原自我檢測套組,78,2022/04/29 11:49:02,快篩代售星期一~五 下午2點發.星期六早上9點 星期休假
5903060092,佑全梧棲文化藥局,臺中市梧棲區文化路二段１５０號１樓,120.531,24.25526,(04)26566433,羅氏家用新冠病毒抗原自我檢測套組,78,2022/04/29 11:49:02,實名制快篩下午1：50發號碼牌；2點開始販售
5903070016,泉興中西大藥局,臺中市后里區甲后路一段５９８號,120.7171,24.30986,(04)25583883,羅氏家用新冠病毒抗原自我檢測套組,70,2022/04/29 11:49:02,無
5903070025,得安藥局,臺中市后里區四村路７８號,120.7129,24.30469,(04)25585333,羅氏家用新冠病毒抗原自我檢測套組,78,2022/04/29 11:49:02,快篩販賣時間 14:00~15:00（售完為止）
5903070098,祐恩藥局,臺中市后里區甲后路一段４７８號１樓,120.6819,24.3157,(04)25587518,羅氏家用新冠病毒抗原自我檢測套組,1,2022/04/29 11:49:02,固定周一到周六，國定例假日照常調劑藥服務。清明、端午、中秋節晚上休息。
5903070169,佑全后里甲后藥局,臺中市后里區甲后路一段７２８號１、２樓,120.7193,24.30951,(04)25583116,羅氏家用新冠病毒抗原自我檢測套組,78,2022/04/29 11:49:02,無
5903080138,佑全神岡中山藥局,臺中市神岡區中山路５４９、５４９之１、５４９之２號１樓,120.6842,24.24638,(04)25634677,羅氏家用新冠病毒抗原自我檢測套組,77,2022/04/29 11:49:02,無
5903090072,元康健保藥局,臺中市潭子區圓通南路１９６號１樓,120.7043,24.20725,(04)25353893,羅氏家用新冠病毒抗原自我檢測套組,78,2022/04/29 11:49:02,下午3點現場分號碼後  依序賣口罩
5903090429,佑全潭子中山藥局,臺中市潭子區中山路一段９之１號,120.7023,24.18847,(04)25356140,羅氏家用新冠病毒抗原自我檢測套組,78,2022/04/29 11:49:02,健保實聯制購買時間:14:00開始販售，13:50開始發號碼牌，售完為止。
5903100046,躍獅佑仁藥局,臺中市大雅區雅環路２段２８７號,120.6488,24.22919,(04)25608256,羅氏家用新冠病毒抗原自我檢測套組,53,2022/04/29 11:49:02,家用快篩販售-星期一~星期五 晚上7點（19:00）開始.時間更新異動請參閱粉專
5903100055,大詮藥師藥局,臺中市大雅區民生路３段４３２號,120.6655,24.23441,(04)25682767,羅氏家用新冠病毒抗原自我檢測套組,20,2022/04/29 11:49:02,營業時間；週一到週五11:30至22:00，週六晚上9點打烊，周日固定公休。
5903100135,大雅安德藥局,臺中市大雅區中清東路２２９號１樓,120.6469,24.22459,(04)25604133,羅氏家用新冠病毒抗原自我檢測套組,78,2022/04/29 11:49:02,實名制快篩試劑13:30現場領取號碼牌，14:00開始販賣
5903100180,杏一大雅中清藥局,臺中市大雅區中清路四段３１、３３、３５號１樓,120.6448,24.22615,(04)25601791,羅氏家用新冠病毒抗原自我檢測套組,78,2022/04/29 11:49:02,無
5903100206,民生藥局,臺中市大雅區民生路一段２２１號１樓,120.6512,24.22789,(04)25662229,羅氏家用新冠病毒抗原自我檢測套組,78,2022/04/29 11:49:02,快篩實名制，每天16:00開始販售，售完為止。
5903100215,佑全大雅雅環藥局,臺中市大雅區雅環路二段８８號１樓,120.653,24.22634,(04)25605942,羅氏家用新冠病毒抗原自我檢測套組,78,2022/04/29 11:49:02,無
5903150153,溪南藥局,臺中市烏日區溪南路一段５６５號１樓,120.6431,24.07523,(04)23353666,羅氏家用新冠病毒抗原自我檢測套組,78,2022/04/29 11:49:02,快篩實名制，每天16:00開始販售，售完為止。
5903150180,九德藥局,臺中市烏日區中山路一段４３８、４４０號１樓,120.6365,24.10748,(04)23385456,羅氏家用新冠病毒抗原自我檢測套組,78,2022/04/29 11:49:02,快篩實名制，每天16:00開始販售，售完為止。
5903160042,大肚新庄藥局,臺中市大肚區遊園路２段２２１－３號１樓,120.5808,24.17376,(04)26912119,羅氏家用新冠病毒抗原自我檢測套組,78,2022/04/29 11:49:02,每天下午3點開始排隊販賣，賣完為止
5903170048,龍井新庄藥局,臺中市龍井區遊園南路１７９號１樓,120.5843,24.18216,(04)26322169,羅氏家用新冠病毒抗原自我檢測套組,78,2022/04/29 11:49:02,實名制快篩每日下午3點半開賣
5903170119,開心果藥局,臺中市龍井區新興路１１２號１樓,120.5835,24.18225,(04)26315252,羅氏家用新冠病毒抗原自我檢測套組,1,2022/04/29 11:49:02,無
5903180062,霧峰安德藥局,臺中市霧峰區中正路１１３５號１樓,120.6992,24.07002,(04)23300365,羅氏家用新冠病毒抗原自我檢測套組,78,2022/04/29 11:49:02,快篩代售時間14:00。售完即提早結束。
5903180142,峰正藥局,臺中市霧峰區中正路８３０號１樓,120.6987,24.06244,(04)23303353,羅氏家用新冠病毒抗原自我檢測套組,78,2022/04/29 11:49:02,快篩實名制，每天16:00開始販售，售完為止。
5903190077,八醫健保藥局,臺中市太平區中山路２段３５７號,120.7297,24.15021,(04)23935050,羅氏家用新冠病毒抗原自我檢測套組,2,2022/04/29 11:49:02,公發篩檢試劑時間0830開始，售完為止（1人1次限購1份）
5903190148,亞洲藥師連鎖大藥局,臺中市太平區中山路２段４５８號,120.7253,24.14984,(04)23921681,羅氏家用新冠病毒抗原自我檢測套組,74,2022/04/29 11:49:02,無
5903190362,太平中山藥局,臺中市太平區中山路４段１１號,120.7139,24.14931,(04)23959200,羅氏家用新冠病毒抗原自我檢測套組,78,2022/04/29 11:49:02,快篩實名制，每天16:00開始販售，售完為止。
5903190497,太平惠民藥師藥局,臺中市太平區東平路３６８號１樓,120.7267,24.13433,(04)22768799,羅氏家用新冠病毒抗原自我檢測套組,78,2022/04/29 11:49:02,周一到周日
5903190522,聖康佳禾藥局,臺中市太平區光興路８３１號,120.7307,24.1121,(04)22772065,羅氏家用新冠病毒抗原自我檢測套組,13,2022/04/29 11:49:02,1~6早上11點30分 發放
5903190666,川越藥局,臺中市太平區新興二街１３６號１樓,120.7056,24.15992,(04)23935719,羅氏家用新冠病毒抗原自我檢測套組,2,2022/04/29 11:49:02,星期一到五  每日早上11點開始
5903190693,維肯藥局,臺中市太平區中興路７８－１號１樓,120.7163,24.12783,(04)23512198,羅氏家用新冠病毒抗原自我檢測套組,23,2022/04/29 11:49:02,無
5903190700,佑全太平藥局,臺中市太平區樹德路１２１號１樓,120.712,24.15444,(04)23910016,羅氏家用新冠病毒抗原自我檢測套組,78,2022/04/29 11:49:02,防疫快篩每天13:40發號碼牌，14:00開始販售
5903190719,勤益藥局,臺中市太平區中山路一段３２１號１樓,120.7343,24.14496,(04)23938969,羅氏家用新冠病毒抗原自我檢測套組,35,2022/04/29 11:49:02,無
5903190728,太平瑞昌藥局,臺中市太平區新興路２８號１樓,120.7124,24.15916,(04)23956319,羅氏家用新冠病毒抗原自我檢測套組,7,2022/04/29 11:49:02,無
5903200096,仁化藥局,臺中市大里區仁化路５４０號,120.7012,24.09623,(04)24915902,羅氏家用新冠病毒抗原自我檢測套組,78,2022/04/29 11:49:02,快篩試劑每日 18:00 發放  W6 休息
5903200229,信元藥局,臺中市大里區益民路２段３７２號１樓,120.684,24.11545,(04)24876051,羅氏家用新冠病毒抗原自我檢測套組,61,2022/04/29 11:49:02,下午5點發號碼牌並依序販賣
5903200443,佳霖藥局,臺中市大里區塗城路９６４號１樓,120.6933,24.09081,(04)24960895,羅氏家用新冠病毒抗原自我檢測套組,78,2022/04/29 11:49:02,健保卡快篩販售時間:請準備好健保卡和500元.下午3點半開賣**現場排隊／售完為止
5903200514,大明永欣藥局,臺中市大里區大明路５３９號１樓、５４１號１樓,120.6735,24.11478,(04)24068864,羅氏家用新冠病毒抗原自我檢測套組,78,2022/04/29 11:49:02,每天下午1點到晚上9點，星期日口罩不發放
5903200541,大里康媞藥局,臺中市大里區塗城路４９４號,120.7024,24.08867,(04)24966627,羅氏家用新冠病毒抗原自我檢測套組,78,2022/04/29 11:49:02,快篩下午兩點開始
5903200569,和信健康藥局,臺中市大里區德芳路一段５９號,120.6905,24.11342,(04)24833677,羅氏家用新冠病毒抗原自我檢測套組,5,2022/04/29 11:49:02,9am，沒發號碼牌，周日休
5903200596,大樹大里藥局,臺中市大里區中興路二段１０１號,120.6885,24.10305,(04)24861133,羅氏家用新冠病毒抗原自我檢測套組,78,2022/04/29 11:49:02,快篩實名制，每天16:00開始販售，售完為止。
5903200621,德芳東榮藥局,臺中市大里區東榮路８號,120.6893,24.1102,(04)24863898,羅氏家用新冠病毒抗原自我檢測套組,156,2022/04/29 11:49:02,營業時間供應，售完為止
5903200658,德芳成功藥局,臺中市大里區成功路５３５－３號１樓,120.7033,24.0913,(04)24920298,羅氏家用新冠病毒抗原自我檢測套組,155,2022/04/29 11:49:02,每日15:00現場排隊代售口罩
5903200667,永欣東榮藥局,臺中市大里區東榮路３７０號１樓,120.6836,24.11032,(04)24810599,羅氏家用新冠病毒抗原自我檢測套組,13,2022/04/29 11:49:02,無
5903200676,立人藥局,臺中市大里區益民路二段１９號１樓,120.6888,24.1063,(04)24831722,羅氏家用新冠病毒抗原自我檢測套組,1,2022/04/29 11:49:02,每天8:00開始販售實名制快篩
5903200685,塗城藥局,臺中市大里區中興路一段１８７、１８９、１９１號１樓,120.6933,24.09008,(04)24967234,羅氏家用新冠病毒抗原自我檢測套組,78,2022/04/29 11:49:02,快篩實名制，每天16:00開始販售，售完為止。
5903200701,大益藥局,臺中市大里區益民路二段３３５號１、２樓,120.6837,24.11311,(04)24811551,羅氏家用新冠病毒抗原自我檢測套組,78,2022/04/29 11:49:02,快篩實名制，每天16:00開始販售，售完為止。
5903200738,杏一大里國光藥局,臺中市大里區國光路二段４１１號１樓,120.6796,24.10921,(04)24071492,羅氏家用新冠病毒抗原自我檢測套組,78,2022/04/29 11:49:02,周一至周六16:00~19:00，周日及補假日人力不足不販售
5903200756,佑全大里大明藥局,臺中市大里區大明路３６０、３６２號,120.6787,24.11511,(04)24818633,羅氏家用新冠病毒抗原自我檢測套組,78,2022/04/29 11:49:02,無
5903220150,老順安大藥局,臺中市中區中華路二段６３號、６５號１樓,120.6794,24.14801,(04)22016306,羅氏家用新冠病毒抗原自我檢測套組,78,2022/04/29 11:49:02,無
5903220169,公園大藥局,臺中市中區公園路９５號１樓,120.6796,24.1462,(04)22062682,羅氏家用新冠病毒抗原自我檢測套組,7,2022/04/29 11:49:02,每日上午8點至下午11點59分
5903220178,佑全台中中華藥局,臺中市中區中華路一段１６２號１樓,120.6779,24.14605,(04)22291556,羅氏家用新冠病毒抗原自我檢測套組,76,2022/04/29 11:49:02,無
5903220196,日安藥局,臺中市中區臺灣大道一段３３０號１樓,120.6801,24.1422,(04)22234246,羅氏家用新冠病毒抗原自我檢測套組,156,2022/04/29 11:49:02,無
5903230218,十甲東亞藥師大藥局,臺中市東區十甲路４１０號１樓,120.7081,24.14425,(04)22118879,羅氏家用新冠病毒抗原自我檢測套組,69,2022/04/29 11:49:02,無
5903230236,佳境藥局,臺中市東區大智路１－１號１樓,120.6881,24.13635,(04)22211395,羅氏家用新冠病毒抗原自我檢測套組,63,2022/04/29 11:49:02,下午14:00開始販售實名制快篩
5903240143,利民藥局,臺中市西區四維街２３號１樓,120.6758,24.13714,(04)22292931,羅氏家用新冠病毒抗原自我檢測套組,78,2022/04/29 11:49:02,平日營業時間10-20，周六10-15，周日休。實名制快篩下午1點半開始販售至售完或營業結束。
5903240205,捷登藥局,臺中市西區公益路１０６號,120.6613,24.15105,(04)23191929,羅氏家用新冠病毒抗原自我檢測套組,78,2022/04/29 11:49:02,實名制快篩 每日下午 2:00 準時開賣，售完為止 .
5903240385,喆星藥局,臺中市西區精誠路４２２號,120.655,24.14522,(04)24715301,羅氏家用新冠病毒抗原自我檢測套組,69,2022/04/29 11:49:02,快篩試劑下午2點現場排隊領號碼牌，售完為止
5903240410,德芳美村藥局,臺中市西區美村路一段６８１、６８３號１樓,120.6618,24.13545,(04)23782848,羅氏家用新冠病毒抗原自我檢測套組,76,2022/04/29 11:49:02,下午3:00 開始販售口罩。
5903240447,大樹五權藥局,臺中市西區五權路９７－１號１樓,120.6717,24.14626,(04)22022910,羅氏家用新冠病毒抗原自我檢測套組,78,2022/04/29 11:49:02,快篩實名制，每天16:00開始販售，售完為止。
5903240456,杏一台中美村藥局,臺中市西區美村路一段２４２、２４６號１樓,120.6615,24.14825,(04)23013310,羅氏家用新冠病毒抗原自我檢測套組,2,2022/04/29 11:49:02,4月快篩販售時間:周一至周六早上10:00~晚上20:00（或售完為止）5／2起快篩販售時間為周一至周六11:00~19:00（或售完為止）
5903240474,佑全台中向上藥局,臺中市西區向上路一段３８６、３８８號１樓,120.6559,24.14688,(04)23204732,羅氏家用新冠病毒抗原自我檢測套組,78,2022/04/29 11:49:02,無
5903240483,名華藥局,臺中市西區中華路一段７號１樓,120.6732,24.14209,(04)22231187,羅氏家用新冠病毒抗原自我檢測套組,6,2022/04/29 11:49:02,無
5903240492,好好誠美藥局,臺中市西區向上北路１８６號１樓,120.6611,24.14797,(04)23022838,羅氏家用新冠病毒抗原自我檢測套組,9,2022/04/29 11:49:02,無
5903250041,小林健保藥局,臺中市南區美村路２段１８２號,120.6631,24.12549,(04)22622099,羅氏家用新冠病毒抗原自我檢測套組,13,2022/04/29 11:49:02,固定周一到周日，早上8:00發號碼牌，下午4:30開始販賣防疫口罩
5903250194,元氣家藥局,臺中市南區文心南路８８８－３號１樓,120.6594,24.11167,(04)22631660,羅氏家用新冠病毒抗原自我檢測套組,78,2022/04/29 11:49:02,無
5903250309,台杏藥局,臺中市南區復興路三段３３７號,120.678,24.13261,(04)22218087,羅氏家用新冠病毒抗原自我檢測套組,78,2022/04/29 11:49:02,周一到周五中午12點，周六早上11點，開始販售實名制快篩
5903250381,大樹美村藥局,臺中市南區美村南路１２４號,120.667,24.11499,(04)22621113,羅氏家用新冠病毒抗原自我檢測套組,78,2022/04/29 11:49:02,口罩販售時間：14:00 - 16:00
5903250443,千美台安藥局,臺中市南區美村南路２６３號,120.6666,24.11426,(04)22602101,羅氏家用新冠病毒抗原自我檢測套組,78,2022/04/29 11:49:02,周一到周日，下午3:00發放號碼牌，開始販售防疫口罩
5903250505,心安藥局,臺中市南區國光路２４１號１樓,120.6794,24.12676,(04)22858773,羅氏家用新冠病毒抗原自我檢測套組,73,2022/04/29 11:49:02,防疫快篩試劑15:00開賣，售完為止，庫存依現場為準
5903250550,旭康藥局,臺中市南區台中路３８０號１樓,120.6841,24.12652,(04)22857372,羅氏家用新冠病毒抗原自我檢測套組,78,2022/04/29 11:49:02,實名制快篩販售時間下午1:30~晚上11:00
5903250578,樂碩藥局,臺中市南區建國南路一段２５９號１樓,120.6583,24.12491,(04)22601288,羅氏家用新冠病毒抗原自我檢測套組,78,2022/04/29 11:49:02,防疫快篩試劑15:00開賣，售完為止，庫存依現場為主.
5903250603,尚尚藥局,臺中市南區美村南路１９７號１樓,120.6666,24.11516,(04)22606831,羅氏家用新冠病毒抗原自我檢測套組,59,2022/04/29 11:49:02,無
5903250658,田園藥局,臺中市南區學府路１６０號１樓,120.6742,24.12909,(04)22220605,羅氏家用新冠病毒抗原自我檢測套組,131,2022/04/29 11:49:02,周三公休。15:00開始販售，一人限一卡
5903260163,康甫藥師藥局,臺中市北區進化北路３６６號１樓,120.6806,24.16333,(04)22366682,羅氏家用新冠病毒抗原自我檢測套組,78,2022/04/29 11:49:02,有關口罩販售：周一至周六早上9:30發號碼牌，下午3:00過後發售口罩。周日休息。
5903260341,台中漢口藥局,臺中市北區漢口路３段１８３號,120.6711,24.16703,(04)22936166,羅氏家用新冠病毒抗原自我檢測套組,78,2022/04/29 11:49:02,實名制快篩販售時間：下午2點
5903260501,瑞鋒藥師藥局,臺中市北區育德路１６號,120.6795,24.15763,(04)22020786,羅氏家用新冠病毒抗原自我檢測套組,78,2022/04/29 11:49:02,依排班人力，周一至周六早上10點半或下午2點發號碼牌
5903260547,源順大藥局,臺中市北區健行路４８４號,120.6797,24.15931,(04)22072651,羅氏家用新冠病毒抗原自我檢測套組,1,2022/04/29 11:49:02,早上9:00~晚上10:00，固定周一至周六上午09:30開始販售口罩，售完為止.
5903260627,明曜藥局,臺中市北區北平路二段１９０號１樓,120.6784,24.17117,(04)22916775,羅氏家用新冠病毒抗原自我檢測套組,75,2022/04/29 11:49:02,快篩下午2點開始
5903260654,康新藥局,臺中市北區五權路２３２號,120.677,24.15078,(04)22020008,羅氏家用新冠病毒抗原自我檢測套組,14,2022/04/29 11:49:02,無
5903260663,佑全台中五權藥局,臺中市北區五權路４９６號,120.6833,24.15329,(04)22080702,羅氏家用新冠病毒抗原自我檢測套組,78,2022/04/29 11:49:02,無
5903260707,新藥林藥局,臺中市北區健行路４４５－５號１樓,120.6803,24.15896,(04)22053458,羅氏家用新冠病毒抗原自我檢測套組,78,2022/04/29 11:49:02,無
5903260743,黎明安德藥局,臺中市北區中清路１段８５２號１樓,120.6718,24.17295,(04)22956098,羅氏家用新冠病毒抗原自我檢測套組,78,2022/04/29 11:49:02,禮拜四公休、禮拜日下午2點開始營業，下午3點開始販賣快篩
5903260761,杏一北區忠明藥局,臺中市北區忠明路４４２號１樓,120.67,24.16267,(04)22081273,羅氏家用新冠病毒抗原自我檢測套組,70,2022/04/29 11:49:02,111／04／28實名制快篩每周一至周六12:00~18:00販售。每周日、國定假日因人力不足因素暫停販售。
5903260912,莒光藥局,臺中市北區錦南街１２號１樓,120.6886,24.15399,(04)22336663,羅氏家用新冠病毒抗原自我檢測套組,28,2022/04/29 11:49:02,實名制快篩上午9:30開賣50份 下午6:30開賣28份 如果人數排滿提早開賣
5903260967,正尚藥局,臺中市北區榮華街１６６號１樓,120.6868,24.16444,(04)22350347,羅氏家用新冠病毒抗原自我檢測套組,78,2022/04/29 11:49:02,實名制快篩18:00發放，周日09:00（若有剩餘）
5903260985,森川健保藥局,臺中市北區五權路２５１號１樓,120.6764,24.15074,(09)78157008,羅氏家用新冠病毒抗原自我檢測套組,12,2022/04/29 11:49:02,快篩試劑每日上午10點開賣，售完為止
5903261008,台中大樹藥局,臺中市北區漢口路三段２６１號,120.6726,24.16703,(04)22981113,羅氏家用新冠病毒抗原自我檢測套組,78,2022/04/29 11:49:02,快篩實名制，每天16:00開始販售，售完為止。
5903270301,宥承藥局,臺中市西屯區西屯路３段１４８－１６號,120.6242,24.18563,(04)24626559,羅氏家用新冠病毒抗原自我檢測套組,78,2022/04/29 11:49:02,星期一到星期六， 開始販售防疫口罩
5903270310,弘福藥師藥局,臺中市西屯區西屯路３段１６６－２１號１樓,120.6159,24.18918,(04)24611916,羅氏家用新冠病毒抗原自我檢測套組,78,2022/04/29 11:49:02,每日15:00發放號碼牌，發完即開始販售（全年無休）
5903270516,中科何藥局,臺中市西屯區福康路４０號,120.6173,24.18421,(04)24612570,羅氏家用新冠病毒抗原自我檢測套組,78,2022/04/29 11:49:02,防疫快篩每日15:00開始販售。（全年無休）
5903270614,至善德侑藥局,臺中市西屯區至善路６０號,120.6395,24.17141,(04)24518729,羅氏家用新冠病毒抗原自我檢測套組,78,2022/04/29 11:49:02,實名制快篩下午14:00開始發號碼牌.14:15開始販售
5903270721,舒健藥局,臺中市西屯區西屯路二段２５５號２樓,120.6459,24.17179,(04)27077858,羅氏家用新冠病毒抗原自我檢測套組,77,2022/04/29 11:49:02,公費快篩試劑於周一至周六晚上7點現場排隊購買。
5903270749,大墩藥局,臺中市西屯區大墩１９街６８號１樓,120.6518,24.15734,(04)23209602,羅氏家用新冠病毒抗原自我檢測套組,78,2022/04/29 11:49:02,每天下午三點開賣，請提早來排隊
5903270801,榮友藥局,臺中市西屯區臺灣大道四段１７４２號,120.6024,24.18286,(04)23508392,羅氏家用新冠病毒抗原自我檢測套組,78,2022/04/29 11:49:02,4／29販賣快篩試劑下午13:30開賣
5903270810,佑全福星藥局,臺中市西屯區黎明路三段３９５、３９７號,120.639,24.18251,(04)24527465,羅氏家用新冠病毒抗原自我檢測套組,78,2022/04/29 11:49:02,周一至週日下午2:00開始發放快篩實名制，售完為止
5903270865,尚禾藥局,臺中市西屯區青海路一段６５號,120.6548,24.16438,(04)23147688,羅氏家用新冠病毒抗原自我檢測套組,78,2022/04/29 11:49:02,無
5903270874,熊健康藥局,臺中市西屯區太原路一段２３２號,120.6632,24.16394,(04)23163505,羅氏家用新冠病毒抗原自我檢測套組,78,2022/04/29 11:49:02,快篩實名制販售時間: 14:30-15:30 ，星期日公休。
5903270883,祥和大藥局,臺中市西屯區青海路二段２４０－９號,120.6418,24.17323,(04)27000122,羅氏家用新冠病毒抗原自我檢測套組,77,2022/04/29 11:49:02,快篩販售時間：每日下午1點至夜間10點。
5903270918,全成西屯藥局,臺中市西屯區黎明路三段２２１、２２３號1樓,120.6373,24.17723,(04)24512290,羅氏家用新冠病毒抗原自我檢測套組,75,2022/04/29 11:49:02,星期一至星期六15點開始販售實名制快篩
5903270963,源興大藥局,臺中市西屯區西屯路二段１２號,120.6622,24.16387,(04)23143045,羅氏家用新冠病毒抗原自我檢測套組,78,2022/04/29 11:49:02,口罩販售時間：每日早上9點至售完為止。
5903271022,西屯藥局,臺中市西屯區西屯路三段１５０－４５號１樓,120.621,24.18716,(04)24621822,羅氏家用新冠病毒抗原自我檢測套組,78,2022/04/29 11:49:02,快篩實名制，每天16:00開始販售，售完為止。
5903271031,美十樂中科藥局,臺中市西屯區西屯路三段１６６－６５號１樓,120.6129,24.19035,(04)24610219,羅氏家用新冠病毒抗原自我檢測套組,156,2022/04/29 11:49:02,固定周一至周日10:00開始販售口罩
5903271059,安德藥局,臺中市西屯區福康路１７號１樓,120.6165,24.1833,(04)24638302,羅氏家用新冠病毒抗原自我檢測套組,78,2022/04/29 11:49:02,實名制快篩下午2:00開始販售（請排隊自備現金不找零）
5903271068,西墩藥局,臺中市西屯區黎明路三段２７５、２７７號１樓,120.6373,24.17812,(04)24510770,羅氏家用新冠病毒抗原自我檢測套組,78,2022/04/29 11:49:02,快篩實名制，每天16:00開始販售，售完為止。
5903271086,常春藤藥局,臺中市西屯區福康路８０號１樓,120.618,24.18603,(04)24619296,羅氏家用新冠病毒抗原自我檢測套組,78,2022/04/29 11:49:02,每日AM10:00 開始販賣防疫口罩
5903271102,杏東美藥局,臺中市西屯區智惠街１５６號１樓,120.6438,24.17032,(04)24523798,羅氏家用新冠病毒抗原自我檢測套組,78,2022/04/29 11:49:02,快篩實名制13:00發售 現場排隊 售完為止
5903271148,重慶美得康藥局,臺中市西屯區重慶路１３９號１樓,120.6563,24.16628,(04)23111789,羅氏家用新冠病毒抗原自我檢測套組,19,2022/04/29 11:49:02,無
5903271157,富康家健保藥局,臺中市西屯區漢成四街８號１樓,120.6652,24.17026,(04)23174741,羅氏家用新冠病毒抗原自我檢測套組,78,2022/04/29 11:49:02,無
5903271175,維康中榮藥局,臺中市西屯區東大路一段１３號１樓,120.6022,24.18315,(04)23593195,羅氏家用新冠病毒抗原自我檢測套組,11,2022/04/29 11:49:02,無
5903271193,何安藥局,臺中市西屯區西屯路二段１０１號Ｂ棟１樓,120.6531,24.16616,(04)23161110,羅氏家用新冠病毒抗原自我檢測套組,78,2022/04/29 11:49:02,快篩實名制，每天16:00開始販售，售完為止。
5903271200,甘肅台安藥局,臺中市西屯區甘肅路一段１號１樓,120.6602,24.16453,(04)23160761,羅氏家用新冠病毒抗原自我檢測套組,3,2022/04/29 11:49:02,無
5903271246,柏醫藥局,臺中市西屯區上安路５６號１樓,120.6412,24.17052,(04)24526391,羅氏家用新冠病毒抗原自我檢測套組,52,2022/04/29 11:49:02,公費快篩試劑10:00、15:00、19:00開放過卡領取
5903271291,西屯長安藥局,臺中市西屯區成都路３６８號１樓,120.6641,24.17322,(04)22981221,羅氏家用新冠病毒抗原自我檢測套組,78,2022/04/29 11:49:02,快篩實名制，每天16:00開始販售，售完為止。
5903280067,博川健保藥局,臺中市南屯區大墩５街２９８號１樓,120.6486,24.14257,(04)24732995,羅氏家用新冠病毒抗原自我檢測套組,78,2022/04/29 11:49:02,實名制快篩12:00開始販售
5903280101,成記大藥局,臺中市南屯區大墩１７街１２３號１樓,120.648,24.15557,(04)23288877,羅氏家用新冠病毒抗原自我檢測套組,78,2022/04/29 11:49:02,快篩實名制下午一點開始販售，現場排隊售完為止。（恕不找零）
5903280165,南屯福倫藥局,臺中市南屯區南屯路２段３１７號,120.6456,24.13754,(04)24758018,羅氏家用新冠病毒抗原自我檢測套組,78,2022/04/29 11:49:02,實名制快篩: 晚上6:00開始販售.售完為止
5903280325,亞洲連鎖大藥局,臺中市南屯區黎明路２段１３３、１３５號,120.6336,24.15977,(04)23812886,羅氏家用新冠病毒抗原自我檢測套組,69,2022/04/29 11:49:02,無
5903280334,長益藥局,臺中市南屯區忠勇路９９號,120.6155,24.14971,(04)23899383,羅氏家用新冠病毒抗原自我檢測套組,78,2022/04/29 11:49:02,週一至週六下午13點開始排隊並開始販售口罩
5903280521,百康健保藥局,臺中市南屯區黎明路二段３６３號,120.6353,24.15033,(04)22547776,羅氏家用新冠病毒抗原自我檢測套組,78,2022/04/29 11:49:02,營業每日上午8:30到晚上22:30!快篩發放下午三點開始
5903280567,康總藥局,臺中市南屯區南屯路二段１０１號１樓,120.6524,24.13579,(04)24735285,羅氏家用新冠病毒抗原自我檢測套組,4,2022/04/29 11:49:02,周一到周日每日上午9:30開始販賣，賣完為止（營業時間到晚上10:00）。
5903280576,佑全黎明藥局,臺中市南屯區黎明路２段２６６號,120.6359,24.14816,(04)23805560,羅氏家用新冠病毒抗原自我檢測套組,78,2022/04/29 11:49:02,口罩販賣時間:每天早上八點到晚上八點
5903280601,方昇藥局,臺中市南屯區大墩路８１３號１樓,120.6495,24.15515,(04)23288818,羅氏家用新冠病毒抗原自我檢測套組,9,2022/04/29 11:49:02,無
5903280656,熊大心藥局,臺中市南屯區河南路四段３７６號,120.6369,24.15208,(04)22516252,羅氏家用新冠病毒抗原自我檢測套組,78,2022/04/29 11:49:02,周一至周六，每天下午15:00-16:00販售實名制快篩
5903280745,亨宇藥局,臺中市南屯區東興路二段２９－２號１樓,120.6529,24.13688,(04)24711206,羅氏家用新冠病毒抗原自我檢測套組,64,2022/04/29 11:49:02,無
5903280781,美十樂藥局,臺中市南屯區東興路二段２７９號１樓,120.6528,24.1437,(04)24710219,羅氏家用新冠病毒抗原自我檢測套組,4,2022/04/29 11:49:02,政府快篩發放時間:09:00／13:00，星期日15:30
5903280807,大樹南屯藥局,臺中市南屯區向上路一段６４３號１樓,120.6486,24.14659,(04)24758887,羅氏家用新冠病毒抗原自我檢測套組,78,2022/04/29 11:49:02,快篩實名制，每天16:00開始販售，售完為止。
5903280816,大育藥局,臺中市南屯區東興路二段７１號１樓,120.6528,24.13835,(04)24755656,羅氏家用新冠病毒抗原自我檢測套組,78,2022/04/29 11:49:02,無
5903280889,精科藥局,臺中市南屯區嶺東路３２１號１樓,120.6106,24.14513,(04)23806288,羅氏家用新冠病毒抗原自我檢測套組,1,2022/04/29 11:49:02,快篩發放～早上9：30起  發完為止
5903280898,佑全台中忠勇藥局,臺中市南屯區忠勇路５１－８號１樓,120.614,24.14376,(04)23803282,羅氏家用新冠病毒抗原自我檢測套組,78,2022/04/29 11:49:02,無
5903280914,豐樹藥局,臺中市南屯區黎明路一段６３號１樓,120.6258,24.11362,(04)24792098,羅氏家用新冠病毒抗原自我檢測套組,35,2022/04/29 11:49:02,販售快篩時間 早上9:00～10：00   晚上8：00~9:00
5903290045,康美得藥局,臺中市北屯區昌平路１段１０５－８號,120.6903,24.17373,(04)22467128,羅氏家用新冠病毒抗原自我檢測套組,76,2022/04/29 11:49:02,下午2:30開始販售實名制快篩，W日公休
5903290385,元復藥局,臺中市北屯區東山路１段２２５－７號,120.7155,24.17475,(04)24362075,羅氏家用新冠病毒抗原自我檢測套組,1,2022/04/29 11:49:02,上午9:00開始，週日公休。
5903290518,佳美藥局,臺中市北屯區東山路１段２６５號１樓,120.7184,24.17583,(04)24363658,羅氏家用新冠病毒抗原自我檢測套組,57,2022/04/29 11:49:02,4／28.4／29 快篩下午4點開始販售
5903290607,敦化小林健保藥局,臺中市北屯區敦化路１段６６８號,120.6643,24.18593,(04)24261881,羅氏家用新冠病毒抗原自我檢測套組,2,2022/04/29 11:49:02,每日早上8:00領號碼牌，16:30再回藥局領口罩（全年無休）
5903290625,又昌中西健保藥局,臺中市北屯區東山路１段２２３號,120.7152,24.17452,(04)24375716,羅氏家用新冠病毒抗原自我檢測套組,78,2022/04/29 11:49:02,快篩實名制 周一~周五晚上18:30開賣
5903290661,康博中西健保藥局,臺中市北屯區后庄一街７號１樓,120.6644,24.1865,(04)24252468,羅氏家用新冠病毒抗原自我檢測套組,78,2022/04/29 11:49:02,快篩發放於下午01:00作業.週六.日及假日下午06:30開始
5903290689,大德安藥局,臺中市北屯區景賢路２３６號,120.7241,24.16701,(04)24378351,羅氏家用新冠病毒抗原自我檢測套組,78,2022/04/29 11:49:02,口罩代售時間從週一到週六09:00~現場排隊售完為止星期日早上10:00起至售完為止
5903290750,長幼藥局,臺中市北屯區崇德路二路二段１５７號１樓,120.6853,24.17329,(04)22426767,羅氏家用新冠病毒抗原自我檢測套組,4,2022/04/29 11:49:02,防疫口罩於每天早上9點整開賣，採現場排隊無號碼牌，賣完為止
5903290849,新盛藥局,臺中市北屯區松竹路二段１５７號１樓,120.6959,24.18312,(04)22467779,羅氏家用新冠病毒抗原自我檢測套組,76,2022/04/29 11:49:02,下午2:30至8:30賣快篩試劑週一至週六
5903290876,北屯軍功藥局,臺中市北屯區軍功路一段７５２號,120.7193,24.17513,(04)24375111,羅氏家用新冠病毒抗原自我檢測套組,78,2022/04/29 11:49:02,快篩實名制，每天16:00開始販售，售完為止。
5903290894,豐禾藥局,臺中市北屯區同榮路１６３號,120.6618,24.19589,(04)24260588,羅氏家用新冠病毒抗原自我檢測套組,78,2022/04/29 11:49:02,無
5903290929,微笑藥局,臺中市北屯區昌平路一段３１８號１樓,120.6907,24.17344,(04)22432699,羅氏家用新冠病毒抗原自我檢測套組,78,2022/04/29 11:49:02,無
5903290965,崇德藥局,臺中市北屯區崇德路二段３１號,120.685,24.16962,(04)22361331,羅氏家用新冠病毒抗原自我檢測套組,78,2022/04/29 11:49:02,快篩實名制，每天16:00開始販售，售完為止。
5903290974,興安永佳藥局,臺中市北屯區興安路一段３３３號１樓,120.6944,24.17431,(04)22437876,羅氏家用新冠病毒抗原自我檢測套組,28,2022/04/29 11:49:02,下午2點發號碼牌，直接販賣口罩
5903290983,祥和藥局,臺中市北屯區太原路三段１４７號１樓,120.6901,24.16507,(04)22369603,羅氏家用新冠病毒抗原自我檢測套組,72,2022/04/29 11:49:02,快篩販售4／30後：下午2點開始
5903291042,全成北屯藥局,臺中市北屯區北屯路４３９－１１號１樓,120.7004,24.17913,(04)22463518,羅氏家用新冠病毒抗原自我檢測套組,78,2022/04/29 11:49:02,快篩每日下午3:00開始販售
5903291060,大樹北屯藥局,臺中市北屯區松竹路二段４１１號１樓,120.6895,24.18192,(04)22422262,羅氏家用新冠病毒抗原自我檢測套組,78,2022/04/29 11:49:02,快篩實名制，每天16:00開始販售，售完為止。
5903291131,兩隻老虎藥局,臺中市北屯區崇德路２段１２號１樓,120.6855,24.16869,(04)22364635,羅氏家用新冠病毒抗原自我檢測套組,78,2022/04/29 11:49:02,早上九點到晚上十點
5903291140,興安藥局,臺中市北屯區興安路二段５２號１、２樓,120.6949,24.1762,(04)22460369,羅氏家用新冠病毒抗原自我檢測套組,78,2022/04/29 11:49:02,快篩實名制，每天16:00開始販售，售完為止。
5903291159,均福藥局,臺中市北屯區軍福十三路１００號１樓,120.7308,24.17096,(04)24391169,羅氏家用新冠病毒抗原自我檢測套組,77,2022/04/29 11:49:02,快篩實名制規則:晚上七點依現場排隊順序發號碼牌 （周日公休不販售）
5903291177,大連何藥局,臺中市北屯區山西路二段２７４號１樓,120.677,24.177,(04)22930895,羅氏家用新冠病毒抗原自我檢測套組,2,2022/04/29 11:49:02,防疫用快篩試劑早上9點開始販售，售完為止
5903291195,匯百鴻藥局,臺中市北屯區昌平東二路１５６號１樓,120.6877,24.18922,(04)24222288,羅氏家用新冠病毒抗原自我檢測套組,74,2022/04/29 11:49:02,無
5903291220,佑全台中四平藥局,臺中市北屯區四平路３６０號１樓,120.682,24.19324,(04)24212792,羅氏家用新冠病毒抗原自我檢測套組,78,2022/04/29 11:49:02,無
5903291257,新一代何藥局,臺中市北屯區環中東路二段２６６、２６８號１樓,120.7207,24.17576,(04)24364366,羅氏家用新冠病毒抗原自我檢測套組,4,2022/04/29 11:49:02,4／30（六） 5／1（日） 5／2（一） 無配送快篩
5903291266,佑全台中興安藥局,臺中市北屯區興安路一段２５３號,120.6941,24.17221,(04)22490355,羅氏家用新冠病毒抗原自我檢測套組,78,2022/04/29 11:49:02,無
5905010072,長壽藥局,臺南市新營區中山路２１９號,120.3146,23.30286,(06)6324001,羅氏家用新冠病毒抗原自我檢測套組,2,2022/04/29 11:49:02,口罩販售時間：8:00~售完
5905010250,大樹新營藥局,臺南市新營區民權路７４、７６、７８號１樓,120.3127,23.30615,(06)6328300,羅氏家用新冠病毒抗原自我檢測套組,78,2022/04/29 11:49:02,無
5905010330,新進啄木鳥藥局,臺南市新營區新進路２段２５４號１樓,120.3056,23.30074,(06)6565303,羅氏家用新冠病毒抗原自我檢測套組,78,2022/04/29 11:49:02,無
5905020023,大樹鹽水藥局,臺南市鹽水區朝琴路１２６－３號１樓,120.271,23.32228,(06)6520432,羅氏家用新冠病毒抗原自我檢測套組,78,2022/04/29 11:49:02,快篩實名制，每天16:00開始販售，售完為止。
5905030092,大樹白河藥局,臺南市白河區中山路１５３號１樓,120.417,23.35255,(06)6830006,羅氏家用新冠病毒抗原自我檢測套組,78,2022/04/29 11:49:02,無
5905040141,大樹麻豆藥局,臺南市麻豆區中山路４８、５０號１樓,120.2469,23.18382,(06)5716556,羅氏家用新冠病毒抗原自我檢測套組,78,2022/04/29 11:49:02,快篩實名制，每天16:00開始販售，售完為止。
5905050165,德昌藥局佳里店,臺南市佳里區光復路２３３號,120.1746,23.16095,(06)7232388,羅氏家用新冠病毒抗原自我檢測套組,70,2022/04/29 11:49:02,固定周一至周六09:00開始販售口罩，售完為止
5905050209,大樹佳里藥局,臺南市佳里區延平路２３７號１樓,120.1783,23.1599,(06)7231323,羅氏家用新冠病毒抗原自我檢測套組,78,2022/04/29 11:49:02,快篩實名制，每天16:00開始販售，售完為止。
5905060125,美麗安藥局,臺南市新化區護國里中山路１５０－１號１樓,120.3102,23.03714,(06)5909509,羅氏家用新冠病毒抗原自我檢測套組,38,2022/04/29 11:49:02,固定周一至周六早上8點發放號碼牌，並依序販賣口罩
5905060161,和德藥局新化店,臺南市新化區清水里中山路４２０號１樓,120.3047,23.0359,(06)5802518,羅氏家用新冠病毒抗原自我檢測套組,78,2022/04/29 11:49:02,快篩販售時間:星期一~星期六 下午3點~售完
5905060198,大樹新化藥局,臺南市新化區中正路５３１號１樓,120.3072,23.03764,(06)5901331,羅氏家用新冠病毒抗原自我檢測套組,78,2022/04/29 11:49:02,快篩實名制，每天16:00開始販售，售完為止。
5905070050,晶德昌藥局,臺南市善化區文光里中山路８５號,120.3034,23.13298,(06)5856141,羅氏家用新冠病毒抗原自我檢測套組,78,2022/04/29 11:49:02,14:30-16:00.依號碼牌售完為止
5905070112,健登藥局,臺南市善化區大成路２１２號１樓,120.3004,23.13021,(06)5831133,羅氏家用新冠病毒抗原自我檢測套組,78,2022/04/29 11:49:02,快篩實名制販售 : 週一~六 下午兩點開始 週日不販售
5905070121,大樹善化藥局,臺南市善化區民權路５４、５６、５８號１樓,120.3034,23.1322,(06)5830550,羅氏家用新冠病毒抗原自我檢測套組,78,2022/04/29 11:49:02,快篩實名制，每天16:00開始販售，售完為止。
5905070158,南科健登藥局,臺南市善化區龍目井路４１３號１樓,120.3058,23.10922,(06)5836266,羅氏家用新冠病毒抗原自我檢測套組,78,2022/04/29 11:49:02,快篩實名制販售 : 週一~六 下午兩點開始 週日不販售
5905080056,大樹學甲藥局,臺南市學甲區中正路１３５號１樓,120.1793,23.23029,(06)7820001,羅氏家用新冠病毒抗原自我檢測套組,78,2022/04/29 11:49:02,快篩實名制，每天16:00開始販售，售完為止。
5905080065,生祥大藥局學甲店,臺南市學甲區仁得里華宗路３６９號１樓,120.1821,23.23223,(06)7838462,羅氏家用新冠病毒抗原自我檢測套組,78,2022/04/29 11:49:02,快篩:早上8:00發號碼牌，13:00~19:00購買（週六14:00~17:00購買）
5905100035,華恩藥局,臺南市後壁區菁寮里５１號１樓,120.3356,23.37883,(06)6623491,羅氏家用新冠病毒抗原自我檢測套組,156,2022/04/29 11:49:02,星期一到六上午8:00-12:00，下午2:30-7:30，星期日8:00-12:00；口罩發售時間自08:30-11:30，下午2:30-07:00
5905100062,美尚藥局後壁店,臺南市後壁區後壁里１６８－８號,120.364,23.36509,(06)6871138,羅氏家用新冠病毒抗原自我檢測套組,24,2022/04/29 11:49:02,星期天早上視狀況營
5905140039,安安藥局隆田店,臺南市官田區中山路一段１５號１樓,120.3186,23.1927,(06)5795705,羅氏家用新冠病毒抗原自我檢測套組,1,2022/04/29 11:49:02,全日口罩販賣
5905200030,新和德健保藥局,臺南市新市區中正路３１９－１號,120.2939,23.07958,(06)5997603,羅氏家用新冠病毒抗原自我檢測套組,78,2022/04/29 11:49:02,政府防疫口罩發放時間-下午2點至8點，售完為止
5905200058,欣和德藥局,臺南市新市區中正路２００號,120.2916,23.07516,(06)5895658,羅氏家用新冠病毒抗原自我檢測套組,78,2022/04/29 11:49:02,政府防疫口罩發放時間:下午2點至8點。售完為止
5905200085,大樹新市藥局,臺南市新市區中正路４９、５１號１樓,120.2916,23.07223,(06)5892552,羅氏家用新冠病毒抗原自我檢測套組,72,2022/04/29 11:49:02,快篩實名制，每天16:00開始販售，售完為止。
5905210027,愛心藥師藥局,臺南市安定區港南里港口１４７號,120.233,23.09041,(06)5935104,羅氏家用新冠病毒抗原自我檢測套組,12,2022/04/29 11:49:02,春節營業時間請電洽或依現場公告
5905270176,大樹仁德藥局,臺南市仁德區中正路二段１１５２號１樓,120.2519,22.97062,(06)2797466,羅氏家用新冠病毒抗原自我檢測套組,78,2022/04/29 11:49:02,快篩實名制，每天16:00開始販售，售完為止。
5905280109,大樹青青藥局,臺南市歸仁區中山路三段１２號,120.2875,22.96765,(06)2300301,羅氏家用新冠病毒抗原自我檢測套組,78,2022/04/29 11:49:02,快篩實名制，每天16:00開始販售，售完為止。
5905290034,大樹關廟藥局,臺南市關廟區中央路２６３號１樓,120.3272,22.96109,(06)5965889,羅氏家用新冠病毒抗原自我檢測套組,78,2022/04/29 11:49:02,快篩實名制，每天16:00開始販售，售完為止。
5905310184,鹽行健保藥局,臺南市永康區中正南路８６１號,120.2369,23.04132,(06)2435112,羅氏家用新冠病毒抗原自我檢測套組,2,2022/04/29 11:49:02,無
5905310264,仁安藥師藥局,臺南市永康區崑山里大仁街６１號,120.2566,23.00183,(06)2056055,羅氏家用新冠病毒抗原自我檢測套組,50,2022/04/29 11:49:02,口罩販售：星期一~星期日8:30開始販售
5905310344,昱賢藥師藥局中正店,臺南市永康區中正路１４１、１４３號１樓,120.2375,23.04097,(06)2021535,羅氏家用新冠病毒抗原自我檢測套組,78,2022/04/29 11:49:02,無
5905310755,德昌藥局永康店,臺南市永康區中華路４６２號,120.2327,23.01082,(06)3020628,羅氏家用新冠病毒抗原自我檢測套組,78,2022/04/29 11:49:02,快篩販售時間：星期一~星期日14:30~16:00
5905310817,永大啄木鳥藥局,臺南市永康區永大路二段３９７號１樓,120.2632,23.01227,(06)2071575,羅氏家用新冠病毒抗原自我檢測套組,3,2022/04/29 11:49:02,快篩販售時間；星期一~星期日10:30~售完
5905311001,和德藥局復國店,臺南市永康區復國里復國一路３３９之７號１樓,120.2464,23.01155,(06)2038728,羅氏家用新冠病毒抗原自我檢測套組,78,2022/04/29 11:49:02,每日／星期日 下午3:00-5:00購買快篩  限一人2張卡
5905311010,樂丞藥局,臺南市永康區中正北路６０號１樓,120.2406,23.04138,(06)2433319,羅氏家用新冠病毒抗原自我檢測套組,78,2022/04/29 11:49:02,口罩販售時間：星期一~星期日 10:00-售完
5905311074,中華長億藥局,臺南市永康區中華路７３４、７３６號１樓,120.2288,23.0167,(06)3022322,羅氏家用新冠病毒抗原自我檢測套組,78,2022/04/29 11:49:02,快篩實名制，每天16:00開始販售，售完為止。
5905311083,心康藥局,臺南市永康區永大路二段１７９號１樓,120.2616,23.00665,(06)2055075,羅氏家用新冠病毒抗原自我檢測套組,78,2022/04/29 11:49:02,實名制快篩販售時間:下午1點至3點，售完為止（周日不販售）  憑健保卡，每人限購一份
5905311172,美日新藥局,臺南市永康區塩行里中正北路６２號１樓,120.2406,23.04138,(06)2420980,羅氏家用新冠病毒抗原自我檢測套組,78,2022/04/29 11:49:02,快篩販售資訊:下午一點開始販售
5905311190,和德藥局大灣店,臺南市永康區崑山里永大路二段９號１樓,120.2595,23.00127,(06)2735049,羅氏家用新冠病毒抗原自我檢測套組,78,2022/04/29 11:49:02,無
5905320331,高福藥局,臺南市東區大智里德東街１６８號,120.2322,22.96171,(06)2904668,羅氏家用新冠病毒抗原自我檢測套組,1,2022/04/29 11:49:02,無
5905320466,佑全中華藥局,臺南市東區中華東路三段２１５號,120.2253,22.97603,(06)2906386,羅氏家用新冠病毒抗原自我檢測套組,78,2022/04/29 11:49:02,星期一-六08:00-21:00
5905320564,杏一台南崇德藥局,臺南市東區崇德路６７４號,120.2274,22.96762,(06)2671939,羅氏家用新冠病毒抗原自我檢測套組,74,2022/04/29 11:49:02,防疫口罩發送時間:周一至周日:下午:15:00
5905320608,中華台安藥局,臺南市東區中華東路一段４號１樓,120.2344,22.99818,(06)2092622,羅氏家用新冠病毒抗原自我檢測套組,74,2022/04/29 11:49:02,固定週一至周日13點-20點販售口罩，售完為止，現場為主
5905320635,晉大藥局,臺南市東區東光里東興路２６４號１樓,120.2298,22.99522,(06)2092580,羅氏家用新冠病毒抗原自我檢測套組,78,2022/04/29 11:49:02,無
5905320653,東門台安藥局,臺南市東區中華東路三段２號１樓,120.2291,22.98105,(06)2904377,羅氏家用新冠病毒抗原自我檢測套組,1,2022/04/29 11:49:02,國定假日不開放領口罩
5905320662,台南鼎澄藥局,臺南市東區崇明路二十街１３號１樓,120.2261,22.96735,(06)2908855,羅氏家用新冠病毒抗原自我檢測套組,71,2022/04/29 11:49:02,過年期間營業時間
5905320797,大樹自由藥局,臺南市東區自由路三段３８２號１樓,120.2373,22.98241,(06)2890800,羅氏家用新冠病毒抗原自我檢測套組,78,2022/04/29 11:49:02,L223902518
5905320804,大樹大同藥局,臺南市東區大同路二段２２７、２２９號１樓,120.2143,22.97567,(06)2158700,羅氏家用新冠病毒抗原自我檢測套組,78,2022/04/29 11:49:02,快篩實名制，每天16:00開始販售，售完為止。
5905320868,大樹東寧藥局,臺南市東區東寧路４３６號１樓,120.2291,22.9895,(06)2360006,羅氏家用新冠病毒抗原自我檢測套組,78,2022/04/29 11:49:02,快篩實名制，每天16:00開始販售，售完為止。
5905320886,中華崇德藥局,臺南市東區中華東路三段１８１、１８３號１樓,120.2259,22.97667,(06)2880800,羅氏家用新冠病毒抗原自我檢測套組,78,2022/04/29 11:49:02,快篩實名制，每天16:00開始販售，售完為止。
5905320911,大樹崇道藥局,臺南市東區崇道路６３號１樓,120.2272,22.97227,(06)2680456,羅氏家用新冠病毒抗原自我檢測套組,78,2022/04/29 11:49:02,快篩實名制，每天16:00開始販售，售完為止。
5905320948,崇明台安藥局,臺南市東區崇明路３０４號１樓,120.2198,22.97762,(06)2900350,羅氏家用新冠病毒抗原自我檢測套組,35,2022/04/29 11:49:02,無
5905320975,萬錠藥局,臺南市東區崇成里崇德路６１９號１樓,120.2277,22.97181,(06)2679299,羅氏家用新冠病毒抗原自我檢測套組,78,2022/04/29 11:49:02,無
5905330159,勝一藥局,臺南市南區省躬里灣裡路９０號１樓,120.1807,22.93114,(06)2626168,羅氏家用新冠病毒抗原自我檢測套組,78,2022/04/29 11:49:02,快篩實名制時間:下午2點~下午4點
5905330220,合樂藥局,臺南市南區灣裡路３０９號,120.1824,22.92566,(06)2625016,羅氏家用新冠病毒抗原自我檢測套組,78,2022/04/29 11:49:02,快篩週一~六中午12點開賣，週日暫停
5905330284,大樹佳華藥局,臺南市南區金華路二段１２９號１樓,120.1911,22.98035,(06)2641238,羅氏家用新冠病毒抗原自我檢測套組,78,2022/04/29 11:49:02,快篩實名制，每天16:00開始販售，售完為止。
5905330337,千薏台安藥局,臺南市南區金華路二段２號１樓,120.1912,22.97556,(06)2638265,羅氏家用新冠病毒抗原自我檢測套組,70,2022/04/29 11:49:02,防疫口罩每天下午三點開始發號碼牌銷售
5905340164,田邊藥局,臺南市中西區中正路２３６號,120.1969,22.99326,(06)2200106,羅氏家用新冠病毒抗原自我檢測套組,25,2022/04/29 11:49:02,口罩下午1:00販售售完為止.請自備零錢，
5905340173,賜安大藥局,臺南市中西區光賢里武聖路９號,120.1932,23.00517,(06)3589600,羅氏家用新冠病毒抗原自我檢測套組,78,2022/04/29 11:49:02,快篩 代售時段 星期一-六 下午2點~6點
5905340235,人人藥局,臺南市中西區和緯路５段１９７號１樓,120.1845,23.00393,(06)3583668,羅氏家用新冠病毒抗原自我檢測套組,78,2022/04/29 11:49:02,口罩星期一至五／下午五點至晚上8點
5905350035,海安藥師藥局,臺南市北區北成路４１８號１樓,120.202,23.01928,(06)2814600,羅氏家用新冠病毒抗原自我檢測套組,51,2022/04/29 11:49:02,快篩販售時間.週一至週五中午12點
5905350133,大昌藥局,臺南市北區北安路１段１３２號１樓,120.2127,23.01481,(06)2519121,羅氏家用新冠病毒抗原自我檢測套組,78,2022/04/29 11:49:02,無
5905350231,祥好藥局,臺南市北區正風里公園路８７６號１樓,120.2128,23.01412,(06)2510366,羅氏家用新冠病毒抗原自我檢測套組,64,2022/04/29 11:49:02,營業日的下午1點發售口罩
5905350240,健康藥局,臺南市北區長榮路５段２１號,120.2206,23.00827,(06)2003078,羅氏家用新冠病毒抗原自我檢測套組,18,2022/04/29 11:49:02,星期一-六14:00憑號碼牌取回（08:40-11:00領號碼牌）
5905350259,樂森藥局,臺南市北區和緯路二段３３６號１樓,120.2048,23.01259,(06)2511338,羅氏家用新冠病毒抗原自我檢測套組,78,2022/04/29 11:49:02,快篩領取時間為下午兩點
5905350311,美康藥局,臺南市北區公園路３７５－５號,120.2102,23.00597,(06)2810311,羅氏家用新冠病毒抗原自我檢測套組,12,2022/04/29 11:49:02,快篩實名制販賣時間上午9:00~11:00
5905350366,千多藥局,臺南市北區金華路五段１號,120.1962,23.0016,(06)2228641,羅氏家用新冠病毒抗原自我檢測套組,78,2022/04/29 11:49:02,晚上6點開始銷售實名制快篩試劑，賣完為止
5905350428,大正藥局,臺南市北區公園南路３２４號１樓,120.2033,23.00268,(06)2226899,羅氏家用新冠病毒抗原自我檢測套組,78,2022/04/29 11:49:02,快篩試劑下午13:30發放~售完
5905350535,開元台安藥局,臺南市北區開元路２８８號１樓,120.2226,23.00852,(06)2818061,羅氏家用新冠病毒抗原自我檢測套組,80,2022/04/29 11:49:02,下午3點到3點30販售政府快篩
5905370073,宜康藥局同安店,臺南市安南區同安路２３５號１樓,120.1921,23.0425,(06)2470720,羅氏家用新冠病毒抗原自我檢測套組,36,2022/04/29 11:49:02,星期一~星期日08:10~23:00
5905370224,上振藥局,臺南市安南區安中路三段４３號１樓,120.1828,23.04721,(06)2551061,羅氏家用新冠病毒抗原自我檢測套組,78,2022/04/29 11:49:02,星期一~星期六 14:00~售完
5905370304,大樹安南藥局,臺南市安南區安和路四段５５７號１樓,120.2185,23.06181,(06)3563370,羅氏家用新冠病毒抗原自我檢測套組,78,2022/04/29 11:49:02,口罩販賣時段：14:00 - 16:00
5905370466,大樹北安藥局,臺南市安南區北安路三段１５８號１樓,120.2036,23.04256,(06)2553633,羅氏家用新冠病毒抗原自我檢測套組,78,2022/04/29 11:49:02,快篩實名制，每天16:00開始販售，售完為止。
5905380293,人仁藥局,臺南市安平區怡平里慶平路２８１號１樓,120.1763,22.99668,(06)2998667,羅氏家用新冠病毒抗原自我檢測套組,78,2022/04/29 11:49:02,快篩每日下午2點開賣
5907010141,維安社區藥局,高雄市鳳山區國富路２５-１號,120.3497,22.61517,(07)7630980,羅氏家用新冠病毒抗原自我檢測套組,78,2022/04/29 11:49:02,代售口罩及快篩試劑開始時間為下午2點.現場排隊，售完為止
5907010150,育英藥局文德店,高雄市鳳山區文德路２９號,120.3527,22.63836,(07)7777059,羅氏家用新冠病毒抗原自我檢測套組,78,2022/04/29 11:49:02,營業時間上午12:00~下午10:00藥局發口罩時間為下午:12:00售完為止
5907010203,新富丁丁藥局,高雄市鳳山區新富路９５號,120.3361,22.6127,(07)7156198,羅氏家用新冠病毒抗原自我檢測套組,4,2022/04/29 11:49:02,自2020／12／31日，營業日09:00開始，販賣口罩時間上午09:00，售完為止
5907010267,禾康藥局,高雄市鳳山區瑞竹路１６號１樓,120.3662,22.62462,(07)7997139,羅氏家用新冠病毒抗原自我檢測套組,1,2022/04/29 11:49:02,營業時間AM9-12，PM3-10，星期日公休
5907010301,高大藥局,高雄市鳳山區南華路１８２號,120.3381,22.60295,(07)7718671,羅氏家用新冠病毒抗原自我檢測套組,94,2022/04/29 11:49:02,無
5907010365,科健藥局,高雄市鳳山區八德路２４６－５號１樓,120.3568,22.63853,(07)7777868,羅氏家用新冠病毒抗原自我檢測套組,78,2022/04/29 11:49:02,早上營業即可換購
5907010427,好郝藥局鳳林店,高雄市鳳山區誠智里鳳林路２９０號,120.3779,22.62216,(07)7869188,羅氏家用新冠病毒抗原自我檢測套組,78,2022/04/29 11:49:02,周一到周六上午九點至晚上十點，售完為止，星期日停售
5907010525,長青連鎖藥局光遠店,高雄市鳳山區光遠路２７１號１樓,120.3588,22.62596,(07)7103487,羅氏家用新冠病毒抗原自我檢測套組,78,2022/04/29 11:49:02,每日09:00開始販售口罩，販售時間至22：00。
5907010927,元元鳳山藥局,高雄市鳳山區一甲里五甲二路３４８之１號１樓,120.3377,22.59955,(07)7529595,羅氏家用新冠病毒抗原自我檢測套組,78,2022/04/29 11:49:02,15:00開始發快篩，一至五最晚銷售時間至晚上六點。星期六銷售至下午五點。星期日公休
5907010945,光田藥局,高雄市鳳山區鎮東里光遠路９５號１樓,120.3656,22.62412,(07)7460773,羅氏家用新冠病毒抗原自我檢測套組,78,2022/04/29 11:49:02,國定假日及周日固定店休
5907011068,新高橋藥局文龍東店,高雄市鳳山區鎮北里文龍東路３１０號,120.3666,22.64074,(07)7353946,羅氏家用新冠病毒抗原自我檢測套組,5,2022/04/29 11:49:02,自2／11日~2／29日，早上10:00開始販售口罩，售完為止。
5907011086,閤康藥局,高雄市鳳山區忠義里中山西路３７６－７號１樓,120.3412,22.62897,(07)7197787,羅氏家用新冠病毒抗原自我檢測套組,24,2022/04/29 11:49:02,無
5907011095,鳳山五甲藥局,高雄市鳳山區正義里五甲二路１３９號１樓,120.3409,22.6014,(07)7269899,羅氏家用新冠病毒抗原自我檢測套組,78,2022/04/29 11:49:02,快篩實名制，每天16:00開始販售，售完為止。
5907011148,大樹國泰藥局,高雄市鳳山區興仁里五甲一路２９２號,120.3539,22.61698,(07)7407234,羅氏家用新冠病毒抗原自我檢測套組,78,2022/04/29 11:49:02,快篩實名制，每天16:00開始販售，售完為止。
5907011175,鳳西藥局,高雄市鳳山區忠義里中山西路２３８號１樓,120.3471,22.62831,(07)7902717,羅氏家用新冠病毒抗原自我檢測套組,78,2022/04/29 11:49:02,快篩實名制，每天16:00開始販售，售完為止。
5907011228,鳳山青年藥局,高雄市鳳山區文德里青年路二段３９９號１樓,120.3513,22.64292,(07)7678383,羅氏家用新冠病毒抗原自我檢測套組,78,2022/04/29 11:49:02,口罩販售時間：14:00 - 16:00
5907011264,新高橋藥局青年店,高雄市鳳山區文衡里青年路二段２８９號１樓,120.3508,22.63964,(07)7676179,羅氏家用新冠病毒抗原自我檢測套組,11,2022/04/29 11:49:02,下午2:30開始販售口罩
5907011317,凱旋藥局,高雄市鳳山區國隆里新富路３７３號１樓,120.3475,22.61494,(07)7671181,羅氏家用新冠病毒抗原自我檢測套組,78,2022/04/29 11:49:02,快篩實名制，每天16:00開始販售，售完為止。
5907011362,佑全鳳山藥局,高雄市鳳山區文德里青年路二段４６３號１－２樓,120.3498,22.64513,(07)7801568,羅氏家用新冠病毒抗原自我檢測套組,78,2022/04/29 11:49:02,無
5907011371,大樹五甲藥局,高雄市鳳山區福祥里五甲三路２４號１－２樓．２６號１－２樓,120.3278,22.59317,(07)8224926,羅氏家用新冠病毒抗原自我檢測套組,78,2022/04/29 11:49:02,快篩實名制，每天16:00開始販售，售完為止。
5907011406,長青連鎖藥局大士店,高雄市鳳山區五甲一路１３９號１樓,120.3562,22.61968,(07)7104618,羅氏家用新冠病毒抗原自我檢測套組,78,2022/04/29 11:49:02,無
5907020030,鑫德昌藥局,高雄市岡山區溪東路３８號１樓,120.2915,22.79249,(07)6233338,羅氏家用新冠病毒抗原自我檢測套組,78,2022/04/29 11:49:02,實名制快篩 販售時間 14:30-16:00
5907020085,大德藥局,高雄市岡山區大德一路９８號,120.3025,22.79689,(07)6221456,羅氏家用新冠病毒抗原自我檢測套組,78,2022/04/29 11:49:02,快篩實名制，每天16:00開始販售，售完為止。
5907020094,大樹岡山藥局,高雄市岡山區岡山路１３６號,120.2967,22.78913,(07)6219477,羅氏家用新冠病毒抗原自我檢測套組,78,2022/04/29 11:49:02,快篩實名制，每天16:00開始販售，售完為止。
5907030072,旗美藥局,高雄市旗山區東平里延平二路４１號,120.4933,22.882,(07)6629839,羅氏家用新冠病毒抗原自我檢測套組,78,2022/04/29 11:49:02,實名制快篩劑購買時間為下午14:00~20:00
5907030152,旗山藥局,高雄市旗山區中華路２３號,120.4841,22.88027,(07)6621158,羅氏家用新冠病毒抗原自我檢測套組,75,2022/04/29 11:49:02,快篩實名制，每天16:00開始販售，售完為止。
5907040023,大佳藥局,高雄市美濃區獅山里中華路５９－７號,120.5704,22.87774,(07)6852988,羅氏家用新冠病毒抗原自我檢測套組,11,2022/04/29 11:49:02,營業日 08:30 - 20:30 為口罩及快篩試劑販售時間。
5907050010,新朋友藥師連鎖藥局,高雄市林園區東林東路４４號,120.3971,22.50389,(07)6460588,羅氏家用新冠病毒抗原自我檢測套組,78,2022/04/29 11:49:02,自2／11日~2／29日，營業日19:30~21:30為販賣口罩時間，售完為止
5907050029,林園健人藥師藥局,高雄市林園區林園北路３７２號,120.3951,22.5126,(07)6421598,羅氏家用新冠病毒抗原自我檢測套組,77,2022/04/29 11:49:02,營業日14:00~17:00為販賣口罩時間，售完為止
5907050109,林園藥局,高雄市林園區仁愛路１３號１樓,120.3928,22.50418,(07)6425855,羅氏家用新冠病毒抗原自我檢測套組,78,2022/04/29 11:49:02,快篩實名制，每天16:00開始販售，售完為止。
5907060221,淑德健保藥局,高雄市大寮區內坑里淑德新村１號３樓,120.3707,22.58833,(07)7923556,羅氏家用新冠病毒抗原自我檢測套組,61,2022/04/29 11:49:02,無
5907060230,華思中西藥局,高雄市大寮區永芳里進學路１２２號１樓,120.3933,22.60468,(07)7835567,羅氏家用新冠病毒抗原自我檢測套組,78,2022/04/29 11:49:02,星期一~星期六 下午四點販售實名制快篩  星期天店休
5907070012,舒康藥師藥局,高雄市大樹區久堂路１２９號,120.4167,22.65781,(07)6520268,羅氏家用新冠病毒抗原自我檢測套組,78,2022/04/29 11:49:02,14:00~18:00若提前售完，銷售時間提前結束。
5907070030,久堂藥局,高雄市大樹區久堂里久堂路１３６號１樓,120.4178,22.65813,(07)6512800,羅氏家用新冠病毒抗原自我檢測套組,79,2022/04/29 11:49:02,快篩實名制，每天16:00開始販售，售完為止。
5907080189,德昌藥局仁雄店,高雄市仁武區灣內里仁雄路３８、３８－１、３８－２號,120.3506,22.68074,(07)3749166,羅氏家用新冠病毒抗原自我檢測套組,78,2022/04/29 11:49:02,固定週一至週日14:30~16:00開始發放號碼牌並依序販售快篩.售完為止
5907080232,大樹仁武藥局,高雄市仁武區赤山里仁雄路８０－９號,120.3469,22.67811,(07)3744777,羅氏家用新冠病毒抗原自我檢測套組,78,2022/04/29 11:49:02,快篩實名制，每天16:00開始販售，售完為止。
5907080269,興德昌藥局,高雄市仁武區文武里中華路２３２號,120.3516,22.69985,(07)3757005,羅氏家用新冠病毒抗原自我檢測套組,72,2022/04/29 11:49:02,實名制快篩販售時間14:30-16:00
5907080303,群邦藥局,高雄市仁武區八德東路１８０號１樓,120.3422,22.68538,(07)3745985,羅氏家用新冠病毒抗原自我檢測套組,74,2022/04/29 11:49:02,無
5907080330,文武藥局,高雄市仁武區文武里中華路３５３號,120.3535,22.7011,(07)3733551,羅氏家用新冠病毒抗原自我檢測套組,78,2022/04/29 11:49:02,快篩實名制，每天16:00開始販售，售完為止。
5907090087,安泰專業藥師藥局,高雄市大社區中山路２６７號１樓,120.3492,22.73194,(07)3553715,羅氏家用新冠病毒抗原自我檢測套組,78,2022/04/29 11:49:02,換口罩請自備零錢
5907090167,大樹大社藥局,高雄市大社區中山路３０８號１樓,120.3503,22.73145,(07)3531682,羅氏家用新冠病毒抗原自我檢測套組,78,2022/04/29 11:49:02,快篩實名制，每天16:00開始販售，售完為止。
5907100088,本館藥局,高雄市鳥松區大華里本館路１９０號１樓,120.3361,22.65556,(07)3707655,羅氏家用新冠病毒抗原自我檢測套組,78,2022/04/29 11:49:02,營業時間每日09:00-22:00  實名制快篩販賣時間15:00-20:00
5907110048,和德藥局橋頭店,高雄市橋頭區橋南路１１６－１號,120.3125,22.75441,(07)6113580,羅氏家用新冠病毒抗原自我檢測套組,78,2022/04/29 11:49:02,下午15:00開賣.售完為止
5907140108,德昌藥局阿蓮店,高雄市阿蓮區阿蓮里中正路４５６號,120.3321,22.88075,(07)6318868,羅氏家用新冠病毒抗原自我檢測套組,78,2022/04/29 11:49:02,固定周一至周日14:30-16:00販售快篩，售完為止
5907150024,安麗兒藥局路竹店,高雄市路竹區大社路５１號１樓,120.262,22.8632,(07)6071699,羅氏家用新冠病毒抗原自我檢測套組,2,2022/04/29 11:49:02,快篩實名制，週一至週六，早上8：30開始，售完為止
5907150097,金德昌藥師藥局,高雄市路竹區大社路９０之６號,120.263,22.86382,(07)6978143,羅氏家用新冠病毒抗原自我檢測套組,66,2022/04/29 11:49:02,快篩販售時間:14:30~16:00或售完為止
5907150202,永昌藥局,高雄市路竹區延平路８１號,120.2579,22.85786,(07)6964321,羅氏家用新冠病毒抗原自我檢測套組,36,2022/04/29 11:49:02,周一至周六上午10開始依序登錄販售口罩，售完為止。
5907150239,固德藥局,高雄市路竹區金平路３１２號,120.269,22.86954,(07)6978641,羅氏家用新冠病毒抗原自我檢測套組,8,2022/04/29 11:49:02,無
5907150257,大樹大立藥局,高雄市路竹區國昌路５１號,120.26,22.85409,(07)6961663,羅氏家用新冠病毒抗原自我檢測套組,78,2022/04/29 11:49:02,快篩實名制，每天16:00開始販售，售完為止。
5907160039,華安藥局,高雄市湖內區中山路一段４５１－１９號,120.2459,22.88472,(07)6938208,羅氏家用新冠病毒抗原自我檢測套組,78,2022/04/29 11:49:02,營業日15:00-21:00為販賣實名制快篩時間，售完為止
5907160093,保生藥局,高雄市湖內區葉厝里保生路３４０．３４２號,120.2195,22.90733,(07)6990800,羅氏家用新冠病毒抗原自我檢測套組,78,2022/04/29 11:49:02,快篩實名制，每天16:00開始販售，售完為止。
5907200038,和德藥局梓官店,高雄市梓官區梓和里梓官路２３３號１樓,120.267,22.75975,(07)6191008,羅氏家用新冠病毒抗原自我檢測套組,79,2022/04/29 11:49:02,無
5907200047,永恒健康生活藥局,高雄市梓官區智蚵里通安路１７６號１樓,120.252,22.7307,(07)6102755,羅氏家用新冠病毒抗原自我檢測套組,1,2022/04/29 11:49:02,自05／01日起，營業日8:30~21:30為販賣口罩時間，售完為止
5907240014,博林健保藥局,高雄市內門區觀亭里中正路１６０巷５１號,120.4539,22.9232,(07)6671883,羅氏家用新冠病毒抗原自我檢測套組,62,2022/04/29 11:49:02,自2／11日~2／29日，營業日07:40~18:00為販賣口罩時間，售完為止
5907280036,七賢藥局,高雄市鹽埕區七賢三路１６２號１樓,120.2829,22.62712,(07)5330616,羅氏家用新冠病毒抗原自我檢測套組,78,2022/04/29 11:49:02,快篩實名制，每天16:00開始販售，售完為止。
5907290023,明倫藥局,高雄市鼓山區明倫路１５０號１樓,120.2979,22.66507,(07)5520736,羅氏家用新冠病毒抗原自我檢測套組,1,2022/04/29 11:49:02,下午2:30開始販售口罩
5907290103,康喜藥局,高雄市鼓山區華榮路６０７號,120.2923,22.67088,(07)5550060,羅氏家用新冠病毒抗原自我檢測套組,2,2022/04/29 11:49:02,營業時間星期一至星期六早上9:00~22:00，周日公休
5907290158,美館久億藥局,高雄市鼓山區美術東二路２４５、２４７號,120.2883,22.66526,(07)5227762,羅氏家用新冠病毒抗原自我檢測套組,78,2022/04/29 11:49:02,星期一~星期六10:00開始販賣口罩.售完為止
5907290238,聯合藥師藥局,高雄市鼓山區中華一路９７０號１樓,120.2919,22.65515,(07)5500558,羅氏家用新冠病毒抗原自我檢測套組,14,2022/04/29 11:49:02,無
5907290265,新美館藥局,高雄市鼓山區中華一路９７２號,120.2919,22.65513,(07)5522006,羅氏家用新冠病毒抗原自我檢測套組,11,2022/04/29 11:49:02,無
5907290274,明誠丁丁藥局,高雄市鼓山區明誠三路４６５號,120.3011,22.66097,(07)5520120,羅氏家用新冠病毒抗原自我檢測套組,8,2022/04/29 11:49:02,口罩代售時間自09:00
5907290309,鼓山藥局,高雄市鼓山區華榮路１０號,120.2973,22.66156,(07)5520017,羅氏家用新冠病毒抗原自我檢測套組,78,2022/04/29 11:49:02,快篩實名制，每天16:00開始販售，售完為止。
5907300088,神農健保藥局,高雄市左營區重和路１１７號,120.3121,22.68463,(07)3418228,羅氏家用新冠病毒抗原自我檢測套組,78,2022/04/29 11:49:02,星期一到六每天14點購買快篩，星期天公休
5907300168,金元藥局,高雄市左營區重愛路２２０號,120.3156,22.68562,(07)3458378,羅氏家用新冠病毒抗原自我檢測套組,3,2022/04/29 11:49:02,口罩販售時間08:30開始，星期四，星期六營業時間到中午12點，平常日營業時間到晚上9點
5907300239,左野藥局,高雄市左營區崇德路２２２號,120.3052,22.675,(07)3486883,羅氏家用新冠病毒抗原自我檢測套組,78,2022/04/29 11:49:02,營業時間09:00-22:30（實名制快篩試劑販售時間15:00-20:00）
5907300319,士凱藥局,高雄市左營區孟子路１７８號,120.3126,22.67387,(07)3430257,羅氏家用新冠病毒抗原自我檢測套組,78,2022/04/29 11:49:02,快篩實名制，每天14:30開始販售，售完為止。
5907300346,正心藥師藥局,高雄市左營區左營大路４７３之２號,120.295,22.68946,(07)5880386,羅氏家用新冠病毒抗原自我檢測套組,16,2022/04/29 11:49:02,無
5907300588,明禾藥局,高雄市左營區華夏路１７３２號１樓,120.3204,22.68777,(07)3493734,羅氏家用新冠病毒抗原自我檢測套組,78,2022/04/29 11:49:02,口罩販售時間早上9點開始販售
5907300613,新高橋藥局河堤店,高雄市左營區裕誠路１４４號１樓及地下１樓,120.3095,22.66423,(07)5582806,羅氏家用新冠病毒抗原自我檢測套組,8,2022/04/29 11:49:02,下午1:30開始販售口罩至下午5:30
5907300631,大樹孟子藥局,高雄市左營區孟子路２２６、２２８號,120.3112,22.67415,(07)3461772,羅氏家用新冠病毒抗原自我檢測套組,78,2022/04/29 11:49:02,快篩實名制，每天16:00開始販售，售完為止。
5907300677,佳寧峰藥局,高雄市左營區部後街２號,120.2886,22.6834,(07)5886408,羅氏家用新冠病毒抗原自我檢測套組,4,2022/04/29 11:49:02,口罩，快篩試劑販賣時段:上午8:30起至售完為止
5907300686,左營自由藥局,高雄市左營區自由二路３５０、３５０－１號,120.3091,22.66599,(07)5589991,羅氏家用新冠病毒抗原自我檢測套組,78,2022/04/29 11:49:02,快篩實名制，每天16:00開始販售，售完為止。
5907300702,禾順左營藥局,高雄市左營區自由三路４１０號２樓,120.3127,22.67563,(07)3592582,羅氏家用新冠病毒抗原自我檢測套組,58,2022/04/29 11:49:02,星期一~星期六 口罩發放時間13:00~18:00 （周日公休）
5907300748,翔生藥局合群店,高雄市左營區緯六路２５６號,120.2871,22.6976,(07)5880055,羅氏家用新冠病毒抗原自我檢測套組,8,2022/04/29 11:49:02,實名制快篩販售時間：星期一至星期五，售完為止
5907300784,新高橋藥局博正店,高雄市左營區忠言路１８０號,120.3038,22.65841,(07)5509810,羅氏家用新冠病毒抗原自我檢測套組,8,2022/04/29 11:49:02,下午2:30開始販售口罩
5907300800,元大藥師健保藥局,高雄市左營區榮德街３２７號,120.3211,22.68636,(07)3507531,羅氏家用新冠病毒抗原自我檢測套組,25,2022/04/29 11:49:02,09:30開始販賣口罩.售完為止
5907300908,明自丁丁藥局,高雄市左營區自由二路１５２號１樓,120.3089,22.66223,(07)5568902,羅氏家用新冠病毒抗原自我檢測套組,32,2022/04/29 11:49:02,無
5907300926,高鐵藥局,高雄市左營區華夏路１３２２．１３２６號,120.312,22.68587,(07)3452797,羅氏家用新冠病毒抗原自我檢測套組,78,2022/04/29 11:49:02,快篩實名制，每天16:00開始販售，售完為止。
5907300944,左營藥局,高雄市左營區華夏路３２５號,120.2972,22.67167,(07)5501017,羅氏家用新冠病毒抗原自我檢測套組,78,2022/04/29 11:49:02,快篩實名制，每天16:00開始販售，售完為止。
5907300953,翔生藥局,高雄市左營區左營大路５１４號,120.2953,22.68921,(07)5827329,羅氏家用新冠病毒抗原自我檢測套組,16,2022/04/29 11:49:02,無
5907300980,大路藥局,高雄市左營區左營大路５５－２號１樓,120.2877,22.6813,(07)5851001,羅氏家用新冠病毒抗原自我檢測套組,78,2022/04/29 11:49:02,快篩實名制，每天16:00開始販售，售完為止。
5907301012,新高橋藥局華夏店,高雄市左營區華夏路１１１０號,120.3085,22.68343,(07)3410915,羅氏家用新冠病毒抗原自我檢測套組,27,2022/04/29 11:49:02,無
5907301030,丁丁藥局北高雄店,高雄市左營區自由三路１４８號,120.311,22.6707,(07)3453680,羅氏家用新冠病毒抗原自我檢測套組,23,2022/04/29 11:49:02,無
5907301076,熊安心藥局華夏店,高雄市左營區華夏路１２１２號１樓,120.3104,22.68483,(07)3430632,羅氏家用新冠病毒抗原自我檢測套組,78,2022/04/29 11:49:02,快篩試劑-販售時間14:00至售完為止
5907310020,德民藥局,高雄市楠梓區德民路９１１號,120.2897,22.72085,(07)3630805,羅氏家用新冠病毒抗原自我檢測套組,11,2022/04/29 11:49:02,營業日上午11:00~16:00銷售快篩實名制時間.售完為止
5907310137,青田藥局,高雄市楠梓區監理南街６８號,120.3188,22.72897,(07)3648257,羅氏家用新冠病毒抗原自我檢測套組,54,2022/04/29 11:49:02,快篩販售時間，目前以１４：３０開始排隊。
5907310262,大樹楠梓藥局,高雄市楠梓區軍校路９０８號,120.2919,22.71246,(07)3632322,羅氏家用新冠病毒抗原自我檢測套組,78,2022/04/29 11:49:02,快篩實名制，每天16:00開始販售，售完為止。
5907310351,惠民楠梓藥局,高雄市楠梓區建楠路２１７號,120.3248,22.72689,(07)3521896,羅氏家用新冠病毒抗原自我檢測套組,78,2022/04/29 11:49:02,下午二點開始發放快篩試劑，發完為止；防疫要記得多備防疫包，增強免疫力。
5907310388,宸實藥局,高雄市楠梓區後昌路４７巷２３－１號,120.3129,22.71975,(07)3642142,羅氏家用新冠病毒抗原自我檢測套組,31,2022/04/29 11:49:02,每日8:30開始發放號碼牌（當日有效），一次限領一張，當日20:00前皆可購買。
5907310404,藍田藥局,高雄市楠梓區藍田路１號,120.2953,22.72643,(07)3601236,羅氏家用新冠病毒抗原自我檢測套組,78,2022/04/29 11:49:02,快篩實名制，每天16:00開始販售，售完為止。
5907310431,興楠丁丁藥局,高雄市楠梓區興楠路２６２號１樓,120.3329,22.7301,(07)3559668,羅氏家用新冠病毒抗原自我檢測套組,12,2022/04/29 11:49:02,無
5907310468,黃藥局,高雄市楠梓區建楠路１８６號１樓,120.3261,22.72716,(07)3515700,羅氏家用新冠病毒抗原自我檢測套組,78,2022/04/29 11:49:02,無
5907310477,新高橋藥局藍昌店,高雄市楠梓區藍昌路３８７號１樓,120.2915,22.72658,(07)3485857,羅氏家用新冠病毒抗原自我檢測套組,7,2022/04/29 11:49:02,無
5907320259,明誠藥局,高雄市三民區明誠一路１７２號,120.3273,22.65994,(07)3108636,羅氏家用新冠病毒抗原自我檢測套組,1,2022/04/29 11:49:02,星期一到星期六早上9點售口罩.星期日下午3點售口罩
5907320295,新高橋藥局澄清店,高雄市三民區澄和路２號１樓,120.3461,22.64438,(07)3815186,羅氏家用新冠病毒抗原自我檢測套組,16,2022/04/29 11:49:02,下午1:30開始販售口罩
5907320302,新高橋藥局明誠店,高雄市三民區明誠一路４９２號,120.3226,22.66046,(07)3107072,羅氏家用新冠病毒抗原自我檢測套組,17,2022/04/29 11:49:02,早上10:00開始販售口罩
5907320428,東京藥局,高雄市三民區建工路６８５號,120.3173,22.6478,(07)3874567,羅氏家用新冠病毒抗原自我檢測套組,77,2022/04/29 11:49:02,實名制快篩販售時間: 每日15:00-晚上20:00
5907320464,建元健保藥局,高雄市三民區興昌街８３巷９號,120.3181,22.64621,(07)3927865,羅氏家用新冠病毒抗原自我檢測套組,28,2022/04/29 11:49:02,無
5907320535,康誠藥局,高雄市三民區建工路６１６號,120.3228,22.64934,(07)3893889,羅氏家用新冠病毒抗原自我檢測套組,2,2022/04/29 11:49:02,無
5907320580,丸之內藥局,高雄市三民區十全二路３２１、３２３號,120.2923,22.64601,(07)3156688,羅氏家用新冠病毒抗原自我檢測套組,2,2022/04/29 11:49:02,無
5907320651,未來照護藥局,高雄市三民區鼎瑞街１０８號１樓,120.3154,22.66606,(07)3105356,羅氏家用新冠病毒抗原自我檢測套組,17,2022/04/29 11:49:02,實名制快篩發放規則: 周一至周六AM10:00發號碼牌，下午14:00~21:30為領取快篩時間  每 周日為公休日
5907320697,鄰好藥師藥局,高雄市三民區褒揚街２８７號,120.3398,22.64097,(07)3909589,羅氏家用新冠病毒抗原自我檢測套組,78,2022/04/29 11:49:02,購買實名制快篩時間下午14:00-16:00，各類防疫用品販售中
5907320704,建工台安藥局,高雄市三民區建工路４９９號之１,120.3224,22.64884,(07)3807521,羅氏家用新冠病毒抗原自我檢測套組,77,2022/04/29 11:49:02,防疫口罩每天下午三點發號碼牌，3點半販售，售完為止
5907320740,忠仁藥局,高雄市三民區中都街３５號１樓,120.2867,22.63955,(07)3125305,羅氏家用新冠病毒抗原自我檢測套組,78,2022/04/29 11:49:02,快篩試劑發放時間:15:00~18:00
5907320768,心樂保健藥局,高雄市三民區光裕路７８號１樓,120.3331,22.63789,(07)3855377,羅氏家用新冠病毒抗原自我檢測套組,81,2022/04/29 11:49:02,星期一到星期四上午8:30-12:00，下午15:00-18:00（口罩售完為止）. 星期五下午14:00-17:00，18:00-20:30（售完為止）
5907320777,桉家藥師藥局,高雄市三民區明誠一路３９３號,120.3228,22.65998,(07)3929732,羅氏家用新冠病毒抗原自我檢測套組,1,2022/04/29 11:49:02,無
5907320811,力生藥局,高雄市三民區鼎中路１６８號１樓,120.3194,22.6622,(07)3105231,羅氏家用新冠病毒抗原自我檢測套組,25,2022/04/29 11:49:02,自2／11日~2／29日，營業日星期一~星期五11點起、星期六~星期日晚上6點開始販賣口罩.售完為止
5907320848,仕康健保藥妝藥局,高雄市三民區建興路２２２號,120.325,22.6447,(07)3845050,羅氏家用新冠病毒抗原自我檢測套組,78,2022/04/29 11:49:02,營業至10點.口罩兌換至21:30
5907320866,意朋建興藥局,高雄市三民區建興路２２５號１樓,120.3251,22.64418,(07)3929507,羅氏家用新冠病毒抗原自我檢測套組,5,2022/04/29 11:49:02,口罩領取時間:W1~W日（AM1100~換完為止）
5907320893,大樹天祥藥局,高雄市三民區天祥一路１６７號,120.3191,22.66737,(07)3429902,羅氏家用新冠病毒抗原自我檢測套組,78,2022/04/29 11:49:02,快篩實名制，每天16:00開始販售，售完為止。
5907320900,大昌藥局,高雄市三民區大昌二路３９７號,120.3317,22.64915,(07)3961396,羅氏家用新冠病毒抗原自我檢測套組,78,2022/04/29 11:49:02,快篩實名制，每天16:00開始販售，售完為止。
5907320919,心寬福藥局,高雄市三民區大順二路７１８號一樓,120.3193,22.65359,(07)3832366,羅氏家用新冠病毒抗原自我檢測套組,1,2022/04/29 11:49:02,週一到週五上午9:00-12:00、下午14:00-20:00，週六下午14:00-20:00販售口罩，週日公休。
5907320946,熊安心藥局,高雄市三民區陽明路４０８號,120.3429,22.64609,(07)3815212,羅氏家用新冠病毒抗原自我檢測套組,78,2022/04/29 11:49:02,週一 ~ 週六 AM8:00-PM10:00，快篩分兩梯次販售，14:00有63份，19:00有15份
5907320982,康圓藥局,高雄市三民區大豐二路３５９．３６１號１樓,120.3343,22.6468,(07)3909978,羅氏家用新冠病毒抗原自我檢測套組,78,2022/04/29 11:49:02,無
5907321005,諾亞藥局,高雄市三民區鼎華路１４號１樓,120.3164,22.65139,(07)3929966,羅氏家用新冠病毒抗原自我檢測套組,16,2022/04/29 11:49:02,無
5907321023,富容健保藥局,高雄市三民區覺民路３３６－１號,120.3357,22.64045,(07)3850208,羅氏家用新冠病毒抗原自我檢測套組,78,2022/04/29 11:49:02,周一至周六下午13:00開始，售完為止
5907321032,三民明誠藥局,高雄市三民區明誠一路５００號１－２Ｆ及５０２號,120.3223,22.66046,(07)3493137,羅氏家用新冠病毒抗原自我檢測套組,75,2022/04/29 11:49:02,營業時間早上9點至晚上10點
5907321069,桂林活力藥局九如店,高雄市三民區懷安街１１２號１樓,120.3176,22.64095,(07)3981009,羅氏家用新冠病毒抗原自我檢測套組,78,2022/04/29 11:49:02,無
5907321103,自由藥局,高雄市三民區自由一路７８號,120.3089,22.64422,(07)3223113,羅氏家用新冠病毒抗原自我檢測套組,78,2022/04/29 11:49:02,快篩實名制，每天16:00開始販售，售完為止。
5907321121,九如順天藥局,高雄市三民區大連街９巷１８號,120.3045,22.64073,(07)3220706,羅氏家用新冠病毒抗原自我檢測套組,73,2022/04/29 11:49:02,實名制快篩為下午一點開放領取
5907321167,高杏健保藥局,高雄市三民區義華路４３２號,120.3325,22.6437,(07)3920588,羅氏家用新冠病毒抗原自我檢測套組,64,2022/04/29 11:49:02,無
5907330031,健美藥局,高雄市新興區復興一路４０之４號,120.3084,22.62985,(07)2291108,羅氏家用新冠病毒抗原自我檢測套組,50,2022/04/29 11:49:02,111／4／28起，週一至週日上午8:40-9:30販售快篩，售完止
5907330040,維康藥局,高雄市新興區中正三路６５號,120.3078,22.63077,(07)2615396,羅氏家用新冠病毒抗原自我檢測套組,77,2022/04/29 11:49:02,快篩代售時間:星期一至星期六15:00-18:00，星期日9:00-12:00
5907330148,康園藥局,高雄市新興區六合一路５３－１２號,120.3089,22.63241,(07)2372069,羅氏家用新冠病毒抗原自我檢測套組,78,2022/04/29 11:49:02,快篩領取限下午15:30~20:00，星期日早上10點營業至晚上10點
5907330200,新興復興藥局,高雄市新興區復興一路７６號１樓,120.3085,22.63312,(07)2352550,羅氏家用新冠病毒抗原自我檢測套組,78,2022/04/29 11:49:02,快篩實名制，每天16:00開始販售，售完為止。
5907340019,台灣社區照護藥局,高雄市前金區中山二路５３３號７樓之１,120.3016,22.62066,(07)2211350,羅氏家用新冠病毒抗原自我檢測套組,78,2022/04/29 11:49:02,★快篩代售時間：週一至週五12－14點★慢箋免費領藥：週一至週五10－18點★防疫酒精供貨★歡迎慢箋用藥諮詢
