醫事機構代碼,醫事機構名稱,醫事機構地址,經度,緯度,醫事機構電話,廠牌項目,快篩試劑截至目前結餘存貨數量,來源資料時間,備註
2331260016,新北市貢寮區衛生所,新北市貢寮區朝陽街７０巷１０號、新北市貢寮區仁愛路１２８號,121.9095,25.02258,(02)24901431,羅氏家用新冠病毒抗原自我檢測套組,78,2022/05/04 16:31:02,星期一至星期日上午8點購買防疫口罩，售完為止.
2331290014,新北市烏來區衛生所,新北市烏來區新烏路５段１０９號,121.548,24.87197,(02)26617200,羅氏家用新冠病毒抗原自我檢測套組,78,2022/05/04 16:31:02,無
2333140017,新竹縣五峰鄉衛生所,新竹縣五峰鄉大隘村六鄰９９號,121.1194,24.63184,(03)5851005,羅氏家用新冠病毒抗原自我檢測套組,78,2022/05/04 16:31:02,無
2335180019,苗栗縣泰安鄉衛生所,苗栗縣泰安鄉清安村２鄰７２號,120.9083,24.44722,(037)941054,羅氏家用新冠病毒抗原自我檢測套組,78,2022/05/04 16:31:02,口罩販賣時段：星期一~五：8:30~15：00。
2338070010,南投縣鹿谷鄉衛生所,南投縣鹿谷鄉中正路二段２０號,120.7542,23.74488,(049)2752002,羅氏家用新冠病毒抗原自我檢測套組,78,2022/05/04 16:31:02,快篩試劑販售時間 上班日（星期一至星期五）14:00~16:00
2338120015,南投縣信義鄉衛生所,南投縣信義鄉明德村玉山路４５號,120.8547,23.69653,(049)2791148,羅氏家用新冠病毒抗原自我檢測套組,78,2022/05/04 16:31:02,快篩試劑販售時間星期一至星期五上午09：00-11：00，現場排隊發售，國定假日不販賣。
2340170016,嘉義縣大埔鄉衛生所,嘉義縣大埔鄉大埔村５３－１號,120.5928,23.29397,(05)2521214,羅氏家用新冠病毒抗原自我檢測套組,84,2022/05/04 16:31:02,無
2342130010,高雄市田寮區衛生所,高雄市田寮區南安里崗北路３２號,120.3594,22.87301,(07)6361504,羅氏家用新冠病毒抗原自我檢測套組,157,2022/05/04 16:31:02,巡迴醫療:每星期一、四下午及每月第一個有上班的星期三下午巡迴醫療
2342180010,高雄市永安區衛生所,高雄市永安區永安路２６號,120.2254,22.81879,(07)6912015,羅氏家用新冠病毒抗原自我檢測套組,6,2022/05/04 16:31:02,本所防疫快篩試劑販賣時間為週一到週五上班日 9:00-11:00 （或售罄為止），現場叫號不到，視同放棄
2342250017,高雄市茂林區衛生所,高雄市茂林區茂林里茂林巷８－４號,120.6641,22.88641,(07)6801046,羅氏家用新冠病毒抗原自我檢測套組,209,2022/05/04 16:31:02,夜間急診，請先撥電話07-6801046
2342260013,高雄市桃源區衛生所,高雄市桃源區桃源里南進巷１８８－１號,120.7642,23.15845,(07)6861126,羅氏家用新冠病毒抗原自我檢測套組,87,2022/05/04 16:31:02,IDS提供24小時服務
2342270019,高雄市那瑪夏區衛生所,高雄市那瑪夏區瑪雅里６鄰平和巷２５２號,120.7024,23.24708,(07)6701142,羅氏家用新冠病毒抗原自我檢測套組,592,2022/05/04 16:31:02,春節期間正常門診
2343270013,屏東縣霧台鄉衛生所,屏東縣霧台鄉霧台村神山巷６８號,120.7261,22.74989,(08)7902232,羅氏家用新冠病毒抗原自我檢測套組,105,2022/05/04 16:31:02,無
2344011036,澎湖縣馬公市第三衛生所,澎湖縣馬公市西文里１１８之２號,119.5836,23.56813,(06)9211723,羅氏家用新冠病毒抗原自我檢測套組,49,2022/05/04 16:31:02,本所快篩試劑販售以離島衛生室（虎井、桶盤）為主，時間週一至週五08:30-17:00售完為止，星期六、日國定假日09:00-12:00。
2344030013,澎湖縣白沙鄉衛生所,澎湖縣白沙鄉赤崁村３５９號,119.5982,23.66669,(06)9931044,羅氏家用新冠病毒抗原自我檢測套組,2,2022/05/04 16:31:02,星期日上午門診看診（每月最後一個星期日休診）； 星期五上午巡迴醫療（中屯村，講美村，通樑村）
2344030022,澎湖縣白沙鄉鳥嶼衛生所,澎湖縣白沙鄉鳥嶼村漁港新村３號,119.6599,23.66008,(06)9916092,羅氏家用新冠病毒抗原自我檢測套組,138,2022/05/04 16:31:02,非上班時間提供急診服務
2344030031,澎湖縣白沙鄉吉貝衛生所,澎湖縣白沙鄉吉貝村８－１３號,119.6138,23.74056,(06)9911430,羅氏家用新冠病毒抗原自我檢測套組,121,2022/05/04 16:31:02,無
2344050015,澎湖縣望安鄉衛生所,澎湖縣望安鄉西安村３６－７號,119.4972,23.36161,(06)9991036,羅氏家用新冠病毒抗原自我檢測套組,155,2022/05/04 16:31:02,夜間急診。口罩、快篩試劑販售時間為:每日08:00-12:00、13:30-17:30售完為止，如有餘數為離島未售出（東嶼坪、花嶼）。
2344050024,澎湖縣望安鄉將軍衛生所,澎湖縣望安鄉將軍村１２鄰將軍澳１之３號,119.5216,23.3615,(06)9902066,羅氏家用新冠病毒抗原自我檢測套組,218,2022/05/04 16:31:02,24小時急診
2344060011,澎湖縣七美鄉衛生所,澎湖縣七美鄉中和村埔內５４號,119.431,23.2041,(06)9971005,羅氏家用新冠病毒抗原自我檢測套組,45,2022/05/04 16:31:02,無
2391030016,連江縣莒光鄉西莒衛生所,連江縣莒光鄉青帆村１４－１號,119.9331,25.97157,(083)689122,羅氏家用新冠病毒抗原自我檢測套組,290,2022/05/04 16:31:02,防疫口罩星期一至五09:00-17:00、（六）09:00-12:00現場購買
2391030026,連江縣莒光鄉東莒衛生所,連江縣莒光鄉大坪村３０－１號,119.9731,25.96113,(083)689038,羅氏家用新冠病毒抗原自我檢測套組,312,2022/05/04 16:31:02,防疫口罩星期一至星期日上午10:00-12:00收取健保卡，下午3:30至本所領取口罩。
5901012598,婕登藥局,臺北市松山區八德路４段６９９號,121.5766,25.05021,(02)27482893,羅氏家用新冠病毒抗原自我檢測套組,82,2022/05/04 16:31:02,今天快篩已經發送完畢（電腦庫存不準）
5901012749,躍獅松和藥局,臺北市松山區八德路四段６６６－１號,121.5761,25.04979,(02)27492569,羅氏家用新冠病毒抗原自我檢測套組,83,2022/05/04 16:31:02,實名制快篩販售時段，每日下午4點販售，售完為止
5901013095,康采藥局,臺北市松山區南京東路５段２９１巷１７－２號,121.5663,25.05236,(02)27670271,羅氏家用新冠病毒抗原自我檢測套組,39,2022/05/04 16:31:02,（已完售，庫存不準）快篩試劑每日16點販售，週日沒有販售
5901013120,誠康中西藥局,臺北市松山區南京東路５段５９巷３１弄４３號,121.5607,25.05346,(02)27619679,羅氏家用新冠病毒抗原自我檢測套組,28,2022/05/04 16:31:02,禮拜一到六早上7點發號碼牌，到貨時會用社群通知大家來取貨
5901013399,一安正昇藥局,臺北市松山區南京東路５段３０９號,121.5667,25.05155,(02)27680993,羅氏家用新冠病毒抗原自我檢測套組,78,2022/05/04 16:31:02,快篩發放時間  下午14:30
5901013657,順儷中崙藥局,臺北市松山區八德路３段７４巷４８號１樓,121.5525,25.04685,(02)25796900,羅氏家用新冠病毒抗原自我檢測套組,78,2022/05/04 16:31:02,無
5901013693,民生盛康藥局,臺北市松山區民生東路５段２０４號１樓,121.5648,25.05826,(02)27460758,羅氏家用新冠病毒抗原自我檢測套組,99,2022/05/04 16:31:02,【今日量已發完】每日早上9:00發號碼牌，11:00~20:00拿號碼牌回來領取，每人限1張號碼牌，逾時不候
5901013700,杏一台北台安藥局,臺北市松山區八德路２段３９９號１樓,121.5465,25.04833,(02)87728295,羅氏家用新冠病毒抗原自我檢測套組,3,2022/05/04 16:31:02,快篩販售時間是每天下午15:00
5901013719,大樹松山藥局,臺北市松山區民生東路５段１０７號１樓,121.5601,25.05878,(02)27562226,羅氏家用新冠病毒抗原自我檢測套組,19,2022/05/04 16:31:02,快篩實名制，每天16:00開始販售，售完為止。
5901020616,龍護大藥局,臺北市大安區大安路１段２２４巷７號１Ｆ,121.5454,25.03401,(02)23250686,羅氏家用新冠病毒抗原自我檢測套組,78,2022/05/04 16:31:02,無
5901021408,生百藥局,臺北市大安區臨江街１２４號,121.5539,25.03024,(02)27371011,羅氏家用新冠病毒抗原自我檢測套組,156,2022/05/04 16:31:02,無
5901023386,弘昇藥局,臺北市大安區復興南路１段１０７巷３２號,121.5458,25.04349,(02)27110061,羅氏家用新冠病毒抗原自我檢測套組,45,2022/05/04 16:31:02,上午11點以後至晚上11點
5901024114,好安心藥局,臺北市大安區和平東路２段９８之２號,121.5415,25.02493,(02)23772166,羅氏家用新冠病毒抗原自我檢測套組,2,2022/05/04 16:31:02,快篩發放: 週一至週六 15:30現場開始販售，不發號碼牌。
5901024918,康祥藥局,臺北市大安區忠孝東路４段２１６巷２１號,121.5531,25.04025,(02)27817891,羅氏家用新冠病毒抗原自我檢測套組,78,2022/05/04 16:31:02,星期天11:00-19:00
5901025031,中力信義藥局,臺北市大安區信義路４段５１號（１樓）,121.545,25.03354,(02)23250266,羅氏家用新冠病毒抗原自我檢測套組,39,2022/05/04 16:31:02,下午一點到三點販售實名制快篩
5901092149,123宅藥局,臺北市大同區鄭州路１２３號（１樓）,121.5109,25.05033,(02)25588699,羅氏家用新冠病毒抗原自我檢測套組,78,2022/05/04 16:31:02,【家用快篩實名制】因物流送達時間不訂平日時段改為下午 05:30。 假日一時段可購買:10:30。★前十分鐘開始發放號碼牌
5901101250,美日藥局,臺北市中山區天津街６６號１樓,121.5233,25.05136,(02)25631662,羅氏家用新冠病毒抗原自我檢測套組,157,2022/05/04 16:31:02,實名制快篩於營業日下午4點開始發號碼牌
5901101929,樂活苑藥局,臺北市中山區北安路５４６號１樓,121.548,25.08014,(02)25323296,羅氏家用新冠病毒抗原自我檢測套組,156,2022/05/04 16:31:02,實名制快篩代售時間為18:00~19:00.現場排隊，不發號碼牌.
5901102686,富宥康藥局,臺北市中山區北安路６０８巷５弄２２號,121.5496,25.08263,(02)25325277,羅氏家用新冠病毒抗原自我檢測套組,103,2022/05/04 16:31:02,無
5901102837,正傑健保藥局,臺北市中山區長安東路２段１８１號,121.5426,25.04839,(02)27310181,羅氏家用新冠病毒抗原自我檢測套組,89,2022/05/04 16:31:02,下午四點開始販售
5901103423,農安藥局,臺北市中山區農安街１８之１號,121.5248,25.06483,(02)25959293,羅氏家用新冠病毒抗原自我檢測套組,31,2022/05/04 16:31:02,快篩2點發號碼牌 3點後來拿
5901103487,錦州春天生活藥局,臺北市中山區錦州街２１３號、２１３號２樓,121.5321,25.06039,(02)25213586,羅氏家用新冠病毒抗原自我檢測套組,1,2022/05/04 16:31:02,快篩14:40發號碼牌15:00販賣 每天78盒
5901103629,十二願藥局,臺北市中山區林森北路３０９號,121.5256,25.05588,(02)25311223,羅氏家用新冠病毒抗原自我檢測套組,78,2022/05/04 16:31:02,快篩晚上8點開始發放.營業時間下午1點至凌晨3點
5901103656,大樹龍江藥局,臺北市中山區龍江路２４２號,121.5406,25.05889,(02)25035666,羅氏家用新冠病毒抗原自我檢測套組,4,2022/05/04 16:31:02,國定假日仍執行調劑業務
5901103692,誠果中西藥局,臺北市中山區吉林路１０１號１樓,121.5303,25.05619,(02)25238563,羅氏家用新冠病毒抗原自我檢測套組,78,2022/05/04 16:31:02,因為當日才收到快篩 本周發送時間不確定 麻煩現場來加line群組關注會提前告知
5901113018,桔子藥局,臺北市內湖區內湖路２段３３３號,121.5917,25.08319,(02)27930052,羅氏家用新冠病毒抗原自我檢測套組,78,2022/05/04 16:31:02,早0900-1200，午1400-1700，晚1900-2100
5901113732,富康活力誠功藥局,臺北市內湖區成功路４段３０巷２０號１樓,121.5916,25.08235,(02)27960222,羅氏家用新冠病毒抗原自我檢測套組,1,2022/05/04 16:31:02,正常供應的話都是每日16:00開始販售快篩，建議來現場加入**LINE社群**，可以獲得最新第一手資訊
5901121672,亞博藥師藥局,臺北市南港區興華路８１號,121.6061,25.05545,(02)27838090,羅氏家用新冠病毒抗原自我檢測套組,78,2022/05/04 16:31:02,無
5901122080,成福大藥局,臺北市南港區成福路８號,121.5859,25.04578,(02)27859221,羅氏家用新冠病毒抗原自我檢測套組,78,2022/05/04 16:31:02,無
5901150548,田倉藥局,臺北市士林區士東路１２４號,121.5302,25.11219,(02)88662188,羅氏家用新冠病毒抗原自我檢測套組,78,2022/05/04 16:31:02,每日19:00（傍晚7點）開始販售.
5901150771,天母大和藥師藥局,臺北市士林區德行東路１８９－１號１樓,121.5317,25.10897,(02)28310142,羅氏家用新冠病毒抗原自我檢測套組,78,2022/05/04 16:31:02,快篩實名制 配合營業時間  賣完為止
5901152079,資生堂藥局,臺北市士林區承德路４段４０巷１７號１Ｆ,121.522,25.08107,(02)28857588,羅氏家用新冠病毒抗原自我檢測套組,78,2022/05/04 16:31:02,無
5901152453,家赫藥局,臺北市士林區忠義街８０號１樓,121.5317,25.10614,(02)28346453,羅氏家用新冠病毒抗原自我檢測套組,3,2022/05/04 16:31:02,5／4（三）更改為下午2:40開始發號碼牌販售實名制快篩，單號可購買（1人1卡）
5901152471,得安藥局,臺北市士林區文林路１４０號,121.5267,25.08878,(02)28836336,羅氏家用新冠病毒抗原自我檢測套組,87,2022/05/04 16:31:02,星期三五六下午3:30---10:00   星期二 四日下午5:00--10:00
5901152659,和樹藥局,臺北市士林區後港街４５巷１號１樓,121.5228,25.08444,(02)28821188,羅氏家用新冠病毒抗原自我檢測套組,78,2022/05/04 16:31:02,實名制快篩發放時間 依到貨時間發售
5901152686,三光藥局,臺北市士林區延平北路５段３２０號１樓,121.5096,25.08628,(02)28123786,羅氏家用新冠病毒抗原自我檢測套組,5,2022/05/04 16:31:02,無
5901153058,誼安藥局,臺北市士林區通河街４２號,121.5215,25.08044,(02)28851899,羅氏家用新冠病毒抗原自我檢測套組,156,2022/05/04 16:31:02,12至14:30午休.周日公休.實名制快篩:周一至周五17:00周六10點開始販售
5901153503,祥新藥局,臺北市士林區社子街６５號,121.5067,25.08751,(02)28110906,羅氏家用新冠病毒抗原自我檢測套組,76,2022/05/04 16:31:02,實名制快篩星期2、3、4、6十點開賣；週一、週五晚上七點開賣，周日公休
5901153521,天母台安藥局,臺北市士林區天母西路３４號,121.5262,25.11835,(02)28728017,羅氏家用新冠病毒抗原自我檢測套組,7,2022/05/04 16:31:02,有配送→每日下午2:30開始販售實
5901153861,佩佩藥局,臺北市士林區中山北路６段１８２號,121.5252,25.10759,(02)28382662,羅氏家用新冠病毒抗原自我檢測套組,78,2022/05/04 16:31:02,5／4已售完。08:30開始販售快篩，售完為止。
5901153941,士東藥局,臺北市士林區士東路９１巷３號,121.5291,25.11256,(02)28760588,羅氏家用新冠病毒抗原自我檢測套組,8,2022/05/04 16:31:02,快篩實名制，每天16:00開始販售，售完為止。
5901154028,向宇藥局,臺北市士林區德行東路２１７號１樓,121.5328,25.10935,(02)88661101,羅氏家用新冠病毒抗原自我檢測套組,78,2022/05/04 16:31:02,無
5901154091,社正藥局,臺北市士林區社正路１２號１樓,121.5093,25.08854,(02)28118704,羅氏家用新冠病毒抗原自我檢測套組,155,2022/05/04 16:31:02,無
5901160099,進春藥局,臺北市北投區明德路１５１號,121.5206,25.11086,(02)28216938,羅氏家用新冠病毒抗原自我檢測套組,141,2022/05/04 16:31:02,無休 上午九點開始販售，現場排隊。（依現場公告為主）
5901160400,世全藥局,臺北市北投區知行路２７３號,121.4672,25.12134,(02)28585378,羅氏家用新冠病毒抗原自我檢測套組,78,2022/05/04 16:31:02,早0000-0100，午0000-0000晚17:30-2400
5901160802,美康藥局,臺北市北投區明德路９０號１樓,121.5196,25.1094,(02)28281176,羅氏家用新冠病毒抗原自我檢測套組,78,2022/05/04 16:31:02,營業時間:10:30~22:00；13:30開始販售快篩
5901161890,良興藥局,臺北市北投區中和街２８６號,121.5004,25.14047,(02)28933360,羅氏家用新冠病毒抗原自我檢測套組,55,2022/05/04 16:31:02,18點30分點開始營業
5901162173,小明藥局,臺北市北投區中央南路１段６９號２樓,121.5014,25.13145,(02)28928950,羅氏家用新冠病毒抗原自我檢測套組,78,2022/05/04 16:31:02,快篩實名制購買時間:週一至週六早上8:00-9:00，9點後系統顯示尚有庫存，為隔日販售的量，請勿再來電詢問，謝謝!
5901162306,上頤藥局,臺北市北投區中和街３２７號１樓,121.4997,25.14097,(02)28981230,羅氏家用新冠病毒抗原自我檢測套組,386,2022/05/04 16:31:02,無
5901163296,天禧大藥局,臺北市北投區實踐街３５號,121.5087,25.11521,(02)28213558,羅氏家用新冠病毒抗原自我檢測套組,2,2022/05/04 16:31:02,實名制快篩下午1:30現場販售
5901163509,吉利春天生活藥局,臺北市北投區吉利街１２０號,121.5068,25.11851,(02)28253256,羅氏家用新冠病毒抗原自我檢測套組,1,2022/05/04 16:31:02,無
5901163643,致遠盛康藥局,臺北市北投區致遠二路１４１號１樓,121.5128,25.1173,(02)28263580,羅氏家用新冠病毒抗原自我檢測套組,6,2022/05/04 16:31:02,無
5901170139,福華藥局,臺北市信義區吳興街２８１巷３號１樓,121.5643,25.02656,(02)27208527,羅氏家用新冠病毒抗原自我檢測套組,78,2022/05/04 16:31:02,現階段下午1:30配合政府發售快篩試劑
5901170648,立信藥局,臺北市信義區松山路４０３號,121.578,25.04144,(02)27687754,羅氏家用新冠病毒抗原自我檢測套組,62,2022/05/04 16:31:02,快篩試劑販賣時間:晚上七點至九點 星期日三點半開賣
5901173738,尚頤中西藥局,臺北市信義區虎林街１４５號,121.5767,25.03959,(02)27253818,羅氏家用新冠病毒抗原自我檢測套組,156,2022/05/04 16:31:02,無
5901173818,博亞藥局,臺北市信義區莊敬路４６２號,121.5677,25.02672,(02)27580506,羅氏家用新冠病毒抗原自我檢測套組,117,2022/05/04 16:31:02,平日早上8:30、晚上8:00；假日早上8:30，發放號碼牌，持號碼牌購買!
5901174011,寶春藥局,臺北市信義區虎林街１１９之１９號１樓,121.5771,25.04112,(02)27566501,羅氏家用新冠病毒抗原自我檢測套組,78,2022/05/04 16:31:02,實名制快篩每日19:00現場排隊販售
5901174057,詠晴中西藥局,臺北市信義區松山路４８４之４號（１樓含夾層）,121.5778,25.0389,(02)27266890,羅氏家用新冠病毒抗原自我檢測套組,78,2022/05/04 16:31:02,實名制快篩 - 16:30領號碼牌.當天取貨即可.避免群聚風險
5901174066,愛維喜藥局,臺北市信義區莊敬路２７８號１樓,121.5627,25.02882,(02)27586989,羅氏家用新冠病毒抗原自我檢測套組,156,2022/05/04 16:31:02,快篩周一至周五下午3:30開賣.約3:00收健保卡現金500元1張.發號碼牌
5901180368,古亭藥局,臺北市中正區汀州路３段１１７號,121.5301,25.01667,(02)23683618,羅氏家用新冠病毒抗原自我檢測套組,156,2022/05/04 16:31:02,實名制  快篩  每晚7:30  開始賣  星期六早上休息 星期日休息
5901182111,東華藥局,臺北市中正區汀州路３段１１３號,121.53,25.01673,(02)23640852,羅氏家用新冠病毒抗原自我檢測套組,78,2022/05/04 16:31:02,星期日店休   星期一至星期六 下午15點開始販售快篩試劑
5901183387,丞良藥局,臺北市中正區南昌路１段７８號地下１樓,121.5173,25.03099,(02)33938868,羅氏家用新冠病毒抗原自我檢測套組,78,2022/05/04 16:31:02,週一~週五 晚上9:00~9:30現場領取，若排隊人潮過多會提早開賣
5901183510,怡誠藥局,臺北市中正區汀州路２段２１２號,121.5237,25.02236,(02)23626905,羅氏家用新冠病毒抗原自我檢測套組,78,2022/05/04 16:31:02,無
5901184491,躍獅南門藥局,臺北市中正區中華路２段３９巷１０號,121.5074,25.03484,(02)23141111,羅氏家用新冠病毒抗原自我檢測套組,3,2022/05/04 16:31:02,口罩販售時段：成人早上9點及晚上7點各200個
5901190515,日昇藥局,臺北市萬華區廣州街１２４號,121.5016,25.03654,(02)23062975,羅氏家用新冠病毒抗原自我檢測套組,78,2022/05/04 16:31:02,實名制快篩 05-03 到貨
5901190668,聯慶大藥局,臺北市萬華區萬大路３０６號１樓,121.5003,25.02495,(02)23039850,羅氏家用新冠病毒抗原自我檢測套組,78,2022/05/04 16:31:02,無
5901190686,信義藥局,臺北市萬華區青年路２８號,121.5052,25.02581,(02)23074599,羅氏家用新冠病毒抗原自我檢測套組,78,2022/05/04 16:31:02,下午一點領（快篩） 視排隊狀況發號碼牌
5901192546,躍獅西園藥局,臺北市萬華區西園路２段２６０號,121.4946,25.02784,(02)23094063,羅氏家用新冠病毒抗原自我檢測套組,78,2022/05/04 16:31:02,快篩販售時段：下午2點至售完為止（政府正常配貨的情況下，現場排隊）
5901193070,榮勝藥局,臺北市萬華區萬大路２３３號,121.5006,25.02649,(02)23331121,羅氏家用新冠病毒抗原自我檢測套組,78,2022/05/04 16:31:02,每日快篩早上十一點開始販售 週日無提供販售
5901193221,正盛藥局,臺北市萬華區中華路２段４３４－１號,121.5064,25.02708,(02)23050386,羅氏家用新冠病毒抗原自我檢測套組,60,2022/05/04 16:31:02,1.快篩一~六20點，周日不賣 2.目前排隊人潮多，建議7點左右提前候位 3.詳情請看門口公告或板橋正康總店臉書
5901193338,艾米力藥師藥局,臺北市萬華區西藏路１０７－２號１樓,121.5035,25.02955,(02)23036583,羅氏家用新冠病毒抗原自我檢測套組,76,2022/05/04 16:31:02,5／4 晚上7:00販售
5901200123,瑞安藥局,臺北市文山區溪口街６９－１號１樓,121.5393,24.99512,(02)29312888,羅氏家用新冠病毒抗原自我檢測套組,80,2022/05/04 16:31:02,早上8:30開始營業.星期日休息.快篩劑晚上8:00販賣.
5901203062,大樹文山藥局,臺北市文山區興隆路３段１３號（１、２、３樓）,121.555,25.00088,(02)29342226,羅氏家用新冠病毒抗原自我檢測套組,17,2022/05/04 16:31:02,口罩販售時間：14:00 - 16:00
5901203106,光明大藥局,臺北市文山區忠順街１段６６號,121.5607,24.98426,(02)29390275,羅氏家用新冠病毒抗原自我檢測套組,78,2022/05/04 16:31:02,無
5901203213,綠杏萬芳藥局,臺北市文山區興隆路３段１１１號,121.5583,25.00031,(02)29349516,羅氏家用新冠病毒抗原自我檢測套組,102,2022/05/04 16:31:02,5／2~5／6實名制快篩劑販售時間17:00-21:00（發號碼牌）
5901203366,大樹木柵藥局,臺北市文山區木柵路３段１０８號、１１０號（１樓、２樓）,121.5676,24.98866,(02)22340110,羅氏家用新冠病毒抗原自我檢測套組,6,2022/05/04 16:31:02,快篩實名制，每天16:00開始販售，售完為止。
5902022794,定國藥局,高雄市鼓山區九如四路１１３５號,120.2791,22.65936,(07)5815858,羅氏家用新冠病毒抗原自我檢測套組,1,2022/05/04 16:31:02,無
5902022801,裕康中西大藥局,高雄市鼓山區裕誠路１５１９號,120.2951,22.66479,(07)5555352,羅氏家用新冠病毒抗原自我檢測套組,19,2022/05/04 16:31:02,藥局販售口罩時間，依藥局門口公告時間為主（售完為止）
5902022972,高雄藥局,高雄市鼓山區九如四路９２４號,120.2793,22.65466,(07)5214266,羅氏家用新冠病毒抗原自我檢測套組,2,2022/05/04 16:31:02,賣口罩時間為週一～週六晚上6點，售完為止
5902031999,平安藥局,高雄市左營區中華一路５之１號,120.287,22.66961,(07)5833688,羅氏家用新冠病毒抗原自我檢測套組,39,2022/05/04 16:31:02,週一~週六上午:8:00~12:00，下午:4:00~9:00， 週日例假日晚上6:00~9:00
5902032441,健怡藥局,高雄市左營區翠峰路４０號,120.2897,22.67229,(07)5821891,羅氏家用新冠病毒抗原自我檢測套組,57,2022/05/04 16:31:02,快篩星期一~星期六早上8:30開始販售
5902032530,杏光藥局,高雄市左營區果峰街４７巷１號１樓,120.2869,22.6703,(07)5837060,羅氏家用新冠病毒抗原自我檢測套組,61,2022/05/04 16:31:02,上午營業時間為9 :00~12:00；晚上營業至21:30
5902032674,辰暘藥局,高雄市左營區富民路１２０號１、２樓,120.3054,22.66066,(07)5588545,羅氏家用新冠病毒抗原自我檢測套組,1,2022/05/04 16:31:02,無
5902040014,成吉藥局,高雄市楠梓區楠梓東街７４號,120.3301,22.72966,(07)3513339,羅氏家用新冠病毒抗原自我檢測套組,78,2022/05/04 16:31:02,下午6點開始販賣實名制快篩，售完為止!!!星期日店休
5902040050,富翔藥局,高雄市楠梓區常德路３０７號,120.337,22.73691,(07)3516365,羅氏家用新冠病毒抗原自我檢測套組,78,2022/05/04 16:31:02,晚上18:00 販售快篩實名制，星期日早上8:00 販售快篩實名制，售完為止。
5902040069,新友藥局,高雄市楠梓區萬昌路１１１號,120.2895,22.71194,(07)3653534,羅氏家用新冠病毒抗原自我檢測套組,78,2022/05/04 16:31:02,藥局販售口罩時間，依藥局門口公告時間為主（售完為止）
5902042661,元春中西藥師藥局,高雄市楠梓區後昌路８３７巷３７號,120.294,22.71109,(07)3605656,羅氏家用新冠病毒抗原自我檢測套組,12,2022/05/04 16:31:02,下午16.00開始為快篩領取時間，售完為止
5902042769,家安藥局,高雄市楠梓區後昌新路１３號１樓,120.2917,22.71844,(07)3600066,羅氏家用新冠病毒抗原自我檢測套組,13,2022/05/04 16:31:02,無
5902050350,日星藥局,高雄市三民區寶龍里惠德街３８號,120.3241,22.64741,(07)3845188,羅氏家用新冠病毒抗原自我檢測套組,124,2022/05/04 16:31:02,快篩口罩時間:星期一至五08:40-12:00&16:00-21:00；星期六09:00-11:30，售完為止
5902050565,澄和藥局,高雄市三民區澄和路６６號,120.3445,22.64474,(07)3923111,羅氏家用新冠病毒抗原自我檢測套組,2,2022/05/04 16:31:02,快篩試劑- 販售時間自下午14:00起至售完為止
5902050636,嘉益藥局,高雄市三民區重慶街３０號,120.302,22.64223,(07)3110157,羅氏家用新冠病毒抗原自我檢測套組,12,2022/05/04 16:31:02,快篩實名制早上11：00開始販售.
5902050770,仁生藥局,高雄市三民區民享里熱河二街７８號,120.3006,22.64431,(07)3118765,羅氏家用新冠病毒抗原自我檢測套組,2,2022/05/04 16:31:02,上午:8點開始販售
5902050798,友泰藥局,高雄市三民區中和街１６９號,120.2868,22.6388,(07)3125236,羅氏家用新冠病毒抗原自我檢測套組,139,2022/05/04 16:31:02,無
5902051222,利民藥局,高雄市三民區孝順街７４號,120.3128,22.6431,(07)3125436,羅氏家用新冠病毒抗原自我檢測套組,16,2022/05/04 16:31:02,快篩實名制下午3點30分開始販售，發號碼牌
5902057126,民安藥局,高雄市三民區嫩江街７０號,120.2985,22.64282,(07)3121381,羅氏家用新冠病毒抗原自我檢測套組,32,2022/05/04 16:31:02,販賣快篩09:00~12:00_16:00~18:00_19:00~21:00（售完為止）
5902057680,健爾康藥局,高雄市三民區正興路２３號,120.3226,22.6456,(07)3965658,羅氏家用新冠病毒抗原自我檢測套組,1,2022/05/04 16:31:02,自2／11日~2／29日，營業日08:30~2100為販賣口罩時間，售完為止。
5902080474,弘宗藥局,高雄市苓雅區武智街２號,120.3356,22.62303,(07)7211088,羅氏家用新冠病毒抗原自我檢測套組,31,2022/05/04 16:31:02,8:00~22:00（營業時段）
5902080518,福海藥局,高雄市苓雅區武慶三路５８號,120.332,22.61958,(07)7618855,羅氏家用新冠病毒抗原自我檢測套組,1,2022/05/04 16:31:02,無
5902080545,柏松藥局,高雄市苓雅區輔仁路１７５號,120.3332,22.63065,(07)7119786,羅氏家用新冠病毒抗原自我檢測套組,11,2022/05/04 16:31:02,實名制快篩試劑.5／4.起.16:00開賣......售完為止!!
5902080803,功安中西大藥局,高雄市苓雅區三多二路２９１號,120.3195,22.61858,(07)7215949,羅氏家用新冠病毒抗原自我檢測套組,1,2022/05/04 16:31:02,營業日早上08:00開始為販賣口罩時間，售完為止
5902083457,順一藥局,高雄市苓雅區田西里成功一路２１０號,120.2969,22.61696,(07)3330011,羅氏家用新冠病毒抗原自我檢測套組,3,2022/05/04 16:31:02,營業時間早上8點30 至12點下午3點至9點（12點至3點休息）
5902085228,永森藥局,高雄市苓雅區建國一路２９０號,120.3262,22.63308,(07)7163087,羅氏家用新冠病毒抗原自我檢測套組,8,2022/05/04 16:31:02,快篩代售時間:營業時間
5902085344,意祥藥局,高雄市苓雅區武廟路１４２之１號,120.3276,22.63125,(07)7224835,羅氏家用新冠病毒抗原自我檢測套組,7,2022/05/04 16:31:02,藥局販售口罩時間，依藥局門口公告時間為主（售完為止）
5902092296,迎廣藥局,高雄市前鎮區林森三路１５０號２樓,120.3089,22.61357,(07)3321466,羅氏家用新冠病毒抗原自我檢測套組,5,2022/05/04 16:31:02,週一至周六08:30至12:00  15:00至18:00 19:00至21:30 星期六晚休息  星期日休息
5902092554,協和藥局,高雄市前鎮區中華五路９８３號,120.306,22.60221,(07)5377769,羅氏家用新冠病毒抗原自我檢測套組,99,2022/05/04 16:31:02,快篩代售:除星期天休息 周一至周五下午2:00 周六:8:30  （5／4下午3點）
5902110299,大裕藥局,高雄市小港區小港里小港路２６１號,120.3359,22.56386,(07)8211467,羅氏家用新冠病毒抗原自我檢測套組,1,2022/05/04 16:31:02,快篩星期一到六早上九點販售 星期日休息
5903010556,升禾和大藥局,臺中市豐原區育英路２６號１樓,120.7163,24.24346,(04)25293099,羅氏家用新冠病毒抗原自我檢測套組,78,2022/05/04 16:31:02,快篩試劑1800領取.採現場排隊.售完為止
5903040036,得康藥局,臺中市清水區高美路１１７號,120.5753,24.27879,(04)26260622,羅氏家用新冠病毒抗原自我檢測套組,78,2022/05/04 16:31:02,5／4售完，5／5下午14:40開始販售
5903050176,全國藥局,臺中市沙鹿區臺灣大道７段９９２號,120.5622,24.24074,(04)26627097,羅氏家用新冠病毒抗原自我檢測套組,1,2022/05/04 16:31:02,快篩劑每日配送時間不同，依現場到貨為主，現場排隊購買
5903050194,樂齊藥局,臺中市沙鹿區北中路８６－１、８６－２號,120.5692,24.22827,(04)26338867,羅氏家用新冠病毒抗原自我檢測套組,78,2022/05/04 16:31:02,防疫家用快篩試劑每日19點開賣，售完為止，庫存請依現場為主。
5903050247,好利藥局,臺中市沙鹿區中山路４８７－１號１樓,120.5619,24.2454,(04)26630087,羅氏家用新冠病毒抗原自我檢測套組,156,2022/05/04 16:31:02,無
5903080030,捷達藥局,臺中市神岡區大漢街２５號,120.6974,24.25352,(04)25225207,羅氏家用新冠病毒抗原自我檢測套組,1,2022/05/04 16:31:02,周一到周六上午8:00開始販售，售完為止。
5903150028,全成烏日藥局,臺中市烏日區溪南路１段７７６號,120.6427,24.07423,(04)23352656,羅氏家用新冠病毒抗原自我檢測套組,78,2022/05/04 16:31:02,實名制快篩晚上7:00發放，售完為止
5903150153,溪南藥局,臺中市烏日區溪南路一段５６５號１樓,120.6431,24.07523,(04)23353666,羅氏家用新冠病毒抗原自我檢測套組,10,2022/05/04 16:31:02,快篩實名制，每天16:00開始販售，售完為止。
5903160097,安昌藥局,臺中市大肚區遊園路二段１７６號１樓,120.5808,24.17289,(04)26913890,羅氏家用新冠病毒抗原自我檢測套組,78,2022/05/04 16:31:02,每天晚上19:00點開始現場排隊販賣快篩試劑.
5903180142,峰正藥局,臺中市霧峰區中正路８３０號１樓,120.6987,24.06244,(04)23303353,羅氏家用新冠病毒抗原自我檢測套組,2,2022/05/04 16:31:02,快篩實名制，每天16:00開始販售，售完為止。
5903190148,亞洲藥師連鎖大藥局,臺中市太平區中山路２段４５８號,120.7253,24.14984,(04)23921681,羅氏家用新冠病毒抗原自我檢測套組,2,2022/05/04 16:31:02,實名制快篩，每天14:30開賣，一人一卡，請自備500元
5903190228,中山德侑藥局,臺中市太平區中山路３段２之２號１樓,120.7222,24.14942,(04)23920682,羅氏家用新冠病毒抗原自我檢測套組,1,2022/05/04 16:31:02,因政府配送時間不定故每日快篩販售時間視情況調整 可來電詢問
5903190273,太平小林健保藥局,臺中市太平區育賢路５１８號,120.7133,24.15883,(04)23954436,羅氏家用新冠病毒抗原自我檢測套組,3,2022/05/04 16:31:02,每天早上8點發號碼牌，下午4:30販售口罩
5903190362,太平中山藥局,臺中市太平區中山路４段１１號,120.7139,24.14931,(04)23959200,羅氏家用新冠病毒抗原自我檢測套組,17,2022/05/04 16:31:02,快篩實名制，每天16:00開始販售，售完為止。
5903200149,祥佑健保特約藥局,臺中市大里區中興路２段４０６號,120.6901,24.10769,(04)24866398,羅氏家用新冠病毒抗原自我檢測套組,86,2022/05/04 16:31:02,政府快篩代售時間:
5903200229,信元藥局,臺中市大里區益民路２段３７２號１樓,120.684,24.11545,(04)24876051,羅氏家用新冠病毒抗原自我檢測套組,65,2022/05/04 16:31:02,下午5點發號碼牌並依序販賣
5903200372,國光丁丁藥局,臺中市大里區國光路２段５５１－１號１樓,120.6788,24.11241,(04)24069711,羅氏家用新冠病毒抗原自我檢測套組,2,2022/05/04 16:31:02,星期一至星期日早上9點依排隊順序直接領取
5903200596,大樹大里藥局,臺中市大里區中興路二段１０１號,120.6885,24.10305,(04)24861133,羅氏家用新冠病毒抗原自我檢測套組,1,2022/05/04 16:31:02,快篩實名制，每天16:00開始販售，售完為止。
5903200667,永欣東榮藥局,臺中市大里區東榮路３７０號１樓,120.6836,24.11032,(04)24810599,羅氏家用新冠病毒抗原自我檢測套組,2,2022/05/04 16:31:02,快篩發放無特定時間.收到貨即發放.營業時間早上08:30至晚上10:00
5903200685,塗城藥局,臺中市大里區中興路一段１８７、１８９、１９１號１樓,120.6933,24.09008,(04)24967234,羅氏家用新冠病毒抗原自我檢測套組,1,2022/05/04 16:31:02,快篩實名制，每天16:00開始販售，售完為止。
5903230227,東區小林健保藥局,臺中市東區十甲路４８５號１樓,120.7104,24.14464,(04)22135148,羅氏家用新冠病毒抗原自我檢測套組,3,2022/05/04 16:31:02,無
5903240447,大樹五權藥局,臺中市西區五權路９７－１號１樓,120.6717,24.14626,(04)22022910,羅氏家用新冠病毒抗原自我檢測套組,1,2022/05/04 16:31:02,快篩實名制，每天16:00開始販售，售完為止。
5903250612,杏一南區台中藥局,臺中市南區台中路６６、６８號１樓,120.683,24.1339,(04)22220652,羅氏家用新冠病毒抗原自我檢測套組,7,2022/05/04 16:31:02,每日下午4點開始販售實名制快篩，售完為止。一人一卡一盒
5903250658,田園藥局,臺中市南區學府路１６０號１樓,120.6742,24.12909,(04)22220605,羅氏家用新冠病毒抗原自我檢測套組,157,2022/05/04 16:31:02,每週三公休。5／5（週四） 14:00開始販售，一人限一卡
5903260449,喜樂藥局,臺中市北區中清路１段３１號,120.677,24.1529,(04)22060423,羅氏家用新冠病毒抗原自我檢測套組,11,2022/05/04 16:31:02,無
5903260707,新藥林藥局,臺中市北區健行路４４５－５號１樓,120.6803,24.15896,(04)22053458,羅氏家用新冠病毒抗原自我檢測套組,157,2022/05/04 16:31:02,營業時間:11點~晚上7點.快篩:星期一~星期五 下午3點開始，星期六下午一點，星期三.日公休，現場排隊
5903260789,瑞昌藥局,臺中市北區學士路１５５號１樓,120.6807,24.15841,(04)22056819,羅氏家用新冠病毒抗原自我檢測套組,1,2022/05/04 16:31:02,每日中午9:00開始販售，販售至21:30（周日不販售）
5903270721,舒健藥局,臺中市西屯區西屯路二段２５５號２樓,120.6459,24.17179,(04)27077858,羅氏家用新冠病毒抗原自我檢測套組,78,2022/05/04 16:31:02,公費快篩試劑於周一至周六晚上7點現場排隊購買，週日公休。
5903270801,榮友藥局,臺中市西屯區臺灣大道四段１７４２號,120.6024,24.18286,(04)23508392,羅氏家用新冠病毒抗原自我檢測套組,78,2022/05/04 16:31:02,05／04  實名快篩已售完，網路顯示數量不正確，謝謝
5903270865,尚禾藥局,臺中市西屯區青海路一段６５號,120.6548,24.16438,(04)23147688,羅氏家用新冠病毒抗原自我檢測套組,118,2022/05/04 16:31:02,實名制快篩發放：時段一中午12:30~14:00。時段二20：30~22：30。時段一若未發完，餘量將遞延至時段二發放。周日停售。
5903270883,祥和大藥局,臺中市西屯區青海路二段２４０－９號,120.6418,24.17323,(04)27000122,羅氏家用新冠病毒抗原自我檢測套組,67,2022/05/04 16:31:02,快篩販售時間：每日下午5點至夜間10點。
5903270927,河南小林健保藥局,臺中市西屯區河南路二段２９８號１樓,120.6485,24.17477,(04)24512830,羅氏家用新冠病毒抗原自我檢測套組,18,2022/05/04 16:31:02,固定每日早上8點發放口罩號碼牌，下午4點半開始販售。
5903271031,美十樂中科藥局,臺中市西屯區西屯路三段１６６－６５號１樓,120.6129,24.19035,(04)24610219,羅氏家用新冠病毒抗原自我檢測套組,468,2022/05/04 16:31:02,醫事人員卡片損壞，暫時無法販賣快篩
5903271102,杏東美藥局,臺中市西屯區智惠街１５６號１樓,120.6438,24.17032,(04)24523798,羅氏家用新冠病毒抗原自我檢測套組,78,2022/05/04 16:31:02,快篩實名制5／4  19:00發放
5903271175,維康中榮藥局,臺中市西屯區東大路一段１３號１樓,120.6022,24.18315,(04)23593195,羅氏家用新冠病毒抗原自我檢測套組,1,2022/05/04 16:31:02,無
5903271193,何安藥局,臺中市西屯區西屯路二段１０１號Ｂ棟１樓,120.6531,24.16616,(04)23161110,羅氏家用新冠病毒抗原自我檢測套組,20,2022/05/04 16:31:02,快篩實名制，每天16:00開始販售，售完為止。
5903271246,柏醫藥局,臺中市西屯區上安路５６號１樓,120.6412,24.17052,(04)24526391,羅氏家用新冠病毒抗原自我檢測套組,78,2022/05/04 16:31:02,因應到貨時間不定，統一晚上7點開放78組（5／4已到貨、庫存顯示是星期日沒開但自動匯入庫存）
5903280165,南屯福倫藥局,臺中市南屯區南屯路２段３１７號,120.6456,24.13754,(04)24758018,羅氏家用新冠病毒抗原自我檢測套組,78,2022/05/04 16:31:02,實名制快篩: 晚上6:00開始販售.售完為止
5903280245,大墩何藥局,臺中市南屯區大敦南路４３１號１．２樓,120.6476,24.13497,(04)24710655,羅氏家用新冠病毒抗原自我檢測套組,16,2022/05/04 16:31:02,防疫用快篩試劑下午4點開始販售，售完為止
5903280807,大樹南屯藥局,臺中市南屯區向上路一段６４３號１樓,120.6486,24.14659,(04)24758887,羅氏家用新冠病毒抗原自我檢測套組,1,2022/05/04 16:31:02,快篩實名制，每天16:00開始販售，售完為止。
5903280816,大育藥局,臺中市南屯區東興路二段７１號１樓,120.6528,24.13835,(04)24755656,羅氏家用新冠病毒抗原自我檢測套組,78,2022/05/04 16:31:02,每日固定晚上6點開賣 現場發放號碼牌
5903290385,元復藥局,臺中市北屯區東山路１段２２５－７號,120.7155,24.17475,(04)24362075,羅氏家用新冠病毒抗原自我檢測套組,5,2022/05/04 16:31:02,上午7:20-7:40及8:20起發號碼牌。
5903290572,合健藥局,臺中市北屯區大連路一段５４－１號,120.6726,24.17565,(04)22951833,羅氏家用新冠病毒抗原自我檢測套組,78,2022/05/04 16:31:02,口罩星期一到星期六，販賣時間12:00~18:00.
5903290689,大德安藥局,臺中市北屯區景賢路２３６號,120.7241,24.16701,(04)24378351,羅氏家用新冠病毒抗原自我檢測套組,3,2022/05/04 16:31:02,口罩代售時間從週一到週六09:00~現場排隊售完為止星期日早上10:00起至售完為止
5903290876,北屯軍功藥局,臺中市北屯區軍功路一段７５２號,120.7193,24.17513,(04)24375111,羅氏家用新冠病毒抗原自我檢測套組,5,2022/05/04 16:31:02,快篩實名制，每天16:00開始販售，售完為止。
5903290894,豐禾藥局,臺中市北屯區同榮路１６３號,120.6618,24.19589,(04)24260588,羅氏家用新冠病毒抗原自我檢測套組,78,2022/05/04 16:31:02,快篩試劑於每日下午5點販售，星期日停售
5903291060,大樹北屯藥局,臺中市北屯區松竹路二段４１１號１樓,120.6895,24.18192,(04)22422262,羅氏家用新冠病毒抗原自我檢測套組,21,2022/05/04 16:31:02,快篩實名制，每天16:00開始販售，售完為止。
5903291131,兩隻老虎藥局,臺中市北屯區崇德路２段１２號１樓,120.6855,24.16869,(04)22364635,羅氏家用新冠病毒抗原自我檢測套組,1,2022/05/04 16:31:02,營業時間早上九點到晚上九點半（快篩下午兩點開賣）
5903291168,日初藥局,臺中市北屯區軍功路一段４８２－３號１樓,120.7188,24.17102,(04)24363150,羅氏家用新冠病毒抗原自我檢測套組,61,2022/05/04 16:31:02,無
5903291177,大連何藥局,臺中市北屯區山西路二段２７４號１樓,120.677,24.177,(04)22930895,羅氏家用新冠病毒抗原自我檢測套組,16,2022/05/04 16:31:02,因應配送時間不一，販賣時間改為下午四點。
5903291211,愛樂芬兒童藥局,臺中市北屯區松竹路一段９２９號１樓,120.7131,24.18216,(04)24363660,羅氏家用新冠病毒抗原自我檢測套組,79,2022/05/04 16:31:02,（系統登記數量錯誤，今日配送尚未抵達，實際目前無庫存）因配送時間不固定，預定下午四點開始販售
5905010072,長壽藥局,臺南市新營區中山路２１９號,120.3146,23.30286,(06)6324001,羅氏家用新冠病毒抗原自我檢測套組,39,2022/05/04 16:31:02,口罩販售時間：8:00~售完
5905010143,啄木鳥藥師藥局,臺南市新營區新南里民治路２４２號,120.3041,23.30767,(06)6590248,羅氏家用新冠病毒抗原自我檢測套組,1,2022/05/04 16:31:02,5／4下午4點銷售
5905010250,大樹新營藥局,臺南市新營區民權路７４、７６、７８號１樓,120.3127,23.30615,(06)6328300,羅氏家用新冠病毒抗原自我檢測套組,3,2022/05/04 16:31:02,快篩實名制，每天16:00開始販售，售完為止。
5905030047,大源醫藥局,臺南市白河區中山路１７２之２號,120.4177,23.35257,(06)6852306,羅氏家用新冠病毒抗原自我檢測套組,1,2022/05/04 16:31:02,防疫快篩，每周一至日，上午7:30~晚上9:00販售，售完為止
5905030092,大樹白河藥局,臺南市白河區中山路１５３號１樓,120.417,23.35255,(06)6830006,羅氏家用新冠病毒抗原自我檢測套組,32,2022/05/04 16:31:02,快篩實名制，每天16:00開始販售，售完為止。
5905070050,晶德昌藥局,臺南市善化區文光里中山路８５號,120.3034,23.13298,(06)5856141,羅氏家用新冠病毒抗原自我檢測套組,1,2022/05/04 16:31:02,14:30-16:00.依號碼牌售完為止
5905070121,大樹善化藥局,臺南市善化區民權路５４、５６、５８號１樓,120.3034,23.1322,(06)5830550,羅氏家用新冠病毒抗原自我檢測套組,1,2022/05/04 16:31:02,快篩實名制，每天16:00開始販售，售完為止。
5905080056,大樹學甲藥局,臺南市學甲區中正路１３５號１樓,120.1793,23.23029,(06)7820001,羅氏家用新冠病毒抗原自我檢測套組,12,2022/05/04 16:31:02,快篩實名制，每天16:00開始販售，售完為止。
5905200085,大樹新市藥局,臺南市新市區中正路４９、５１號１樓,120.2916,23.07223,(06)5892552,羅氏家用新冠病毒抗原自我檢測套組,23,2022/05/04 16:31:02,快篩實名制，每天16:00開始販售，售完為止。
5905270041,仁德市安藥師藥局,臺南市仁德區中正西路２５號,120.2244,22.91814,(06)2661933,羅氏家用新冠病毒抗原自我檢測套組,1,2022/05/04 16:31:02,快篩販賣：5／2~以貨運配送抵達時間再決定販售時間 暫定14:00開始販售
5905270176,大樹仁德藥局,臺南市仁德區中正路二段１１５２號１樓,120.2519,22.97062,(06)2797466,羅氏家用新冠病毒抗原自我檢測套組,15,2022/05/04 16:31:02,快篩實名制，每天16:00開始販售，售完為止。
5905280109,大樹青青藥局,臺南市歸仁區中山路三段１２號,120.2875,22.96765,(06)2300301,羅氏家用新冠病毒抗原自我檢測套組,1,2022/05/04 16:31:02,快篩實名制，每天16:00開始販售，售完為止。
5905311010,樂丞藥局,臺南市永康區中正北路６０號１樓,120.2406,23.04138,(06)2433319,羅氏家用新冠病毒抗原自我檢測套組,78,2022/05/04 16:31:02,快篩販售時間：晚上七點開賣至售完
5905311074,中華長億藥局,臺南市永康區中華路７３４、７３６號１樓,120.2288,23.0167,(06)3022322,羅氏家用新冠病毒抗原自我檢測套組,22,2022/05/04 16:31:02,快篩實名制，每天16:00開始販售，售完為止。
5905320466,佑全中華藥局,臺南市東區中華東路三段２１５號,120.2253,22.97603,(06)2906386,羅氏家用新冠病毒抗原自我檢測套組,2,2022/05/04 16:31:02,星期一-六08:00-21:00
5905320564,杏一台南崇德藥局,臺南市東區崇德路６７４號,120.2274,22.96762,(06)2671939,羅氏家用新冠病毒抗原自我檢測套組,4,2022/05/04 16:31:02,健保快篩發送時間:周一至周日:下午:15:00
5905320706,悅橙藥局,臺南市東區崇明路４５９號１樓,120.2247,22.97311,(06)2605168,羅氏家用新冠病毒抗原自我檢測套組,2,2022/05/04 16:31:02,快篩每日實際販售時間為下午3點整
5905320804,大樹大同藥局,臺南市東區大同路二段２２７、２２９號１樓,120.2143,22.97567,(06)2158700,羅氏家用新冠病毒抗原自我檢測套組,1,2022/05/04 16:31:02,快篩實名制，每天16:00開始販售，售完為止。
5905320886,中華崇德藥局,臺南市東區中華東路三段１８１、１８３號１樓,120.2259,22.97667,(06)2880800,羅氏家用新冠病毒抗原自我檢測套組,29,2022/05/04 16:31:02,快篩實名制，每天16:00開始販售，售完為止。
5905320911,大樹崇道藥局,臺南市東區崇道路６３號１樓,120.2272,22.97227,(06)2680456,羅氏家用新冠病毒抗原自我檢測套組,1,2022/05/04 16:31:02,快篩實名制，每天16:00開始販售，售完為止。
5905350366,千多藥局,臺南市北區金華路五段１號,120.1962,23.0016,(06)2228641,羅氏家用新冠病毒抗原自我檢測套組,78,2022/05/04 16:31:02,晚上6點開始銷售實名制快篩試劑，賣完為止
5905370304,大樹安南藥局,臺南市安南區安和路四段５５７號１樓,120.2185,23.06181,(06)3563370,羅氏家用新冠病毒抗原自我檢測套組,10,2022/05/04 16:31:02,快篩實名制，每天16:00開始販售，售完為止。
5905380426,好朋友藥師藥局,臺南市安平區建平七街６８３號１樓,120.1692,22.98999,(06)2997907,羅氏家用新冠病毒抗原自我檢測套組,78,2022/05/04 16:31:02,快篩因到貨時間不確定，如當天到貨晚上7點販售
5907010454,上泰健保藥局,高雄市鳳山區鎮西里中華街２７號１樓,120.3559,22.62698,(07)7455127,羅氏家用新冠病毒抗原自我檢測套組,102,2022/05/04 16:31:02,5／4 配售之快篩目前開始販售，售完為止。1300~~1600店休
5907010525,長青連鎖藥局光遠店,高雄市鳳山區光遠路２７１號１樓,120.3588,22.62596,(07)7103487,羅氏家用新冠病毒抗原自我檢測套組,21,2022/05/04 16:31:02,無
5907011095,鳳山五甲藥局,高雄市鳳山區正義里五甲二路１３９號１樓,120.3409,22.6014,(07)7269899,羅氏家用新冠病毒抗原自我檢測套組,3,2022/05/04 16:31:02,快篩實名制，每天16:00開始販售，售完為止。
5907011148,大樹國泰藥局,高雄市鳳山區興仁里五甲一路２９２號,120.3539,22.61698,(07)7407234,羅氏家用新冠病毒抗原自我檢測套組,28,2022/05/04 16:31:02,快篩實名制，每天16:00開始販售，售完為止。
5907011175,鳳西藥局,高雄市鳳山區忠義里中山西路２３８號１樓,120.3471,22.62831,(07)7902717,羅氏家用新冠病毒抗原自我檢測套組,38,2022/05/04 16:31:02,快篩實名制，每天16:00開始販售，售完為止。
5907011228,鳳山青年藥局,高雄市鳳山區文德里青年路二段３９９號１樓,120.3513,22.64292,(07)7678383,羅氏家用新冠病毒抗原自我檢測套組,28,2022/05/04 16:31:02,口罩販售時間：14:00 - 16:00
5907011317,凱旋藥局,高雄市鳳山區國隆里新富路３７３號１樓,120.3475,22.61494,(07)7671181,羅氏家用新冠病毒抗原自我檢測套組,25,2022/05/04 16:31:02,快篩實名制，每天16:00開始販售，售完為止。
5907011371,大樹五甲藥局,高雄市鳳山區福祥里五甲三路２４號１－２樓．２６號１－２樓,120.3278,22.59317,(07)8224926,羅氏家用新冠病毒抗原自我檢測套組,1,2022/05/04 16:31:02,快篩實名制，每天16:00開始販售，售完為止。
5907011406,長青連鎖藥局大士店,高雄市鳳山區五甲一路１３９號１樓,120.3562,22.61968,(07)7104618,羅氏家用新冠病毒抗原自我檢測套組,29,2022/05/04 16:31:02,無
5907020030,鑫德昌藥局,高雄市岡山區溪東路３８號１樓,120.2915,22.79249,(07)6233338,羅氏家用新冠病毒抗原自我檢測套組,1,2022/05/04 16:31:02,實名制快篩 販售時間 14:30-16:00
5907020094,大樹岡山藥局,高雄市岡山區岡山路１３６號,120.2967,22.78913,(07)6219477,羅氏家用新冠病毒抗原自我檢測套組,5,2022/05/04 16:31:02,快篩實名制，每天16:00開始販售，售完為止。
5907030072,旗美藥局,高雄市旗山區東平里延平二路４１號,120.4933,22.882,(07)6629839,羅氏家用新冠病毒抗原自我檢測套組,70,2022/05/04 16:31:02,實名制快篩劑購買時間為下午14:00~20:00
5907030134,旗山啄木鳥藥局,高雄市旗山區中華路１０５０號,120.4828,22.87904,(07)6625728,羅氏家用新冠病毒抗原自我檢測套組,4,2022/05/04 16:31:02,發口罩時間:09:00-19:00
5907030152,旗山藥局,高雄市旗山區中華路２３號,120.4841,22.88027,(07)6621158,羅氏家用新冠病毒抗原自我檢測套組,88,2022/05/04 16:31:02,快篩實名制，每天16:00開始販售，售完為止。
5907050109,林園藥局,高雄市林園區仁愛路１３號１樓,120.3928,22.50418,(07)6425855,羅氏家用新冠病毒抗原自我檢測套組,38,2022/05/04 16:31:02,快篩實名制，每天16:00開始販售，售完為止。
5907060221,淑德健保藥局,高雄市大寮區內坑里淑德新村１號３樓,120.3707,22.58833,(07)7923556,羅氏家用新冠病毒抗原自我檢測套組,150,2022/05/04 16:31:02,無
5907060230,華思中西藥局,高雄市大寮區永芳里進學路１２２號１樓,120.3933,22.60468,(07)7835567,羅氏家用新冠病毒抗原自我檢測套組,54,2022/05/04 16:31:02,星期一~星期六 下午四點販售實名制快篩到售完為止   星期天店休
5907070030,久堂藥局,高雄市大樹區久堂里久堂路１３６號１樓,120.4178,22.65813,(07)6512800,羅氏家用新冠病毒抗原自我檢測套組,24,2022/05/04 16:31:02,快篩實名制，每天16:00開始販售，售完為止。
5907080232,大樹仁武藥局,高雄市仁武區赤山里仁雄路８０－９號,120.3469,22.67811,(07)3744777,羅氏家用新冠病毒抗原自我檢測套組,29,2022/05/04 16:31:02,快篩實名制，每天16:00開始販售，售完為止。
5907080330,文武藥局,高雄市仁武區文武里中華路３５３號,120.3535,22.7011,(07)3733551,羅氏家用新冠病毒抗原自我檢測套組,35,2022/05/04 16:31:02,快篩實名制，每天16:00開始販售，售完為止。
5907120017,和德藥局燕巢店,高雄市燕巢區西燕里中民路６２８號,120.3612,22.79345,(07)6143499,羅氏家用新冠病毒抗原自我檢測套組,78,2022/05/04 16:31:02,每日下午17:00~18:00販售快篩，『現場排隊購買，不發放號碼牌，1人限2張健保卡』，售完為止
5907150177,佑安藥局,高雄市路竹區中和街１８２號,120.2575,22.85889,(07)6072215,羅氏家用新冠病毒抗原自我檢測套組,78,2022/05/04 16:31:02,星期一至六08:00開始販售；星期日無販售，售完為止
5907200047,永恒健康生活藥局,高雄市梓官區智蚵里通安路１７６號１樓,120.252,22.7307,(07)6102755,羅氏家用新冠病毒抗原自我檢測套組,1,2022/05/04 16:31:02,營業時間週一到週日早上8:30至晚上9:30  實名制快篩 每天下午3:00 開始
5907240014,博林健保藥局,高雄市內門區觀亭里中正路１６０巷５１號,120.4539,22.9232,(07)6671883,羅氏家用新冠病毒抗原自我檢測套組,137,2022/05/04 16:31:02,自2／11日~2／29日，營業日07:40~18:00為販賣口罩時間，售完為止
5907280036,七賢藥局,高雄市鹽埕區七賢三路１６２號１樓,120.2829,22.62712,(07)5330616,羅氏家用新冠病毒抗原自我檢測套組,14,2022/05/04 16:31:02,快篩實名制，每天16:00開始販售，售完為止。
5907290265,新美館藥局,高雄市鼓山區中華一路９７２號,120.2919,22.65513,(07)5522006,羅氏家用新冠病毒抗原自我檢測套組,3,2022/05/04 16:31:02,今日下午2:00開賣快篩，從騎樓排隊領取
5907290309,鼓山藥局,高雄市鼓山區華榮路１０號,120.2973,22.66156,(07)5520017,羅氏家用新冠病毒抗原自我檢測套組,15,2022/05/04 16:31:02,快篩實名制，每天16:00開始販售，售完為止。
5907300211,勁好健保藥局,高雄市左營區果峰街１２巷２６號１樓,120.2881,22.67178,(07)5855767,羅氏家用新冠病毒抗原自我檢測套組,52,2022/05/04 16:31:02,無
5907300417,森森藥師藥局,高雄市左營區緯六路２１５號１樓,120.2874,22.69707,(07)5853600,羅氏家用新冠病毒抗原自我檢測套組,10,2022/05/04 16:31:02,W1~W5 8~19點；星期六 8:30~12點；快篩售完為止
5907300515,詮裕藥局,高雄市左營區華夏路７０６號１樓,120.3022,22.6778,(07)3453942,羅氏家用新冠病毒抗原自我檢測套組,78,2022/05/04 16:31:02,星期一到星期六早上8點銷售到售完為止.星期日---無
5907300588,明禾藥局,高雄市左營區華夏路１７３２號１樓,120.3204,22.68777,(07)3493734,羅氏家用新冠病毒抗原自我檢測套組,58,2022/05/04 16:31:02,快篩販賣時間早上10點開始
5907300613,新高橋藥局河堤店,高雄市左營區裕誠路１４４號１樓及地下１樓,120.3095,22.66423,(07)5582806,羅氏家用新冠病毒抗原自我檢測套組,2,2022/05/04 16:31:02,下午1:30開始販售口罩至下午5:30
5907300631,大樹孟子藥局,高雄市左營區孟子路２２６、２２８號,120.3112,22.67415,(07)3461772,羅氏家用新冠病毒抗原自我檢測套組,3,2022/05/04 16:31:02,快篩實名制，每天16:00開始販售，售完為止。
5907300677,佳寧峰藥局,高雄市左營區部後街２號,120.2886,22.6834,(07)5886408,羅氏家用新冠病毒抗原自我檢測套組,154,2022/05/04 16:31:02,快篩試劑販賣時段:上午8:30起至售完為止
5907300686,左營自由藥局,高雄市左營區自由二路３５０、３５０－１號,120.3091,22.66599,(07)5589991,羅氏家用新冠病毒抗原自我檢測套組,37,2022/05/04 16:31:02,快篩實名制，每天16:00開始販售，售完為止。
5907300748,翔生藥局合群店,高雄市左營區緯六路２５６號,120.2871,22.6976,(07)5880055,羅氏家用新冠病毒抗原自我檢測套組,5,2022/05/04 16:31:02,實名制快篩販售時間：星期一至星期五，售完為止
5907300766,悠仁藥局,高雄市左營區自由三路１７０號,120.3113,22.67165,(07)3457979,羅氏家用新冠病毒抗原自我檢測套組,53,2022/05/04 16:31:02,一~五的營業時間為0800~1200／1530~1800／1830~2100 六日的營業時間為0900
5907300800,元大藥師健保藥局,高雄市左營區榮德街３２７號,120.3211,22.68636,(07)3507531,羅氏家用新冠病毒抗原自我檢測套組,21,2022/05/04 16:31:02,無
5907300882,得孚社區藥局,高雄市左營區重立路５３３號１樓,120.3098,22.67955,(07)3410121,羅氏家用新冠病毒抗原自我檢測套組,29,2022/05/04 16:31:02,營業日上午09:30-11:30為販賣口罩時間.三四下午200-400販售
5907300926,高鐵藥局,高雄市左營區華夏路１３２２．１３２６號,120.312,22.68587,(07)3452797,羅氏家用新冠病毒抗原自我檢測套組,15,2022/05/04 16:31:02,快篩實名制，每天16:00開始販售，售完為止。
5907300944,左營藥局,高雄市左營區華夏路３２５號,120.2972,22.67167,(07)5501017,羅氏家用新冠病毒抗原自我檢測套組,22,2022/05/04 16:31:02,快篩實名制，每天16:00開始販售，售完為止。
5907300980,大路藥局,高雄市左營區左營大路５５－２號１樓,120.2877,22.6813,(07)5851001,羅氏家用新冠病毒抗原自我檢測套組,30,2022/05/04 16:31:02,快篩實名制，每天16:00開始販售，售完為止。
5907301012,新高橋藥局華夏店,高雄市左營區華夏路１１１０號,120.3085,22.68343,(07)3410915,羅氏家用新冠病毒抗原自我檢測套組,22,2022/05/04 16:31:02,無
5907310262,大樹楠梓藥局,高雄市楠梓區軍校路９０８號,120.2919,22.71246,(07)3632322,羅氏家用新冠病毒抗原自我檢測套組,2,2022/05/04 16:31:02,快篩實名制，每天16:00開始販售，售完為止。
5907310351,惠民楠梓藥局,高雄市楠梓區建楠路２１７號,120.3248,22.72689,(07)3521896,羅氏家用新冠病毒抗原自我檢測套組,78,2022/05/04 16:31:02,上面數量顯示78盒，是系統錯誤，快篩已經賣完了，麥擱卡啊!!平常二點開始發，發完為止；記得備防疫包，增強免疫力
5907310404,藍田藥局,高雄市楠梓區藍田路１號,120.2953,22.72643,(07)3601236,羅氏家用新冠病毒抗原自我檢測套組,31,2022/05/04 16:31:02,快篩實名制，每天16:00開始販售，售完為止。
5907320535,康誠藥局,高雄市三民區建工路６１６號,120.3228,22.64934,(07)3893889,羅氏家用新冠病毒抗原自我檢測套組,40,2022/05/04 16:31:02,星期一~星期日早上09：30~11：50。星期一~星期六下午15：30~17：50、晚上19：30~21：20
5907320768,心樂保健藥局,高雄市三民區光裕路７８號１樓,120.3331,22.63789,(07)3855377,羅氏家用新冠病毒抗原自我檢測套組,192,2022/05/04 16:31:02,星期一到星期四上午8:30-12:00，下午15:00-18:00（口罩售完為止）. 星期五下午14:00-17:00，18:00-20:30（售完為止）
5907320811,力生藥局,高雄市三民區鼎中路１６８號１樓,120.3194,22.6622,(07)3105231,羅氏家用新冠病毒抗原自我檢測套組,15,2022/05/04 16:31:02,營業日星期一~星期五11點起、星期六~星期日晚上6點 開始販賣（實名制快篩）.售完為止
5907320848,仕康健保藥妝藥局,高雄市三民區建興路２２２號,120.325,22.6447,(07)3845050,羅氏家用新冠病毒抗原自我檢測套組,78,2022/05/04 16:31:02,下午3點販售，現場排隊
5907320857,陽明上鼎藥師健保藥局,高雄市三民區陽明路１０１號１樓,120.3413,22.64008,(07)3962358,羅氏家用新冠病毒抗原自我檢測套組,78,2022/05/04 16:31:02,藥局販售口罩時間，14:45發放號碼牌.15:00過卡（售完為止）
5907320866,意朋建興藥局,高雄市三民區建興路２２５號１樓,120.3251,22.64418,(07)3929507,羅氏家用新冠病毒抗原自我檢測套組,1,2022/05/04 16:31:02,口罩領取時間:W1~W日（AM1100~換完為止）
5907320893,大樹天祥藥局,高雄市三民區天祥一路１６７號,120.3191,22.66737,(07)3429902,羅氏家用新冠病毒抗原自我檢測套組,13,2022/05/04 16:31:02,快篩實名制，每天16:00開始販售，售完為止。
5907320900,大昌藥局,高雄市三民區大昌二路３９７號,120.3317,22.64915,(07)3961396,羅氏家用新冠病毒抗原自我檢測套組,15,2022/05/04 16:31:02,快篩實名制，每天16:00開始販售，售完為止。
5907320919,心寬福藥局,高雄市三民區大順二路７１８號一樓,120.3193,22.65359,(07)3832366,羅氏家用新冠病毒抗原自我檢測套組,78,2022/05/04 16:31:02,週一到週五上午9:00-12:00、下午14:00-20:00，週六下午14:00-20:00販售口罩，週日公休。
5907320946,熊安心藥局,高雄市三民區陽明路４０８號,120.3429,22.64609,(07)3815212,羅氏家用新冠病毒抗原自我檢測套組,94,2022/05/04 16:31:02,週一 ~ 週六 AM8:00-PM10:00，快篩分兩梯次販售，14:00有63份，19:00有15份
5907321005,諾亞藥局,高雄市三民區鼎華路１４號１樓,120.3164,22.65139,(07)3929966,羅氏家用新冠病毒抗原自我檢測套組,101,2022/05/04 16:31:02,無
5907321032,三民明誠藥局,高雄市三民區明誠一路５００號１－２Ｆ及５０２號,120.3223,22.66046,(07)3493137,羅氏家用新冠病毒抗原自我檢測套組,10,2022/05/04 16:31:02,快篩試劑下午2:00販售
5907321069,桂林活力藥局九如店,高雄市三民區懷安街１１２號１樓,120.3176,22.64095,(07)3981009,羅氏家用新冠病毒抗原自我檢測套組,15,2022/05/04 16:31:02,每天15:30發號碼牌，於18:00前兌換完畢，逾期棄權，剩餘則繼續發放
5907321096,建工丁丁藥局,高雄市三民區建工路５６８號,120.3244,22.65015,(07)3830841,羅氏家用新冠病毒抗原自我檢測套組,19,2022/05/04 16:31:02,無
5907321103,自由藥局,高雄市三民區自由一路７８號,120.3089,22.64422,(07)3223113,羅氏家用新冠病毒抗原自我檢測套組,9,2022/05/04 16:31:02,快篩實名制，每天16:00開始販售，售完為止。
5907330200,新興復興藥局,高雄市新興區復興一路７６號１樓,120.3085,22.63312,(07)2352550,羅氏家用新冠病毒抗原自我檢測套組,41,2022/05/04 16:31:02,快篩實名制，每天16:00開始販售，售完為止。
5907330219,美麗島台安藥局,高雄市新興區中山一路１１５號地下２樓（轉換層）,120.3015,22.63155,(07)2365490,羅氏家用新冠病毒抗原自我檢測套組,29,2022/05/04 16:31:02,位於美麗島捷運站內，往西子灣方向地下二樓。快篩試劑到貨時間不穩定，可來電詢問（07-2365490）
5907340046,銘益藥局,高雄市前金區七賢二路２０８、２１０號１樓,120.2951,22.63314,(07)2853107,羅氏家用新冠病毒抗原自我檢測套組,4,2022/05/04 16:31:02,無
5907350113,英祥藥局,高雄市苓雅區英祥街１９號,120.3257,22.61678,(07)7522786,羅氏家用新冠病毒抗原自我檢測套組,100,2022/05/04 16:31:02,無
5907350506,大樹苓雅藥局,高雄市苓雅區中華四路１５３號,120.3001,22.61783,(07)5353111,羅氏家用新冠病毒抗原自我檢測套組,5,2022/05/04 16:31:02,快篩實名制，每天16:00開始販售，售完為止。
5907350533,健群藥局,高雄市苓雅區安業路４０號,120.3231,22.62731,(07)7150097,羅氏家用新冠病毒抗原自我檢測套組,155,2022/05/04 16:31:02,無
5907350551,大樹武廟藥局,高雄市苓雅區武廟路４３、４５號１樓,120.3314,22.63005,(07)7222268,羅氏家用新冠病毒抗原自我檢測套組,31,2022/05/04 16:31:02,快篩實名制，每天16:00開始販售，售完為止。
5907350631,三多藥局,高雄市苓雅區三多二路２９２號１樓,120.3173,22.61838,(07)3365889,羅氏家用新冠病毒抗原自我檢測套組,33,2022/05/04 16:31:02,快篩實名制，每天16:00開始販售，售完為止。
5907350659,北京藥局林泉店,高雄市苓雅區林泉里３鄰林泉街３５號１樓,120.3192,22.62323,(07)7263030,羅氏家用新冠病毒抗原自我檢測套組,543,2022/05/04 16:31:02,無
5907360360,親親藥局,高雄市前鎮區天山路１０巷６號,120.3151,22.60991,(07)3391078,羅氏家用新冠病毒抗原自我檢測套組,80,2022/05/04 16:31:02,周日休假，停售快篩!!!5／4快篩已售完
5907360548,芳鄰藥局,高雄市前鎮區中華五路９９３號１樓,120.3059,22.60262,(07)5361134,羅氏家用新冠病毒抗原自我檢測套組,179,2022/05/04 16:31:02,快篩實名制販售時間：週一～週五下午３點～５點，週六早上８點～１０點，週日不販售
5907360566,祥安健保藥局,高雄市前鎮區復興三路３９３號１樓,120.3116,22.61373,(07)3340393,羅氏家用新冠病毒抗原自我檢測套組,78,2022/05/04 16:31:02,無
5907360628,風鈴藥局,高雄市前鎮區管仲路３７號,120.3117,22.60649,(07)5367833,羅氏家用新冠病毒抗原自我檢測套組,156,2022/05/04 16:31:02,販售快篩：19:30-21:30 依照配送調整販售時間（周日公休）
5907360664,忠純藥局,高雄市前鎮區中華五路１００９號１樓,120.3056,22.60341,(07)3366886,羅氏家用新冠病毒抗原自我檢測套組,26,2022/05/04 16:31:02,快篩實名制，每天16:00開始販售，售完為止。
5907360673,前鎮大樹藥局,高雄市前鎮區瑞隆路４７２號１樓,120.3291,22.60547,(07)7137171,羅氏家用新冠病毒抗原自我檢測套組,2,2022/05/04 16:31:02,快篩實名制，每天16:00開始販售，售完為止。
5907370053,瑞康藥師藥局,高雄市旗津區中洲三路５９７號,120.2724,22.60775,(07)5718985,羅氏家用新冠病毒抗原自我檢測套組,36,2022/05/04 16:31:02,藥局販售口罩時間，依藥局門口公告時間為主（售完為止）
5907380353,桂林活力藥師藥局漢民店,高雄市小港區漢民路６９１－１及６９１－２號１樓,120.3614,22.56762,(07)8010636,羅氏家用新冠病毒抗原自我檢測套組,2,2022/05/04 16:31:02,無
5907380424,大樹小港藥局,高雄市小港區康莊路７５號１樓,120.3559,22.56853,(07)8068328,羅氏家用新冠病毒抗原自我檢測套組,20,2022/05/04 16:31:02,快篩實名制，每天16:00開始販售，售完為止。
5911021438,正心藥局,基隆市七堵區南興路１０號１樓,121.7149,25.09755,(02)24563378,羅氏家用新冠病毒抗原自我檢測套組,79,2022/05/04 16:31:02,星期一~六下午13:30發號碼牌，14:00開始販賣，星期日上午9:00發號碼牌，9:30開始販賣，12:00停止領取
5911031238,碇內東亞藥師藥局,基隆市暖暖區源遠路３１９號１樓,121.7574,25.09941,(02)24590033,羅氏家用新冠病毒抗原自我檢測套組,1,2022/05/04 16:31:02,周一至周六下午三點發放快篩試劑
5911041332,光華藥局,基隆市仁愛區成功一路１２９號１樓,121.7364,25.12786,(02)24338703,羅氏家用新冠病毒抗原自我檢測套組,156,2022/05/04 16:31:02,快篩試劑販賣下午六點販售.星期日休息
5911041949,捷登藥局,基隆市仁愛區孝三路９２號１樓,121.7399,25.1309,(02)24237888,羅氏家用新冠病毒抗原自我檢測套組,1,2022/05/04 16:31:02,國定假日有提供藥事調劑服務
5911041958,百福仁愛專業藥局,基隆市仁愛區仁四路５０號１樓,121.7413,25.12829,(02)24266699,羅氏家用新冠病毒抗原自我檢測套組,74,2022/05/04 16:31:02,4／30起，早上8:00販售快篩
5911050162,錦泰藥局,基隆市中山區中山二路４３號,121.7405,25.13786,(02)24228523,羅氏家用新冠病毒抗原自我檢測套組,78,2022/05/04 16:31:02,快篩販賣時間星期一至五晚上7點，星期六，星期日下午5點
5911051365,大慶大藥局,基隆市中山區中和路１６８巷３弄２０號,121.717,25.14982,(02)24378640,羅氏家用新冠病毒抗原自我檢測套組,69,2022/05/04 16:31:02,無
5911070011,信安藥局,基隆市信義區信二路９９號,121.7548,25.12912,(02)24238551,羅氏家用新冠病毒抗原自我檢測套組,15,2022/05/04 16:31:02,無
5911071607,家安藥師藥局,基隆市信義區信二路２５７、２５９號１樓,121.7478,25.1301,(02)24223917,羅氏家用新冠病毒抗原自我檢測套組,78,2022/05/04 16:31:02,星期一 ~ 星期六14:00開始銷售。
5912010215,李藥局,新竹市東區新莊里長春街３７號,121.0143,24.78573,(03)5779177,羅氏家用新冠病毒抗原自我檢測套組,71,2022/05/04 16:31:02,快篩實名制販售時間16:30（依到貨時間調整），周日休息
5912013529,新莊藥局,新竹市東區光復路１段４７３號１樓,121.015,24.78421,(03)5634775,羅氏家用新冠病毒抗原自我檢測套組,78,2022/05/04 16:31:02,平日晚上10點
5912013565,合康連鎖藥局關新店,新竹市東區關新北路１６１號１樓,121.0204,24.78614,(03)5679666,羅氏家用新冠病毒抗原自我檢測套組,78,2022/05/04 16:31:02,快篩販售時間:17:00
5912013609,丁丁藥局,新竹市東區中華路二段９１號,120.9812,24.80794,(03)6117888,羅氏家用新冠病毒抗原自我檢測套組,1,2022/05/04 16:31:02,無
5912013627,合康連鎖藥局食品店,新竹市東區食品路１４０號１樓,120.977,24.79771,(03)5621111,羅氏家用新冠病毒抗原自我檢測套組,72,2022/05/04 16:31:02,實名快篩販售時間：下午17:00
5912013672,關東藥局,新竹市東區光復路１段３３２、３３４號１至２樓,121.0187,24.78289,(03)5777077,羅氏家用新冠病毒抗原自我檢測套組,2,2022/05/04 16:31:02,快篩實名制，每天16:00開始販售，售完為止。
5912013681,仁春藥局,新竹市東區慈濟路２５２號１樓,121.0153,24.79245,(03)6686718,羅氏家用新冠病毒抗原自我檢測套組,2,2022/05/04 16:31:02,5／4 實名制快篩 16:00開始販售
5912042815,合康連鎖藥局西大店,新竹市北區西大路６３６、６３８號１樓,120.9585,24.8101,(03)5233111,羅氏家用新冠病毒抗原自我檢測套組,78,2022/05/04 16:31:02,17:00
5917030146,新永富藥局,臺中市西區吉龍里美村路一段６７０號,120.6615,24.13555,(04)23766127,羅氏家用新冠病毒抗原自我檢測套組,78,2022/05/04 16:31:02,每日 晚上21:00 販售..健保卡實名制快篩 請自備500元／份
5917030646,華隆藥局,臺中市西區樂群街６之２號,120.6735,24.14025,(04)22243785,羅氏家用新冠病毒抗原自我檢測套組,1,2022/05/04 16:31:02,上午10:00開始販售快篩試劑，售完為止
5917032382,中港大藥局,臺中市西區臺灣大道２段１３２號,120.6714,24.14995,(04)22080708,羅氏家用新冠病毒抗原自我檢測套組,3,2022/05/04 16:31:02,無
5917032613,向日睽藥局,臺中市西區林森路９８－２號１樓,120.6707,24.1379,(04)23731893,羅氏家用新冠病毒抗原自我檢測套組,80,2022/05/04 16:31:02,無
5917032800,壹藥局,臺中市西區美村路１段７７５號１樓,120.6618,24.13306,(04)23721998,羅氏家用新冠病毒抗原自我檢測套組,1,2022/05/04 16:31:02,星期一到星期日每天下午二點開始販售快篩試劑售完為止謝謝
5917040393,鴻儀大藥局,臺中市南區樹義里大慶街二段３－４號,120.6528,24.11405,(04)22611769,羅氏家用新冠病毒抗原自我檢測套組,18,2022/05/04 16:31:02,周一至周六下午13:00開始販售實名制快篩試劑，現場發放號碼牌，當日售完為止，星期日公休
5917050719,百鴻藥局,臺中市北區金龍里北屯路１３－１號,120.6914,24.15981,(04)22336330,羅氏家用新冠病毒抗原自我檢測套組,78,2022/05/04 16:31:02,固定周一至周五10.00--16.00 17.00--21.00開始販售口罩售完為止
5917060322,瑞康藥局,臺中市西屯區長安路二段２號１樓,120.6612,24.1724,(04)22914046,羅氏家用新冠病毒抗原自我檢測套組,116,2022/05/04 16:31:02,營業時間8:30~21:30 （家用快篩，酒精及防疫口罩）
5917070355,承諭藥局,臺中市南屯區黎明路２段１９９號,120.636,24.14698,(04)23849128,羅氏家用新冠病毒抗原自我檢測套組,78,2022/05/04 16:31:02,快篩實名制周一、二、四、五下午1:30；周三、六晚上7:00 ； 週日下午4:00
5917070659,德安藥局,臺中市南屯區文山里忠勇路１１５－６號１樓,120.6157,24.15096,(04)23894920,羅氏家用新冠病毒抗原自我檢測套組,10,2022/05/04 16:31:02,快篩實名制：週一至週六，下午1點販賣 （限量78份）
5917072724,百芳大藥局,臺中市南屯區向上路二段４２１號,120.6377,24.1469,(04)23818307,羅氏家用新冠病毒抗原自我檢測套組,81,2022/05/04 16:31:02,周一到周六，晚上7:00開始販賣快篩，不發號碼牌。
5917080342,弘光藥局,臺中市北屯區太原路三段４５８號１樓,120.6951,24.16476,(04)22342999,羅氏家用新冠病毒抗原自我檢測套組,78,2022/05/04 16:31:02,早上7:30開始販賣防疫口罩（全年無休）
5917080379,大元藥局,臺中市北屯區北屯里昌平路一段２３號,120.6937,24.16657,(04)22357722,羅氏家用新冠病毒抗原自我檢測套組,78,2022/05/04 16:31:02,週一至週六每天晚上18:00至20:00販售快篩劑，週日晚上快篩劑不確定時間販售
5917080762,順泰大藥局,臺中市北屯區北屯村北屯路１１５號,120.6939,24.165,(04)22341477,羅氏家用新冠病毒抗原自我檢測套組,156,2022/05/04 16:31:02,周三及周日公休，其餘時間每日上午9:00開賣，不需發號碼牌
5917082659,信誼藥局,臺中市北屯區瀋陽路二段３１號１樓,120.6808,24.17398,(04)22478695,羅氏家用新冠病毒抗原自我檢測套組,87,2022/05/04 16:31:02,週一~週五全日上班時段，週六上午9:00-12:00販售口罩，周日公休。
5921020185,安心藥局,臺南市南區喜東里喜樹路１５１巷３３號,120.18,22.94099,(06)2622570,羅氏家用新冠病毒抗原自我檢測套組,78,2022/05/04 16:31:02,5月四日已經售完  庫存數字不正確
5921040749,玖大藥局,臺南市北區勝利路３８３號,120.2187,23.00397,(06)2752048,羅氏家用新冠病毒抗原自我檢測套組,156,2022/05/04 16:31:02,快篩販售時間:星期一~五早上10:00-12:00
5921051582,丞功藥局,臺南市中西區成功路３１號,120.2095,22.99747,(06)2287641,羅氏家用新冠病毒抗原自我檢測套組,78,2022/05/04 16:31:02,星期一-六08:00-售完
5922010361,壽生堂藥局,嘉義市東區府路里延平街２８０號,120.4502,23.47683,(05)2225058,羅氏家用新冠病毒抗原自我檢測套組,20,2022/05/04 16:31:02,周一至周日上午09:00起，至20:00或售鑿為止。
5922010441,穎川保健藥局,嘉義市東區仁武里中山路２０４號,120.4517,23.48096,(05)2223609,羅氏家用新冠病毒抗原自我檢測套組,2,2022/05/04 16:31:02,固定周一到周日07:00開始快篩賣
5922010736,全民藥局,嘉義市東區新店里林森東路２８９ 號,120.4665,23.49007,(05)2777900,羅氏家用新冠病毒抗原自我檢測套組,78,2022/05/04 16:31:02,防疫口罩：週一至週六，早上9點，開始販售口罩。
5922010754,松柏藥局,嘉義市東區東平里民權路８７號,120.4618,23.48392,(05)2780909,羅氏家用新冠病毒抗原自我檢測套組,47,2022/05/04 16:31:02,防疫口罩及實名制快篩試劑於週一至週六，每日下午4:30開始販售，售完為止。
5922011966,源豪藥局,嘉義市東區光華路８２號,120.4529,23.4782,(05)2169696,羅氏家用新冠病毒抗原自我檢測套組,32,2022/05/04 16:31:02,周一至周六，售鑿為止。周日休
5922012392,維康藥局,嘉義市東區短竹里大雅路二段５６７號１樓,120.4663,23.47685,(05)2757663,羅氏家用新冠病毒抗原自我檢測套組,154,2022/05/04 16:31:02,＜領購快篩＞ 星期一  ~ 星期五 下午 2:00~5:00 。假日國定假日停售。
5922012874,德風藥局,嘉義市東區仁義里台林街１０８－４號１樓,120.4547,23.49514,(05)2716233,羅氏家用新冠病毒抗原自我檢測套組,78,2022/05/04 16:31:02,無
5922012945,大明藥局,嘉義市東區大雅路二段６８２號,120.4663,23.47719,(05)2760958,羅氏家用新冠病毒抗原自我檢測套組,8,2022/05/04 16:31:02,5／4今日號碼牌以發完畢。
5922012972,百佑藥局,嘉義市東區公明路８２號１樓,120.4602,23.48088,(05)2757387,羅氏家用新冠病毒抗原自我檢測套組,78,2022/05/04 16:31:02,固定周一至周六08:30開始發放號碼牌並依序販售，售完為止
5922013068,佑全嘉義吳鳳南藥局,嘉義市東區吳鳳南路５８５、５８７號,120.459,23.45639,(05)2399311,羅氏家用新冠病毒抗原自我檢測套組,2,2022/05/04 16:31:02,領取快篩14:00
5922013102,後庄藥局,嘉義市東區吳鳳南路６４９號,120.4594,23.45511,(05)2391233,羅氏家用新冠病毒抗原自我檢測套組,37,2022/05/04 16:31:02,快篩實名制，每天16:00開始販售，售完為止。
5922013184,軍輝啄木鳥藥局,嘉義市東區軍輝路２２２號,120.4588,23.455,(05)2395963,羅氏家用新冠病毒抗原自我檢測套組,21,2022/05/04 16:31:02,週一~日下午4:00開始
5922013193,民權藥局,嘉義市東區民權路１５５號１樓、１５７號１樓,120.4604,23.48374,(05)2775322,羅氏家用新冠病毒抗原自我檢測套組,35,2022/05/04 16:31:02,快篩實名制，每天16:00開始販售，售完為止。
5922020303,新宏祥藥局,嘉義市西區湖內里民生南路５７４號,120.4427,23.45504,(05)2355588,羅氏家用新冠病毒抗原自我檢測套組,6,2022/05/04 16:31:02,羅氏家用快篩:每日早上8點開始販售.售完為止
5922020509,全德藥局,嘉義市西區福民里興業西路２８９號,120.4392,23.46776,(05)2854263,羅氏家用新冠病毒抗原自我檢測套組,54,2022/05/04 16:31:02,營業時間請電話洽詢  販售：19 :30~20:30
5922020634,利安藥局,嘉義市西區番社里中山路３４４號１樓,120.4473,23.47984,(05)2225756,羅氏家用新冠病毒抗原自我檢測套組,17,2022/05/04 16:31:02,無
5922020812,海鴻藥師藥局,嘉義市西區民生南路５５２號,120.4433,23.45878,(05)2837758,羅氏家用新冠病毒抗原自我檢測套組,96,2022/05/04 16:31:02,固定每日上午8 : 00 直接排隊發放
5922020858,大統藥局,嘉義市西區慶安里北興街１３６號,120.4421,23.48389,(05)2330230,羅氏家用新冠病毒抗原自我檢測套組,14,2022/05/04 16:31:02,5／4日預約已滿.有預約的民眾請於14:00點後領取
5922020894,平良藥局,嘉義市西區致遠里興業西路８４號１樓,120.4443,23.46856,(05)2235220,羅氏家用新冠病毒抗原自我檢測套組,17,2022/05/04 16:31:02,休息時間:12點-下午3點
5922020910,苰安藥局,嘉義市西區竹圍里友愛路２３６號１樓,120.434,23.48268,(05)2910585,羅氏家用新冠病毒抗原自我檢測套組,1,2022/05/04 16:31:02,營業時間 08:00-22:00。快篩實名制早上8點開始販售，售完為止。
5922020992,昭安藥局,嘉義市西區民生南路４７９號１樓,120.4437,23.45821,(05)2842240,羅氏家用新冠病毒抗原自我檢測套組,7,2022/05/04 16:31:02,無
5922021006,竹圍藥局,嘉義市西區友愛路２７０、２７２號,120.4339,23.4837,(05)2811233,羅氏家用新冠病毒抗原自我檢測套組,5,2022/05/04 16:31:02,快篩實名制，每天16:00開始販售，售完為止。
5922021024,理維藥局,嘉義市西區民生南路４０９號１樓,120.4436,23.45979,(05)2831110,羅氏家用新冠病毒抗原自我檢測套組,1,2022/05/04 16:31:02,5／4（三）13:30開賣。公費快篩到貨以及販售時間會於臉書粉絲團及LINE群組公告。（自費快篩限購）
5922028596,一安藥局,嘉義市西區福民里興業西路３１１號,120.4387,23.4677,(05)2859275,羅氏家用新冠病毒抗原自我檢測套組,1,2022/05/04 16:31:02,周一至周日早上9點至晚上10點半依發放號碼排依序售完
5922028881,中興中西藥局,嘉義市西區垂楊路５０１號,120.4422,23.47297,(05)2353096,羅氏家用新冠病毒抗原自我檢測套組,63,2022/05/04 16:31:02,周一至周五10點開始，周末下午5點開始，並依序販售快篩售完為止
592202A349,力健藥局,嘉義市西區文化路５９１號,120.4443,23.49355,(05)2323217,羅氏家用新冠病毒抗原自我檢測套組,13,2022/05/04 16:31:02,營業時間為早上8:00至中午13:00，下午2:30至晚上9:30，口罩發放從早上8:30至售完為止
592202A358,國豐藥局,嘉義市西區北興街２４５－２號１樓,120.4386,23.4854,(05)2318473,羅氏家用新冠病毒抗原自我檢測套組,39,2022/05/04 16:31:02,快篩販賣時間:08:30~售完為止（＃5／2上午10:00開始販賣）
5931011447,日生大藥局,新北市板橋區中正路１巷１６弄１６號,121.4551,25.01209,(02)29675261,羅氏家用新冠病毒抗原自我檢測套組,78,2022/05/04 16:31:02,快篩試劑販售時間:週一至週六14:00-20:30  售完為止，周日休假
5931011947,長弘藥局,新北市板橋區龍泉街１１０號,121.4568,25.02454,(02)22558789,羅氏家用新冠病毒抗原自我檢測套組,78,2022/05/04 16:31:02,無
5931013781,佳和藥局,新北市板橋區文化路１段３８７巷５號１樓,121.4667,25.02193,(02)22589598,羅氏家用新冠病毒抗原自我檢測套組,1,2022/05/04 16:31:02,快篩5／4未到貨  改早上11:00 下午3:00販售-週日休
5931015187,皇慶藥局,新北市板橋區南門街８１、８３號１、２樓及館前西路１１２巷７號,121.4568,25.0077,(02)29655351,羅氏家用新冠病毒抗原自我檢測套組,11,2022/05/04 16:31:02,實名防疫快篩號碼牌發放時間自15:00
5931015687,正康健保藥局,新北市板橋區大觀路２段６５號１樓,121.4467,25.00246,(02)22756681,羅氏家用新冠病毒抗原自我檢測套組,78,2022/05/04 16:31:02,下午13:30依現場順序開始販售快篩，快篩配送絮亂庫存不準!!
5931016808,正安健保藥局,新北市板橋區民族路２２４號（１樓）,121.4687,25.00733,(02)29526813,羅氏家用新冠病毒抗原自我檢測套組,78,2022/05/04 16:31:02,17時依現場順序開始販售.週六12點.電腦配送庫存不準..以現場數量為準
5931016924,裕苠藥局,新北市板橋區裕民街６號,121.4624,25.02921,(02)22535227,羅氏家用新冠病毒抗原自我檢測套組,78,2022/05/04 16:31:02,春節期間看診時段請電洽
5931017618,新埔健保藥局,新北市板橋區自由路２號１樓,121.4654,25.02222,(02)22558878,羅氏家用新冠病毒抗原自我檢測套組,39,2022/05/04 16:31:02,無
5931017636,福澤藥局,新北市板橋區南雅南路１段８５號（１樓）,121.4556,25.00543,(02)29690013,羅氏家用新冠病毒抗原自我檢測套組,1,2022/05/04 16:31:02,口罩代售9:00-23:00
5931017752,泓泰藥局,新北市板橋區館前西路１４０號２樓,121.4563,25.0081,(02)29686559,羅氏家用新冠病毒抗原自我檢測套組,80,2022/05/04 16:31:02,無
5931017832,躍獅莒光藥局,新北市板橋區莒光路５８號１樓,121.4709,25.02421,(02)22556743,羅氏家用新冠病毒抗原自我檢測套組,78,2022/05/04 16:31:02,實名制快篩5／4已售完，5／5下午2點50發號碼牌（78份為5／5庫存）
5931017869,躍獅國慶藥局,新北市板橋區國慶路１７９號（１樓）,121.4626,24.99636,(02)29641548,羅氏家用新冠病毒抗原自我檢測套組,153,2022/05/04 16:31:02,快篩實名制，每天14:00開始販售，售完為止
5931017985,松柏藥局,新北市板橋區松柏街９４號（１樓）,121.4767,25.03065,(02)82585223,羅氏家用新冠病毒抗原自我檢測套組,13,2022/05/04 16:31:02,快篩實名制，每天16:00開始販售，售完為止。
5931018099,廣品藥局,新北市板橋區漢生西路８２號（１樓）,121.4628,25.01934,(02)22576880,羅氏家用新冠病毒抗原自我檢測套組,6,2022/05/04 16:31:02,實名制快篩 周一~周五下午16；00發放 週六.日 早上09；30發放 請勿打電話詢問 感謝配合
5931018142,重慶藥局,新北市板橋區國慶路１２７號（１樓）,121.4608,24.99602,(02)29565586,羅氏家用新冠病毒抗原自我檢測套組,1,2022/05/04 16:31:02,快篩實名制，每天16:00開始販售，售完為止。
5931020446,玉美藥局,新北市三重區力行路２段１３６巷４９弄２號,121.4793,25.07519,(02)22879836,羅氏家用新冠病毒抗原自我檢測套組,30,2022/05/04 16:31:02,實名制快篩販售時間:5／4下午5點   ** 沒有預先發號碼牌，現場販售.**
5931021372,福昌大藥局,新北市三重區溪尾街２０５號,121.4886,25.08081,(02)29714069,羅氏家用新冠病毒抗原自我檢測套組,56,2022/05/04 16:31:02,口罩販賣時間上午9點至晚上11點
5931021532,龍門藥局,新北市三重區龍門路１８９號,121.4996,25.07322,(02)29756141,羅氏家用新冠病毒抗原自我檢測套組,78,2022/05/04 16:31:02,實名制快篩販售時間~星期一至星期六下午3點
5931023447,安泰藥局,新北市三重區正義北路３００－３號２樓,121.4953,25.06978,(02)89815379,羅氏家用新冠病毒抗原自我檢測套組,147,2022/05/04 16:31:02,5／2只有早上8:30--12:00營業下午.及晚上休息
5931024695,仁華藥局,新北市三重區五華街７３－１號１樓,121.4924,25.08295,(02)29806161,羅氏家用新冠病毒抗原自我檢測套組,78,2022/05/04 16:31:02,最近快篩到貨時間不固定 發放時間也不固定
5931025987,忠孝德榮藥局,新北市三重區忠孝路２段９７號１樓,121.4842,25.07005,(02)29800297,羅氏家用新冠病毒抗原自我檢測套組,156,2022/05/04 16:31:02,庫存須扣除未到貨78盒*實名制快篩* 週一至週日晚間19:00開始代售. 週六&周日中午12:00開始營業
5931026091,重新藥局,新北市三重區重新路４段１２號１樓,121.4888,25.05775,(02)29742700,羅氏家用新冠病毒抗原自我檢測套組,9,2022/05/04 16:31:02,快篩實名制，每天16:00開始販售，售完為止。
5931033032,弘光藥局,新北市永和區竹林路中興里６６巷１９號１樓,121.5201,25.01396,(02)29282000,羅氏家用新冠病毒抗原自我檢測套組,1,2022/05/04 16:31:02,早上9點至晚上10點 口罩代售號碼牌自1400開始發放
5931033578,悅美保健藥局,新北市永和區保生路２２巷２１號１樓,121.5073,25.00839,(02)22323515,羅氏家用新冠病毒抗原自我檢測套組,78,2022/05/04 16:31:02,周一至周六 上午11點到晚上10點（周六下午一點開始）（三）快篩完售（四）下午1:30售
5931033774,台化藥局,新北市永和區勵行街１１９號１樓,121.5175,25.01202,(02)22318585,羅氏家用新冠病毒抗原自我檢測套組,1,2022/05/04 16:31:02,無
5931033809,新禾藥局,新北市永和區中和路５３７號１樓,121.5114,25.00318,(02)29208877,羅氏家用新冠病毒抗原自我檢測套組,13,2022/05/04 16:31:02,無
5931033961,永和大樹藥局,新北市永和區福和路１４３號１、２樓,121.5207,25.00766,(02)29233377,羅氏家用新冠病毒抗原自我檢測套組,3,2022/05/04 16:31:02,快篩實名制，每天16:00開始販售，售完為止。
5931034146,亮點藥局,新北市永和區竹林路７１號１樓,121.5186,25.01355,(02)89253895,羅氏家用新冠病毒抗原自我檢測套組,179,2022/05/04 16:31:02,快篩發放時段 下午16:30-18:00
5931040215,華新藥局,新北市中和區華新街７３號,121.5082,24.98392,(02)29448345,羅氏家用新冠病毒抗原自我檢測套組,78,2022/05/04 16:31:02,無
5931040662,仙正藥局,新北市中和區福美路３０９號,121.4969,25.00472,(02)22494081,羅氏家用新冠病毒抗原自我檢測套組,78,2022/05/04 16:31:02,無
5931043921,良安藥局,新北市中和區連城路４７７巷１號１樓,121.4833,24.99555,(02)22225798,羅氏家用新冠病毒抗原自我檢測套組,305,2022/05/04 16:31:02,週六日不開店，實名制快篩，晚上9:00開始販售
5931044991,曜群藥局,新北市中和區景安路２５號１樓,121.5079,24.99893,(02)89432206,羅氏家用新冠病毒抗原自我檢測套組,156,2022/05/04 16:31:02,週一至周六早上8:30販售實名制快篩
5931045050,日發藥師藥局,新北市中和區華新街１９２巷４０號１樓,121.5062,24.98368,(02)89411088,羅氏家用新冠病毒抗原自我檢測套組,78,2022/05/04 16:31:02,每日下午6點開始販售快篩（不發放號碼牌）
5931045327,景新藥局,新北市中和區景新街４２９號１樓,121.513,24.98908,(02)86686091,羅氏家用新冠病毒抗原自我檢測套組,14,2022/05/04 16:31:02,無
5931051558,信龍大藥局,新北市新店區安康路２段５６號,121.515,24.96385,(02)22115533,羅氏家用新冠病毒抗原自我檢測套組,1,2022/05/04 16:31:02,實名制快篩15:00發放號碼牌，並同步販售，每人限持1卡購買1份，請備妥零鈔
5931052215,三民藥局,新北市新店區三民路７８號１樓－１,121.5348,24.97257,(02)89146301,羅氏家用新冠病毒抗原自我檢測套組,78,2022/05/04 16:31:02,實名制快篩試劑下午2點開始現場販售  周日休息APP上數字不正確
5931052724,合康大藥局,新北市新店區中正路２６３－２號１樓,121.5384,24.97367,(02)29109888,羅氏家用新冠病毒抗原自我檢測套組,5,2022/05/04 16:31:02,快篩下午2點開始（有事先發放號碼牌）
5931053034,康宜庭市公所藥局,新北市新店區北新路１段２８５號１樓,121.541,24.96707,(02)29151709,羅氏家用新冠病毒抗原自我檢測套組,1,2022/05/04 16:31:02,實名制快篩下午兩點開賣
5931053178,長照藥局,新北市新店區如意街１６號１樓,121.4944,24.94838,(02)22153325,羅氏家用新冠病毒抗原自我檢測套組,25,2022/05/04 16:31:02,請注意丫~5／04日下午4:00篩劑開賣囉!（單號）自備500
5931060342,十安藥局,新北市新莊區中港路３１６號,121.4524,25.04544,(02)29922859,羅氏家用新冠病毒抗原自我檢測套組,5,2022/05/04 16:31:02,自111／04／01起不再販賣實名制口罩
5931060557,一安藥局,新北市新莊區立德里新泰路２６８號,121.446,25.04029,(02)29941618,羅氏家用新冠病毒抗原自我檢測套組,78,2022/05/04 16:31:02,實名制快篩發放時間為15:00  其他詳情請上FB查詢
5931067136,蒲陽藥局,新北市新莊區中港路５１４號,121.4518,25.05187,(02)29930069,羅氏家用新冠病毒抗原自我檢測套組,4,2022/05/04 16:31:02,無
5931067403,建嘉藥局,新北市新莊區中誠街４２號１樓,121.4513,25.04812,(02)29925261,羅氏家用新冠病毒抗原自我檢測套組,78,2022/05/04 16:31:02,無
5931067565,豐年藥局,新北市新莊區中正路３７７巷１６號,121.4462,25.03395,(02)22071182,羅氏家用新冠病毒抗原自我檢測套組,2,2022/05/04 16:31:02,無
5931068991,新莊健業藥局,新北市新莊區昌平街３７號１樓至２樓,121.4547,25.05221,(02)22798808,羅氏家用新冠病毒抗原自我檢測套組,78,2022/05/04 16:31:02,快篩實名制每天下午三點開始販售（不發號碼牌）
5931069603,中信藥師藥局,新北市新莊區中信街８０號１樓,121.448,25.05311,(02)29969811,羅氏家用新冠病毒抗原自我檢測套組,78,2022/05/04 16:31:02,AM 07:30 開始
5931069765,健業藥妝藥局,新北市新莊區中和街１３０號１樓,121.4475,25.04809,(02)22796279,羅氏家用新冠病毒抗原自我檢測套組,65,2022/05/04 16:31:02,口罩販售資訊:下午3點~11點販售
593106A566,一心春天藥局,新北市新莊區中和街１３號１樓、地下室,121.4481,25.04342,(02)89929482,羅氏家用新冠病毒抗原自我檢測套組,2,2022/05/04 16:31:02,快篩代售時間:週一至週日15:00現場排隊購買，售完為止。（物流配送不及則例外，以門市公告為主）
593106A600,全鎵藥局,新北市新莊區建中街２２號１樓,121.4493,25.03766,(02)22761550,羅氏家用新冠病毒抗原自我檢測套組,17,2022/05/04 16:31:02,16:00快篩開賣
593106A726,良和健保藥局,新北市新莊區龍安路４９號１樓,121.4158,25.02151,(02)29048157,羅氏家用新冠病毒抗原自我檢測套組,77,2022/05/04 16:31:02,快篩：晚上8點開始販售，星期六、日休息不代售
593106A977,丹鳳藥局,新北市新莊區中正路７４５、７４７號（１樓）,121.4227,25.0288,(02)29065755,羅氏家用新冠病毒抗原自我檢測套組,9,2022/05/04 16:31:02,快篩實名制，每天16:00開始販售，售完為止。
593106B036,家嘉藥局,新北市新莊區自立街１０３號（１樓）,121.4553,25.04549,(02)89926488,羅氏家用新冠病毒抗原自我檢測套組,23,2022/05/04 16:31:02,快篩已到貨  下午場次號碼牌發放時間1100 今天已全數發完
593106B081,平安藥局,新北市新莊區民安西路６０號２樓,121.4273,25.02037,(02)22082368,羅氏家用新冠病毒抗原自我檢測套組,147,2022/05/04 16:31:02,無
593106B107,大樹新莊藥局,新北市新莊區新泰路５９號１樓、２樓,121.4494,25.03405,(02)22010566,羅氏家用新冠病毒抗原自我檢測套組,1,2022/05/04 16:31:02,快篩實名制，每天16:00開始販售，售完為止。
593106B152,福原藥局,新北市新莊區中原東路７０號（１樓）,121.4632,25.05461,(02)85216190,羅氏家用新冠病毒抗原自我檢測套組,99,2022/05/04 16:31:02,無
593106B205,藥師佛藥局,新北市新莊區中正路８８１之４號１樓,121.4175,25.02544,(02)29016625,羅氏家用新冠病毒抗原自我檢測套組,156,2022/05/04 16:31:02,快篩開賣:晚上七點！最快五點才能排隊！今日只到1箱，會預留警察消防人員額度，所以民眾購買額度不會是78盒！
593106B321,大樹幸福藥局,新北市新莊區幸福路６７２號１樓,121.4509,25.0493,(02)29981066,羅氏家用新冠病毒抗原自我檢測套組,15,2022/05/04 16:31:02,快篩實名制，每天16:00開始販售，售完為止。
5931072066,琉璃水藥師藥局,新北市樹林區龍興街２１號１樓,121.403,25.01614,(02)26764262,羅氏家用新冠病毒抗原自我檢測套組,78,2022/05/04 16:31:02,無
5931072422,三樹食在好健康藥局,新北市樹林區學成路６００號１樓,121.3818,24.94584,(02)26807101,羅氏家用新冠病毒抗原自我檢測套組,390,2022/05/04 16:31:02,實名制快篩販售時間周一～周四19-20點（請自備散鈔）
5931081378,鶯歌宏達藥局,新北市鶯歌區國慶街１３８號１樓,121.3508,24.95347,(02)26709693,羅氏家用新冠病毒抗原自我檢測套組,1,2022/05/04 16:31:02,下午三點開始販售實名制快篩~不要打電話來問~藥師有其他工作要做
5931081494,康群藥局,新北市鶯歌區建國路２０２號１樓,121.3494,24.95357,(02)26796690,羅氏家用新冠病毒抗原自我檢測套組,78,2022/05/04 16:31:02,*星期五休診不發放口罩，其餘上班日上午九點開始發放*現場排隊
5931081547,信義健保藥局,新北市鶯歌區信義街６３號１樓,121.3534,24.95571,(02)86775563,羅氏家用新冠病毒抗原自我檢測套組,78,2022/05/04 16:31:02,實名制快篩晚間19:00開始發放
5931091696,祥祐藥局,新北市三峽區文化路１２５號１樓,121.3699,24.93598,(02)26738080,羅氏家用新冠病毒抗原自我檢測套組,2,2022/05/04 16:31:02,無
5931091865,大新藥局,新北市三峽區大義路２５９號１樓,121.3774,24.94638,(02)86713204,羅氏家用新冠病毒抗原自我檢測套組,2,2022/05/04 16:31:02,實名制快篩下午2:50開始發號碼牌 3:00販售
5931092022,瑞達美藥局,新北市三峽區民權街１８０號１樓,121.3678,24.92983,(02)86741627,羅氏家用新冠病毒抗原自我檢測套組,78,2022/05/04 16:31:02,若政府有配送則早上9點10分開始發號碼牌，拿到號碼牌要離開請先寄卡付費，否則視同放棄
5931092200,金美藥局,新北市三峽區大同路２３８號１樓,121.3663,24.92573,(02)86715859,羅氏家用新冠病毒抗原自我檢測套組,468,2022/05/04 16:31:02,無
5931102103,四季寶健保藥局,新北市淡水區新市一路３段１１７－１號（含夾層）,121.4468,25.18314,(02)26283199,羅氏家用新冠病毒抗原自我檢測套組,80,2022/05/04 16:31:02,無
5931102336,淡大郭藥局,新北市淡水區英專路３２號１樓,121.4456,25.17008,(02)26229966,羅氏家用新冠病毒抗原自我檢測套組,22,2022/05/04 16:31:02,如前日有收到快篩，隔日販售時間為上午10點。（以現場公告為主）
5931102461,淡水藥局,新北市淡水區中山路１２７號（１、２樓）,121.4414,25.17107,(02)86313663,羅氏家用新冠病毒抗原自我檢測套組,11,2022/05/04 16:31:02,快篩實名制，每天16:00開始販售，售完為止。
5931110034,麒豐藥局,新北市汐止區樟樹一路１３５巷２號,121.6421,25.0656,(02)26434737,羅氏家用新冠病毒抗原自我檢測套組,85,2022/05/04 16:31:02,實名制口罩銷售時間9:30~21:00
5931112047,吉安康健保藥師藥局,新北市汐止區宜興街１１號１樓,121.6213,25.0416,(02)26405881,羅氏家用新冠病毒抗原自我檢測套組,29,2022/05/04 16:31:02,營業時間以現場公告為主
5931112083,裕和藥局,新北市汐止區宜興街４號１樓,121.6211,25.04126,(02)26609119,羅氏家用新冠病毒抗原自我檢測套組,78,2022/05/04 16:31:02,晚上9.00領實名制快篩時間
5931112136,汐芷藥局,新北市汐止區福德一路２５５號,121.6335,25.06447,(02)26924087,羅氏家用新冠病毒抗原自我檢測套組,10,2022/05/04 16:31:02,每日8:30現場發放號碼牌，12:00~20:00前憑牌領取.逾時不候
5931112234,安泰藥局,新北市汐止區連興街１１４號１樓,121.6537,25.06284,(02)26488486,羅氏家用新冠病毒抗原自我檢測套組,77,2022/05/04 16:31:02,實名制快篩每天下午5點開始作業，現場排隊
5931112645,健成藥局,新北市汐止區新興路２０號１樓,121.6564,25.06456,(02)26428989,羅氏家用新冠病毒抗原自我檢測套組,3,2022/05/04 16:31:02,無
5931113071,蒲公英藥局,新北市汐止區連興街１２６號（１樓）,121.6538,25.06188,(02)26907770,羅氏家用新冠病毒抗原自我檢測套組,78,2022/05/04 16:31:02,實名制快篩銷售時間:下午17:00-19:00（無發放號碼牌）
5931113142,林美藥局,新北市汐止區康寧街４６５號１樓,121.6318,25.06839,(02)26935696,羅氏家用新冠病毒抗原自我檢測套組,78,2022/05/04 16:31:02,每日14:00開始販售實名制快篩 禮拜天公休
5931113160,社后藥局,新北市汐止區康寧街４２４號１樓,121.6307,25.06801,(02)26956321,羅氏家用新冠病毒抗原自我檢測套組,16,2022/05/04 16:31:02,快篩實名制，每天16:00開始販售，售完為止。
5931132165,佳佳藥局,新北市土城區中央路２段２２３－９號２樓,121.4407,24.97319,(02)82614558,羅氏家用新冠病毒抗原自我檢測套組,156,2022/05/04 16:31:02,5／3起實名制快篩販售時間為19:30，採現場排隊（特殊情形例外）
5931132245,萬昌健保藥局,新北市土城區中央路４段１６０號,121.417,24.95827,(02)22678057,羅氏家用新冠病毒抗原自我檢測套組,13,2022/05/04 16:31:02,3月2日起周一至周五15:00發號碼牌及販賣口罩  周六 10:00直接販售
5931132343,誠安藥局,新北市土城區中央路４段３６號１樓,121.4207,24.96088,(02)22677737,羅氏家用新冠病毒抗原自我檢測套組,314,2022/05/04 16:31:02,快篩代售時段：平日晚上8點，售完為止
5931132807,健業藥局,新北市土城區中央路２段２２３－１０號,121.4407,24.97312,(02)22704798,羅氏家用新冠病毒抗原自我檢測套組,10,2022/05/04 16:31:02,無
5931133331,城安大藥局,新北市土城區金城路３段４０號,121.4656,24.98639,(02)22646561,羅氏家用新冠病毒抗原自我檢測套組,122,2022/05/04 16:31:02,快篩代售時間晚上8:30
5931133564,城恩藥局,新北市土城區學成路３４號１樓,121.4527,24.9873,(02)22735808,羅氏家用新冠病毒抗原自我檢測套組,80,2022/05/04 16:31:02,無
5931133680,土城金城藥局,新北市土城區裕民路２８０號１、２樓,121.4554,24.982,(02)22631616,羅氏家用新冠病毒抗原自我檢測套組,1,2022/05/04 16:31:02,快篩實名制，每天16:00開始販售，售完為止。
5931140372,上群藥師藥局,新北市蘆洲區民族路２８７號１樓,121.4755,25.09096,(02)22898275,羅氏家用新冠病毒抗原自我檢測套組,78,2022/05/04 16:31:02,口罩販賣時間1100-1300
5931143284,宥安藥局,新北市蘆洲區長榮路３８１號２樓,121.4592,25.08947,(02)22823556,羅氏家用新冠病毒抗原自我檢測套組,35,2022/05/04 16:31:02,5月4日配貨未到當日請勿排隊領號碼牌 ，星期日全日休息；快篩依到貨狀況，機動調整販賣時間。
5931150163,德泰藥局,新北市五股區成泰路１段９號,121.4336,25.06674,(02)29095927,羅氏家用新冠病毒抗原自我檢測套組,312,2022/05/04 16:31:02,無
5931151277,永任藥局,新北市五股區水碓路９號１樓,121.4336,25.07236,(02)22911093,羅氏家用新冠病毒抗原自我檢測套組,53,2022/05/04 16:31:02,實名制快篩販售時間下午3:00開賣
5931151482,源昇藥局,新北市五股區五股里成泰路２段６１號２樓,121.4379,25.0836,(02)82952027,羅氏家用新冠病毒抗原自我檢測套組,2,2022/05/04 16:31:02,無
5931151660,祐康藥師藥局,新北市五股區五福路３６號１樓,121.4339,25.08922,(02)82921335,羅氏家用新冠病毒抗原自我檢測套組,80,2022/05/04 16:31:02,口罩代售時間:一至六早上8:30開始販售， 星期日早上9:00
5931161282,善耕藥局,新北市泰山區明志路２段３６２號１樓,121.4256,25.04516,(02)29086656,羅氏家用新冠病毒抗原自我檢測套組,78,2022/05/04 16:31:02,5／1-5／5-晚上8:00發號碼牌5／6後中午12:00 發號碼牌開始刷健保卡 販售實名制快篩
5931161353,台灣藥局,新北市泰山區明志路１段２８２－２８６號,121.4319,25.06002,(02)22971969,羅氏家用新冠病毒抗原自我檢測套組,78,2022/05/04 16:31:02,下午2:20發號碼牌2:30販售實名制快篩試劑
5931171340,家欣藥師藥局,新北市林口區文化二路１段５６７號１樓,121.3748,25.0777,(02)26025368,羅氏家用新冠病毒抗原自我檢測套組,78,2022/05/04 16:31:02,5／2（一）17:00開始販售實名制快篩，不發號碼牌，每日發放時間不同，請至粉專看
5931171582,綠園藥局,新北市林口區仁愛路２段１０５號１樓,121.3843,25.07507,(02)86012258,羅氏家用新冠病毒抗原自我檢測套組,6,2022/05/04 16:31:02,上午8:30-12:00、下午2:30-18:00、晚上18:00-21:30
5931171680,一家好藥局,新北市林口區中山路５００號,121.3794,25.08303,(02)26028270,羅氏家用新冠病毒抗原自我檢測套組,156,2022/05/04 16:31:02,無
5931171831,沐霖藥局,新北市林口區文化三路２段２８６號１樓,121.3775,25.08304,(02)26032086,羅氏家用新冠病毒抗原自我檢測套組,234,2022/05/04 16:31:02,無
5931171868,林口藥局,新北市林口區文化三路２段６９號１樓,121.374,25.08006,(02)26001899,羅氏家用新冠病毒抗原自我檢測套組,14,2022/05/04 16:31:02,快篩販售時間：下午02:40發號碼牌，03:00開始販售
5931171886,林口辰安藥局,新北市林口區文化三路１段１９１巷５號１樓,121.3619,25.07016,(02)26099151,羅氏家用新冠病毒抗原自我檢測套組,1,2022/05/04 16:31:02,快篩1600開始販售，現場排隊領取
5931250015,松南藥局,新北市雙溪區中華路２９號,121.8658,25.03728,(02)24931085,羅氏家用新冠病毒抗原自我檢測套組,1,2022/05/04 16:31:02,週一至週五營業至晚上21點.週六至20點週日至12點
5932011058,富仕康藥局,桃園市桃園區中華路１１８號地下１樓,121.3082,24.99023,(03)3391318,羅氏家用新冠病毒抗原自我檢測套組,43,2022/05/04 16:31:02,口罩販賣時段：週一至週日15:30起
5932011503,文安藥局,桃園市桃園區中正路６９９號,121.3032,25.00685,(03)3558999,羅氏家用新冠病毒抗原自我檢測套組,78,2022/05/04 16:31:02,實名制快篩領取時間每日早上07:00~080發放78份，另78份因當日配送時間無法確認為隔日早上7點的數量
5932011870,永祥大藥局,桃園市桃園區永安路５２８號,121.2986,25.00181,(03)3337161,羅氏家用新冠病毒抗原自我檢測套組,2,2022/05/04 16:31:02,口罩販賣時段：週一至週六早上9點
5932012573,悅藥坊人文藥局,桃園市桃園區桃智路６號,121.2948,24.96505,(03)3761688,羅氏家用新冠病毒抗原自我檢測套組,78,2022/05/04 16:31:02,口罩販賣時段：（一）~（六）17:00-19:00；（日）不販售
5932012813,桃園大興藥局,桃園市桃園區大興西路二段７６巷３號,121.2984,25.01183,(03)3013222,羅氏家用新冠病毒抗原自我檢測套組,2,2022/05/04 16:31:02,快篩實名制，每天16:00開始販售，售完為止。
5932013687,桃園春日藥局,桃園市桃園區春日路８７８號,121.3096,25.01561,(03)3580101,羅氏家用新冠病毒抗原自我檢測套組,12,2022/05/04 16:31:02,快篩實名制，每天16:00開始販售，售完為止。
5932013749,桃園寶山藥局,桃園市桃園區寶山街７２號,121.3175,25.01291,(03)3250562,羅氏家用新冠病毒抗原自我檢測套組,4,2022/05/04 16:31:02,快篩實名制，每天16:00開始販售，售完為止。
5932014102,小飛象藥局,桃園市桃園區慈文路１９２號,121.3041,25.00907,(03)3552771,羅氏家用新冠病毒抗原自我檢測套組,78,2022/05/04 16:31:02,不發放號碼牌，甘願再排隊。存量78肯定是隔天的，別再問了。5／4[09:30]發售78份、5／5[09:30]發售78份。
5932014111,鴻發藥師藥局,桃園市桃園區大有路５４３號,121.3171,25.0149,(03)3582468,羅氏家用新冠病毒抗原自我檢測套組,78,2022/05/04 16:31:02,實聯快篩:早上09:30發放號碼牌，限當日下午2~4點憑牌購買，逾時不候請見諒
5932014399,澄心藥局,桃園市桃園區桃鶯路３０５號１樓,121.3193,24.98265,(03)3771468,羅氏家用新冠病毒抗原自我檢測套組,78,2022/05/04 16:31:02,營業時間:8:00-22:00
5932014406,悅藥坊敦陽藥局,桃園市桃園區力行路３８５巷１７號,121.2976,24.99813,(03)3367068,羅氏家用新冠病毒抗原自我檢測套組,80,2022/05/04 16:31:02,實名制快篩:若有到貨 周一~周六:17:00 週日:上午7:10
5932014460,桃鶯藥局,桃園市桃園區桃鶯路１０２號,121.318,24.98516,(03)3675100,羅氏家用新冠病毒抗原自我檢測套組,3,2022/05/04 16:31:02,快篩實名制，每天16:00開始販售，售完為止。
5932018593,品一藥局,桃園市桃園區建新街７６號,121.3118,24.98261,(03)3638510,羅氏家用新冠病毒抗原自我檢測套組,3,2022/05/04 16:31:02,快篩販賣時間：每天早上9：30販賣（星期天休息），會發號碼牌（今天已發完）
5932018940,均安藥局,桃園市桃園區寶山街６１號,121.3172,25.01231,(03)3581695,羅氏家用新冠病毒抗原自我檢測套組,156,2022/05/04 16:31:02,實名制快篩中午12:30至售完
5932019045,大一藥局,桃園市桃園區中山路684之一號一樓,121.2946,24.9912,(03)2171836,羅氏家用新冠病毒抗原自我檢測套組,3,2022/05/04 16:31:02,快篩試劑每日下午3點半發號碼牌，4點開賣。星期日停售。
5932019116,慈安藥局,桃園市桃園區永安路３８３號,121.299,25.00086,(03)3369599,羅氏家用新冠病毒抗原自我檢測套組,78,2022/05/04 16:31:02,快篩販賣時段：8:30~10:30
5932019581,莘莘藥局,桃園市桃園區莊敬路一段３６８號,121.2957,25.02375,(03)3170681,羅氏家用新冠病毒抗原自我檢測套組,1,2022/05/04 16:31:02,實名制快篩週一至週六 下午2點開始 售完為止
5932021812,慧中健保藥局,桃園市中壢區成章二街１４１號１樓,121.2568,24.98025,(03)4556129,羅氏家用新冠病毒抗原自我檢測套組,156,2022/05/04 16:31:02,每日4:30開始領號碼牌販售快篩試劑
5932022355,新家福藥局,桃園市中壢區福州二街４１９號,121.2325,24.968,(03)4621658,羅氏家用新冠病毒抗原自我檢測套組,10,2022/05/04 16:31:02,實名制快篩販售時間: 15:30開始至售完為止
5932022631,中壢中正藥局,桃園市中壢區中正路３６３、３６５號,121.2163,24.95532,(03)4014100,羅氏家用新冠病毒抗原自我檢測套組,21,2022/05/04 16:31:02,快篩實名制，每天16:00開始販售，售完為止。
5932023281,裕翔藥局,桃園市中壢區榮民路４８號１樓,121.2606,24.96956,(03)4355499,羅氏家用新冠病毒抗原自我檢測套組,117,2022/05/04 16:31:02,快篩下午五點販售
5932023567,內壢成章藥局,桃園市中壢區忠孝路１９８號,121.2553,24.97719,(03)4524123,羅氏家用新冠病毒抗原自我檢測套組,17,2022/05/04 16:31:02,快篩實名制，每天16:00開始販售，售完為止。
5932024108,佳愷藥局,桃園市中壢區中北路４７號,121.2368,24.95614,(03)4664735,羅氏家用新冠病毒抗原自我檢測套組,69,2022/05/04 16:31:02,視配貨狀況在禮拜三、禮拜五、禮拜六早上9點至11點販售。若未到貨則無法開賣，有疑問請致電聯繫許藥師0933-595-819
5932024215,幸運星藥師藥局,桃園市中壢區龍東路４４號１樓,121.2502,24.9284,(03)4563356,羅氏家用新冠病毒抗原自我檢測套組,38,2022/05/04 16:31:02,快篩實名制，下午16:00開始，排隊販售領取（無號碼牌）
5932028348,田倉藥局,桃園市中壢區龍東路二五八號,121.2544,24.93062,(03)4379331,羅氏家用新冠病毒抗原自我檢測套組,2,2022/05/04 16:31:02,快篩代售時間自下午四點起
593202A833,君安藥局,桃園市中壢區中北路二段３９０號,121.2318,24.95388,(03)4685484,羅氏家用新冠病毒抗原自我檢測套組,156,2022/05/04 16:31:02,快篩試劑販售時間，週一至週五晚上7點，週六週日早上9點，每日提供78份，前15分鐘至30分鐘發號碼牌，視現場狀況而定
5932030080,吉壽藥局,桃園市大溪區員林路三段４２號,121.2648,24.88175,(03)3802049,羅氏家用新冠病毒抗原自我檢測套組,156,2022/05/04 16:31:02,快篩試劑販賣時段：星期一~五晚上7:00起及星期六、日上午8:30起
5932031578,宜暉健保藥局,桃園市大溪區介壽路７１８號,121.2849,24.90544,(03)3806695,羅氏家用新冠病毒抗原自我檢測套組,78,2022/05/04 16:31:02,9:00-22:00／端午.中秋.除夕~初三休息／快篩販賣時間19:00發號碼牌，售完為止
5932031881,大溪藥局,桃園市大溪區康莊路１６０號,121.2886,24.8808,(03)3873873,羅氏家用新冠病毒抗原自我檢測套組,23,2022/05/04 16:31:02,快篩實名制，每天16:00開始販售，售完為止。
5932031890,福生藥局,桃園市大溪區民權東路１０３號１樓,121.2919,24.88209,(03)3873533,羅氏家用新冠病毒抗原自我檢測套組,11,2022/05/04 16:31:02,早上八點開始發放快篩試劑
5932031907,福澤大溪藥局,桃園市大溪區復興路１０５號１樓,121.2911,24.87917,(03)3884886,羅氏家用新冠病毒抗原自我檢測套組,1,2022/05/04 16:31:02,家用快篩販賣時段15:30至售完為止
5932040246,龍泰藥局,桃園市楊梅區民族路五段１４７巷２號,121.1736,24.9586,(03)4901525,羅氏家用新冠病毒抗原自我檢測套組,90,2022/05/04 16:31:02,口罩販售時間：08:00開賣至11:00
5932042679,得康美藥局,桃園市楊梅區環南路１２８號１樓,121.1466,24.90164,(03)4788128,羅氏家用新冠病毒抗原自我檢測套組,1,2022/05/04 16:31:02,快篩領取規則~早上:10:00-11:00發號碼牌 ／下午時段發快篩A:12:00-13:00 B:14:00-15:00 C:20:00-21:00
5932043130,宜康美藥局,桃園市楊梅區環東路４５２號,121.1571,24.91005,(03)4883805,羅氏家用新冠病毒抗原自我檢測套組,20,2022/05/04 16:31:02,快篩販賣時段：早上09:30~10:30（20份）下午15:30~16:30（38份）晚上19:30~20:30（20份）
5932043425,躍獅祥筠藥局,桃園市楊梅區萬大路１３５號,121.1786,24.90987,(03)4817458,羅氏家用新冠病毒抗原自我檢測套組,78,2022/05/04 16:31:02,5／4快篩試劑晚上6:00發放（我不知道幾點排隊喔）
5932051472,康而美聖安藥師藥局,桃園市蘆竹區南山路一段二之一號,121.2916,25.04879,(03)3228753,羅氏家用新冠病毒抗原自我檢測套組,78,2022/05/04 16:31:02,快篩套組販賣時段 早上7點至8點 售完為止
5932052013,誠心藥局,桃園市蘆竹區中山路一四五號一樓,121.2976,25.05671,(03)2127369,羅氏家用新冠病毒抗原自我檢測套組,22,2022/05/04 16:31:02,無
5932052755,大葉藥局,桃園市蘆竹區中山路１３２號１樓,121.2978,25.05699,(03)3125347,羅氏家用新冠病毒抗原自我檢測套組,28,2022/05/04 16:31:02,口罩販賣時段：以現場公告為主
5932052808,柏霖藥局,桃園市蘆竹區中正路３５９號２樓,121.291,25.04902,(03)2120284,羅氏家用新冠病毒抗原自我檢測套組,78,2022/05/04 16:31:02,快篩試劑販賣時間:18:00開始.售完為止
5932052844,康維藥局,桃園市蘆竹區仁愛路一段２２號１樓,121.294,25.05063,(03)3125330,羅氏家用新冠病毒抗原自我檢測套組,234,2022/05/04 16:31:02,快篩 販賣時段:週一至週五18:00-20:00，週六09:00-11:00
5932052979,南崁藥局,桃園市蘆竹區中正路２５１、２５３、２５５號,121.2921,25.04695,(03)3522022,羅氏家用新冠病毒抗原自我檢測套組,79,2022/05/04 16:31:02,快篩實名制，每天16:00開始販售，售完為止。
5932062457,新資生大園大藥局,桃園市大園區新生路９５、９７號一樓,121.2,25.06486,(03)3853608,羅氏家用新冠病毒抗原自我檢測套組,78,2022/05/04 16:31:02,口罩代購時間自14：00；現場號碼牌發放時間自14：00
5932062519,青埔辰安藥局,桃園市大園區致遠一路１號１樓,121.2111,25.00479,(03)2873274,羅氏家用新冠病毒抗原自我檢測套組,80,2022/05/04 16:31:02,無
5932076844,帕米爾藥局,桃園市龜山區萬壽路二段９９１號,121.3369,24.99464,(03)3295522,羅氏家用新冠病毒抗原自我檢測套組,1,2022/05/04 16:31:02,星期一~六:家用快篩試劑販賣時段：14:30~售完。不發號碼牌，請直接排隊購買。
5932076862,和信藥局,桃園市龜山區南祥路５８號１樓,121.2979,25.04629,(03)2124028,羅氏家用新冠病毒抗原自我檢測套組,58,2022/05/04 16:31:02,快篩販賣時段：每日中午12點
5932077056,桃園龜山藥局,桃園市龜山區萬壽路二段８９６號,121.3394,24.99586,(03)3203312,羅氏家用新冠病毒抗原自我檢測套組,26,2022/05/04 16:31:02,快篩實名制，每天16:00開始販售，售完為止。
5932077270,明昌藥局,桃園市龜山區中興里萬壽路二段１１９１－６號,121.3318,24.99291,(03)3501205,羅氏家用新冠病毒抗原自我檢測套組,78,2022/05/04 16:31:02,無
5932077510,左外野藥局,桃園市龜山區文光街６號１樓,121.3802,25.05471,(03)3271503,羅氏家用新冠病毒抗原自我檢測套組,154,2022/05/04 16:31:02,快篩販售時間:19:30-20:30 （週五公休）*不發號碼牌 請直接排隊購買
5932077574,樂樂聯合藥局,桃園市龜山區萬壽路１段１０９號１、２樓,121.4091,25.01886,(02)82000560,羅氏家用新冠病毒抗原自我檢測套組,3,2022/05/04 16:31:02,實名制快篩於每日9點開始發放號碼牌，發完為止。 中午12點至14點半為藥局休息時間
5932077592,南崁南祥藥局,桃園市龜山區南祥路４６號,121.2975,25.04633,(03)2227733,羅氏家用新冠病毒抗原自我檢測套組,3,2022/05/04 16:31:02,快篩實名制，每天16:00開始販售，售完為止。
5932083974,晨鴻藥師藥局,桃園市八德區桃鶯路７號１樓,121.3265,24.97179,(03)3764299,羅氏家用新冠病毒抗原自我檢測套組,78,2022/05/04 16:31:02,快篩為早上8:30跟晚上6:00領取號碼牌，因有送貨時間及短少的因素，所以快篩地圖數量參考就好，請勿再打電話詢問 謝謝
5932084300,博泰藥局,桃園市八德區介壽路二段９８２號,121.2973,24.93407,(03)3731010,羅氏家用新冠病毒抗原自我檢測套組,24,2022/05/04 16:31:02,口罩販賣時段：14:00 - 16:00
5932084480,大躍藥局,桃園市八德區高城里高城路４８號１樓,121.276,24.97932,(03)3786958,羅氏家用新冠病毒抗原自我檢測套組,78,2022/05/04 16:31:02,快篩領取時間以當天到貨狀況為主，現場排隊無發放號碼牌
5932084793,美康健保藥局,桃園市八德區桃鶯路９１號１、２樓,121.328,24.97036,(03)3613624,羅氏家用新冠病毒抗原自我檢測套組,78,2022/05/04 16:31:02,無
5932084828,阿爾富山藥局,桃園市八德區桃鶯路４號１樓,121.3261,24.97167,(03)3763350,羅氏家用新冠病毒抗原自我檢測套組,70,2022/05/04 16:31:02,營業時間:8:00-22:00  實名制快篩以每日實際到貨數量，並於晚間7點依現場排隊順序發放號牌並直接領取購買
5932084864,阿寶藥局,桃園市八德區東勇一路６號,121.3064,24.96452,(03)3750060,羅氏家用新冠病毒抗原自我檢測套組,46,2022/05/04 16:31:02,實名制快篩詳細公告請參閱阿寶藥局官方臉書
5932099383,龍星藥局,桃園市龍潭區中正路二八四號二樓,121.2175,24.86201,(03)4707390,羅氏家用新冠病毒抗原自我檢測套組,78,2022/05/04 16:31:02,上午8:30~12下午16~18晚上19~21，六.日9~12門診.口罩販賣
5932100354,世新藥局,桃園市平鎮區廣泰路７５之２號,121.2052,24.94629,(03)4941234,羅氏家用新冠病毒抗原自我檢測套組,1,2022/05/04 16:31:02,實名制快篩13:30販售
5932100916,唯康藥局,桃園市平鎮區中豐路南勢二段１４４號,121.2106,24.91564,(03)4396011,羅氏家用新冠病毒抗原自我檢測套組,30,2022/05/04 16:31:02,快篩分兩梯次販售，14：30（48份）和19：00（30份）
5932101226,平鎮中豐藥局,桃園市平鎮區中豐路山頂段１６４號,121.2109,24.90035,(03)4690939,羅氏家用新冠病毒抗原自我檢測套組,1,2022/05/04 16:31:02,快篩實名制，每天16:00開始販售，售完為止。
5932108574,天健示範藥局,桃園市平鎮區文化街２５２號,121.2032,24.95127,(03)4937169,羅氏家用新冠病毒抗原自我檢測套組,2,2022/05/04 16:31:02,快篩販賣時段:早上9點至售完
593210A103,瑞瑄社區大藥局,桃園市平鎮區中豐路南勢二段１６２號,121.2104,24.91523,(03)4396205,羅氏家用新冠病毒抗原自我檢測套組,66,2022/05/04 16:31:02,無
5932120105,新惠安藥局,桃園市觀音區崙坪里忠愛路一段３３號,121.1672,24.99356,(03)4981650,羅氏家用新冠病毒抗原自我檢測套組,1,2022/05/04 16:31:02,口罩販賣時段：07:30至售完為止）
5932124381,日昇藥局,桃園市觀音區成功路一段７８１號,121.119,25.05221,(03)4834212,羅氏家用新冠病毒抗原自我檢測套組,40,2022/05/04 16:31:02,下午4點及晚上9點各販售39份快篩試劑
5933010144,佳仁藥局,新竹縣關西鎮中興路１２號,121.1771,24.79227,(035)872298,羅氏家用新冠病毒抗原自我檢測套組,2,2022/05/04 16:31:02,全年無休（星期日不定期）
5933011196,高平堂藥局,新竹縣關西鎮正義路66號,121.1762,24.79269,(03)5872263,羅氏家用新冠病毒抗原自我檢測套組,68,2022/05/04 16:31:02,相關公告 請搜尋FB【高平堂藥局】
5933011258,安東藥師藥局,新竹縣關西鎮中山路６２號,121.1766,24.79147,(03)5872385,羅氏家用新冠病毒抗原自我檢測套組,78,2022/05/04 16:31:02,口罩販賣時段：星期一至六08:00-21:00、星期日08:00-17:00
5933031652,合康藥局,新竹縣竹東鎮興農街１１號,121.0861,24.73988,(03)5103818,羅氏家用新冠病毒抗原自我檢測套組,78,2022/05/04 16:31:02,實名制快篩時段：下午17:00~22:30
5933031885,東林藥局,新竹縣竹東鎮東林路８０號,121.0913,24.73683,(03)5961321,羅氏家用新冠病毒抗原自我檢測套組,8,2022/05/04 16:31:02,快篩實名制，每天16:00開始販售，售完為止。
5933052660,阿姆斯壯藥局,新竹縣竹北市六家五路一段１２５號,121.0254,24.80966,(03)6589178,羅氏家用新冠病毒抗原自我檢測套組,156,2022/05/04 16:31:02,快篩5／3早上9:00開始販售，5／4起改下午5點。
5933053041,中一藥局,新竹縣竹北市文興路一段２４２號１樓,121.0287,24.81018,(03)6670827,羅氏家用新冠病毒抗原自我檢測套組,25,2022/05/04 16:31:02,更新:快篩販售時間下午16:00
5933053523,佑全竹北自強南藥局,新竹縣竹北市自強南路１６０號,121.0248,24.816,(03)6681950,羅氏家用新冠病毒抗原自我檢測套組,72,2022/05/04 16:31:02,實名制快篩每日16:30開賣（16:25分發號碼牌）
5933053550,六家藥局,新竹縣竹北市六家一路一段１６３號,121.0289,24.80958,(03)6578456,羅氏家用新冠病毒抗原自我檢測套組,12,2022/05/04 16:31:02,快篩實名制，每天16:00開始販售，售完為止。
5933053603,竹北光明藥局,新竹縣竹北市光明一路１３７號,121.0157,24.83023,(03)5584545,羅氏家用新冠病毒抗原自我檢測套組,10,2022/05/04 16:31:02,快篩實名制，每天16:00開始販售，售完為止。
5933061712,湖山藥局,新竹縣湖口鄉中山路二段１２７號,121.0439,24.90198,(03)5904999,羅氏家用新冠病毒抗原自我檢測套組,6,2022/05/04 16:31:02,快篩實名制，每天16:00開始販售，售完為止。
5933081536,昌昌藥局,新竹縣新豐鄉新市路１９３號,120.9846,24.90465,(03)5598077,羅氏家用新冠病毒抗原自我檢測套組,4,2022/05/04 16:31:02,上午8:00發放號碼牌。下午2:00開始領快篩.    昌昌藥局目前已銷售完.剩餘4份保留給已經領有號碼牌 預計5點多下班才領
5934012366,熊賀大藥局,宜蘭縣宜蘭市女中路３段２６號,121.7421,24.74576,(03)9352950,羅氏家用新冠病毒抗原自我檢測套組,78,2022/05/04 16:31:02,快篩時間 星期一至日 晚上19:00開賣 現場排隊
5934041170,永仁藥局,宜蘭縣頭城鎮吉祥路８８巷２５號１樓,121.8208,24.8571,(03)9789788,羅氏家用新冠病毒抗原自我檢測套組,78,2022/05/04 16:31:02,口罩發放 星期一至六早上07:30
5935021261,永信藥師藥局,苗栗縣苑裡鎮和平路７２－１號,120.6549,24.44096,(037)857069,羅氏家用新冠病毒抗原自我檢測套組,78,2022/05/04 16:31:02,無
5935021421,苑裡啄木鳥藥局,苗栗縣苑裡鎮世界路一段２５號,120.6561,24.44071,(037)854589,羅氏家用新冠病毒抗原自我檢測套組,2,2022/05/04 16:31:02,無
5935030108,吉泰藥局,苗栗縣通霄鎮通西里和平路２９號,120.6797,24.48905,(037)758595,羅氏家用新冠病毒抗原自我檢測套組,6,2022/05/04 16:31:02,口罩發放時間:早上10:30開始，下午:2:30開始
5935041914,合康連鎖藥局,苗栗縣竹南鎮博愛街２７０號,120.8725,24.68724,(037)474987,羅氏家用新冠病毒抗原自我檢測套組,78,2022/05/04 16:31:02,販售快篩時間為下午17:00開始販售
5935051929,仁方藥局,苗栗縣頭份市自強路１５０巷２－５號１樓,120.907,24.68785,(037)687238,羅氏家用新冠病毒抗原自我檢測套組,12,2022/05/04 16:31:02,正常營業AM08:00-PM10:00
5935060053,鴻輝大藥局,苗栗縣後龍鎮北龍里中華路６４－１號,120.7879,24.61557,(037)721952,羅氏家用新冠病毒抗原自我檢測套組,1,2022/05/04 16:31:02,AM07:50~PM10:00
5935081169,景元藥局,苗栗縣大湖鄉中正路９７號,120.8664,24.42265,(037)996465,羅氏家用新冠病毒抗原自我檢測套組,37,2022/05/04 16:31:02,每天下午兩點開始販售快篩試劑
5936010020,合裕藥局,臺中市豐原區合作街９６－１號,120.708,24.2396,(04)25238988,羅氏家用新冠病毒抗原自我檢測套組,25,2022/05/04 16:31:02,2點發號碼牌
5936010486,輝生藥局,臺中市豐原區鐮村路４１１號,120.7223,24.22695,(04)25379563,羅氏家用新冠病毒抗原自我檢測套組,12,2022/05/04 16:31:02,防疫口罩販售時段早上07:00
5936021363,小太陽藥局,臺中市東勢區豐勢路４１２之１、４１６號１樓,120.8292,24.25525,(04)25773481,羅氏家用新冠病毒抗原自我檢測套組,78,2022/05/04 16:31:02,早上7:30開始發號碼牌（當日18:00前有效）及販售（目前的數量次日的78）
5936111148,荷仕康藥局,臺中市新社區興安路１８－３３號,120.8078,24.24042,(04)25826258,羅氏家用新冠病毒抗原自我檢測套組,1,2022/05/04 16:31:02,快篩下午兩點開始販售
5936150341,原全成藥局,臺中市烏日區中山路一段３８７號１樓,120.6388,24.10773,(04)23361818,羅氏家用新冠病毒抗原自我檢測套組,1,2022/05/04 16:31:02,快篩因物流配送時間不定，改為每日下午４點開始販售，售完為止！！
5936190676,中美藥師藥局,臺中市太平區中山路３段８５號,120.7173,24.14861,(04)22778238,羅氏家用新冠病毒抗原自我檢測套組,87,2022/05/04 16:31:02,無
5936192134,樹德大藥局,臺中市太平區樹德路１０２號１樓,120.7115,24.15386,(04)23981782,羅氏家用新冠病毒抗原自我檢測套組,47,2022/05/04 16:31:02,下午3點開始領號碼牌，分流領取，請勿依賴網站庫存
5936192312,安麗兒藥局太平店,臺中市太平區太平路１９０號,120.7204,24.12088,(04)22798819,羅氏家用新冠病毒抗原自我檢測套組,2,2022/05/04 16:31:02,快篩販售時間下午3點（15:00）開始.售完為止
5936200453,慈輝藥師藥局,臺中市大里區大明路３０６號,120.6818,24.11521,(04)24876247,羅氏家用新冠病毒抗原自我檢測套組,10,2022/05/04 16:31:02,無
593620B138,聯生中西健保藥局,臺中市大里區現岱路１５８巷１１號,120.6919,24.10295,(04)24834058,羅氏家用新冠病毒抗原自我檢測套組,134,2022/05/04 16:31:02,早上八點半領號碼牌下午四點到六點領口罩W6W日早七點
5937010140,三立大藥局,彰化縣彰化市中華西路１１１號,120.5321,24.07338,(04)7635422,羅氏家用新冠病毒抗原自我檢測套組,78,2022/05/04 16:31:02,周一至週日下午四點半開始排隊　並依續販售　售完截止..
5937012582,正光藥局中正店,彰化縣彰化市中正路１段２５３號,120.5466,24.08348,(04)7235068,羅氏家用新冠病毒抗原自我檢測套組,78,2022/05/04 16:31:02,領藥來正光，快篩實名13:30開始販售。
5937012877,振安藥局,彰化縣彰化市民生里永安街７３號,120.5453,24.08422,(04)7261277,羅氏家用新冠病毒抗原自我檢測套組,78,2022/05/04 16:31:02,8:00開始賣快篩，如果當天下午才配送，改18:00才賣
5937013570,彰化藥局,彰化縣彰化市永安街２７８、２８０號,120.5438,24.08977,(04)7287877,羅氏家用新冠病毒抗原自我檢測套組,19,2022/05/04 16:31:02,快篩實名制，每天16:00開始販售，售完為止。
5937013730,佳漾藥局,彰化縣彰化市延平路５８８號１樓,120.5374,24.06301,(04)7135518,羅氏家用新冠病毒抗原自我檢測套組,78,2022/05/04 16:31:02,5／4 目前尚未到貨中，佳漾藥局免費領取，各大醫院連續處方箋，診所，衛生所處方箋，歡迎諮詢
5937013767,民族藥局,彰化縣彰化市民族路２１２號１樓,120.5393,24.071,(04)7261221,羅氏家用新冠病毒抗原自我檢測套組,12,2022/05/04 16:31:02,快篩實名制，每天16:00開始販售，售完為止。
5937021330,順安藥局,彰化縣鹿港鎮泰興里復興路１２５號,120.4386,24.05279,(04)7765510,羅氏家用新冠病毒抗原自我檢測套組,78,2022/05/04 16:31:02,星期1.2.4.5.日早上8:00  週3下午2:00  販售快篩篩劑    週六停止販售
5937031667,丁丁藥局和美店,彰化縣和美鎮道周路３１２號,120.4971,24.10759,(04)7576322,羅氏家用新冠病毒抗原自我檢測套組,9,2022/05/04 16:31:02,固定周一至周六上午9:00開始發放號碼牌，發完後即開始販賣口罩。
5937031747,大樹和美藥局,彰化縣和美鎮道周路５０１號,120.494,24.10896,(04)7550090,羅氏家用新冠病毒抗原自我檢測套組,1,2022/05/04 16:31:02,快篩實名制，每天16:00開始販售，售完為止。
5937031783,和美啄木鳥藥局,彰化縣和美鎮德美路２７０號,120.502,24.11371,(04)7552924,羅氏家用新冠病毒抗原自我檢測套組,1,2022/05/04 16:31:02,領藥到啄木鳥~今日5／4下午2點開始販賣實名制快篩
5937041421,惠生大藥局,彰化縣北斗鎮西德里中華路２９１號,120.521,23.87288,(04)8874041,羅氏家用新冠病毒抗原自我檢測套組,1,2022/05/04 16:31:02,口罩販售時間 : 週一 ~ 週日，每日8點後至販售完畢
5937050279,廣信藥局,彰化縣員林市三信里中山路二段２０１號,120.5711,23.96517,(04)8337085,羅氏家用新冠病毒抗原自我檢測套組,1,2022/05/04 16:31:02,早上10點開始販賣快篩試劑
5937050313,東禾藥局,彰化縣員林市仁美里和平東街６２－１號,120.5754,23.9623,(04)8350030,羅氏家用新冠病毒抗原自我檢測套組,48,2022/05/04 16:31:02,每天早上八點半開始販售，售完為止
5937050322,必安藥局,彰化縣員林市仁美里育英路１７４號,120.5741,23.96417,(04)8324986,羅氏家用新冠病毒抗原自我檢測套組,20,2022/05/04 16:31:02,無
5937050377,廣生堂藥局,彰化縣員林市中山里中山路一段７４３、７４５號,120.5706,23.95915,(04)8320627,羅氏家用新冠病毒抗原自我檢測套組,2,2022/05/04 16:31:02,下午2點發放快篩.不發號碼牌
5937050411,高藥局,彰化縣員林市東和里員水路二段５０５號,120.5773,23.95592,(04)8327808,羅氏家用新冠病毒抗原自我檢測套組,13,2022/05/04 16:31:02,每日早上8:50開始販售防疫口罩，星期日公休
5937051703,員林健康藥局,彰化縣員林市中正路２２４號１樓,120.5747,23.95417,(04)8396798,羅氏家用新冠病毒抗原自我檢測套組,62,2022/05/04 16:31:02,10月11日雙十連假有營業
5937051730,青田藥局,彰化縣員林市林森路一二七號,120.5778,23.95633,(04)8347776,羅氏家用新冠病毒抗原自我檢測套組,24,2022/05/04 16:31:02,物流配送時間不確定～每日的販售時間將另行公布
5937051847,天一藥局,彰化縣員林市光明里中正路４４１號,120.5724,23.95817,(04)8384875,羅氏家用新冠病毒抗原自我檢測套組,9,2022/05/04 16:31:02,固定周一到周六，早上14:30開始販賣防疫口罩（現場排隊）。
5937051963,東山永安藥局,彰化縣員林市南東里山腳路４段３１號,120.5988,23.96424,(04)8311471,羅氏家用新冠病毒抗原自我檢測套組,41,2022/05/04 16:31:02,快篩試劑販賣，有貨時下午開賣.
5937052031,天天藥局,彰化縣員林市鎮興里員東路一段５５號,120.5991,23.96355,(04)8385573,羅氏家用新冠病毒抗原自我檢測套組,105,2022/05/04 16:31:02,固定周一到周六上午8:30發放號碼牌，8:30開始販售口罩。
5937052059,華衛藥局,彰化縣員林市惠來里南昌路９６號,120.5719,23.95464,(04)8397503,羅氏家用新冠病毒抗原自我檢測套組,62,2022/05/04 16:31:02,快篩販售時間8:20至09:50
5937052264,醫聯藥師藥局,彰化縣員林市三條里員東路二段４１０號１樓,120.5811,23.95898,(04)8360617,羅氏家用新冠病毒抗原自我檢測套組,56,2022/05/04 16:31:02,快篩實名制每天下午15:00開始販售，售完為止
5937052317,員郭藥局,彰化縣員林市三民街３８－１號,120.573,23.95862,(04)8356201,羅氏家用新冠病毒抗原自我檢測套組,66,2022/05/04 16:31:02,無
5937052335,大樹三民藥局,彰化縣員林市三民東街３５６號,120.5825,23.96065,(04)8372837,羅氏家用新冠病毒抗原自我檢測套組,30,2022/05/04 16:31:02,快篩實名制，每天16:00開始販售，售完為止。
5937052451,統信藥局,彰化縣員林市正興街３７２號,120.5722,23.95997,(04)8367089,羅氏家用新冠病毒抗原自我檢測套組,50,2022/05/04 16:31:02,無
5937052479,莒光藥局,彰化縣員林市莒光路３１６號１樓,120.5669,23.95942,(04)8361388,羅氏家用新冠病毒抗原自我檢測套組,43,2022/05/04 16:31:02,快篩實名制，每天16:00開始販售，售完為止。
5937052488,大樹員林藥局,彰化縣員林市大同路二段２０７號,120.5745,23.96891,(04)8331353,羅氏家用新冠病毒抗原自我檢測套組,27,2022/05/04 16:31:02,快篩實名制，每天16:00開始販售，售完為止。
5937052497,家家藥局,彰化縣員林市惠來街８７號,120.5704,23.95526,(04)8367007,羅氏家用新冠病毒抗原自我檢測套組,5,2022/05/04 16:31:02,無
5937052504,佑全員林中正藥局,彰化縣員林市中正路１３５，１３７號１樓,120.5714,23.96324,(04)8368669,羅氏家用新冠病毒抗原自我檢測套組,24,2022/05/04 16:31:02,無
5937052540,莒光啄木鳥藥局,彰化縣員林市中山路一段４５４號１樓,120.5668,23.95171,(04)8399625,羅氏家用新冠病毒抗原自我檢測套組,1,2022/05/04 16:31:02,無
5937052559,知心健康藥局,彰化縣員林市三民東街１９６號１樓,120.5788,23.95965,(04)8396161,羅氏家用新冠病毒抗原自我檢測套組,40,2022/05/04 16:31:02,無
5937061469,福展藥局,彰化縣溪湖鎮湖西里西環路２０９號,120.4773,23.9572,(04)8859918,羅氏家用新冠病毒抗原自我檢測套組,19,2022/05/04 16:31:02,5月4日 16:00 開始販售實名制快篩
5937061674,溪湖華恩保健藥局,彰化縣溪湖鎮青雅路３９號,120.483,23.96594,(04)8817575,羅氏家用新冠病毒抗原自我檢測套組,158,2022/05/04 16:31:02,實名制快篩，平日下午3:00及周六早上9:00販售。
5937061718,東環藥局,彰化縣溪湖鎮湖東街８１巷７０－３、７０－４、７０－５號,120.4833,23.95861,(04)8820001,羅氏家用新冠病毒抗原自我檢測套組,26,2022/05/04 16:31:02,快篩實名制，每天16:00開始販售，售完為止。
5937061736,平和藥局,彰化縣溪湖鎮彰水路三段２７７、２７９號１樓,120.4801,23.95959,(04)8816880,羅氏家用新冠病毒抗原自我檢測套組,43,2022/05/04 16:31:02,快篩實名制，每天16:00開始販售，售完為止。
5937081489,二林順順藥局,彰化縣二林鎮仁愛路４５１號,120.3691,23.9036,(04)8951351,羅氏家用新冠病毒抗原自我檢測套組,1,2022/05/04 16:31:02,無
5937081498,新杏林藥局,彰化縣二林鎮東和里斗苑路５段２６０號,120.3677,23.90106,(04)8953863,羅氏家用新冠病毒抗原自我檢測套組,16,2022/05/04 16:31:02,下午3點半開始販售，售完為止。
5937081514,加佳藥局,彰化縣二林鎮東和里仁愛路６７８號１樓,120.3643,23.90212,(04)8963080,羅氏家用新冠病毒抗原自我檢測套組,2,2022/05/04 16:31:02,快篩販賣時間週一至週五早上09:30-11:45 下午2:45-5:20 晚上6:30-8:45。週六早上9:30-11:45 下午晚上休息，周日全日休息!!
5937081596,二林藥局,彰化縣二林鎮斗苑路五段３９號,120.3709,23.89951,(04)8950010,羅氏家用新冠病毒抗原自我檢測套組,21,2022/05/04 16:31:02,快篩實名制，每天16:00開始販售，售完為止。
5937101271,信義藥局,彰化縣伸港鄉新港村信義路７１號,120.4859,24.14681,(04)7982232,羅氏家用新冠病毒抗原自我檢測套組,24,2022/05/04 16:31:02,快篩實名制，每天16:00開始販售，售完為止。
5937111062,福興永安藥局,彰化縣福興鄉沿海路４段７３７號,120.4258,24.04239,(04)7745268,羅氏家用新冠病毒抗原自我檢測套組,78,2022/05/04 16:31:02,星期一至星期六 早上7點開始販售快篩試劑
5937121317,彰水藥局,彰化縣秀水鄉彰水路二段４２５、４２７、４２９號１樓,120.4943,24.02791,(04)7685880,羅氏家用新冠病毒抗原自我檢測套組,2,2022/05/04 16:31:02,快篩實名制，每天16:00開始販售，售完為止。
5937130049,明志藥局,彰化縣花壇鄉三春村彰員路１段５４２號,120.5679,24.01439,(04)7867702,羅氏家用新冠病毒抗原自我檢測套組,1,2022/05/04 16:31:02,周一至周日9:00開始販賣口罩
5937170034,淑惠藥局,彰化縣埔心鄉亙北村員鹿路一段２４４號,120.5574,23.95515,(04)8297798,羅氏家用新冠病毒抗原自我檢測套組,87,2022/05/04 16:31:02,星期一~星期六16:00-18:00（2小時販售快篩試劑），星期日：休
5937180030,生春大藥局,彰化縣永靖鄉東門路２３３號,120.547,23.92143,(04)8220929,羅氏家用新冠病毒抗原自我檢測套組,13,2022/05/04 16:31:02,週一至週六早上7點50分開始營業 週日公休
5937181260,永茗藥局,彰化縣永靖鄉永東村東門路１９８號,120.5477,23.92182,(04)8242721,羅氏家用新冠病毒抗原自我檢測套組,14,2022/05/04 16:31:02,每日代售時間早上8:00-19:00，星期日公休
5937181279,佳恩藥局,彰化縣永靖鄉永西村瑚璉路３０２號,120.547,23.92421,(04)8235753,羅氏家用新冠病毒抗原自我檢測套組,41,2022/05/04 16:31:02,快篩實名制 :電話預約制，當日早上9點開始預約（5／3已額滿）
5937181304,永靖藥局,彰化縣永靖鄉瑚璉路１１６號,120.5505,23.92624,(04)8230220,羅氏家用新冠病毒抗原自我檢測套組,26,2022/05/04 16:31:02,快篩實名制，每天16:00開始販售，售完為止。
5937191248,佳和藥局,彰化縣社頭鄉社頭村員集路２段３３３號,120.5868,23.90071,(04)8731331,羅氏家用新冠病毒抗原自我檢測套組,28,2022/05/04 16:31:02,無
5937191300,社頭藥局,彰化縣社頭鄉社斗路一段３７３號,120.5846,23.89651,(04)8720030,羅氏家用新冠病毒抗原自我檢測套組,34,2022/05/04 16:31:02,快篩實名制，每天16:00開始販售，售完為止。
5937201061,長春藥局,彰化縣二水鄉文化村光文路１０３號,120.6167,23.81189,(04)8795289,羅氏家用新冠病毒抗原自我檢測套組,13,2022/05/04 16:31:02,早上8:00發放號碼牌，13:00開始販售至17:00止
5937221198,祐幼藥局,彰化縣埤頭鄉合興村彰水路3段496號,120.4594,23.89158,(04)8911910,羅氏家用新冠病毒抗原自我檢測套組,13,2022/05/04 16:31:02,無
5937251105,宏吉藥局,彰化縣竹塘鄉竹塘村仁愛街５０號,120.4271,23.86282,(04)8976709,羅氏家用新冠病毒抗原自我檢測套組,65,2022/05/04 16:31:02,周一到周六，7:50開始販賣快篩試劑（無發放號碼牌）
5937251150,竹塘健保藥局,彰化縣竹塘鄉竹塘村文化街５０號,120.428,23.8608,(04)8976180,羅氏家用新冠病毒抗原自我檢測套組,2,2022/05/04 16:31:02,無
5938010420,弘昌藥局,南投縣南投市三興里南崗一路８５號,120.6834,23.90096,(049)2228902,羅氏家用新冠病毒抗原自我檢測套組,3,2022/05/04 16:31:02,週一至週六早上8點後領號碼牌.不用排隊.下午三點至4點販賣防疫家用快篩劑，下午4點前未領視同放棄.
5938011810,南投丁丁藥局,南投縣南投市三和里三和二路１０號,120.69,23.90461,(049)2245977,羅氏家用新冠病毒抗原自我檢測套組,28,2022/05/04 16:31:02,健保快篩早上8點開賣
5938020079,仁和藥局,南投縣埔里鎮薰化里中山路三段９７號,120.9631,23.96619,(049)2985470,羅氏家用新冠病毒抗原自我檢測套組,5,2022/05/04 16:31:02,固定周一至周日上午10.00，下午20:00販售，售完為止
5938021521,大家好藥局,南投縣埔里鎮中山路２段２６２－１號,120.9686,23.96652,(049)2995876,羅氏家用新冠病毒抗原自我檢測套組,78,2022/05/04 16:31:02,3／26下午休息，4／3-4／5休息
5938021781,幸福藥局,南投縣埔里鎮中正路５４８號,120.9643,23.96946,(049)2999800,羅氏家用新冠病毒抗原自我檢測套組,1,2022/05/04 16:31:02,無
5938022064,大樹埔里藥局,南投縣埔里鎮中正路４３８號,120.9632,23.97263,(049)2980805,羅氏家用新冠病毒抗原自我檢測套組,22,2022/05/04 16:31:02,快篩實名制，每天16:00開始販售，售完為止。
5938022171,博今藥局,南投縣埔里鎮東潤路２０號,120.9942,23.93519,(049)2926689,羅氏家用新冠病毒抗原自我檢測套組,1,2022/05/04 16:31:02,防疫口罩每日上午9時30分開始販售
5938032480,草屯藥局,南投縣草屯鎮碧山路１４５、１４７號,120.6834,23.9778,(049)2362992,羅氏家用新冠病毒抗原自我檢測套組,11,2022/05/04 16:31:02,快篩實名制，每天16:00開始販售，售完為止。
5938032515,草屯丁丁藥局,南投縣草屯鎮太平路二段１７９號,120.6831,23.97335,(049)2330058,羅氏家用新冠病毒抗原自我檢測套組,12,2022/05/04 16:31:02,每日早上9點發號碼牌，05／04今日號碼牌已發放完畢
5938032560,祥陽藥局,南投縣草屯鎮中正路８２２、８２４號,120.6854,23.98276,(049)2353393,羅氏家用新冠病毒抗原自我檢測套組,26,2022/05/04 16:31:02,快篩實名制，每天16:00開始販售，售完為止。
5938040151,快安藥局,南投縣竹山鎮延平里集山路三段１３號,120.7065,23.76677,(049)2643048,羅氏家用新冠病毒抗原自我檢測套組,35,2022/05/04 16:31:02,口罩代售時間週一~週六自08:00-21.00（週四.週六下午.週日公休但不定時營業
5938040295,氏林藥局,南投縣竹山鎮中山里雲林路７３號,120.6818,23.75463,(049)2645829,羅氏家用新冠病毒抗原自我檢測套組,28,2022/05/04 16:31:02,早上8:30開始營業，營業時間皆有販售.售完為止，周日公休
5938040366,竹山藥局,南投縣竹山鎮中山里竹山路１５０之２號,120.6818,23.7539,(049)2644930,羅氏家用新冠病毒抗原自我檢測套組,8,2022/05/04 16:31:02,處方單調劑，快篩試劑代售
5938040437,宏明堂藥局,南投縣竹山鎮竹山里橫街８８號,120.6831,23.75616,(049)2642202,羅氏家用新冠病毒抗原自我檢測套組,14,2022/05/04 16:31:02,早上7:30開始營業至晚上9:00。（全年無休）
5938041569,竹山福倫藥局,南投縣竹山鎮竹山里集山路三段858號,120.6857,23.75881,(049)2658518,羅氏家用新冠病毒抗原自我檢測套組,12,2022/05/04 16:31:02,下午1點現場排隊販售
5938041729,早安藥局,南投縣竹山鎮雲林路４１號,120.6834,23.75608,(049)2651032,羅氏家用新冠病毒抗原自我檢測套組,79,2022/05/04 16:31:02,實名制快篩試劑早上10點開始販售
5938041809,維淇藥師藥局,南投縣竹山鎮集山路三段８１６－１號,120.6863,23.75949,(049)2653689,羅氏家用新冠病毒抗原自我檢測套組,30,2022/05/04 16:31:02,早上8：30~晚上21：00，星期六下午晚上及星期日休息
5938041845,博愛藥局,南投縣竹山鎮雲林路３５號,120.6836,23.75612,(049)2642748,羅氏家用新冠病毒抗原自我檢測套組,79,2022/05/04 16:31:02,0830AM開始販售，售完為止
5938041881,明仁藥局,南投縣竹山鎮集山路三段９４８－２號,120.6834,23.75737,(049)2659650,羅氏家用新冠病毒抗原自我檢測套組,98,2022/05/04 16:31:02,防疫口罩販售時間：每日上午9時至12時
5938041916,大明藥局,南投縣竹山鎮大明路４８２號,120.6798,23.759,(049)2652500,羅氏家用新冠病毒抗原自我檢測套組,67,2022/05/04 16:31:02,快篩實名制，每天16:00開始販售，售完為止。
5938041925,耀聖藥局,南投縣竹山鎮集山路三段８１６之５號,120.6862,23.7596,(049)2652267,羅氏家用新冠病毒抗原自我檢測套組,84,2022/05/04 16:31:02,無
5938110023,杏仁藥局,南投縣水里鄉新城村民權路２３６號,120.8526,23.81758,(049)2776008,羅氏家用新冠病毒抗原自我檢測套組,80,2022/05/04 16:31:02,周一到周六，下午2:30販售快篩，售完為止，星期日休息
5939012133,鎮東藥局,雲林縣斗六市中華路４６０號,120.5516,23.70846,(05)5332449,羅氏家用新冠病毒抗原自我檢測套組,20,2022/05/04 16:31:02,星期二. 五 下午及晚上休息  星期六全天休息 （國定假日 星期日 9:00開始 晚上7:30 休息 ）
5939021623,沈藥局,雲林縣斗南鎮中正路１７６號,120.4781,23.67661,(05)5972748,羅氏家用新冠病毒抗原自我檢測套組,25,2022/05/04 16:31:02,[實名制快篩] 每天固定 下午 3:30 開始販售
5939031576,良方藥局,雲林縣虎尾鎮中山路５７號,120.4344,23.70764,(05)6312106,羅氏家用新冠病毒抗原自我檢測套組,156,2022/05/04 16:31:02,5／4快篩未配送
5939032724,虎尾藥局,雲林縣虎尾鎮林森路二段１１７、１１９號,120.4298,23.70595,(05)6336330,羅氏家用新冠病毒抗原自我檢測套組,408,2022/05/04 16:31:02,新開業，健保系統線路建置中，尚無法使用健保系統販售實名制快篩試劑。
5939060120,民生藥局,雲林縣北港鎮民生路７０號,120.3027,23.56495,(05)7822476,羅氏家用新冠病毒抗原自我檢測套組,3,2022/05/04 16:31:02,上午8:30-晚上9:30，週末請先電話洽詢
5939061930,德豐藥局,雲林縣北港鎮公園路１２號,120.303,23.5735,(05)7835338,羅氏家用新冠病毒抗原自我檢測套組,24,2022/05/04 16:31:02,平日中午十二點到兩點休息，下午六點到六點半休息，週日全天休息
5939061949,大樹北港藥局,雲林縣北港鎮華勝路９９號,120.2986,23.57559,(05)7830783,羅氏家用新冠病毒抗原自我檢測套組,49,2022/05/04 16:31:02,快篩實名制，每天16:00開始販售，售完為止。
5939071294,元林中西藥局,雲林縣古坑鄉西平村西平路９－２號１樓,120.5606,23.64679,(05)5828229,羅氏家用新冠病毒抗原自我檢測套組,79,2022/05/04 16:31:02,販賣口罩時間：08:00
5939090146,明泰藥局,雲林縣莿桐鄉莿桐村中山路１０６號,120.5002,23.75753,(05)5842824,羅氏家用新冠病毒抗原自我檢測套組,78,2022/05/04 16:31:02,販賣口罩時間08:30至完售
5939131482,麥津藥局,雲林縣麥寮鄉中山路３１３、３１５號,120.2527,23.74947,(05)6932258,羅氏家用新冠病毒抗原自我檢測套組,1,2022/05/04 16:31:02,快篩實名制，每天16:00開始販售，售完為止。
5939171093,和平藥局,雲林縣元長鄉下寮村東興路３３號,120.334,23.61849,(05)7862551,羅氏家用新冠病毒抗原自我檢測套組,4,2022/05/04 16:31:02,販賣口罩時間：0800開賣，賣完為止
5939200011,優生藥局,雲林縣水林鄉水林路９９巷２號,120.247,23.57205,(05)7856307,羅氏家用新冠病毒抗原自我檢測套組,12,2022/05/04 16:31:02,販賣快篩試劑時間:5月1日早上8點有販售
5940031386,大樹大林藥局,嘉義縣大林鎮祥和路１９２號,120.4527,23.60447,(05)2641800,羅氏家用新冠病毒抗原自我檢測套組,8,2022/05/04 16:31:02,快篩實名制，每天16:00開始販售，售完為止。
5940031402,信沅中西藥局,嘉義縣大林鎮西林里０１１鄰中正路４２０號,120.4528,23.60129,(05)2656377,羅氏家用新冠病毒抗原自我檢測套組,78,2022/05/04 16:31:02,每日販售時間：19:00~20:00。
5940040232,鈞安藥局,嘉義縣民雄鄉山中村１８７之５號,120.4103,23.51833,(05)2218622,羅氏家用新冠病毒抗原自我檢測套組,1,2022/05/04 16:31:02,上午7:00-晚上9:30，六日不定期休息
5940040321,上安藥局,嘉義縣民雄鄉西安路４６－２３號,120.4259,23.55737,(05)2261216,羅氏家用新冠病毒抗原自我檢測套組,1,2022/05/04 16:31:02,W1-W6上午八點-售罄（週日1600開始販售）
5940040349,正道藥局,嘉義縣民雄鄉中樂村復興路３８號,120.4304,23.55706,(05)2268345,羅氏家用新冠病毒抗原自我檢測套組,5,2022/05/04 16:31:02,周一~周六 15:00-售罄周日 視人力彈性發放08:30-12:00
5940041435,嘉方藥局,嘉義縣民雄鄉中樂村昇平路５８號,120.4303,23.55781,(05)2066747,羅氏家用新冠病毒抗原自我檢測套組,49,2022/05/04 16:31:02,早上08:00開始販賣，賣完為止
5940041597,民雄弘安藥局,嘉義縣民雄鄉建國路一段４５號,120.4336,23.5556,(05)2060200,羅氏家用新冠病毒抗原自我檢測套組,2,2022/05/04 16:31:02,無
5940041622,大順藥局,嘉義縣民雄鄉福樂村埤角１３９號,120.44,23.52429,(05)2201138,羅氏家用新冠病毒抗原自我檢測套組,1,2022/05/04 16:31:02,快篩領取:星期一至日下午2點，售完為止
5940041695,春森藥局,嘉義縣民雄鄉東榮村９鄰和平路３７號,120.4318,23.55674,(05)2266957,羅氏家用新冠病毒抗原自我檢測套組,4,2022/05/04 16:31:02,08:00~售罄
5940041739,民雄藥局,嘉義縣民雄鄉東榮村００５鄰建國路一段１１７號,120.4333,23.55681,(05)2264566,羅氏家用新冠病毒抗原自我檢測套組,51,2022/05/04 16:31:02,快篩實名制，每天16:00開始販售，售完為止。
5940041748,大祐藥局,嘉義縣民雄鄉西安村西安路２１－１號１樓,120.4272,23.5564,(05)2067077,羅氏家用新冠病毒抗原自我檢測套組,65,2022/05/04 16:31:02,週日下午晚上休息
5940041784,福興瑞安藥局,嘉義縣民雄鄉東榮村東榮路１０號,120.4332,23.55743,(05)2265396,羅氏家用新冠病毒抗原自我檢測套組,32,2022/05/04 16:31:02,因物流配送時間不確定，每日實名制快篩販售時間請見Facebook粉絲專頁或goole maps貼文公告
5940041800,棋德藥局,嘉義縣民雄鄉建國路一段１９９號,120.4336,23.5584,(05)2060121,羅氏家用新冠病毒抗原自我檢測套組,6,2022/05/04 16:31:02,無
5940050069,明生藥局,嘉義縣溪口鄉溪東村民生街１５５號,120.3962,23.60334,(05)2698027,羅氏家用新冠病毒抗原自我檢測套組,4,2022/05/04 16:31:02,08:00~售罄
5940051119,宇安藥局,嘉義縣溪口鄉坪頂村溪民路３１號,120.4003,23.60387,(05)2697736,羅氏家用新冠病毒抗原自我檢測套組,22,2022/05/04 16:31:02,8:00-12:00，14:00-19:00，六日，8:00-12:00， 販售快篩
5940051164,濟安藥局,嘉義縣溪口鄉民生街５４號,120.3985,23.60407,(05)2696078,羅氏家用新冠病毒抗原自我檢測套組,15,2022/05/04 16:31:02,無
5940080058,長生健保藥局,嘉義縣東石鄉東石村東石村２６０號,120.1405,23.45356,(05)3732557,羅氏家用新冠病毒抗原自我檢測套組,4,2022/05/04 16:31:02,快篩每天上午8點發號碼牌，週1-5下午2-7點購買領取，週六日上午10-12點購買領取
5940090116,義竹全安藥局,嘉義縣義竹鄉六桂村４鄰２０９號,120.2448,23.33615,(05)3411611,羅氏家用新冠病毒抗原自我檢測套組,21,2022/05/04 16:31:02,無
5940120137,德安藥局,嘉義縣水上鄉南和村後寮２６之６號,120.362,23.41007,(05)2688835,羅氏家用新冠病毒抗原自我檢測套組,67,2022/05/04 16:31:02,星期日公休
5940121394,水上藥局,嘉義縣水上鄉水頭村中興路２６６號,120.4029,23.43014,(05)2601121,羅氏家用新冠病毒抗原自我檢測套組,36,2022/05/04 16:31:02,快篩實名制，每天16:00開始販售，售完為止。
5940131283,一心藥局,嘉義縣中埔鄉富收村頂中下街３１、３１－１號１樓,120.4885,23.45077,(05)2303553,羅氏家用新冠病毒抗原自我檢測套組,19,2022/05/04 16:31:02,無
5940131363,和睦藥局,嘉義縣中埔鄉中山路５段８２１號１樓,120.4618,23.45158,(05)2395283,羅氏家用新冠病毒抗原自我檢測套組,21,2022/05/04 16:31:02,每星期日無販售快篩
5940151141,橙新藥局,嘉義縣梅山鄉中山路２８５號,120.5569,23.58416,(05)2622277,羅氏家用新冠病毒抗原自我檢測套組,78,2022/05/04 16:31:02,無
5941010309,鴻達藥局,臺南市新營區民生里復興路１２４號,120.3101,23.3035,(06)6358837,羅氏家用新冠病毒抗原自我檢測套組,78,2022/05/04 16:31:02,無
5941030114,協宏藥局,臺南市白河區竹門里９８之３號,120.4466,23.37697,(06)6852961,羅氏家用新冠病毒抗原自我檢測套組,61,2022/05/04 16:31:02,快篩  08 : 30-20:00
5941201161,安麗兒藥局新市店,臺南市新市區新和里中正路２６０號,120.2919,23.07716,(06)5012699,羅氏家用新冠病毒抗原自我檢測套組,1,2022/05/04 16:31:02,星期一至星期日下午2:00後至售完
5941270163,太子藥局,臺南市仁德區太子里太子路３３８號,120.2577,22.99146,(06)2729906,羅氏家用新冠病毒抗原自我檢測套組,3,2022/05/04 16:31:02,5／4快篩賣完了
5942011480,頂好藥師藥局,高雄市鳳山區光華東路１５號,120.3565,22.61923,(07)7430834,羅氏家用新冠病毒抗原自我檢測套組,2,2022/05/04 16:31:02,自2／11日~2／29日，營業日10:00~21:00為販賣口罩時間，售完為止
5942013699,新怡安藥局,高雄市鳳山區海洋里新富路５１２號,120.3474,22.61403,(07)7633565,羅氏家用新冠病毒抗原自我檢測套組,7,2022/05/04 16:31:02,快篩如果送貨正常一般都早上九點販售  如果供貨時間異常就下午兩點
5942013902,順發藥局,高雄市鳳山區新強里新富路２３９號,120.3389,22.61296,(07)7630666,羅氏家用新冠病毒抗原自我檢測套組,28,2022/05/04 16:31:02,實名制快篩販售時間-早上8:30~11:30、午晚15:00~20:30，星期六午晚及星期日不販售。
5942013920,康博藥局,高雄市鳳山區新樂里南京路１５３－１２號,120.3452,22.60952,(07)7671755,羅氏家用新冠病毒抗原自我檢測套組,13,2022/05/04 16:31:02,6／3端午節不營業 每日營業時間:9:00--12:30   1500---2130 周日休息
5942020050,惠光西藥局,高雄市岡山區維仁路１４７號,120.2925,22.79481,(07)6212163,羅氏家用新冠病毒抗原自我檢測套組,1,2022/05/04 16:31:02,販賣時間:下午2:00發號碼牌銷售5:00前取貨
5942020130,建成藥局,高雄市岡山區台上里大仁路９７號,120.3016,22.8053,(07)6210458,羅氏家用新冠病毒抗原自我檢測套組,120,2022/05/04 16:31:02,營業日.販賣快篩劑.時間15:00-18:00.或至售完為止
5942020185,鴻興大藥局,高雄市岡山區中華路１３６號,120.2882,22.79476,(07)6259903,羅氏家用新冠病毒抗原自我檢測套組,4,2022/05/04 16:31:02,有營業  就有賣快篩。
5942020265,建元藥局,高雄市岡山區大仁北路１０４號,120.3018,22.80071,(07)6216672,羅氏家用新冠病毒抗原自我檢測套組,78,2022/05/04 16:31:02,販售時間早上八點售完為止 （如餘78份，屬隔日早上的數量）
5942030092,天明藥局,高雄市旗山區大同路至誠巷１５號,120.4818,22.88361,(07)6621311,羅氏家用新冠病毒抗原自我檢測套組,21,2022/05/04 16:31:02,營業日8:00~發號碼牌 8:30領至下午9:00為販賣口罩時間，售完為止8:00
5942030225,吉本藥局,高雄市旗山區旗南里中洲路４７４－１號,120.465,22.83976,(07)6663226,羅氏家用新冠病毒抗原自我檢測套組,41,2022/05/04 16:31:02,營業日0800~2200，14:00開始發號碼牌14:30起為配售口罩時間.售完為止；周六公休無配售口罩；
5942030234,賽珠藥局,高雄市旗山區新山里延平一路４９６號,120.4832,22.89004,(07)6616068,羅氏家用新冠病毒抗原自我檢測套組,14,2022/05/04 16:31:02,政府實名制快篩，當日收到後立即販售，售完為止。
5942031357,錦昌藥局,高雄市旗山區大同街４號,120.4838,22.88333,(07)6613129,羅氏家用新冠病毒抗原自我檢測套組,3,2022/05/04 16:31:02,政府快篩下午兩點14:00開始販售。早上接診所處方箋。
5942031366,辰安藥局,高雄市旗山區延平一路５４５號,120.4833,22.88713,(07)6623545,羅氏家用新冠病毒抗原自我檢測套組,4,2022/05/04 16:31:02,3／13日起，營業日09:00起為販賣口罩時間，售完為止
5942040089,進安堂藥局,高雄市美濃區忠孝路１段３７２號,120.5261,22.87692,(07)6812741,羅氏家用新冠病毒抗原自我檢測套組,102,2022/05/04 16:31:02,無
5942040114,吉安藥局,高雄市美濃區中正路二段７３２號,120.5365,22.8688,(07)6831711,羅氏家用新冠病毒抗原自我檢測套組,16,2022/05/04 16:31:02,自2／11日~2／29日，營業日08:00~21:00為販賣口罩時間，售完為止
5942100071,皇佳藥局,高雄市鳥松區仁美里高碼二路１２號,120.3893,22.65769,(07)7312918,羅氏家用新冠病毒抗原自我檢測套組,78,2022/05/04 16:31:02,實名制快篩，晚上八點開始販售，現場排隊購買，售完為止，週日無販售
5942140084,惠聖中西藥局,高雄市阿蓮區清蓮里中山路１４號,120.3291,22.88057,(07)6312582,羅氏家用新冠病毒抗原自我檢測套組,78,2022/05/04 16:31:02,自4／28日起，實名制快篩週一~五下午5:00起，週六日上午8:00起銷售，售完為止
5942200030,順成藥局,高雄市梓官區梓官路城隍巷３１號,120.2681,22.75929,(07)6172407,羅氏家用新冠病毒抗原自我檢測套組,6,2022/05/04 16:31:02,5月4日當日才會配送，快篩銷售時間下午4點，現場購買。
5942240043,光輝藥局,高雄市內門區鄉觀亭里南屏路２３０號,120.4547,22.92305,(07)6671106,羅氏家用新冠病毒抗原自我檢測套組,9,2022/05/04 16:31:02,自3／01日~3／31日，營業日8:30起為販賣口罩時間，售完為止
5943011135,昱昇藥師藥局,屏東縣屏東市北勢里中正路３７３－１號,120.4944,22.68516,(08)7377471,羅氏家用新冠病毒抗原自我檢測套組,73,2022/05/04 16:31:02,營業時間早上7:30至晚上10:30，快篩試劑販售依配送時間調整
5943012758,晉榮藥局,屏東縣屏東市大連路６之１號,120.5107,22.6844,(08)7380908,羅氏家用新冠病毒抗原自我檢測套組,2,2022/05/04 16:31:02,早上9點至12點.下午3點至晚上9點營業.星期日休息
5943013853,復順藥局,屏東縣屏東市公園東路８４－２號,120.4986,22.67217,(08)7215662,羅氏家用新冠病毒抗原自我檢測套組,12,2022/05/04 16:31:02,自2／11日~12／31日，營業日0930~售完為止，為販賣快篩時間（13:00-15:00休息）
5943013880,一二藥局,屏東縣屏東市廣東路１０９４號,120.484,22.68769,(08)7324688,羅氏家用新冠病毒抗原自我檢測套組,78,2022/05/04 16:31:02,防疫快篩AM10:00開始
5943014092,屏東藥局,屏東縣屏東市自由路６３１號,120.4824,22.683,(08)7323331,羅氏家用新冠病毒抗原自我檢測套組,10,2022/05/04 16:31:02,快篩實名制，每天16:00開始販售，售完為止。
5943014145,廣東藥局,屏東縣屏東市廣東路６８２－２．６８４號,120.4966,22.68527,(08)7362210,羅氏家用新冠病毒抗原自我檢測套組,1,2022/05/04 16:31:02,快篩實名制，每天16:00開始販售，售完為止。
5943014234,屏大藥局,屏東縣屏東市民生路５７－２１號,120.5038,22.66399,(08)7220369,羅氏家用新冠病毒抗原自我檢測套組,1,2022/05/04 16:31:02,快篩實名制，每天16:00開始販售，售完為止。
5943014314,信安藥局,屏東縣屏東市漢口街１１號,120.4898,22.67023,(08)7322332,羅氏家用新冠病毒抗原自我檢測套組,19,2022/05/04 16:31:02,實名制快篩 無固定到貨時間  故每日到貨後  會公告販賣時間在藥局門口   或電洽 08-7322332
5943014341,和平藥局,屏東縣屏東市和平路３５號,120.4785,22.66651,(08)7556696,羅氏家用新冠病毒抗原自我檢測套組,20,2022/05/04 16:31:02,快篩實名制，每天16:00開始販售，售完為止。
5943020125,信安西藥局,屏東縣潮州鎮同榮里中山路７０號,120.5415,22.54973,(08)7882176,羅氏家用新冠病毒抗原自我檢測套組,104,2022/05/04 16:31:02,5月4日實名制快篩下午4:00點開賣。週日不營業。
5943021720,潮州藥局,屏東縣潮州鎮介壽路１－１號,120.536,22.54448,(08)7894000,羅氏家用新冠病毒抗原自我檢測套組,37,2022/05/04 16:31:02,快篩實名制，每天16:00開始販售，售完為止。
5943031735,愛樂活藥局,屏東縣東港鎮長春一路１１３－１號,120.4594,22.47111,(08)8312388,羅氏家用新冠病毒抗原自我檢測套組,3,2022/05/04 16:31:02,快篩販賣時間: 週一，二，四，五晚上7點開賣，週三，六（有夜市）下午3點開賣
5943031771,東港藥局,屏東縣東港鎮中正路２５７˙２５７－１號,120.4523,22.47022,(08)8325133,羅氏家用新冠病毒抗原自我檢測套組,1,2022/05/04 16:31:02,快篩實名制，每天16:00開始販售，售完為止。
5943041357,西門藥局,屏東縣恆春鎮西門路１０８號,120.7437,22.00793,(08)8896980,羅氏家用新冠病毒抗原自我檢測套組,2,2022/05/04 16:31:02,快篩實名制，每天16:00開始販售，販售完為止
5943050169,新萬安藥局,屏東縣萬丹鄉萬安村萬丹路一段１１３號,120.4894,22.58628,(08)7772035,羅氏家用新冠病毒抗原自我檢測套組,1,2022/05/04 16:31:02,口罩販售時間早上8：30~22:00
5943131561,南寧藥局,屏東縣內埔鄉南寧路２３號,120.5655,22.61723,(08)7690330,羅氏家用新冠病毒抗原自我檢測套組,26,2022/05/04 16:31:02,快篩實名制，每天16:00開始販售，售完為止。
5943170095,長安中西藥局,屏東縣新園鄉中洲村南興路１９４號,120.4586,22.48776,(08)8336986,羅氏家用新冠病毒抗原自我檢測套組,1,2022/05/04 16:31:02,自2／11~2／29日，販賣口罩時間9:00起，售完為止。
5945013057,富強健康藥局,花蓮縣花蓮市國裕里２２鄰富強路１２８號,121.5971,23.99707,(03)8571839,羅氏家用新冠病毒抗原自我檢測套組,1,2022/05/04 16:31:02,快篩領取時間:12:00~13:00止。營業時間:  8:30~13:00（11:30~12:00休息）／17:30~21:30公休日:另行通知。
5945021086,安康鳳林藥局,花蓮縣鳳林鎮仁愛街１０號１樓,121.4503,23.74937,(03)8762227,羅氏家用新冠病毒抗原自我檢測套組,8,2022/05/04 16:31:02,快篩發放時間，依現場公告為主，售完為止。
5945031297,莊藥局,花蓮縣玉里鎮中城里２７鄰成功街９５號,121.314,23.33083,(03)8882328,羅氏家用新冠病毒抗原自我檢測套組,73,2022/05/04 16:31:02,口罩販售時間8:00-9:00
5945051226,仁里藥局,花蓮縣吉安鄉中正路１段１６３號,121.5917,23.96568,(03)8512569,羅氏家用新冠病毒抗原自我檢測套組,78,2022/05/04 16:31:02,快篩領購時間:下午5~7點（週六日休息）
5945051575,宜康藥局,花蓮縣吉安鄉中華路二段１３４號,121.585,23.97395,(03)8512980,羅氏家用新冠病毒抗原自我檢測套組,234,2022/05/04 16:31:02,5／2（一）全天休診
5945051646,花蓮建國藥局,花蓮縣吉安鄉建國路１段１３７－１號,121.5915,23.98574,(03)8461699,羅氏家用新冠病毒抗原自我檢測套組,13,2022/05/04 16:31:02,快篩實名制，每天16:00開始販售，售完為止。
5945051735,杏一吉安建國藥局,花蓮縣吉安鄉建國路１段１４１、１４３號１樓,121.5911,23.98589,(03)8575611,羅氏家用新冠病毒抗原自我檢測套組,78,2022/05/04 16:31:02,今天快篩（12:35）售完  明5／5雙號 78份快篩未到貨-領取號碼牌後請在現場排隊，沒在現場排隊視同放棄
5946080552,伯安健康藥局,臺東縣長濱鄉長濱村１０鄰長濱路１０５號,121.4515,23.31496,(089)832519,羅氏家用新冠病毒抗原自我檢測套組,122,2022/05/04 16:31:02,無
5946101118,伯安藥局,臺東縣池上鄉新生路１１６號,121.2187,23.12315,(089)863585,羅氏家用新冠病毒抗原自我檢測套組,180,2022/05/04 16:31:02,早0800-1200，午1400-1800，晚1800-2000
5990010695,百泰藥局,金門縣金城鎮西海路１段１號,118.2864,24.41566,(082)312832,羅氏家用新冠病毒抗原自我檢測套組,103,2022/05/04 16:31:02,快篩實名制，每天16:00開始販售，售完為止。
