醫事機構代碼,醫事機構名稱,醫事機構地址,經度,緯度,醫事機構電話,廠牌項目,快篩試劑截至目前結餘存貨數量,來源資料時間,備註
0291010010,連江縣立醫院,連江縣南竿鄉復興村２１７號,119.9492,26.16084,(083)623995,羅氏家用新冠病毒抗原自我檢測套組,13,2022/05/02 09:35:02,4／29起固定周一至周六上午8:30-9:30快篩試劑販售.
2331200010,新北市坪林區衛生所,新北市坪林區坪林街１０４號,121.7095,24.93592,(02)26656272,羅氏家用新冠病毒抗原自我檢測套組,91,2022/05/02 09:35:02,防疫口罩販售服務時間，星期一至五09:00-12:00 。（倘若遇政府規定補班日，仍會提供販售口罩服務）
2331240014,新北市平溪區衛生所,新北市平溪區公園街１７號１樓,121.7365,25.02469,(02)24951015,羅氏家用新冠病毒抗原自我檢測套組,94,2022/05/02 09:35:02,快篩試劑販售時間:週一至週五上午9:00至12:00 ，上午9:00開始發放號碼牌，限額78盒，若提前售完，即截止當日販售服務。
2331260016,新北市貢寮區衛生所,新北市貢寮區朝陽街７０巷１０號、新北市貢寮區仁愛路１２８號,121.9095,25.02258,(02)24901431,羅氏家用新冠病毒抗原自我檢測套組,86,2022/05/02 09:35:02,星期一至星期日上午8點購買防疫口罩，售完為止.
2331290014,新北市烏來區衛生所,新北市烏來區新烏路５段１０９號,121.548,24.87197,(02)26617200,羅氏家用新冠病毒抗原自我檢測套組,102,2022/05/02 09:35:02,無
2333070010,新竹縣橫山鄉衛生所,新竹縣橫山鄉大肚村３鄰新興街１４１巷１０號,121.1393,24.71756,(03)5932004,羅氏家用新冠病毒抗原自我檢測套組,156,2022/05/02 09:35:02,口罩販賣時段：星期一至星期五，上午9:00~11:00；週六、週日及國定假日不販售。
2333120015,新竹縣峨眉鄉衛生所,新竹縣峨眉鄉峨眉村峨眉街２鄰５號,121.0214,24.68842,(03)5800314,羅氏家用新冠病毒抗原自我檢測套組,156,2022/05/02 09:35:02,本所星期三下午中醫門診，販賣口罩及快篩試劑12時至13時止，國定及例假日不賣
2333140017,新竹縣五峰鄉衛生所,新竹縣五峰鄉大隘村六鄰９９號,121.1194,24.63184,(03)5851005,羅氏家用新冠病毒抗原自我檢測套組,127,2022/05/02 09:35:02,無
2334110013,宜蘭縣大同鄉衛生所,宜蘭縣大同鄉崙埤村朝陽４０號,121.6088,24.67785,(03)9801175,羅氏家用新冠病毒抗原自我檢測套組,232,2022/05/02 09:35:02,本所防疫快篩試劑販賣時間為週一到週五 10:50-11:50  （或售罄為止），10:40開始發放號碼牌，詳細事項請至本所網站查詢。
2335170013,苗栗縣獅潭鄉衛生所,苗栗縣獅潭鄉新店村１３０之６號,120.9201,24.53961,(037)931309,羅氏家用新冠病毒抗原自我檢測套組,85,2022/05/02 09:35:02,口罩販賣時段：08:30-16:00
2335180019,苗栗縣泰安鄉衛生所,苗栗縣泰安鄉清安村２鄰７２號,120.9083,24.44722,(037)941054,羅氏家用新冠病毒抗原自我檢測套組,124,2022/05/02 09:35:02,口罩販賣時段：星期一~五：8:30~15：00。
2338070010,南投縣鹿谷鄉衛生所,南投縣鹿谷鄉中正路二段２０號,120.7542,23.74488,(049)2752002,羅氏家用新冠病毒抗原自我檢測套組,156,2022/05/02 09:35:02,快篩試劑販售時間 上班日（星期一至星期五）14:00~16:00
2338120015,南投縣信義鄉衛生所,南投縣信義鄉明德村玉山路４５號,120.8547,23.69653,(049)2791148,羅氏家用新冠病毒抗原自我檢測套組,90,2022/05/02 09:35:02,快篩試劑販售時間星期一至星期五上午09：00-11：00，現場排隊發售，國定假日不販賣。
2340170016,嘉義縣大埔鄉衛生所,嘉義縣大埔鄉大埔村５３－１號,120.5928,23.29397,(05)2521214,羅氏家用新冠病毒抗原自我檢測套組,69,2022/05/02 09:35:02,無
2342130010,高雄市田寮區衛生所,高雄市田寮區南安里崗北路３２號,120.3594,22.87301,(07)6361504,羅氏家用新冠病毒抗原自我檢測套組,186,2022/05/02 09:35:02,巡迴醫療:每星期一、四下午及每月第一個有上班的星期三下午巡迴醫療
2342180010,高雄市永安區衛生所,高雄市永安區永安路２６號,120.2254,22.81879,(07)6912015,羅氏家用新冠病毒抗原自我檢測套組,193,2022/05/02 09:35:02,無
2342250017,高雄市茂林區衛生所,高雄市茂林區茂林里茂林巷８－４號,120.6641,22.88641,(07)6801046,羅氏家用新冠病毒抗原自我檢測套組,240,2022/05/02 09:35:02,夜間急診，請先撥電話07-6801046
2342260013,高雄市桃源區衛生所,高雄市桃源區桃源里南進巷１８８－１號,120.7642,23.15845,(07)6861126,羅氏家用新冠病毒抗原自我檢測套組,174,2022/05/02 09:35:02,IDS提供24小時服務
2342270019,高雄市那瑪夏區衛生所,高雄市那瑪夏區瑪雅里６鄰平和巷２５２號,120.7024,23.24708,(07)6701142,羅氏家用新冠病毒抗原自我檢測套組,241,2022/05/02 09:35:02,春節期間正常門診
2343270013,屏東縣霧台鄉衛生所,屏東縣霧台鄉霧台村神山巷６８號,120.7261,22.74989,(08)7902232,羅氏家用新冠病毒抗原自我檢測套組,122,2022/05/02 09:35:02,無
2343300016,屏東縣來義鄉衛生所,屏東縣來義鄉古樓村中正路９０號,120.632,22.52584,(08)7850103,羅氏家用新冠病毒抗原自我檢測套組,1,2022/05/02 09:35:02,無
2343320018,屏東縣獅子鄉衛生所,屏東縣獅子鄉楓林村楓林二巷３１號,120.7057,22.18402,(08)8771324,羅氏家用新冠病毒抗原自我檢測套組,26,2022/05/02 09:35:02,特休日：每年農曆除夕、初一
2344030013,澎湖縣白沙鄉衛生所,澎湖縣白沙鄉赤崁村３５９號,119.5982,23.66669,(06)9931044,羅氏家用新冠病毒抗原自我檢測套組,88,2022/05/02 09:35:02,星期日上午門診看診（每月最後一個星期日休診）； 星期五上午巡迴醫療（中屯村，講美村，通樑村）
2344030022,澎湖縣白沙鄉鳥嶼衛生所,澎湖縣白沙鄉鳥嶼村漁港新村３號,119.6599,23.66008,(06)9916092,羅氏家用新冠病毒抗原自我檢測套組,77,2022/05/02 09:35:02,非上班時間提供急診服務
2344030031,澎湖縣白沙鄉吉貝衛生所,澎湖縣白沙鄉吉貝村８－１３號,119.6138,23.74056,(06)9911430,羅氏家用新冠病毒抗原自我檢測套組,147,2022/05/02 09:35:02,無
2344050015,澎湖縣望安鄉衛生所,澎湖縣望安鄉西安村３６－７號,119.4972,23.36161,(06)9991036,羅氏家用新冠病毒抗原自我檢測套組,92,2022/05/02 09:35:02,夜間急診。口罩、快篩試劑販售時間為:每日08:00-12:00、13:30-17:30售完為止，如有餘數為離島未售出（東嶼坪、花嶼衛生室）。
2344050024,澎湖縣望安鄉將軍衛生所,澎湖縣望安鄉將軍村１２鄰將軍澳１之３號,119.5216,23.3615,(06)9902066,羅氏家用新冠病毒抗原自我檢測套組,190,2022/05/02 09:35:02,24小時急診
2344060011,澎湖縣七美鄉衛生所,澎湖縣七美鄉中和村埔內５４號,119.431,23.2041,(06)9971005,羅氏家用新冠病毒抗原自我檢測套組,59,2022/05/02 09:35:02,無
2345080017,花蓮縣豐濱鄉衛生所,花蓮縣豐濱鄉豐濱村光豐路３９號,121.5215,23.60195,(03)8791156,羅氏家用新冠病毒抗原自我檢測套組,78,2022/05/02 09:35:02,*本院口罩每天販售，時間自上午8點至晚上9點  *本院週一至週五上下午皆有門診，星期六隔週提供門診，及24小時急診。
2345100014,花蓮縣富里鄉衛生所,花蓮縣富里鄉富里村中山路２０３號,121.2491,23.17847,(03)8831029,羅氏家用新冠病毒抗原自我檢測套組,158,2022/05/02 09:35:02,*內科:每週二下午東里玉蓮寺巡診 **牙科:每週二至卓溪醫療站***口罩販賣時間8:30起至11:00止
2345120016,花蓮縣萬榮鄉衛生所,花蓮縣萬榮鄉萬榮村１鄰１６號,121.4092,23.71558,(03)8751651,羅氏家用新冠病毒抗原自我檢測套組,234,2022/05/02 09:35:02,快篩試劑代售時間：週一至週五下午2點至下午4點，販售為止。
2345130012,花蓮縣卓溪鄉衛生所,花蓮縣卓溪鄉卓溪村中正路６５號,121.3033,23.33294,(03)8882592,羅氏家用新冠病毒抗原自我檢測套組,197,2022/05/02 09:35:02,販賣口罩服務時段每周一至周五早上8點45分至11點45分，星期一至星期四安排巡迴醫療點販售（售完即結束）
2346050013,台東縣大武鄉衛生所,臺東縣大武鄉大武村復興路２－２號,120.9078,22.36414,(089)791143,羅氏家用新冠病毒抗原自我檢測套組,105,2022/05/02 09:35:02,24小時急診服務
2346070015,臺東縣東河鄉衛生所,臺東縣東河鄉東河村南東河路１０鄰３００號,121.3031,22.96846,(089)896289,羅氏家用新冠病毒抗原自我檢測套組,98,2022/05/02 09:35:02,快篩試劑販售時間:◆平日（星期一三四五）上午9-11時販售，星期二下午13-15時販售售完為止。
2346110014,台東縣綠島鄉衛生所,臺東縣綠島鄉中寮村１－１號,121.4696,22.67319,(089)672511,羅氏家用新冠病毒抗原自我檢測套組,80,2022/05/02 09:35:02,家用快篩實名制，販售時段為上午08:30至12:00，下午13:30至16:30（周一至周五），售完為止。）
2346130016,台東縣海端鄉衛生所,臺東縣海端鄉海端村３鄰２９號,121.1767,23.10094,(089)931391,羅氏家用新冠病毒抗原自我檢測套組,234,2022/05/02 09:35:02,星期一至星期五口罩販售時間上午8點~12點（售完為止）
2346140012,台東縣達仁鄉衛生所,臺東縣達仁鄉安朔村復興路１２２號,120.8836,22.29488,(089)702209,羅氏家用新冠病毒抗原自我檢測套組,106,2022/05/02 09:35:02,12／31 元旦連假
2346150018,台東縣金峰鄉衛生所,臺東縣金峰鄉賓茂村１鄰１４號,120.9606,22.53248,(089)772201,羅氏家用新冠病毒抗原自我檢測套組,98,2022/05/02 09:35:02,代售口罩時間:星期一至星期五為上午8:00-12:00，下午1:30-5:30
2346160014,台東縣蘭嶼鄉衛生所,臺東縣蘭嶼鄉紅頭村３６號,121.5546,22.02493,(089)732575,羅氏家用新冠病毒抗原自我檢測套組,129,2022/05/02 09:35:02,販售口罩時間 星期一至星期五 8:00~12:00 13:30~17:30
2390050032,金門縣烈嶼鄉衛生所,金門縣烈嶼鄉西口村西方６－５號,118.2395,24.43519,(082)362078,羅氏家用新冠病毒抗原自我檢測套組,156,2022/05/02 09:35:02,快篩試劑販售時間:周一至周五下午1點至3點
2391020010,連江縣北竿鄉衛生所,連江縣北竿鄉塘岐村２８１－６號,119.9991,26.22617,(083)655592,羅氏家用新冠病毒抗原自我檢測套組,17,2022/05/02 09:35:02,新冠快篩試劑販售於週一至周六每日上午08:30-12:00開放購買。
2391030016,連江縣莒光鄉西莒衛生所,連江縣莒光鄉青帆村１４－１號,119.9331,25.97157,(083)689122,羅氏家用新冠病毒抗原自我檢測套組,201,2022/05/02 09:35:02,防疫口罩星期一至五09:00-17:00、（六）09:00-12:00現場購買
2391030026,連江縣莒光鄉東莒衛生所,連江縣莒光鄉大坪村３０－１號,119.9731,25.96113,(083)689038,羅氏家用新冠病毒抗原自我檢測套組,214,2022/05/02 09:35:02,防疫口罩星期一至星期日上午10:00-12:00收取健保卡，下午3:30至本所領取口罩。
2391040012,連江縣東引鄉衛生所,連江縣東引鄉中柳村１２３號,120.4904,26.36701,(083)677206,羅氏家用新冠病毒抗原自我檢測套組,36,2022/05/02 09:35:02,防疫口罩每日10:00-12:00現場購買
5901010094,明一藥局,臺北市松山區南京東路５段５９巷２８弄２５號１樓,121.5582,25.0527,(02)27691654,羅氏家用新冠病毒抗原自我檢測套組,156,2022/05/02 09:35:02,AM10: ~~PM9:00
5901010165,傑安藥局,臺北市松山區八德路２段４３７巷７弄８號１樓,121.5473,25.04914,(02)27524155,羅氏家用新冠病毒抗原自我檢測套組,196,2022/05/02 09:35:02,9:30開始發號碼牌
5901010174,仁弘藥局,臺北市松山區民生東路３段１１３巷２５弄６號１樓,121.5466,25.05948,(02)27136764,羅氏家用新冠病毒抗原自我檢測套組,78,2022/05/02 09:35:02,5／2（星期一）尚未到貨，發售時間另行公告.
5901010192,益華藥局,臺北市松山區民生東路５段１３８巷６號,121.5615,25.05827,(02)27624898,羅氏家用新冠病毒抗原自我檢測套組,78,2022/05/02 09:35:02,無
5901010272,德靈藥局,臺北市松山區富錦街５４８號,121.5667,25.06178,(02)27646998,羅氏家用新冠病毒抗原自我檢測套組,234,2022/05/02 09:35:02,節期間2／4-2／10休息. .
5901010290,健全藥局,臺北市松山區民權東路３段１０３巷２０號,121.5449,25.06327,(02)27128293,羅氏家用新冠病毒抗原自我檢測套組,78,2022/05/02 09:35:02,無
5901010496,瑞昌大藥局,臺北市松山區民權東路３段１０３巷１０號,121.5449,25.06298,(02)27151881,羅氏家用新冠病毒抗原自我檢測套組,78,2022/05/02 09:35:02,無
5901010576,合生藥局,臺北市松山區南京東路５段１２３巷４５號１樓,121.5607,25.05364,(02)27602932,羅氏家用新冠病毒抗原自我檢測套組,78,2022/05/02 09:35:02,口罩發放方式:早上9點至晚上10點 ， 週日店休
5901011699,建東大藥局,臺北市松山區三民路９７號１樓,121.5634,25.05723,(02)27676237,羅氏家用新冠病毒抗原自我檢測套組,39,2022/05/02 09:35:02,無
5901011975,萬泰藥局,臺北市松山區敦化北路２２２巷３８號,121.5471,25.05994,(02)27135891,羅氏家用新冠病毒抗原自我檢測套組,78,2022/05/02 09:35:02,每日早上9.00販售快篩試劑
5901012203,博荃藥局,臺北市松山區敦化北路４巷５１號,121.5447,25.05006,(02)27316736,羅氏家用新冠病毒抗原自我檢測套組,156,2022/05/02 09:35:02,快篩銷售時間為下午2點憑健保卡開始購買 ! 星期日，5／2連續假期公休 5／3快篩未到貨停賣
5901012516,惠登藥局,臺北市松山區民生東路３段１３０巷３４號,121.5461,25.0562,(02)25472432,羅氏家用新冠病毒抗原自我檢測套組,234,2022/05/02 09:35:02,無
5901012561,松田藥局,臺北市松山區延吉街９－６號,121.5536,25.04701,(02)25798005,羅氏家用新冠病毒抗原自我檢測套組,156,2022/05/02 09:35:02,每日上午9:30開始實名制快篩販售
5901012570,予志藥局,臺北市松山區富錦街５２１號,121.5649,25.06119,(02)27623522,羅氏家用新冠病毒抗原自我檢測套組,156,2022/05/02 09:35:02,實名制快篩星期一到三下午2點、星期四到六晚上8點、星期日停售
5901012598,婕登藥局,臺北市松山區八德路４段６９９號,121.5766,25.05021,(02)27482893,羅氏家用新冠病毒抗原自我檢測套組,156,2022/05/02 09:35:02,無
5901012632,晨安藥局,臺北市松山區八德路３段１５５巷２０弄２號,121.5553,25.04914,(02)25798460,羅氏家用新冠病毒抗原自我檢測套組,80,2022/05/02 09:35:02,5／2中午12:00營業
5901012749,躍獅松和藥局,臺北市松山區八德路四段６６６－１號,121.5761,25.04979,(02)27492569,羅氏家用新冠病毒抗原自我檢測套組,154,2022/05/02 09:35:02,實名制快篩販售時段，每日下午4點販售，售完為止
5901012767,晨新藥局,臺北市松山區八德路４段９１巷１－１號,121.5608,25.04894,(02)27422951,羅氏家用新冠病毒抗原自我檢測套組,78,2022/05/02 09:35:02,本店星期一不販售快篩，其餘時間為下午2點至5點（營業時間星期一至五10:00-22:00星期六、日12:00-20:00）
5901012918,躍獅京華藥局,臺北市松山區南京東路５段７１號,121.5596,25.05172,(02)27666508,羅氏家用新冠病毒抗原自我檢測套組,83,2022/05/02 09:35:02,實名制快篩販售時間：每日早上09:00，無發放號碼牌
5901012963,綠之家藥局,臺北市松山區延壽街４２８號,121.5562,25.0562,(02)25289595,羅氏家用新冠病毒抗原自我檢測套組,86,2022/05/02 09:35:02,禮拜日不販售快篩
5901013095,康采藥局,臺北市松山區南京東路５段２９１巷１７－２號,121.5663,25.05236,(02)27670271,羅氏家用新冠病毒抗原自我檢測套組,156,2022/05/02 09:35:02,快篩試劑每日16點販售，週日沒有販售
5901013120,誠康中西藥局,臺北市松山區南京東路５段５９巷３１弄４３號,121.5607,25.05346,(02)27619679,羅氏家用新冠病毒抗原自我檢測套組,78,2022/05/02 09:35:02,5／2因應物流配送~到貨公告後1小時後發號碼牌
5901013148,唯康藥局,臺北市松山區八德路３段２１１號,121.5566,25.0482,(02)25775000,羅氏家用新冠病毒抗原自我檢測套組,78,2022/05/02 09:35:02,無
5901013200,專品南京藥局,臺北市松山區南京東路４段７３號,121.5532,25.05185,(02)25147685,羅氏家用新冠病毒抗原自我檢測套組,78,2022/05/02 09:35:02,無
5901013308,立赫敦北藥局,臺北市松山區敦化北路２２２巷２０號,121.5477,25.05945,(02)27199277,羅氏家用新冠病毒抗原自我檢測套組,156,2022/05/02 09:35:02,5／1（日）勞動節店休不發售；5／2（一）尚未到貨／開賣時間另行公告
5901013362,啄木鳥藥局,臺北市松山區八德路４段２０９號、２１１號（１、２層）,121.564,25.04894,(02)27422413,羅氏家用新冠病毒抗原自我檢測套組,156,2022/05/02 09:35:02,無
5901013380,澄馨藥局,臺北市松山區三民路３７號,121.5635,25.0558,(02)27420159,羅氏家用新冠病毒抗原自我檢測套組,137,2022/05/02 09:35:02,無
5901013399,一安正昇藥局,臺北市松山區南京東路５段３０９號,121.5667,25.05155,(02)27680993,羅氏家用新冠病毒抗原自我檢測套組,78,2022/05/02 09:35:02,無
5901013442,松山八德藥局,臺北市松山區八德路２段４００號,121.5466,25.04804,(02)27782773,羅氏家用新冠病毒抗原自我檢測套組,78,2022/05/02 09:35:02,快篩實名制，每天16:00開始販售，售完為止。
5901013504,杏一台北長庚藥局,臺北市松山區敦化北路１９９巷２弄３號,121.55,25.05569,(02)25149463,羅氏家用新冠病毒抗原自我檢測套組,156,2022/05/02 09:35:02,無
5901013595,巧心藥局,臺北市松山區八德路３段１２巷５７弄３９之３號１樓,121.5521,25.04567,(02)25703728,羅氏家用新冠病毒抗原自我檢測套組,147,2022/05/02 09:35:02,快篩試劑14:00販售，售完為止．
5901013620,躍獅敦北藥局,臺北市松山區民生東路４段８０巷５號１樓,121.5531,25.05713,(02)27155691,羅氏家用新冠病毒抗原自我檢測套組,234,2022/05/02 09:35:02,無
5901013648,慶昌藥局,臺北市松山區延吉街２９號１樓,121.5537,25.04595,(02)25770820,羅氏家用新冠病毒抗原自我檢測套組,96,2022/05/02 09:35:02,下午14:00開始發放／醫護優先
5901013657,順儷中崙藥局,臺北市松山區八德路３段７４巷４８號１樓,121.5525,25.04685,(02)25796900,羅氏家用新冠病毒抗原自我檢測套組,78,2022/05/02 09:35:02,無
5901013693,民生盛康藥局,臺北市松山區民生東路５段２０４號１樓,121.5648,25.05826,(02)27460758,羅氏家用新冠病毒抗原自我檢測套組,182,2022/05/02 09:35:02,【嗨各位5／1不發放喔~】每日早上9:00發號碼牌，11:00~20:00拿號碼牌回來領取，每人限兩張號碼牌，逾時不候
5901013719,大樹松山藥局,臺北市松山區民生東路５段１０７號１樓,121.5601,25.05878,(02)27562226,羅氏家用新冠病毒抗原自我檢測套組,78,2022/05/02 09:35:02,快篩實名制，每天16:00開始販售，售完為止。
5901013728,康麗藥局,臺北市松山區南京東路３段３０３巷２０號（１樓）,121.5468,25.05374,(02)27174117,羅氏家用新冠病毒抗原自我檢測套組,156,2022/05/02 09:35:02,無
5901013737,全欣藥局,臺北市松山區復興北路７３號２樓,121.5442,25.05104,(02)87729066,羅氏家用新冠病毒抗原自我檢測套組,128,2022/05/02 09:35:02,9:00am開始販售30人份15:00販售30人份:18:00販售18人份；週六:9:00販售39人份；週日:15:00販售39人份
5901020303,宏恩藥局,臺北市大安區大安路１段１８１號,121.5461,25.03619,(02)27000956,羅氏家用新冠病毒抗原自我檢測套組,156,2022/05/02 09:35:02,實名制快篩每周一~六，10:00發放號碼牌， 另於12:00~21:00自由擇時，持號碼牌領取快篩並收費
5901020376,靜園藥局,臺北市大安區和平東路２段１１８巷５７之１號,121.5429,25.02254,(02)27336390,羅氏家用新冠病毒抗原自我檢測套組,78,2022/05/02 09:35:02,無
5901020385,延吉大藥局,臺北市大安區延吉街１５３號１樓,121.5548,25.04066,(02)27819227,羅氏家用新冠病毒抗原自我檢測套組,185,2022/05/02 09:35:02,無
5901020554,師大藥局,臺北市大安區師大路９９號１樓,121.5285,25.02271,(02)23623479,羅氏家用新冠病毒抗原自我檢測套組,234,2022/05/02 09:35:02,無
5901020563,施寶藥局,臺北市大安區安東街５０－５號１樓,121.5426,25.04277,(02)27114175,羅氏家用新冠病毒抗原自我檢測套組,234,2022/05/02 09:35:02,週一至週五早上11點到下午8點.周六周日及公訂例假日公休
5901020616,龍護大藥局,臺北市大安區大安路１段２２４巷７號１Ｆ,121.5454,25.03401,(02)23250686,羅氏家用新冠病毒抗原自我檢測套組,78,2022/05/02 09:35:02,無
5901020661,泰佑藥局,臺北市大安區安和路２段７２號１Ｆ,121.5517,25.03011,(02)27056841,羅氏家用新冠病毒抗原自我檢測套組,73,2022/05/02 09:35:02,每日早上九點半
5901020689,四維藥局,臺北市大安區復興南路２段１５１巷４３號１樓,121.5454,25.02846,(02)27094222,羅氏家用新冠病毒抗原自我檢測套組,78,2022/05/02 09:35:02,假日可先打電話聯絡
5901020732,赫慶藥局,臺北市大安區瑞安街２０８巷１１弄５號１樓,121.5408,25.02866,(02)27063497,羅氏家用新冠病毒抗原自我檢測套組,78,2022/05/02 09:35:02,快篩代售時間：星期一至六上午9點開始，星期日停售
5901020787,吉成藥局,臺北市大安區泰順街７號,121.5316,25.02557,(02)23636475,羅氏家用新冠病毒抗原自我檢測套組,156,2022/05/02 09:35:02,每日下午三點發放號碼牌，同時間開始販賣實名制快篩，四點結束，週日無發放
5901020876,大興藥局,臺北市大安區通化街３９巷５０弄１５號１樓,121.5555,25.03056,(02)27053369,羅氏家用新冠病毒抗原自我檢測套組,78,2022/05/02 09:35:02,快篩試劑販售時間自08:30開始，現場排隊。（週日休息）
5901020901,辰安藥局,臺北市大安區大安路１段３１巷２８號,121.5472,25.04385,(02)27119536,羅氏家用新冠病毒抗原自我檢測套組,156,2022/05/02 09:35:02,早上9:40分開始販賣口罩，賣完為止
5901021408,生百藥局,臺北市大安區臨江街１２４號,121.5539,25.03024,(02)27371011,羅氏家用新冠病毒抗原自我檢測套組,156,2022/05/02 09:35:02,無
5901022898,永康藥局,臺北市大安區麗水街６之２號,121.529,25.03289,(02)23279362,羅氏家用新冠病毒抗原自我檢測套組,78,2022/05/02 09:35:02,5月開始下午2點開賣快篩
5901023073,世中欣藥局,臺北市大安區永康街２巷８號,121.5294,25.03315,(02)23938947,羅氏家用新冠病毒抗原自我檢測套組,156,2022/05/02 09:35:02,健保快篩：周一至周五， 早上10點開始販售。週六下午4點販售。週日停售.。
5901023215,大愛健康藥局,臺北市大安區敦化南路２段６３巷６５號,121.552,25.03103,(02)27092156,羅氏家用新冠病毒抗原自我檢測套組,156,2022/05/02 09:35:02,無
5901023304,麗樺藥師藥局,臺北市大安區麗水街３號,121.529,25.03225,(02)23952628,羅氏家用新冠病毒抗原自我檢測套組,156,2022/05/02 09:35:02,無
5901023313,安和藥局,臺北市大安區安和路１段１０２巷３號,121.5519,25.03433,(02)27092349,羅氏家用新冠病毒抗原自我檢測套組,234,2022/05/02 09:35:02,平日下午三點開始販賣，九點結束
5901023331,佑安藥局,臺北市大安區延吉街２３３巷９號,121.5561,25.03708,(02)27069339,羅氏家用新冠病毒抗原自我檢測套組,78,2022/05/02 09:35:02,營業時間為下午兩點開始，週六暫定賣快篩，人數不多時會取消
5901023386,弘昇藥局,臺北市大安區復興南路１段１０７巷３２號,121.5458,25.04349,(02)27110061,羅氏家用新冠病毒抗原自我檢測套組,78,2022/05/02 09:35:02,上午11點以後至晚上11點
5901023411,長虹藥局,臺北市大安區忠孝東路４段２１６巷 ６３號,121.5531,25.0382,(02)27210232,羅氏家用新冠病毒抗原自我檢測套組,77,2022/05/02 09:35:02,2:30pm 發放實名制快篩（現場排隊現場購買）
5901023519,惠盈藥局,臺北市大安區辛亥路２段１７１巷３１號,121.5412,25.02297,(02)87321366,羅氏家用新冠病毒抗原自我檢測套組,156,2022/05/02 09:35:02,快篩上午11:00開始，週日沒賣
5901023653,信安健康藥局,臺北市大安區仁愛路４段１２２巷５８號,121.5501,25.03392,(02)27084858,羅氏家用新冠病毒抗原自我檢測套組,156,2022/05/02 09:35:02,無
5901023680,新富川藥局,臺北市大安區大安路１段５１巷４號,121.5464,25.04303,(02)27114758,羅氏家用新冠病毒抗原自我檢測套組,78,2022/05/02 09:35:02,無提供急診服務
5901023902,惠良藥局,臺北市大安區和平東路３段９３－１號,121.5507,25.02461,(02)27387872,羅氏家用新冠病毒抗原自我檢測套組,156,2022/05/02 09:35:02,早上十點開賣實名快篩 周日固定休息
5901024098,杏一瑞安藥局,臺北市大安區瑞安街２０８巷１１弄１號,121.5406,25.02866,(02)27096710,羅氏家用新冠病毒抗原自我檢測套組,234,2022/05/02 09:35:02,3點發快篩，前5分鐘發牌
5901024114,好安心藥局,臺北市大安區和平東路２段９８之２號,121.5415,25.02493,(02)23772166,羅氏家用新冠病毒抗原自我檢測套組,146,2022/05/02 09:35:02,快篩發放: 週一至週六 15:30現場開始販售，不發號碼牌。
5901024178,誠心藥局,臺北市大安區忠孝東路３段１９９－１號,121.5389,25.04188,(02)27527520,羅氏家用新冠病毒抗原自我檢測套組,5,2022/05/02 09:35:02,全年無休 0830-2230
5901024347,博大藥局,臺北市大安區安和路２段６５號,121.5526,25.03063,(02)27027858,羅氏家用新冠病毒抗原自我檢測套組,78,2022/05/02 09:35:02,若有配給．下午兩點開始販售。
5901024472,忠孝康承健保藥局,臺北市大安區復興南路１段１０７巷４號,121.5444,25.04357,(02)87733378,羅氏家用新冠病毒抗原自我檢測套組,78,2022/05/02 09:35:02,周一公休
5901024481,微笑藥師藥局,臺北市大安區信義路３段３１巷４號,121.5345,25.03401,(02)27009655,羅氏家用新冠病毒抗原自我檢測套組,78,2022/05/02 09:35:02,5／2-5／5下午14點發放號碼牌，17點前領取完
5901024490,明星大藥局,臺北市大安區光復南路４３０之１號,121.5574,25.03618,(02)27023747,羅氏家用新冠病毒抗原自我檢測套組,78,2022/05/02 09:35:02,無
5901024516,博昱師大藥局,臺北市大安區羅斯福路３段１８９號,121.5281,25.02109,(02)23696966,羅氏家用新冠病毒抗原自我檢測套組,78,2022/05/02 09:35:02,實名制快篩販售時間為下午14:00~15:30
5901024543,奇威藥局,臺北市大安區雲和街９３號,121.5312,25.02338,(02)23651110,羅氏家用新冠病毒抗原自我檢測套組,156,2022/05/02 09:35:02,無
5901024669,百岳藥局,臺北市大安區和平東路２段３１１巷１１號,121.5452,25.02514,(02)27551037,羅氏家用新冠病毒抗原自我檢測套組,62,2022/05/02 09:35:02,快篩試劑販售時間:周一至周五10:30~12:00止
5901024678,大安健康人生藥局,臺北市大安區信義路４段３４號,121.5447,25.03316,(02)27025553,羅氏家用新冠病毒抗原自我檢測套組,78,2022/05/02 09:35:02,無
5901024687,博昱大藥局,臺北市大安區樂業街１４８號、１５０號,121.5529,25.01998,(02)23776199,羅氏家用新冠病毒抗原自我檢測套組,156,2022/05/02 09:35:02,快篩發放為周一至周五1600開始發放
5901024696,仁華藥局,臺北市大安區臥龍街１５５號,121.5511,25.01834,(02)27336762,羅氏家用新冠病毒抗原自我檢測套組,78,2022/05/02 09:35:02,無
5901024703,吾家藥局,臺北市大安區信義路４段２６５巷６之１號,121.5542,25.03372,(02)27066425,羅氏家用新冠病毒抗原自我檢測套組,156,2022/05/02 09:35:02,實名制快篩於每日下午三點到四點開放 只限此時段販售 建議您於2點多到現場等候
5901024721,麗泰藥局,臺北市大安區復興南路２段１５１巷４號,121.544,25.02832,(02)27079595,羅氏家用新冠病毒抗原自我檢測套組,78,2022/05/02 09:35:02,無
5901024767,杏一樂業藥局,臺北市大安區樂業街１６２號,121.5535,25.01958,(02)27383194,羅氏家用新冠病毒抗原自我檢測套組,156,2022/05/02 09:35:02,快篩下午三點現場直接販售（不發號碼牌）
5901024892,太醫藥局,臺北市大安區師大路１２號,121.5283,25.02568,(02)23685125,羅氏家用新冠病毒抗原自我檢測套組,156,2022/05/02 09:35:02,口罩發放時間:周一到周五:13:30~20:00
5901024918,康祥藥局,臺北市大安區忠孝東路４段２１６巷２１號,121.5531,25.04025,(02)27817891,羅氏家用新冠病毒抗原自我檢測套組,138,2022/05/02 09:35:02,星期天11:00-19:00
5901024945,威康藥局,臺北市大安區和平東路２段２９７號,121.5447,25.02495,(02)27061149,羅氏家用新冠病毒抗原自我檢測套組,78,2022/05/02 09:35:02,無
5901024954,佑全大安敦南藥局,臺北市大安區敦化南路２段６３巷４６號,121.5512,25.03089,(02)23257579,羅氏家用新冠病毒抗原自我檢測套組,156,2022/05/02 09:35:02,早上10點發放號碼牌，同時開始販賣實名制快篩
5901024981,專品六張犁藥局,臺北市大安區基隆路２段２１７號１樓,121.5513,25.02299,(02)87322226,羅氏家用新冠病毒抗原自我檢測套組,156,2022/05/02 09:35:02,無
5901025013,頤品中西藥局,臺北市大安區浦城街２４之２號１樓,121.5267,25.02295,(02)23685656,羅氏家用新冠病毒抗原自我檢測套組,77,2022/05/02 09:35:02,無
5901025022,躍獅敦和藥局,臺北市大安區和平東路３段１０號,121.547,25.02453,(02)23785767,羅氏家用新冠病毒抗原自我檢測套組,78,2022/05/02 09:35:02,無
5901025031,中力信義藥局,臺北市大安區信義路４段５１號（１樓）,121.545,25.03354,(02)23250266,羅氏家用新冠病毒抗原自我檢測套組,156,2022/05/02 09:35:02,下午一點到三點販售實名制快篩
5901025040,弘昌藥局,臺北市大安區通化街１３９號１樓,121.554,25.02901,(02)27321616,羅氏家用新冠病毒抗原自我檢測套組,78,2022/05/02 09:35:02,無
5901025059,博醫仁愛藥局,臺北市大安區仁愛路４段８巷２號１樓,121.5443,25.0375,(02)27019107,羅氏家用新冠病毒抗原自我檢測套組,78,2022/05/02 09:35:02,無
5901025068,鎮安中西安和藥局,臺北市大安區安和路１段１２３號１樓,121.5527,25.03488,(02)27015201,羅氏家用新冠病毒抗原自我檢測套組,77,2022/05/02 09:35:02,無
5901025077,敦南春天藥局,臺北市大安區敦化南路２段８１巷６３號１樓,121.5513,25.03002,(02)27553266,羅氏家用新冠病毒抗原自我檢測套組,78,2022/05/02 09:35:02,快篩待售時間:週一至週日15:00現場排隊購買，售完為止。（物流配送不及則例外，以門市公告為主）
5901090127,三銘大藥局,臺北市大同區迪化街１段８０號,121.5099,25.05581,(02)25583392,羅氏家用新冠病毒抗原自我檢測套組,144,2022/05/02 09:35:02,無
5901090216,裕仁藥局,臺北市大同區迪化街２段２７０號－１,121.5115,25.07068,(02)25910064,羅氏家用新冠病毒抗原自我檢測套組,120,2022/05/02 09:35:02,無
5901090243,建祥藥局,臺北市大同區寧夏路１７號、１７－１號,121.515,25.05485,(02)25556476,羅氏家用新冠病毒抗原自我檢測套組,158,2022/05/02 09:35:02,10：00~18：00
5901090289,正利民藥局,臺北市大同區延平北路３段１０５號,121.511,25.06806,(02)25924842,羅氏家用新冠病毒抗原自我檢測套組,78,2022/05/02 09:35:02,快篩劑:週一到週六下午1:00開始，週日彈性.
5901090323,泰元藥局,臺北市大同區哈密街９１號,121.5146,25.07303,(02)25914592,羅氏家用新冠病毒抗原自我檢測套組,77,2022/05/02 09:35:02,因到貨時間不定， 視到貨時間販售
5901090341,正中藥局,臺北市大同區民族西路２１３號,121.5142,25.06874,(02)25976937,羅氏家用新冠病毒抗原自我檢測套組,156,2022/05/02 09:35:02,無
5901090369,保慶藥局,臺北市大同區保安街２１號,121.5129,25.05926,(02)25538988,羅氏家用新冠病毒抗原自我檢測套組,78,2022/05/02 09:35:02,因到貨時間不定，視到貨時間販售
5901091473,快安藥局,臺北市大同區南京西路２８２、２８４號,121.5146,25.05349,(02)25561925,羅氏家用新冠病毒抗原自我檢測套組,78,2022/05/02 09:35:02,無
5901091544,得意藥師藥局,臺北市大同區延平北路２段２２９號,121.5115,25.06029,(02)25534294,羅氏家用新冠病毒抗原自我檢測套組,163,2022/05/02 09:35:02,無
5901091759,儷安藥局,臺北市大同區錦西街５３巷１６號,121.5158,25.06065,(02)25578033,羅氏家用新冠病毒抗原自我檢測套組,156,2022/05/02 09:35:02,無
5901091820,富康藥局,臺北市大同區延平北路２段１２６號,121.5115,25.05733,(02)25537782,羅氏家用新冠病毒抗原自我檢測套組,100,2022/05/02 09:35:02,代售快篩早上9:00開始售完為止
5901091857,佳禾藥局,臺北市大同區大龍街２６２號,121.5158,25.07061,(02)25953806,羅氏家用新冠病毒抗原自我檢測套組,78,2022/05/02 09:35:02,無
5901091884,躍獅雙蓮藥局,臺北市大同區涼州街４號,121.5147,25.06078,(02)25537551,羅氏家用新冠病毒抗原自我檢測套組,234,2022/05/02 09:35:02,周一-周六11:00-7:00.日.不發口罩
5901092014,旭豐藥局,臺北市大同區昌吉街９６號,121.5151,25.06582,(02)25853880,羅氏家用新冠病毒抗原自我檢測套組,156,2022/05/02 09:35:02,無
5901092069,躍獅遠東藥局,臺北市大同區延平北路２段１３１號（實際營業地址：１樓）,121.5116,25.05751,(02)25594835,羅氏家用新冠病毒抗原自我檢測套組,156,2022/05/02 09:35:02,實名制快篩販賣時間：下午2點~下午3點；晚上7點~晚上8點。售完為止。
5901092087,躍獅文昌藥局,臺北市大同區民生西路１０８號（實際營業：一層）,121.5197,25.0574,(02)25586189,羅氏家用新冠病毒抗原自我檢測套組,81,2022/05/02 09:35:02,無
5901092103,新聖安藥局,臺北市大同區昌吉街１３０號,121.5143,25.06584,(02)25977877,羅氏家用新冠病毒抗原自我檢測套組,78,2022/05/02 09:35:02,無
5901092112,酒泉春天藥局,臺北市大同區酒泉街９４號、９４號２樓,121.5146,25.07193,(02)25977932,羅氏家用新冠病毒抗原自我檢測套組,78,2022/05/02 09:35:02,無
5901092130,大同民生藥局,臺北市大同區民生西路１２８號１樓、２樓及１３０號１樓、２樓,121.5191,25.05734,(02)25558886,羅氏家用新冠病毒抗原自我檢測套組,78,2022/05/02 09:35:02,快篩實名制，每天16:00開始販售，售完為止。
5901100066,名祥藥局,臺北市中山區龍江路１６６號,121.5403,25.05505,(02)25036265,羅氏家用新冠病毒抗原自我檢測套組,78,2022/05/02 09:35:02,5月2日 實名制快篩尚未到貨
5901100155,大信藥局,臺北市中山區林森北路１５９巷６號,121.5255,25.0517,(02)25719080,羅氏家用新冠病毒抗原自我檢測套組,156,2022/05/02 09:35:02,無
5901100342,順泰藥局,臺北市中山區錦州街２６６號,121.5348,25.06025,(02)25038916,羅氏家用新冠病毒抗原自我檢測套組,81,2022/05/02 09:35:02,無
5901100422,滿順藥局,臺北市中山區伊通街５４號１樓,121.5347,25.05145,(02)25075283,羅氏家用新冠病毒抗原自我檢測套組,78,2022/05/02 09:35:02,快篩服務時間 AM 8:30 起 售完為止
5901100431,長生藥局,臺北市中山區松江路３６２巷５５號１樓,121.5313,25.06207,(02)25816210,羅氏家用新冠病毒抗原自我檢測套組,78,2022/05/02 09:35:02,無
5901100440,優豐藥局,臺北市中山區民生東路１段３２號,121.5242,25.05794,(02)25602565,羅氏家用新冠病毒抗原自我檢測套組,78,2022/05/02 09:35:02,下午3點現場作業不分發號碼牌
5901100628,貢玄藥局,臺北市中山區錦州街２０７號,121.532,25.06039,(02)25637847,羅氏家用新冠病毒抗原自我檢測套組,154,2022/05/02 09:35:02,早上10點~11點領口罩
5901100664,阿里藥局,臺北市中山區錦州街２５１號,121.5342,25.06039,(02)25020638,羅氏家用新冠病毒抗原自我檢測套組,143,2022/05/02 09:35:02,無
5901100771,良佑藥局,臺北市中山區撫順街６－２號１樓,121.5216,25.06367,(02)25916402,羅氏家用新冠病毒抗原自我檢測套組,78,2022/05/02 09:35:02,無
5901101072,長青藥局,臺北市中山區興安街５５號１樓,121.5419,25.05621,(02)25053160,羅氏家用新冠病毒抗原自我檢測套組,78,2022/05/02 09:35:02,無
5901101161,晏晟藥局,臺北市中山區林森北路６２５號,121.5259,25.06703,(02)25851445,羅氏家用新冠病毒抗原自我檢測套組,156,2022/05/02 09:35:02,無
5901101250,美日藥局,臺北市中山區天津街６６號１樓,121.5233,25.05136,(02)25631662,羅氏家用新冠病毒抗原自我檢測套組,234,2022/05/02 09:35:02,實名制快篩於營業日下午4點開始發號碼牌
5901101321,文德藥局,臺北市中山區龍江路３５６巷１９號１樓,121.5401,25.06607,(02)25181178,羅氏家用新冠病毒抗原自我檢測套組,78,2022/05/02 09:35:02,無
5901101509,永直藥局,臺北市中山區北安路５９５巷２弄６號,121.5483,25.08192,(02)85098059,羅氏家用新冠病毒抗原自我檢測套組,234,2022/05/02 09:35:02,周一至周六，早上8點發號碼牌，下午2點到晚上8點販售
5901101607,蓁榛健康生活藥局,臺北市中山區合江街１００－２號１樓,121.5391,25.05845,(02)25099333,羅氏家用新冠病毒抗原自我檢測套組,78,2022/05/02 09:35:02,5／1及5／2號 實名制快篩配售時間請參考蓁榛健康生活藥局合江店臉書
5901101652,祥泰藥局,臺北市中山區林森北路１３６號,121.5251,25.05142,(02)25313097,羅氏家用新冠病毒抗原自我檢測套組,234,2022/05/02 09:35:02,無
5901101910,嘉恩藥局,臺北市中山區錦州街３２１號,121.5385,25.06033,(02)25181418,羅氏家用新冠病毒抗原自我檢測套組,156,2022/05/02 09:35:02,無
5901101929,樂活苑藥局,臺北市中山區北安路５４６號１樓,121.548,25.08014,(02)25323296,羅氏家用新冠病毒抗原自我檢測套組,156,2022/05/02 09:35:02,實名制快篩代售時間為18:00~19:00.
5901101992,大愛藥師藥局,臺北市中山區吉林路２５５號１樓,121.5304,25.06165,(02)25424723,羅氏家用新冠病毒抗原自我檢測套組,234,2022/05/02 09:35:02,週一~週五13:55發放號碼牌14:00發放快篩，週六、週日休息
5901102015,久大藥局,臺北市中山區林森北路４８０號,121.5255,25.06127,(02)25111594,羅氏家用新冠病毒抗原自我檢測套組,156,2022/05/02 09:35:02,即日起周一至周六下午1:00-4:00領取口罩。 周日休息
5901102060,專心藥局,臺北市中山區伊通街１１２－２號,121.5347,25.05426,(02)25155847,羅氏家用新冠病毒抗原自我檢測套組,156,2022/05/02 09:35:02,無
5901102408,康林藥局,臺北市中山區興安街１０５號,121.5438,25.05617,(02)25171867,羅氏家用新冠病毒抗原自我檢測套組,77,2022/05/02 09:35:02,無
5901102444,啟美藥師藥局,臺北市中山區錦州街２８２號,121.5352,25.06024,(02)25178032,羅氏家用新冠病毒抗原自我檢測套組,234,2022/05/02 09:35:02,快篩 販售時間 20點開賣到21點，星期六日公休
5901102560,龍江藥局,臺北市中山區龍江路３５６巷１４號,121.5403,25.06591,(02)25023724,羅氏家用新冠病毒抗原自我檢測套組,78,2022/05/02 09:35:02,無
5901102597,德惠藥局,臺北市中山區德惠街１２２號,121.53,25.06652,(02)25971131,羅氏家用新冠病毒抗原自我檢測套組,78,2022/05/02 09:35:02,每日下午3點30分開始販售快篩實名制
5901102677,興康源藥局,臺北市中山區中山北路１段１４０巷８號,121.5214,25.05143,(02)25311248,羅氏家用新冠病毒抗原自我檢測套組,78,2022/05/02 09:35:02,無
5901102686,富宥康藥局,臺北市中山區北安路６０８巷５弄２２號,121.5496,25.08263,(02)25325277,羅氏家用新冠病毒抗原自我檢測套組,156,2022/05/02 09:35:02,無
5901102837,正傑健保藥局,臺北市中山區長安東路２段１８１號,121.5426,25.04839,(02)27310181,羅氏家用新冠病毒抗原自我檢測套組,158,2022/05/02 09:35:02,下午四點開始販售
5901102855,錦西春天生活藥局,臺北市中山區錦西街１０號,121.5216,25.06024,(02)25312658,羅氏家用新冠病毒抗原自我檢測套組,78,2022/05/02 09:35:02,快篩14:40領號碼牌 15:00開始販售
5901103147,娸淇藥局,臺北市中山區伊通街９５號,121.5349,25.05305,(02)25082762,羅氏家用新冠病毒抗原自我檢測套組,234,2022/05/02 09:35:02,口罩販售時間2:30PM（六日無發口罩）4／2-4／5 清明休息
5901103192,昶青林森藥局,臺北市中山區林森北路１１９巷５２號,121.5269,25.05018,(02)25639939,羅氏家用新冠病毒抗原自我檢測套組,78,2022/05/02 09:35:02,口罩代售平日10:30-20:00，例假日13:30-18:00 售完為止
5901103209,麗恩藥局,臺北市中山區林森北路５７５之５號,121.5258,25.0653,(02)25981982,羅氏家用新冠病毒抗原自我檢測套組,234,2022/05/02 09:35:02,中午12點發放號碼牌
5901103272,長安藥局,臺北市中山區長安東路２段１７１－３號,121.5418,25.0484,(02)27772740,羅氏家用新冠病毒抗原自我檢測套組,156,2022/05/02 09:35:02,實名制快篩下午四點開始發放，周日公休
5901103334,大直小太陽藥局,臺北市中山區北安路６０７之１號,121.5488,25.08241,(02)85093208,羅氏家用新冠病毒抗原自我檢測套組,78,2022/05/02 09:35:02,無
5901103352,美康正康藥局,臺北市中山區北安路６１６之１號、６１８號２樓之１,121.549,25.08243,(02)25323077,羅氏家用新冠病毒抗原自我檢測套組,156,2022/05/02 09:35:02,實名制快篩:14:30~售完
5901103405,大直永安藥局,臺北市中山區北安路５６７之２號,121.5482,25.08073,(02)25332125,羅氏家用新冠病毒抗原自我檢測套組,156,2022/05/02 09:35:02,今天5／2 周一 貨未到   昨天5／1 貨未到
5901103423,農安藥局,臺北市中山區農安街１８之１號,121.5248,25.06483,(02)25959293,羅氏家用新冠病毒抗原自我檢測套組,78,2022/05/02 09:35:02,無
5901103487,錦州春天生活藥局,臺北市中山區錦州街２１３號、２１３號２樓,121.5321,25.06039,(02)25213586,羅氏家用新冠病毒抗原自我檢測套組,78,2022/05/02 09:35:02,快篩14:40發號碼牌15:00販賣 每天78盒
5901103530,農安盛康藥局,臺北市中山區農安街２６７號,121.5358,25.06477,(02)25038205,羅氏家用新冠病毒抗原自我檢測套組,65,2022/05/02 09:35:02,無
5901103558,佳頤中西藥局,臺北市中山區長春路１４７之１號,121.5323,25.05495,(02)25641479,羅氏家用新冠病毒抗原自我檢測套組,156,2022/05/02 09:35:02,5／1（日）實名制快篩販售時間為下午1點起，售完為止，其他販售細節以店內公告為主
5901103629,十二願藥局,臺北市中山區林森北路３０９號,121.5256,25.05588,(02)25311223,羅氏家用新冠病毒抗原自我檢測套組,78,2022/05/02 09:35:02,快篩晚上8點開始發放.營業時間下午1點至凌晨3點
5901103647,禾康藥局,臺北市中山區植福路２９６號（實際營業地址：１層）,121.5612,25.08125,(02)26562156,羅氏家用新冠病毒抗原自我檢測套組,156,2022/05/02 09:35:02,國定假日不執行調劑業務
5901103656,大樹龍江藥局,臺北市中山區龍江路２４２號,121.5406,25.05889,(02)25035666,羅氏家用新冠病毒抗原自我檢測套組,78,2022/05/02 09:35:02,國定假日仍執行調劑業務
5901103674,康廷藥局,臺北市中山區北安路６１１號（實際營業地址：１層）,121.5488,25.08253,(02)25335890,羅氏家用新冠病毒抗原自我檢測套組,78,2022/05/02 09:35:02,國定假日執行調劑業務
5901103683,東東藥局,臺北市中山區長春路２５７之２號１樓,121.5408,25.05477,(02)25031730,羅氏家用新冠病毒抗原自我檢測套組,78,2022/05/02 09:35:02,快篩發放時間:星期一至六 .15點開始銷售至16點前結束
5901103692,誠果中西藥局,臺北市中山區吉林路１０１號１樓,121.5303,25.05619,(02)25238563,羅氏家用新冠病毒抗原自我檢測套組,156,2022/05/02 09:35:02,每日上午十一點發放快篩
5901103727,盛康藥局,臺北市中山區吉林路３９９號１樓,121.5305,25.06587,(02)25969580,羅氏家用新冠病毒抗原自我檢測套組,78,2022/05/02 09:35:02,國定假日仍執行調劑業務
5901103736,杏一龍錦藥局,臺北市中山區龍江路２７９號１樓,121.5408,25.05973,(02)25174618,羅氏家用新冠病毒抗原自我檢測套組,176,2022/05/02 09:35:02,快篩提供時段週一到週六 9:00-12:00 週日不提供發放!!!
5901103745,吉林藥局,臺北市中山區吉林路３７１號（１樓）,121.5305,25.06511,(02)25865990,羅氏家用新冠病毒抗原自我檢測套組,78,2022/05/02 09:35:02,快篩實名制，每天16:00開始販售，售完為止。
5901103781,龍江台安藥局,臺北市中山區龍江路２４７號（１樓）,121.5408,25.05862,(02)25091007,羅氏家用新冠病毒抗原自我檢測套組,78,2022/05/02 09:35:02,實名制快篩下午2:00開始拿號碼牌
5901103790,可康藥局,臺北市中山區林森北路３７３號（１樓）,121.5257,25.05826,(02)25361078,羅氏家用新冠病毒抗原自我檢測套組,79,2022/05/02 09:35:02,因政府物流到貨時間不確定，快篩實名制發放時間無法確定，造成不見敬請見諒！
5901103807,專品龍江藥局,臺北市中山區龍江路３１１號１樓,121.5409,25.06127,(02)25178870,羅氏家用新冠病毒抗原自我檢測套組,78,2022/05/02 09:35:02,實名制快篩下午三點開始發號碼牌販售
5901110133,泰成藥局,臺北市內湖區內湖路３段１３５號１樓,121.5899,25.08685,(02)27921231,羅氏家用新冠病毒抗原自我檢測套組,78,2022/05/02 09:35:02,口罩販售:上午9:00開始發號碼牌，9點同步販售.
5901110268,赫得藥局,臺北市內湖區康樂街７２巷１７弄４號１Ｆ,121.6178,25.06976,(02)26328642,羅氏家用新冠病毒抗原自我檢測套組,82,2022/05/02 09:35:02,營業時間:08:30-13:00及14:30-23:00每周日公休。快篩試劑於4／28早上8:30開賣，一三五單號，二四六雙號領取。
5901110311,永安藥局,臺北市內湖區文德路２１０巷３０弄４８號,121.5852,25.07723,(02)26586658,羅氏家用新冠病毒抗原自我檢測套組,78,2022/05/02 09:35:02,口罩販售時間早上10點開始發號碼牌  同時販售
5901110339,富山藥局,臺北市內湖區麗山街３６４巷２號１樓,121.5728,25.08168,(02)27996446,羅氏家用新冠病毒抗原自我檢測套組,77,2022/05/02 09:35:02,無
5901110393,明湖藥局,臺北市內湖區東湖路７巷２７號１Ｆ,121.6125,25.0697,(02)26313515,羅氏家用新冠病毒抗原自我檢測套組,78,2022/05/02 09:35:02,快篩實名制，早上9點販售。
5901110446,清白藥局,臺北市內湖區東湖路１０８號,121.6157,25.06828,(02)26305743,羅氏家用新冠病毒抗原自我檢測套組,78,2022/05/02 09:35:02,無
5901110624,宏光藥局,臺北市內湖區成功路２段２２１號１樓,121.5909,25.06738,(02)27919068,羅氏家用新冠病毒抗原自我檢測套組,234,2022/05/02 09:35:02,｛營業時間10:00-22:00｝快篩實名制13:30開始販售（現場排隊不發號碼牌售完為止）
5901111890,安康藥局,臺北市內湖區安康路４８２號,121.6158,25.06785,(02)26327675,羅氏家用新冠病毒抗原自我檢測套組,78,2022/05/02 09:35:02,無
5901112100,盧狄聯合藥局,臺北市內湖區康寧路３段１８９巷５７號,121.6129,25.07133,(02)26308897,羅氏家用新冠病毒抗原自我檢測套組,156,2022/05/02 09:35:02,營業時間早上9點至晚上8點，週六上半天 **快篩實名制08:00開賣 **
5901112351,康信藥局,臺北市內湖區民權東路６段２９６巷２９號,121.6062,25.07203,(02)26342088,羅氏家用新冠病毒抗原自我檢測套組,78,2022/05/02 09:35:02,兒童口罩:全天供應.成人口罩發放時間:下午4:00.售完為止
5901112593,康健藥局,臺北市內湖區康樂街８０號,121.6189,25.07015,(02)26305825,羅氏家用新冠病毒抗原自我檢測套組,83,2022/05/02 09:35:02,無
5901112780,樂康藥妝藥局,臺北市內湖區文德路１１７號,121.5841,25.0787,(02)26562110,羅氏家用新冠病毒抗原自我檢測套組,78,2022/05/02 09:35:02,無
5901112879,壹零捌藥局,臺北市內湖區成功路４段３４４號,121.5996,25.08488,(02)27910061,羅氏家用新冠病毒抗原自我檢測套組,156,2022/05/02 09:35:02,快篩還沒到，..到貨立刻販賣
5901113018,桔子藥局,臺北市內湖區內湖路２段３３３號,121.5917,25.08319,(02)27930052,羅氏家用新冠病毒抗原自我檢測套組,156,2022/05/02 09:35:02,早0900-1200，午1400-1700，晚1900-2100
5901113027,晟安藥局,臺北市內湖區金龍路１３５號,121.5902,25.08593,(02)87919320,羅氏家用新冠病毒抗原自我檢測套組,156,2022/05/02 09:35:02,快篩一~六早上10；00開始販售，星期日不營業
5901113081,宜昇優良藥局,臺北市內湖區康寧路３段１６５巷１０號,121.6118,25.07081,(02)26327817,羅氏家用新冠病毒抗原自我檢測套組,78,2022/05/02 09:35:02,快篩代售時間:星期一-五早上9:00；星期六.日.例假日早上10:00
5901113143,躍獅寶湖藥局,臺北市內湖區民權東路６段１２３巷２８號,121.5928,25.0701,(02)87928335,羅氏家用新冠病毒抗原自我檢測套組,78,2022/05/02 09:35:02,口罩: 周一至周日 上午九點半-晚上八點整 售完為止
5901113296,喜越藥局,臺北市內湖區內湖路１段２８５巷５９弄７號,121.5673,25.08377,(02)26271955,羅氏家用新冠病毒抗原自我檢測套組,81,2022/05/02 09:35:02,無
5901113330,躍獅大湖藥局,臺北市內湖區成功路４段３２９號,121.599,25.08454,(02)27945376,羅氏家用新冠病毒抗原自我檢測套組,156,2022/05/02 09:35:02,星期一~星期六下午4點開始販售快篩 售完為止
5901113367,瑞暉藥局,臺北市內湖區文德路１０５號,121.5837,25.0787,(02)26276828,羅氏家用新冠病毒抗原自我檢測套組,105,2022/05/02 09:35:02,營業時間: 09:00~22:00
5901113385,躍獅康成藥局,臺北市內湖區成功路４段６１巷１１號,121.5928,25.0814,(02)87922031,羅氏家用新冠病毒抗原自我檢測套組,156,2022/05/02 09:35:02,如有收到政府配送，實名制快篩13:40發號碼牌，14:00開賣。實名制口罩已無販售。
5901113401,躍獅麗湖藥局,臺北市內湖區內湖路１段４０１之１號,121.5706,25.08188,(02)26276160,羅氏家用新冠病毒抗原自我檢測套組,111,2022/05/02 09:35:02,實名制快篩 9點發號碼牌 12點後憑號碼牌購買
5901113438,晶龍藥局,臺北市內湖區成功路４段２１８號,121.5961,25.08456,(02)27956255,羅氏家用新冠病毒抗原自我檢測套組,77,2022/05/02 09:35:02,快篩試劑販售時間:星期一~六下午2:30 售完為止
5901113456,佑全內湖康寧藥局,臺北市內湖區康寧路３段３９號、３９號２樓、４１號、４３號,121.6078,25.07264,(02)26346578,羅氏家用新冠病毒抗原自我檢測套組,78,2022/05/02 09:35:02,實名制快篩每日14:00販售 13:50發號碼牌
5901113572,西湖藥局,臺北市內湖區內湖路１段３５５號,121.5693,25.0822,(02)26279291,羅氏家用新冠病毒抗原自我檢測套組,156,2022/05/02 09:35:02,國定假日不執行調劑業務
5901113643,博昱東福藥局,臺北市內湖區東湖路１４７號,121.6172,25.06815,(02)26308599,羅氏家用新冠病毒抗原自我檢測套組,78,2022/05/02 09:35:02,無
5901113652,加一藥師藥局,臺北市內湖區星雲街２４號１樓,121.5908,25.07804,(02)87912653,羅氏家用新冠病毒抗原自我檢測套組,221,2022/05/02 09:35:02,無
5901113661,內湖藥局,臺北市內湖區康寧路１段１１６號１樓,121.5934,25.07948,(02)27940545,羅氏家用新冠病毒抗原自我檢測套組,78,2022/05/02 09:35:02,快篩實名制，每天16:00開始販售，售完為止。
5901113689,葫光藥局,臺北市內湖區康寧路３段５４巷６號１樓,121.609,25.07168,(02)26336611,羅氏家用新冠病毒抗原自我檢測套組,78,2022/05/02 09:35:02,實名制快篩販售時間 依LINE社群公告為主 售完為止
5901113705,富康活力湖光藥局,臺北市內湖區康寧路１段２５號１樓,121.5914,25.08062,(02)87927999,羅氏家用新冠病毒抗原自我檢測套組,78,2022/05/02 09:35:02,視快篩實際到貨時間販售（通常是下午2:00）**Line社群搜尋[[富康活力湖光藥局]]，會有第一線消息唷**
5901113723,杏一港墘藥局,臺北市內湖區港墘路８３號（１樓）,121.5781,25.08078,(02)87978746,羅氏家用新冠病毒抗原自我檢測套組,78,2022/05/02 09:35:02,無
5901113732,富康活力誠功藥局,臺北市內湖區成功路４段３０巷２０號１樓,121.5916,25.08235,(02)27960222,羅氏家用新冠病毒抗原自我檢測套組,1,2022/05/02 09:35:02,無
5901120175,新錦安藥局,臺北市南港區南港路３段３４號,121.5922,25.05429,(02)27825218,羅氏家用新冠病毒抗原自我檢測套組,78,2022/05/02 09:35:02,快篩試劑販售時間上午8:30開始    5／2（一）尚未到貨，貨到即開始販售
5901121618,新東發藥局,臺北市南港區成福路１９８號,121.5883,25.04092,(02)27855190,羅氏家用新冠病毒抗原自我檢測套組,156,2022/05/02 09:35:02,營業時間 早上10:00至晚上10:00
5901121627,富康活力藥局,臺北市南港區研究院路１段１０１巷８號,121.6165,25.05181,(02)27828810,羅氏家用新冠病毒抗原自我檢測套組,78,2022/05/02 09:35:02,週一至週六，每天09:00-21:00販售口罩，請記得帶健保卡&零錢，售完為止。
5901121672,亞博藥師藥局,臺北市南港區興華路８１號,121.6061,25.05545,(02)27838090,羅氏家用新冠病毒抗原自我檢測套組,78,2022/05/02 09:35:02,無
5901121734,湳港藥局,臺北市南港區研究院路１段１０１巷１２號,121.6167,25.05175,(02)27892200,羅氏家用新冠病毒抗原自我檢測套組,78,2022/05/02 09:35:02,週一至週日，2:30開賣（政府有配送的況狀下）（沒有發放號碼牌），售完為止
5901121823,儀安健保藥局,臺北市南港區同德路７４號,121.5853,25.0457,(02)27859893,羅氏家用新冠病毒抗原自我檢測套組,78,2022/05/02 09:35:02,無
5901121841,泓安藥局,臺北市南港區興華路７５號,121.6061,25.05517,(02)27861083,羅氏家用新冠病毒抗原自我檢測套組,153,2022/05/02 09:35:02,無
5901121850,健涵藥局,臺北市南港區舊莊街１段１４７號,121.6205,25.03985,(02)27837285,羅氏家用新冠病毒抗原自我檢測套組,156,2022/05/02 09:35:02,發口罩時間：周間（一到五）早上8點 周末（六日） 早上9點 發放至晚上8點
5901121869,南港藥局,臺北市南港區南港路一段１６６號,121.6119,25.05536,(02)27829137,羅氏家用新冠病毒抗原自我檢測套組,157,2022/05/02 09:35:02,快篩販售時間早上10點~下午1點，下午3點~下午7點（每天78份，售完即止）（周日休息）
5901121896,順翔藥局,臺北市南港區研究院路２段１７０號,121.6169,25.03785,(02)27824332,羅氏家用新冠病毒抗原自我檢測套組,78,2022/05/02 09:35:02,代售政府快篩時間:週一~五:早10點開始 週六日:早9點30分開始 感恩
5901121930,小藥師健保藥局,臺北市南港區福德街３２０之１號,121.588,25.03948,(02)27867002,羅氏家用新冠病毒抗原自我檢測套組,156,2022/05/02 09:35:02,快篩販售時間，每天早上10點開始販售，售完為止
5901121958,心亮藥局,臺北市南港區玉成街６６之７號,121.5818,25.04692,(02)27881677,羅氏家用新冠病毒抗原自我檢測套組,78,2022/05/02 09:35:02,無
5901121985,勝安藥局,臺北市南港區舊莊街１段１６５號,121.6211,25.03949,(02)27828450,羅氏家用新冠病毒抗原自我檢測套組,156,2022/05/02 09:35:02,實名制快篩固定晚上21:00提供，現場排隊不分號碼牌
5901122062,躍獅忠孝藥局,臺北市南港區成福路１６號,121.586,25.04561,(02)27862829,羅氏家用新冠病毒抗原自我檢測套組,156,2022/05/02 09:35:02,無
5901122080,成福大藥局,臺北市南港區成福路８號,121.5859,25.04578,(02)27859221,羅氏家用新冠病毒抗原自我檢測套組,156,2022/05/02 09:35:02,無
5901122115,上丞藥師藥局,臺北市南港區成福路１０號１樓,121.5859,25.04574,(02)26535589,羅氏家用新冠病毒抗原自我檢測套組,78,2022/05/02 09:35:02,實名制快篩下午三點開賣，無發放號碼牌
5901150057,菁安藥局,臺北市士林區美侖街５號１樓,121.5214,25.09718,(02)28323951,羅氏家用新冠病毒抗原自我檢測套組,77,2022/05/02 09:35:02,因物流配送延誤， 下午兩點發放快篩實名制
5901150128,新興藥局,臺北市士林區德行西路１１７號,121.5206,25.10398,(02)28362643,羅氏家用新冠病毒抗原自我檢測套組,118,2022/05/02 09:35:02,無
5901150146,坤成泰藥局,臺北市士林區大南路４１２號,121.5162,25.08996,(02)28813903,羅氏家用新冠病毒抗原自我檢測套組,78,2022/05/02 09:35:02,口罩販賣時間：周一~六 早上9：00 現場排隊 售完為止
5901150235,杏城藥局,臺北市士林區天母東路２４號,121.5322,25.11764,(02)28725144,羅氏家用新冠病毒抗原自我檢測套組,156,2022/05/02 09:35:02,無
5901150244,佳赫藥局,臺北市士林區文昌路６２號,121.5214,25.09605,(02)28367202,羅氏家用新冠病毒抗原自我檢測套組,78,2022/05/02 09:35:02,快篩早上8:30開始販售
5901150253,文祥藥局,臺北市士林區光華路２６巷２弄２號,121.542,25.13749,(02)28623487,羅氏家用新冠病毒抗原自我檢測套組,75,2022/05/02 09:35:02,週日早上8點30分開始販賣快篩，賣完為止
5901150271,建芳藥局,臺北市士林區德行東路１４８號,121.5296,25.10804,(02)28357172,羅氏家用新冠病毒抗原自我檢測套組,156,2022/05/02 09:35:02,無
5901150342,士林三安藥局,臺北市士林區大南路１１號,121.526,25.08898,(02)28812631,羅氏家用新冠病毒抗原自我檢測套組,78,2022/05/02 09:35:02,無
5901150468,太安藥局,臺北市士林區延平北路５段１５７號,121.5101,25.08251,(02)28111468,羅氏家用新冠病毒抗原自我檢測套組,78,2022/05/02 09:35:02,無
5901150548,田倉藥局,臺北市士林區士東路１２４號,121.5302,25.11219,(02)88662188,羅氏家用新冠病毒抗原自我檢測套組,78,2022/05/02 09:35:02,每日19:00（傍晚7點）開始販售.
5901150575,日康藥局,臺北市士林區士東路１２號１樓,121.5267,25.11168,(02)28358558,羅氏家用新冠病毒抗原自我檢測套組,156,2022/05/02 09:35:02,無
5901150593,安寧藥局,臺北市士林區劍潭路９１號,121.5199,25.08285,(02)28803319,羅氏家用新冠病毒抗原自我檢測套組,176,2022/05/02 09:35:02,領藥星期1.3.5為 9:00~12:00.及16:00~20:00*星期2.4.6.--上午
5901150771,天母大和藥師藥局,臺北市士林區德行東路１８９－１號１樓,121.5317,25.10897,(02)28310142,羅氏家用新冠病毒抗原自我檢測套組,116,2022/05/02 09:35:02,快篩實名制 配合營業時間  賣完為止
5901150815,陽明藥局,臺北市士林區菁山路１０號１樓,121.5469,25.13797,(02)28612863,羅氏家用新冠病毒抗原自我檢測套組,78,2022/05/02 09:35:02,早上9點30到12點健保卡排隊.（作業時間2小時）下午1點到晚上6點領回口罩及健保卡
5901152024,今欣藥局,臺北市士林區天母西路４１巷９號１樓,121.5274,25.11931,(02)28713129,羅氏家用新冠病毒抗原自我檢測套組,156,2022/05/02 09:35:02,快篩周一到周五每天早上10點開始販售，周日及國定假日休息
5901152079,資生堂藥局,臺北市士林區承德路４段４０巷１７號１Ｆ,121.522,25.08107,(02)28857588,羅氏家用新冠病毒抗原自我檢測套組,156,2022/05/02 09:35:02,快篩未到貨
5901152453,家赫藥局,臺北市士林區忠義街８０號１樓,121.5317,25.10614,(02)28346453,羅氏家用新冠病毒抗原自我檢測套組,78,2022/05/02 09:35:02,5／1（19:00）有販售實名制快篩， 單雙號均可購買（1人1卡）
5901152471,得安藥局,臺北市士林區文林路１４０號,121.5267,25.08878,(02)28836336,羅氏家用新冠病毒抗原自我檢測套組,78,2022/05/02 09:35:02,星期三五六下午3:30---10:00   星期二 四日下午5:00--10:00
5901152640,仁大藥局,臺北市士林區社子街１３號１樓,121.5083,25.08769,(02)88113793,羅氏家用新冠病毒抗原自我檢測套組,158,2022/05/02 09:35:02,無
5901152659,和樹藥局,臺北市士林區後港街４５巷１號１樓,121.5228,25.08444,(02)28821188,羅氏家用新冠病毒抗原自我檢測套組,156,2022/05/02 09:35:02,實名制快篩發放時間 中午過後
5901152686,三光藥局,臺北市士林區延平北路５段３２０號１樓,121.5096,25.08628,(02)28123786,羅氏家用新冠病毒抗原自我檢測套組,78,2022/05/02 09:35:02,無
5901152748,柏雅大藥局,臺北市士林區德行西路６４號,121.5227,25.10506,(02)88664398,羅氏家用新冠病毒抗原自我檢測套組,156,2022/05/02 09:35:02,午休時間13:00-14:00
5901152793,信光藥局,臺北市士林區文昌路６８號,121.5214,25.09619,(02)28366277,羅氏家用新冠病毒抗原自我檢測套組,78,2022/05/02 09:35:02,5月1日、5月2日，快篩到貨時間未確定
5901152971,石川藥師藥局,臺北市士林區忠義街７０號,121.5314,25.10594,(02)28385850,羅氏家用新冠病毒抗原自我檢測套組,78,2022/05/02 09:35:02,5／2  本日快篩，尚未到貨。
5901153101,聖賢藥局,臺北市士林區士商路５８號,121.52,25.09056,(02)28833046,羅氏家用新冠病毒抗原自我檢測套組,156,2022/05/02 09:35:02,快篩實聯制: 周一至周五8:30開賣，周六9:00開賣。每人限1卡。5／2正常營運。
5901153263,健揚藥局,臺北市士林區延平北路５段２５１號,121.5097,25.08483,(02)28163698,羅氏家用新冠病毒抗原自我檢測套組,156,2022/05/02 09:35:02,無
5901153487,和謙藥局,臺北市士林區社中街３６２號,121.5041,25.09242,(02)28165678,羅氏家用新冠病毒抗原自我檢測套組,78,2022/05/02 09:35:02,無
5901153503,祥新藥局,臺北市士林區社子街６５號,121.5067,25.08751,(02)28110906,羅氏家用新冠病毒抗原自我檢測套組,156,2022/05/02 09:35:02,無
5901153521,天母台安藥局,臺北市士林區天母西路３４號,121.5262,25.11835,(02)28728017,羅氏家用新冠病毒抗原自我檢測套組,80,2022/05/02 09:35:02,下午2點開始販售實名制快篩試劑｛以人數到齊開始開賣｝
5901153567,華齡春天生活藥局,臺北市士林區華齡街３６、３８號,121.5195,25.08359,(02)28882156,羅氏家用新冠病毒抗原自我檢測套組,78,2022/05/02 09:35:02,快篩代售時間周一至周日15:00現場排隊購買售完為止（物流配送不及則例外，以門市公告為主）
5901153585,德行春天生活藥局,臺北市士林區德行東路７６號,121.5275,25.1073,(02)28380306,羅氏家用新冠病毒抗原自我檢測套組,78,2022/05/02 09:35:02,下午2點40持健保卡領號碼牌販售快篩到晚上10點售完為止
5901153610,家安健保藥局,臺北市士林區德行東路１０９巷１１９號,121.5288,25.11156,(02)28322182,羅氏家用新冠病毒抗原自我檢測套組,78,2022/05/02 09:35:02,因目前當日販售快篩當日配送，目前銷售時間改為下午4:00 造成不便 敬請見諒
5901153674,愛佳藥局,臺北市士林區承德路４段２２２之１號,121.5215,25.0885,(02)28811199,羅氏家用新冠病毒抗原自我檢測套組,230,2022/05/02 09:35:02,實名制快篩平日一~五下午3:00販售，假日（六、日）不販售
5901153709,全予藥局,臺北市士林區德行東路２２１號,121.5329,25.10938,(02)28386955,羅氏家用新冠病毒抗原自我檢測套組,156,2022/05/02 09:35:02,實名制快篩販售時間為周一至周六上午11點， 周日公休
5901153727,前港盛康藥局,臺北市士林區前港街２８號,121.522,25.0846,(02)28831079,羅氏家用新冠病毒抗原自我檢測套組,100,2022/05/02 09:35:02,實名制快篩每日早上9點開始販售
5901153861,佩佩藥局,臺北市士林區中山北路６段１８２號,121.5252,25.10759,(02)28382662,羅氏家用新冠病毒抗原自我檢測套組,82,2022/05/02 09:35:02,08:30開始販售快篩，售完為止。
5901153941,士東藥局,臺北市士林區士東路９１巷３號,121.5291,25.11256,(02)28760588,羅氏家用新冠病毒抗原自我檢測套組,78,2022/05/02 09:35:02,快篩實名制，每天16:00開始販售，售完為止。
5901153969,杏一士林延平藥局,臺北市士林區延平北路５段２５０號（１樓）、２５２號１樓,121.51,25.08468,(02)28112937,羅氏家用新冠病毒抗原自我檢測套組,156,2022/05/02 09:35:02,每日中午12點販售實名制快篩試劑
5901154028,向宇藥局,臺北市士林區德行東路２１７號１樓,121.5328,25.10935,(02)88661101,羅氏家用新冠病毒抗原自我檢測套組,234,2022/05/02 09:35:02,無
5901154073,中山盛康藥局,臺北市士林區中山北路７段１６２號１樓,121.5327,25.12416,(02)28771887,羅氏家用新冠病毒抗原自我檢測套組,107,2022/05/02 09:35:02,實名制快篩早上9:00-12:00發放號碼牌
5901154082,德行盛康藥局,臺北市士林區德行東路２０６之１號１樓,121.532,25.1089,(02)28348756,羅氏家用新冠病毒抗原自我檢測套組,78,2022/05/02 09:35:02,無
5901154091,社正藥局,臺北市士林區社正路１２號１樓,121.5093,25.08854,(02)28118704,羅氏家用新冠病毒抗原自我檢測套組,156,2022/05/02 09:35:02,無
5901154108,藥本家藥局,臺北市士林區中山北路７段１４巷２６號１樓,121.5328,25.11884,(02)28766682,羅氏家用新冠病毒抗原自我檢測套組,234,2022/05/02 09:35:02,無
5901154144,加赫藥局,臺北市士林區文昌路７６號１樓,121.5212,25.09646,(02)28336362,羅氏家用新冠病毒抗原自我檢測套組,155,2022/05/02 09:35:02,無
5901160053,天蓮藥局,臺北市北投區石牌路１段１６６巷１１５號,121.5155,25.11192,(02)28211824,羅氏家用新冠病毒抗原自我檢測套組,156,2022/05/02 09:35:02,週六，週日各販售39劑快篩
5901160062,丸三大藥局,臺北市北投區自強街１０５號,121.5153,25.11086,(02)28230637,羅氏家用新冠病毒抗原自我檢測套組,78,2022/05/02 09:35:02,實名制快篩試劑13:30開始販售
5901160099,進春藥局,臺北市北投區明德路１５１號,121.5206,25.11086,(02)28216938,羅氏家用新冠病毒抗原自我檢測套組,225,2022/05/02 09:35:02,無休 上午九點開始販售，現場排隊。（依現場公告為主）
5901160142,德昇藥局,臺北市北投區裕民二路２０號,121.517,25.11604,(02)28217565,羅氏家用新冠病毒抗原自我檢測套組,234,2022/05/02 09:35:02,週一至週五下午 2:30分 實名制快篩發售 4／30無快篩
5901160197,川秀藥局,臺北市北投區石牌路２段９９巷９號１樓,121.5166,25.11792,(02)28270702,羅氏家用新冠病毒抗原自我檢測套組,156,2022/05/02 09:35:02,5／1快篩已賣完，明日下午二點開賣
5901160222,新祥藥局,臺北市北投區知行路２０８號－１,121.4668,25.11935,(02)28582551,羅氏家用新冠病毒抗原自我檢測套組,156,2022/05/02 09:35:02,實名制快篩下午1:30分發放號碼牌，隨後依照號碼牌發售，周日休息
5901160277,建民藥局,臺北市北投區光明路１６１號,121.5027,25.13538,(02)28912339,羅氏家用新冠病毒抗原自我檢測套組,233,2022/05/02 09:35:02,無
5901160286,昌源藥局,臺北市北投區中央北路４段４８５號,121.4692,25.12843,(02)28928695,羅氏家用新冠病毒抗原自我檢測套組,215,2022/05/02 09:35:02,周日公休
5901160400,世全藥局,臺北市北投區知行路２７３號,121.4672,25.12134,(02)28585378,羅氏家用新冠病毒抗原自我檢測套組,78,2022/05/02 09:35:02,早0000-0100，午0000-0000晚17:30-2400
5901160428,九福藥局,臺北市北投區公館路２３６號,121.5081,25.12612,(02)28953009,羅氏家用新冠病毒抗原自我檢測套組,156,2022/05/02 09:35:02,★週日店休未營業. 快篩下午1點發號碼牌
5901160517,弘安藥局,臺北市北投區懷德街３３號１樓,121.5193,25.11219,(02)28206390,羅氏家用新冠病毒抗原自我檢測套組,78,2022/05/02 09:35:02,快篩每日下午2:00開賣，現場購買售完為止
5901160544,黎明藥局,臺北市北投區尊賢街２５３－１號,121.5066,25.11817,(02)28223795,羅氏家用新冠病毒抗原自我檢測套組,78,2022/05/02 09:35:02,早上900至1230 下午1600至2100
5901160562,名山藥局,臺北市北投區東陽街４７５號１樓,121.5199,25.11231,(02)28226101,羅氏家用新冠病毒抗原自我檢測套組,86,2022/05/02 09:35:02,快篩試劑早上08:30販賣，先拿號碼牌，早上10；00前過卡，逾時放棄
5901160704,明華藥局,臺北市北投區清江路８號（實際使用：１樓）,121.5015,25.13156,(02)28971056,羅氏家用新冠病毒抗原自我檢測套組,78,2022/05/02 09:35:02,實名制快篩發放時間: 上午 09:00 開始
5901160802,美康藥局,臺北市北投區明德路９０號１樓,121.5196,25.1094,(02)28281176,羅氏家用新冠病毒抗原自我檢測套組,156,2022/05/02 09:35:02,無
5901161890,良興藥局,臺北市北投區中和街２８６號,121.5004,25.14047,(02)28933360,羅氏家用新冠病毒抗原自我檢測套組,76,2022/05/02 09:35:02,18點30分點開始營業
5901162119,祐鄰藥局,臺北市北投區尊賢街２５０號,121.5073,25.11707,(02)28281232,羅氏家用新冠病毒抗原自我檢測套組,78,2022/05/02 09:35:02,無
5901162173,小明藥局,臺北市北投區中央南路１段６９號２樓,121.5014,25.13145,(02)28928950,羅氏家用新冠病毒抗原自我檢測套組,78,2022/05/02 09:35:02,執業時段請電洽藥局
5901162306,上頤藥局,臺北市北投區中和街３２７號１樓,121.4997,25.14097,(02)28981230,羅氏家用新冠病毒抗原自我檢測套組,234,2022/05/02 09:35:02,無
5901162477,長宜藥局,臺北市北投區自強街１１２號,121.5155,25.11074,(02)28216605,羅氏家用新冠病毒抗原自我檢測套組,78,2022/05/02 09:35:02,實名制快篩試劑發放時間:14:00~售完為止，會依政府配送狀況調整
5901163152,石牌健康人生藥局,臺北市北投區石牌路２段１８７號,121.5183,25.11868,(02)28225169,羅氏家用新冠病毒抗原自我檢測套組,78,2022/05/02 09:35:02,政府快篩每日14點開賣（星期一到星期日）請自行排隊
5901163214,鴻恩藥局,臺北市北投區中央南路１段１２９號,121.5012,25.13015,(02)28926410,羅氏家用新冠病毒抗原自我檢測套組,100,2022/05/02 09:35:02,快篩試劑代售時間自08:00 ，現場排隊
5901163250,關渡松藥局,臺北市北投區知行路２４７號,121.4671,25.12074,(02)28584824,羅氏家用新冠病毒抗原自我檢測套組,156,2022/05/02 09:35:02,口罩時段: 星期一至星期五早上9:00及晚上18:30，星期六日為下午15:00
5901163269,佳祈健保藥局,臺北市北投區明德路１４４號,121.5208,25.11047,(02)28232535,羅氏家用新冠病毒抗原自我檢測套組,156,2022/05/02 09:35:02,無
5901163296,天禧大藥局,臺北市北投區實踐街３５號,121.5087,25.11521,(02)28213558,羅氏家用新冠病毒抗原自我檢測套組,80,2022/05/02 09:35:02,實名制快篩下午1:30現場販售
5901163376,北投春天藥局,臺北市北投區中央南路１段７６號,121.5011,25.13135,(02)28916668,羅氏家用新冠病毒抗原自我檢測套組,78,2022/05/02 09:35:02,每日14:40發號碼牌 15:00販售 依物流配送時間滾動調整
5901163394,致遠春天藥局,臺北市北投區致遠一路１段１３２號１、２樓,121.5149,25.11051,(02)28253258,羅氏家用新冠病毒抗原自我檢測套組,78,2022/05/02 09:35:02,15:30開始發放號碼牌15:30開始販售口罩
5901163410,尊賢藥局,臺北市北投區尊賢街２１２號,121.508,25.11551,(02)28270505,羅氏家用新冠病毒抗原自我檢測套組,156,2022/05/02 09:35:02,周一至週六下午1點半直接販售，周日休息。
5901163509,吉利春天生活藥局,臺北市北投區吉利街１２０號,121.5068,25.11851,(02)28253256,羅氏家用新冠病毒抗原自我檢測套組,78,2022/05/02 09:35:02,無
5901163527,理得藥局,臺北市北投區石牌路１段１５０號,121.5131,25.11426,(02)28289680,羅氏家用新冠病毒抗原自我檢測套組,78,2022/05/02 09:35:02,每日10:00開賣，售完為止。
5901163536,天富大藥局,臺北市北投區石牌路２段１７１號（實際使用：１樓）,121.518,25.11848,(02)28225812,羅氏家用新冠病毒抗原自我檢測套組,132,2022/05/02 09:35:02,週一至週六下午2-3點直接販售；週日暫停販售
5901163554,良哲藥局,臺北市北投區明德路１５７－４號（實際使用：１樓）,121.5209,25.11129,(02)28285516,羅氏家用新冠病毒抗原自我檢測套組,166,2022/05/02 09:35:02,實名制快篩販售時間：早上 9:00~9:30／下午 2:30~3:00（週六人力不足不販售）
5901163563,躍獅光明藥局,臺北市北投區光明路５１號、５３號（實際使用：１樓）,121.4998,25.13286,(02)28915993,羅氏家用新冠病毒抗原自我檢測套組,79,2022/05/02 09:35:02,無
5901163572,永欣中西藥局,臺北市北投區中和街５０１號,121.4947,25.1452,(02)28910307,羅氏家用新冠病毒抗原自我檢測套組,233,2022/05/02 09:35:02,5／2 早上9:30發號碼牌 10點販售  周日公休
5901163581,陳藥師藥局,臺北市北投區光明路２巷１３－２號（實際使用：１樓）,121.4997,25.13132,(02)28921971,羅氏家用新冠病毒抗原自我檢測套組,160,2022/05/02 09:35:02,無
5901163616,江南育仁大藥局,臺北市北投區育仁路５５號１樓,121.4981,25.13361,(02)28981850,羅氏家用新冠病毒抗原自我檢測套組,156,2022/05/02 09:35:02,下午2點販售實名制快篩，假日視政府配發情況調整
5901163634,心樂藥局,臺北市北投區致遠一路２段１０５號１樓,121.5128,25.1131,(02)28210261,羅氏家用新冠病毒抗原自我檢測套組,152,2022/05/02 09:35:02,早上8:30-12:00， 下午4:00-7:00
5901163643,致遠盛康藥局,臺北市北投區致遠二路１４１號１樓,121.5128,25.1173,(02)28263580,羅氏家用新冠病毒抗原自我檢測套組,78,2022/05/02 09:35:02,無
5901163652,康賢藥局,臺北市北投區西安街１段３５９號１樓,121.5153,25.11429,(02)28219295,羅氏家用新冠病毒抗原自我檢測套組,234,2022/05/02 09:35:02,週一至週六下午1:00起販售快篩，週日及國定假日公休。
5901170059,必欣藥局,臺北市信義區松仁路２６４號,121.5696,25.02425,(02)27225060,羅氏家用新冠病毒抗原自我檢測套組,78,2022/05/02 09:35:02,實名制快篩販售時間：星期一至星期日晚上20：00開始
5901170139,福華藥局,臺北市信義區吳興街２８１巷３號１樓,121.5643,25.02656,(02)27208527,羅氏家用新冠病毒抗原自我檢測套組,156,2022/05/02 09:35:02,現階段下午1:30~5:30配合政府發售口罩
5901170184,臺陽藥局,臺北市信義區大道路６１號,121.5823,25.04136,(02)27283403,羅氏家用新冠病毒抗原自我檢測套組,148,2022/05/02 09:35:02,快篩試劑早上9:30現場販售，週日沒有販售
5901170335,慧生藥局,臺北市信義區松山路３１０號,121.5777,25.04256,(02)27647138,羅氏家用新冠病毒抗原自我檢測套組,89,2022/05/02 09:35:02,無
5901170433,松山大藥局,臺北市信義區永吉路４３６號,121.5781,25.04526,(02)27620624,羅氏家用新冠病毒抗原自我檢測套組,78,2022/05/02 09:35:02,購防疫快篩早上10:00_發售.週日下午1點起.售完即止
5901170648,立信藥局,臺北市信義區松山路４０３號,121.578,25.04144,(02)27687754,羅氏家用新冠病毒抗原自我檢測套組,62,2022/05/02 09:35:02,快篩試劑販賣時間:晚上七點至九點 星期日三點半開賣
5901170906,吳興藥局,臺北市信義區吳興街２７９號１樓,121.5642,25.02658,(02)27208328,羅氏家用新冠病毒抗原自我檢測套組,156,2022/05/02 09:35:02,實名制快篩販售時間，周一至周六13：00現場排隊購買
5901170915,杏仁藥局,臺北市信義區大道路１３５號,121.5834,25.03901,(02)27262541,羅氏家用新冠病毒抗原自我檢測套組,234,2022/05/02 09:35:02,實名制快篩:週一至週五下午3點販售，週六週日無販售
5901172179,新和平藥局,臺北市信義區虎林街１９８號１樓,121.5769,25.03844,(02)23460951,羅氏家用新冠病毒抗原自我檢測套組,156,2022/05/02 09:35:02,每星期一至星期六早上9:00起~ 發放口罩. 星期日休息.0211~0215年假休息
5901172240,德康大藥局,臺北市信義區松山路５４１巷２１號,121.579,25.03794,(02)27272502,羅氏家用新冠病毒抗原自我檢測套組,78,2022/05/02 09:35:02,物流未到 5／2暫停1天
5901172580,文興藥局,臺北市信義區福德街２４５號,121.5859,25.03874,(02)27590989,羅氏家用新冠病毒抗原自我檢測套組,156,2022/05/02 09:35:02,自5／2起 快篩販售時段 20:00-21:30
5901172651,康杏藥局,臺北市信義區福德街３０６號１樓,121.5874,25.03931,(02)27591510,羅氏家用新冠病毒抗原自我檢測套組,148,2022/05/02 09:35:02,無
5901172704,鴻濟藥局,臺北市信義區永吉路３２６巷２號１樓,121.5754,25.04507,(02)27645331,羅氏家用新冠病毒抗原自我檢測套組,158,2022/05/02 09:35:02,快篩販售時間:周一至周五: 15:00開始。週六.周日:視實際到貨情形請見門口公告
5901172740,信桉藥局,臺北市信義區莊敬路２３６號,121.5621,25.0296,(02)87860005,羅氏家用新冠病毒抗原自我檢測套組,156,2022/05/02 09:35:02,快篩販售 W1-5 11:00-20:00，W6 11:00-15:00
5901172820,安心藥局,臺北市信義區永吉路３０巷１４８弄４之１號,121.5685,25.04266,(02)27474992,羅氏家用新冠病毒抗原自我檢測套組,79,2022/05/02 09:35:02,口罩代售時間14:00起現場排隊
5901172924,躍獅松仁藥局,臺北市信義區松仁路２３３號（實際營業地址：１樓）,121.5688,25.02617,(02)27238626,羅氏家用新冠病毒抗原自我檢測套組,78,2022/05/02 09:35:02,快篩販售時段:下午13:30開始售完至晚上19:00前
5901172933,喜樂藥局,臺北市信義區松德路１２５號,121.5753,25.03752,(02)27275797,羅氏家用新冠病毒抗原自我檢測套組,78,2022/05/02 09:35:02,9AM-12PM販售實名制快篩.周日休
5901173041,皇昇大藥局,臺北市信義區松山路２１０號１樓,121.5776,25.04509,(02)27663488,羅氏家用新冠病毒抗原自我檢測套組,220,2022/05/02 09:35:02,周一至週五下午3點開始販售實名制快篩
5901173238,正和藥局,臺北市信義區吳興街２２５巷６號,121.5634,25.02782,(02)23455186,羅氏家用新冠病毒抗原自我檢測套組,78,2022/05/02 09:35:02,無
5901173283,上禾藥師藥局,臺北市信義區林口街２７號,121.5792,25.03741,(02)27592686,羅氏家用新冠病毒抗原自我檢測套組,81,2022/05/02 09:35:02,無
5901173390,馨馨藥局,臺北市信義區虎林街８２巷１９號,121.5764,25.04336,(02)27491208,羅氏家用新冠病毒抗原自我檢測套組,78,2022/05/02 09:35:02,無
5901173407,康怡健保藥局,臺北市信義區吳興街４６７巷２弄１２號,121.5695,25.02381,(02)27206193,羅氏家用新冠病毒抗原自我檢測套組,107,2022/05/02 09:35:02,成人口罩領取時間14:00~18:00，兒童營業時間皆可領.其餘時間仍以調劑為主，謝謝配合
5901173587,新興健保藥局,臺北市信義區永吉路３０巷１１３號,121.5689,25.04324,(02)27494892,羅氏家用新冠病毒抗原自我檢測套組,78,2022/05/02 09:35:02,無
5901173694,洪暘藥局,臺北市信義區富陽街８６號,121.5564,25.02127,(02)27337099,羅氏家用新冠病毒抗原自我檢測套組,78,2022/05/02 09:35:02,下午2點開始販售，限一人持一張健保卡。
5901173710,專品光復藥局,臺北市信義區光復南路４６７之１號,121.5577,25.03384,(02)27586682,羅氏家用新冠病毒抗原自我檢測套組,78,2022/05/02 09:35:02,禮拜一到六下午三點販售口罩
5901173738,尚頤中西藥局,臺北市信義區虎林街１４５號,121.5767,25.03959,(02)27253818,羅氏家用新冠病毒抗原自我檢測套組,158,2022/05/02 09:35:02,無
5901173854,杏一後山埤藥局,臺北市信義區忠孝東路５段７７８號（實際營業地址：１樓）,121.5816,25.0434,(02)27274357,羅氏家用新冠病毒抗原自我檢測套組,79,2022/05/02 09:35:02,實名制快篩14:30開放排隊／14:55發放號碼牌
5901173863,立赫北醫藥局,臺北市信義區吳興街１１８巷２６弄１７號,121.5599,25.03007,(02)27320100,羅氏家用新冠病毒抗原自我檢測套組,156,2022/05/02 09:35:02,快篩周一至周六早上9:30開始發號碼牌開賣
5901173872,柏愛藥局,臺北市信義區基隆路２段１３１之９號,121.5567,25.02788,(02)27325472,羅氏家用新冠病毒抗原自我檢測套組,129,2022/05/02 09:35:02,國定假日營業時間為09:30-17:30；實名制快篩09:30開賣
5901173881,壹間藥師藥局,臺北市信義區虎林街１２０巷１４８號,121.5742,25.04213,(02)27672833,羅氏家用新冠病毒抗原自我檢測套組,156,2022/05/02 09:35:02,快篩星期一到六 10:00發號碼牌開賣； 星期日 12:00發號碼牌開賣
5901173934,躍獅光復藥局,臺北市信義區光復南路４１７之８號,121.5577,25.03682,(02)87862307,羅氏家用新冠病毒抗原自我檢測套組,234,2022/05/02 09:35:02,無
5901173943,躍獅興雅藥局,臺北市信義區松德路１２８號,121.5745,25.03734,(02)87808429,羅氏家用新冠病毒抗原自我檢測套組,156,2022/05/02 09:35:02,14:00發號碼牌且同步開賣快篩，販賣至15:00或售完為止，週日無販售。
5901173961,北一忠孝藥局,臺北市信義區忠孝東路５段５２４巷１弄１６號１樓,121.5802,25.04133,(02)23464588,羅氏家用新冠病毒抗原自我檢測套組,155,2022/05/02 09:35:02,實名制快篩早上10點開始販售，售完為止
5901174002,吳興春天藥局,臺北市信義區吳興街１３７號１樓,121.5618,25.02947,(02)27585618,羅氏家用新冠病毒抗原自我檢測套組,78,2022/05/02 09:35:02,下午2:40發號碼牌
5901174011,寶春藥局,臺北市信義區虎林街１１９之１９號１樓,121.5771,25.04112,(02)27566501,羅氏家用新冠病毒抗原自我檢測套組,78,2022/05/02 09:35:02,無
5901174057,詠晴中西藥局,臺北市信義區松山路４８４之４號（１樓含夾層）,121.5778,25.0389,(02)27266890,羅氏家用新冠病毒抗原自我檢測套組,159,2022/05/02 09:35:02,實名制快篩 - 09:10領號碼牌.當天取貨即可.避免群聚風險
5901174066,愛維喜藥局,臺北市信義區莊敬路２７８號１樓,121.5627,25.02882,(02)27586989,羅氏家用新冠病毒抗原自我檢測套組,234,2022/05/02 09:35:02,快篩周一至周五下午3:30開賣.3:10收健保卡現金500元1張.發號碼牌
5901174075,信義盛康藥局,臺北市信義區永吉路２８６號（１樓）,121.5744,25.04538,(02)23460521,羅氏家用新冠病毒抗原自我檢測套組,81,2022/05/02 09:35:02,無
5901174084,市政藥局,臺北市信義區忠孝東路５段１６９號１樓、１７１號１樓,121.5688,25.0412,(02)27560050,羅氏家用新冠病毒抗原自我檢測套組,78,2022/05/02 09:35:02,快篩實名制，每天16:00開始販售，售完為止。
5901180037,崇信藥局,臺北市中正區齊東街８８號,121.5272,25.04162,(02)23417557,羅氏家用新冠病毒抗原自我檢測套組,156,2022/05/02 09:35:02,上午8.30開始代售快篩 .售完為止.
5901180055,日生大藥局,臺北市中正區汀州路１段５３號１樓,121.5076,25.03026,(02)23031393,羅氏家用新冠病毒抗原自我檢測套組,78,2022/05/02 09:35:02,快篩代售服務時間:（1） 5月2日周一 貨到即售 售完為止  （2） 周一到周日 上午9點起售完為止
5901180126,民生藥局,臺北市中正區濟南路２段４５－１號１樓,121.5305,25.0406,(02)23416470,羅氏家用新冠病毒抗原自我檢測套組,90,2022/05/02 09:35:02,4／15 公休無售口罩
5901180206,大安藥局,臺北市中正區新生南路１段１０６號,121.5326,25.03969,(02)23213186,羅氏家用新冠病毒抗原自我檢測套組,156,2022/05/02 09:35:02,週一到週六
5901180224,中心藥局,臺北市中正區汀州路３段１２１號,121.5303,25.01654,(02)23689889,羅氏家用新冠病毒抗原自我檢測套組,157,2022/05/02 09:35:02,5／2（一）實名制快篩因物流貨運配送調度，調整領取時間延後至下午3點
5901180304,祥全藥局,臺北市中正區信義路２段７９巷１５－８號１Ｆ,121.527,25.03545,(02)23939339,羅氏家用新冠病毒抗原自我檢測套組,156,2022/05/02 09:35:02,無
5901180322,南昌大藥局,臺北市中正區南昌路１段８６號１樓,121.5174,25.03086,(02)23510322,羅氏家用新冠病毒抗原自我檢測套組,78,2022/05/02 09:35:02,無
5901180368,古亭藥局,臺北市中正區汀州路３段１１７號,121.5301,25.01667,(02)23683618,羅氏家用新冠病毒抗原自我檢測套組,156,2022/05/02 09:35:02,實名制  快篩  每晚7:30  開始賣
5901182111,東華藥局,臺北市中正區汀州路３段１１３號,121.53,25.01673,(02)23640852,羅氏家用新冠病毒抗原自我檢測套組,156,2022/05/02 09:35:02,星期日店休
5901183387,丞良藥局,臺北市中正區南昌路１段７８號地下１樓,121.5173,25.03099,(02)33938868,羅氏家用新冠病毒抗原自我檢測套組,78,2022/05/02 09:35:02,週一~週五 晚上9:00~9:30現場領取
5901183396,慶安藥局,臺北市中正區徐州路２６號,121.5234,25.04061,(02)23582385,羅氏家用新冠病毒抗原自我檢測套組,234,2022/05/02 09:35:02,無
5901183510,怡誠藥局,臺北市中正區汀州路２段２１２號,121.5237,25.02236,(02)23626905,羅氏家用新冠病毒抗原自我檢測套組,156,2022/05/02 09:35:02,無
5901183529,達昌藥局,臺北市中正區汀州路１段２０７號,121.5116,25.02692,(02)23390109,羅氏家用新冠病毒抗原自我檢測套組,78,2022/05/02 09:35:02,口罩配發時間 每日下午13:00開始
5901183645,大愛生活藥局,臺北市中正區汀州路２段２３２號,121.5243,25.02189,(02)23661155,羅氏家用新冠病毒抗原自我檢測套組,156,2022/05/02 09:35:02,下午14:30開始發放快篩（不發號碼牌直接買）~~不要太早開始排隊啊啊啊啊
5901183789,佑康大藥局,臺北市中正區汀州路２段６４號,121.5184,25.02513,(02)23683602,羅氏家用新冠病毒抗原自我檢測套組,78,2022/05/02 09:35:02,快篩下午2點開賣
5901183798,佳和藥局,臺北市中正區黎明里公園路３０號,121.5169,25.04448,(02)23117102,羅氏家用新冠病毒抗原自我檢測套組,78,2022/05/02 09:35:02,無
5901183985,正康藥局,臺北市中正區漢口街１段２２號,121.5142,25.04507,(02)23712831,羅氏家用新冠病毒抗原自我檢測套組,78,2022/05/02 09:35:02,快篩固定下午2:00發放
5901184071,進達健保藥局,臺北市中正區中華路２段４５３號,121.5096,25.0249,(02)23039829,羅氏家用新冠病毒抗原自我檢測套組,156,2022/05/02 09:35:02,星期日公休無代售快篩實名制 5／2-5／7 暫定代售時間為晚上8點／／下午3-4點清消不營業
5901184080,活力健康藥妝藥局,臺北市中正區中華路２段３１５巷１號,121.5062,25.02795,(02)23392625,羅氏家用新冠病毒抗原自我檢測套組,117,2022/05/02 09:35:02,無
5901184179,保德中華藥局,臺北市中正區中華路２段１５９號,121.5042,25.03101,(02)23027720,羅氏家用新冠病毒抗原自我檢測套組,78,2022/05/02 09:35:02,快篩視政府有無配發而販售；有貨的話下午三點開始發號碼牌及販售，限當日購買
5901184213,71恩典藥局,臺北市中正區信義路２段７１號,121.5264,25.03466,(02)23223371,羅氏家用新冠病毒抗原自我檢測套組,156,2022/05/02 09:35:02,快篩販售時間：◆週一到週五19:00 ◆週六17:00，十分鐘前發號碼牌
5901184240,立赫健保藥局,臺北市中正區新生南路１段１６之２號,121.5326,25.04323,(02)33223231,羅氏家用新冠病毒抗原自我檢測套組,156,2022/05/02 09:35:02,快篩星期一至星期六10:00發號碼牌開賣，星期日12:00發號碼牌開賣
5901184366,宏越藥局,臺北市中正區中華路２段３１３巷４號,121.5061,25.02813,(02)23050880,羅氏家用新冠病毒抗原自我檢測套組,78,2022/05/02 09:35:02,代售實名制快篩時間 每日下午14:30開始  售完即停止  可關注FB公告當日是否代售
5901184473,中力藥局,臺北市中正區襄陽路１３之５號、１５號,121.5155,25.04349,(02)23313768,羅氏家用新冠病毒抗原自我檢測套組,148,2022/05/02 09:35:02,實名制快篩 販售時間：09:30~售完為止
5901184491,躍獅南門藥局,臺北市中正區中華路２段３９巷１０號,121.5074,25.03484,(02)23141111,羅氏家用新冠病毒抗原自我檢測套組,78,2022/05/02 09:35:02,口罩販售時段：成人早上9點及晚上7點各200個
5901184553,珍忻藥局,臺北市中正區南昌路１段６５號,121.5174,25.03107,(02)23965115,羅氏家用新冠病毒抗原自我檢測套組,156,2022/05/02 09:35:02,健保快篩發放:13:20及18:20分兩梯次發號碼牌
5901184633,躍獅東門藥局,臺北市中正區金山南路１段１０８之１號（１樓）,121.5273,25.03538,(02)23920339,羅氏家用新冠病毒抗原自我檢測套組,156,2022/05/02 09:35:02,下午兩點販售
5901184642,康呈安藥局,臺北市中正區汀州路２段１８７號１樓,121.522,25.02403,(02)23672215,羅氏家用新冠病毒抗原自我檢測套組,78,2022/05/02 09:35:02,每天下午3點才發放快篩
5901184660,南昌春天藥局,臺北市中正區南昌路１段１５７號１樓,121.5188,25.02927,(02)23972886,羅氏家用新冠病毒抗原自我檢測套組,78,2022/05/02 09:35:02,無
5901184679,汀州藥局,臺北市中正區汀州路１段１８７、１８９、１９１號（１樓）,121.5112,25.02704,(02)23090705,羅氏家用新冠病毒抗原自我檢測套組,78,2022/05/02 09:35:02,快篩實名制，每天16:00開始販售，售完為止。
5901184697,中英大藥局,臺北市中正區永綏街６號１樓,121.5112,25.043,(02)23617551,羅氏家用新冠病毒抗原自我檢測套組,156,2022/05/02 09:35:02,無
5901184713,建祥武昌藥局,臺北市中正區武昌街１段２９號１樓,121.5121,25.04416,(02)23314038,羅氏家用新冠病毒抗原自我檢測套組,156,2022/05/02 09:35:02,無
5901190024,長泰藥局,臺北市萬華區西園路２段２８０號,121.4942,25.02753,(02)23012869,羅氏家用新冠病毒抗原自我檢測套組,78,2022/05/02 09:35:02,現場排隊 口罩販賣時段：9:00至售完為止
5901190079,建和藥局,臺北市萬華區青年路１６８巷４４號,121.5016,25.01987,(02)23010838,羅氏家用新冠病毒抗原自我檢測套組,78,2022/05/02 09:35:02,春節期間看診時段請電洽
5901190220,生活大藥局,臺北市萬華區貴陽街２段１２４號,121.5025,25.03995,(02)23618609,羅氏家用新冠病毒抗原自我檢測套組,142,2022/05/02 09:35:02,無
5901190426,皇祥藥局,臺北市萬華區萬青街１６５號１樓,121.5016,25.02279,(02)23375676,羅氏家用新冠病毒抗原自我檢測套組,78,2022/05/02 09:35:02,周日下午2點販售 （5／1）
5901190515,日昇藥局,臺北市萬華區廣州街１２４號,121.5016,25.03654,(02)23062975,羅氏家用新冠病毒抗原自我檢測套組,78,2022/05/02 09:35:02,實名制快篩 05-01 有配送
5901190686,信義藥局,臺北市萬華區青年路２８號,121.5052,25.02581,(02)23074599,羅氏家用新冠病毒抗原自我檢測套組,156,2022/05/02 09:35:02,下午一點領-（快篩）
5901190784,欣安藥局,臺北市萬華區東園街１９０、１９２號,121.4983,25.02177,(02)23327830,羅氏家用新冠病毒抗原自我檢測套組,78,2022/05/02 09:35:02,每日販售時間13:00，售完為止
5901192180,康之友藥局,臺北市萬華區青年路２０號,121.5055,25.02592,(02)23011598,羅氏家用新冠病毒抗原自我檢測套組,78,2022/05/02 09:35:02,下午兩點發號碼牌
5901192448,健誠大藥局,臺北市萬華區環河南路２段１８５號,121.4919,25.03246,(02)23042223,羅氏家用新冠病毒抗原自我檢測套組,156,2022/05/02 09:35:02,口罩販售：週六早上10點開始， 其他日早上9點開始， 周日休息
5901192546,躍獅西園藥局,臺北市萬華區西園路２段２６０號,121.4946,25.02784,(02)23094063,羅氏家用新冠病毒抗原自我檢測套組,234,2022/05/02 09:35:02,快篩販售時段：下午2點至售完為止（政府有正常配貨的情況下）
5901192822,專品藥局,臺北市萬華區長沙街２段７１－１號,121.5051,25.04062,(02)23718892,羅氏家用新冠病毒抗原自我檢測套組,82,2022/05/02 09:35:02,快篩實名制下午3點發放
5901192975,萬華藥局,臺北市萬華區萬大路２４８號實際營業地址１樓、２樓,121.5003,25.02626,(02)23012221,羅氏家用新冠病毒抗原自我檢測套組,78,2022/05/02 09:35:02,快篩實名制，每天16:00開始販售，售完為止。
5901193070,榮勝藥局,臺北市萬華區萬大路２３３號,121.5006,25.02649,(02)23331121,羅氏家用新冠病毒抗原自我檢測套組,78,2022/05/02 09:35:02,口罩代售時間禮拜一~禮拜六早上9:00開始，現場排隊／ 看診時間早上8:30-12:00，下午3:00-6:00，晚上6:30-10:00
5901193132,松本藥局,臺北市萬華區西昌街２３３號,121.5007,25.03723,(02)23029559,羅氏家用新冠病毒抗原自我檢測套組,157,2022/05/02 09:35:02,無
5901193150,日森人文藥局,臺北市萬華區和平西路３段１４９號,121.4988,25.03543,(02)23082100,羅氏家用新冠病毒抗原自我檢測套組,78,2022/05/02 09:35:02,快篩每日11點現場發放號碼牌購買
5901193196,青年宏越藥局,臺北市萬華區青年路４４號,121.5042,25.0255,(02)23011037,羅氏家用新冠病毒抗原自我檢測套組,198,2022/05/02 09:35:02,快篩六日不販售，禮拜一~五下午2:30-3:30，現場排隊
5901193221,正盛藥局,臺北市萬華區中華路２段４３４－１號,121.5064,25.02708,(02)23050386,羅氏家用新冠病毒抗原自我檢測套組,72,2022/05/02 09:35:02,1.快篩一~六20點，周日不賣 2.預留18份給軍警醫療（請出示證件／1800前來）3.目前排隊人潮多，建議7點左右提前候位
5901193230,啟仁藥局,臺北市萬華區環河南路２段１７７號,121.492,25.03259,(02)23362771,羅氏家用新冠病毒抗原自我檢測套組,156,2022/05/02 09:35:02,六日沒配送就停售（有配就有），一般時間下午2點開始發號碼牌， 發完為止
5901193249,光華藥局,臺北市萬華區華西街１９－５號,121.4985,25.03892,(02)23613609,羅氏家用新冠病毒抗原自我檢測套組,78,2022/05/02 09:35:02,政府快篩試劑按到貨在上午11時營業發放，售完為止
5901193310,和德藥局,臺北市萬華區西園路２段２９２號１樓,121.4935,25.02698,(02)23331522,羅氏家用新冠病毒抗原自我檢測套組,78,2022/05/02 09:35:02,快篩實名制，每天16:00開始販售，售完為止。
5901193329,西園宏越藥局,臺北市萬華區西園路２段２１３號,121.4942,25.02714,(02)23097336,羅氏家用新冠病毒抗原自我檢測套組,234,2022/05/02 09:35:02,實名制快篩下午4點~5點販售
5901193338,艾米力藥師藥局,臺北市萬華區西藏路１０７－２號１樓,121.5035,25.02955,(02)23036583,羅氏家用新冠病毒抗原自我檢測套組,90,2022/05/02 09:35:02,5／2（政府固定配送情況下）快篩實名制:上午9:00販售:60份。（政府配送不穩定）晚上7:00販售:78份。
5901193365,企鵝藥局,臺北市萬華區西昌街１７５號（１樓）,121.5007,25.03886,(02)23884691,羅氏家用新冠病毒抗原自我檢測套組,78,2022/05/02 09:35:02,公費快篩試劑，下午2點發號碼牌
5901200105,建興藥局,臺北市文山區木柵路２段８１號１樓,121.561,24.98889,(02)29399993,羅氏家用新冠病毒抗原自我檢測套組,79,2022/05/02 09:35:02,無
5901200114,健群藥局,臺北市文山區景興路４１號,121.5448,24.99717,(02)29328898,羅氏家用新冠病毒抗原自我檢測套組,79,2022/05/02 09:35:02,無
5901200123,瑞安藥局,臺北市文山區溪口街６９－１號１樓,121.5393,24.99512,(02)29312888,羅氏家用新冠病毒抗原自我檢測套組,157,2022/05/02 09:35:02,早上8:30開始營業.星期日休息.快篩劑晚上8:00販賣.
5901200141,景美藥局,臺北市文山區景文街１２５號,121.5412,24.99033,(02)29335741,羅氏家用新冠病毒抗原自我檢測套組,152,2022/05/02 09:35:02,無
5901200490,永明大藥局,臺北市文山區興隆路１段２９７號１樓,121.5449,24.99875,(02)29314428,羅氏家用新冠病毒抗原自我檢測套組,156,2022/05/02 09:35:02,每日下午2點50發放號碼牌，3點進行快篩販售，6點前未領取視同放棄，限一人一卡一份。
5901200534,日信專業藥局,臺北市文山區木柵路２段１３９號１樓,121.5625,24.98906,(02)86618322,羅氏家用新冠病毒抗原自我檢測套組,156,2022/05/02 09:35:02,周一~周六早上8:30開始販售實名制快篩
5901201540,逸仙藥師藥局,臺北市文山區興隆路２段２１８－１號１樓,121.5524,25.00148,(02)29312597,羅氏家用新冠病毒抗原自我檢測套組,78,2022/05/02 09:35:02,9:00-10:00
5901201568,康宜庭生活藥局,臺北市文山區興隆路４段６４號,121.5613,24.98514,(02)29385363,羅氏家用新冠病毒抗原自我檢測套組,156,2022/05/02 09:35:02,實名快篩14:00開賣 現場排隊
5901201728,東京晟藥局,臺北市文山區辛亥路４段９７號,121.5587,25.00684,(02)29356354,羅氏家用新冠病毒抗原自我檢測套組,78,2022/05/02 09:35:02,周日不銷售實名制快篩，預領號碼牌購買
5901201835,巧康藥局,臺北市文山區木新路３段２６２、２６４號,121.5585,24.98132,(02)29372061,羅氏家用新冠病毒抗原自我檢測套組,78,2022/05/02 09:35:02,每日下午2點發放號碼牌，2點15進行快篩販售
5901201871,佳醫景美藥局,臺北市文山區羅斯福路６段２９０號,121.5398,24.991,(02)86636659,羅氏家用新冠病毒抗原自我檢測套組,78,2022/05/02 09:35:02,實名制快篩販售時間：每日12:00-15:00，提前售完，提前結束
5901202047,華君藥局,臺北市文山區興隆路２段６０號,121.5478,24.99955,(02)29319510,羅氏家用新冠病毒抗原自我檢測套組,78,2022/05/02 09:35:02,每天12:00開始販售快篩
5901202216,皇興藥師藥局,臺北市文山區木柵路２段１２１號,121.5621,24.98901,(02)29365553,羅氏家用新冠病毒抗原自我檢測套組,156,2022/05/02 09:35:02,無
5901202396,宇康藥局,臺北市文山區羅斯福路５段２１８巷７號,121.5383,25.00203,(02)29307066,羅氏家用新冠病毒抗原自我檢測套組,156,2022/05/02 09:35:02,無
5901202627,杏隆藥局,臺北市文山區羅斯福路５段２６１號,121.5395,25.00115,(02)29313151,羅氏家用新冠病毒抗原自我檢測套組,156,2022/05/02 09:35:02,快篩實名制採預約登記，至5／5已登記額滿。
5901202645,永源大藥局,臺北市文山區興隆路３段３０２號,121.5588,24.99312,(02)22396166,羅氏家用新冠病毒抗原自我檢測套組,78,2022/05/02 09:35:02,口罩販售時段原本21:00，但藥局會視人數多寡滾動式調整提早發放快篩避免群聚，根據4／28情況約20:00開始發售，約45鐘完售
5901202654,康宜庭萬隆藥局,臺北市文山區羅斯福路５段２０２號,121.5384,25.00322,(02)29348662,羅氏家用新冠病毒抗原自我檢測套組,78,2022/05/02 09:35:02,5／1快篩已賣完，5／2的還未到，若到貨，現場排隊，14:00開賣
5901202841,欣安景美藥局,臺北市文山區景文街７７號,121.5414,24.99126,(02)29316008,羅氏家用新冠病毒抗原自我檢測套組,78,2022/05/02 09:35:02,今日快篩劑AM10：00發號碼牌PM17:00開始販賣售完為止
5901202949,萬隆大藥局,臺北市文山區羅斯福路５段２１８巷１５號,121.538,25.00203,(02)29334580,羅氏家用新冠病毒抗原自我檢測套組,225,2022/05/02 09:35:02,9：00~23：00
5901202958,杏一萬安藥局,臺北市文山區萬安街１５號,121.5706,25.00139,(02)22302126,羅氏家用新冠病毒抗原自我檢測套組,78,2022/05/02 09:35:02,營業時間0900-2200
5901203044,木新健康人生藥局,臺北市文山區木新路３段２０３號,121.5598,24.9814,(02)86611465,羅氏家用新冠病毒抗原自我檢測套組,156,2022/05/02 09:35:02,9：30~22：00
5901203062,大樹文山藥局,臺北市文山區興隆路３段１３號（１、２、３樓）,121.555,25.00088,(02)29342226,羅氏家用新冠病毒抗原自我檢測套組,78,2022/05/02 09:35:02,口罩販售時間：14:00 - 16:00
5901203124,福興藥局,臺北市文山區福興路５６號,121.5505,25.00345,(02)89313868,羅氏家用新冠病毒抗原自我檢測套組,156,2022/05/02 09:35:02,領快篩時間:周一到周六，下午2點開放購買快篩，1人1卡1份
5901203160,路加健康藥局,臺北市文山區興隆路２段２２０巷３９號,121.5522,25.00022,(02)29302336,羅氏家用新冠病毒抗原自我檢測套組,78,2022/05/02 09:35:02,無
5901203188,逸全生活藥局,臺北市文山區羅斯福路５段２２２號,121.5388,25.00197,(02)29326185,羅氏家用新冠病毒抗原自我檢測套組,156,2022/05/02 09:35:02,無
5901203204,躍獅新芳藥局,臺北市文山區興隆路３段１６號（實際營業地址：１樓）,121.5549,25.00062,(02)29308172,羅氏家用新冠病毒抗原自我檢測套組,79,2022/05/02 09:35:02,九點開始販售實名制快篩，售完為止
5901203268,躍獅木柵藥局,臺北市文山區指南路１段２８號,121.5695,24.98756,(02)86617752,羅氏家用新冠病毒抗原自我檢測套組,79,2022/05/02 09:35:02,無
5901203295,專品政大藥局,臺北市文山區指南路２段８號,121.5742,24.98784,(02)22343010,羅氏家用新冠病毒抗原自我檢測套組,78,2022/05/02 09:35:02,無
5901203366,大樹木柵藥局,臺北市文山區木柵路３段１０８號、１１０號（１樓、２樓）,121.5676,24.98866,(02)22340110,羅氏家用新冠病毒抗原自我檢測套組,78,2022/05/02 09:35:02,快篩實名制，每天16:00開始販售，售完為止。
5901203375,大樹景美藥局,臺北市文山區羅斯福路６段２３４之１號,121.5404,24.99244,(02)29322951,羅氏家用新冠病毒抗原自我檢測套組,81,2022/05/02 09:35:02,快篩實名制，每天16:00開始販售，售完為止。
5901203393,躍獅景新藥局,臺北市文山區羅斯福路６段３０號１樓,121.5396,24.99978,(02)29356221,羅氏家用新冠病毒抗原自我檢測套組,78,2022/05/02 09:35:02,無
5901203419,康宜庭興隆藥局,臺北市文山區興隆路３段２００號１樓,121.559,24.99779,(02)22304866,羅氏家用新冠病毒抗原自我檢測套組,79,2022/05/02 09:35:02,無
5901203446,景華盛康藥局,臺北市文山區景華街６９號１樓,121.545,24.99524,(02)29310188,羅氏家用新冠病毒抗原自我檢測套組,78,2022/05/02 09:35:02,快篩販售時間:下午3點開賣，現場發送號碼牌
5901203455,全球萬芳藥局,臺北市文山區興隆路３段６３號（１樓）,121.5562,25.00024,(02)89352147,羅氏家用新冠病毒抗原自我檢測套組,78,2022/05/02 09:35:02,營業時間9:00~22:00
5901203464,大愛幸福藥局,臺北市文山區木新路２段２２１號１樓,121.5675,24.98344,(02)29379977,羅氏家用新冠病毒抗原自我檢測套組,78,2022/05/02 09:35:02,無
5901203482,健康家藥局,臺北市文山區興隆路２段１３３號１樓,121.5481,25.00011,(02)29330858,羅氏家用新冠病毒抗原自我檢測套組,155,2022/05/02 09:35:02,實名制快篩下午一點開始販售，5／1店休
5902010025,南京藥局,高雄市鹽埕區建國四路３８７號,120.284,22.63279,(07)5514652,羅氏家用新冠病毒抗原自我檢測套組,156,2022/05/02 09:35:02,早上9:00為實名制快篩及口罩販賣時間，售完為止
5902010132,宏恩藥局,高雄市鹽埕區教仁里瀨南街１３３號,120.2823,22.62472,(07)5211318,羅氏家用新冠病毒抗原自我檢測套組,78,2022/05/02 09:35:02,4／30 15:00開始販售
5902011308,昇安藥局,高雄市鹽埕區瀨南街２２５號１樓,120.284,22.62797,(07)5216438,羅氏家用新冠病毒抗原自我檢測套組,78,2022/05/02 09:35:02,快篩試劑早上9:00開始發號碼牌
5902020012,永松藥局,高雄市鼓山區鼓山三路１３０－１５號,120.2802,22.66454,(07)5810657,羅氏家用新冠病毒抗原自我檢測套組,79,2022/05/02 09:35:02,周一到周日早上9點開始賣口罩，到晚上10點.
5902021153,世和藥局,高雄市鼓山區華豐里華夏路１９５號,120.2959,22.66936,(07)5522566,羅氏家用新冠病毒抗原自我檢測套組,78,2022/05/02 09:35:02,賣口罩時間：周一至週日每天早上8點到下午9點，售完為止。
5902021377,藍玉藥局,高雄市鼓山區鼓峰里九如四路２００２號,120.2861,22.66774,(07)5837528,羅氏家用新冠病毒抗原自我檢測套組,78,2022/05/02 09:35:02,賣口罩時間：周一至週五早上9:30起，售完為止。
5902022669,惠民藥局,高雄市鼓山區九如四路１４２６號,120.2793,22.6587,(07)5833228,羅氏家用新冠病毒抗原自我檢測套組,29,2022/05/02 09:35:02,無
5902022794,定國藥局,高雄市鼓山區九如四路１１３５號,120.2791,22.65936,(07)5815858,羅氏家用新冠病毒抗原自我檢測套組,78,2022/05/02 09:35:02,無
5902022801,裕康中西大藥局,高雄市鼓山區裕誠路１５１９號,120.2951,22.66479,(07)5555352,羅氏家用新冠病毒抗原自我檢測套組,71,2022/05/02 09:35:02,藥局販售口罩時間，依藥局門口公告時間為主（售完為止）
5902022829,弘興藥局,高雄市鼓山區鼓山三路４８－１１號,120.2757,22.65468,(07)5612677,羅氏家用新冠病毒抗原自我檢測套組,78,2022/05/02 09:35:02,快篩實名制早上8:30開始販售，售完為止
5902022874,康爾喜藥局,高雄市鼓山區慶豐街５０號,120.2935,22.66647,(07)5222650,羅氏家用新冠病毒抗原自我檢測套組,156,2022/05/02 09:35:02,無
5902022972,高雄藥局,高雄市鼓山區九如四路９２４號,120.2793,22.65466,(07)5214266,羅氏家用新冠病毒抗原自我檢測套組,78,2022/05/02 09:35:02,賣口罩時間為週一～週六晚上6點，售完為止
5902030063,紅心藥局,高雄市左營區崇德路２５５號,120.3041,22.67535,(07)3416697,羅氏家用新冠病毒抗原自我檢測套組,78,2022/05/02 09:35:02,早上8點30賣快篩到完
5902030090,宏仁藥局,高雄市左營區左營大路３９０號,120.2932,22.68702,(07)5817895,羅氏家用新冠病毒抗原自我檢測套組,78,2022/05/02 09:35:02,口罩代售時間自早上10:00開始，售完為止。
5902030269,立文藥局,高雄市左營區立文路５４號,120.3058,22.66458,(07)5572899,羅氏家用新冠病毒抗原自我檢測套組,78,2022/05/02 09:35:02,0
5902030312,吉辰藥局,高雄市左營區左營大路４１之１號,120.2876,22.68109,(07)5815069,羅氏家用新冠病毒抗原自我檢測套組,78,2022/05/02 09:35:02,早上9點開賣口罩   賣完為止
5902030410,重仁藥局,高雄市左營區左營大路４０８號,120.2935,22.68725,(07)5824083,羅氏家用新冠病毒抗原自我檢測套組,78,2022/05/02 09:35:02,自2／11日~2／29日，營業日08:00~22:30為販賣口罩時間.售完為止
5902030643,新高橋藥局,高雄市左營區民族一路１０２８號,120.3201,22.68255,(07)3100696,羅氏家用新冠病毒抗原自我檢測套組,78,2022/05/02 09:35:02,下午2:30開始販售口罩
5902031999,平安藥局,高雄市左營區中華一路５之１號,120.287,22.66961,(07)5833688,羅氏家用新冠病毒抗原自我檢測套組,78,2022/05/02 09:35:02,無
5902032218,和信藥師健保藥局,高雄市左營區崇德路２６７號,120.3037,22.6756,(07)3419363,羅氏家用新冠病毒抗原自我檢測套組,156,2022/05/02 09:35:02,無
5902032432,威林藥局,高雄市左營區華夏路７２１號,120.3023,22.67845,(07)3414243,羅氏家用新冠病毒抗原自我檢測套組,78,2022/05/02 09:35:02,營業時間販售快篩（售完為止），星期一~五早上12:00~晚上9:00，星期六日早上09:00~下午5:00執業
5902032441,健怡藥局,高雄市左營區翠峰路４０號,120.2897,22.67229,(07)5821891,羅氏家用新冠病毒抗原自我檢測套組,78,2022/05/02 09:35:02,快篩星期一~星期日早上8:30開始販售
5902032450,可達藥局,高雄市左營區榮德街１７７號,120.3205,22.68359,(07)3420182,羅氏家用新冠病毒抗原自我檢測套組,172,2022/05/02 09:35:02,無
5902032487,必健藥局,高雄市左營區自由二路９０號,120.309,22.65954,(07)5584259,羅氏家用新冠病毒抗原自我檢測套組,78,2022/05/02 09:35:02,快篩試劑配送時間不定.販售時間滾動
5902032530,杏光藥局,高雄市左營區果峰街４７巷１號１樓,120.2869,22.6703,(07)5837060,羅氏家用新冠病毒抗原自我檢測套組,78,2022/05/02 09:35:02,上午營業時間為9 :00~12:00；晚上營業至21:30
5902032674,辰暘藥局,高雄市左營區富民路１２０號１、２樓,120.3054,22.66066,(07)5588545,羅氏家用新冠病毒抗原自我檢測套組,78,2022/05/02 09:35:02,口罩販售時間09:30-21:30
5902040014,成吉藥局,高雄市楠梓區楠梓東街７４號,120.3301,22.72966,(07)3513339,羅氏家用新冠病毒抗原自我檢測套組,156,2022/05/02 09:35:02,下午6點開始販賣實名制快篩，售完為止!!!星期日店休
5902040041,橘井藥局,高雄市楠梓區楠梓路１２９號,120.3286,22.73026,(07)3511869,羅氏家用新冠病毒抗原自我檢測套組,156,2022/05/02 09:35:02,快篩劑開賣時間：周一至週六每天上午8:00販售，售完為止。
5902040050,富翔藥局,高雄市楠梓區常德路３０７號,120.337,22.73691,(07)3516365,羅氏家用新冠病毒抗原自我檢測套組,78,2022/05/02 09:35:02,上午8:00 販售快篩實名制，售完為止。
5902040069,新友藥局,高雄市楠梓區萬昌路１１１號,120.2895,22.71194,(07)3653534,羅氏家用新冠病毒抗原自我檢測套組,156,2022/05/02 09:35:02,藥局販售口罩時間，依藥局門口公告時間為主（售完為止）
5902040087,世詠藥局,高雄市楠梓區楠都東街１３８號,120.3262,22.72532,(07)3539869,羅氏家用新冠病毒抗原自我檢測套組,78,2022/05/02 09:35:02,快篩周一~周五早上9:00-21:30周六.日下午15:00-21:30，售完為止
5902040112,丁丁楠梓藥局,高雄市楠梓區建楠路１３０、１３２、１３４號,120.3247,22.72731,(07)3533743,羅氏家用新冠病毒抗原自我檢測套組,78,2022/05/02 09:35:02,5／2快篩尚未到貨，貨到立即開賣
5902040185,東初藥局,高雄市楠梓區楠梓路３２號,120.33,22.72873,(07)3511261,羅氏家用新冠病毒抗原自我檢測套組,78,2022/05/02 09:35:02,無
5902040210,益民藥局,高雄市楠梓區建楠路４７號,120.3287,22.72659,(07)3522161,羅氏家用新冠病毒抗原自我檢測套組,78,2022/05/02 09:35:02,開門時間10:00
5902040229,進昇藥局,高雄市楠梓區德賢路２０２號,120.3068,22.72694,(07)3652334,羅氏家用新冠病毒抗原自我檢測套組,78,2022/05/02 09:35:02,實名制快篩每日上午10點販售，售完為止
5902040498,順明藥局,高雄市楠梓區和光街６５號,120.2939,22.70717,(07)3615574,羅氏家用新冠病毒抗原自我檢測套組,78,2022/05/02 09:35:02,快篩劑販售時間早上 9:00～晚上9:30
5902040532,聯亞藥局,高雄市楠梓區軍校路７１０號,120.293,22.70779,(07)3638387,羅氏家用新冠病毒抗原自我檢測套組,196,2022/05/02 09:35:02,口罩販賣時段：上午8：30起至售完為止
5902041226,正人藥師藥局,高雄市楠梓區和昌里軍校路６７２號,120.293,22.70707,(07)3652942,羅氏家用新冠病毒抗原自我檢測套組,156,2022/05/02 09:35:02,實名制快篩，因配送不穩，改晚上八點販售，並視需要發放號碼牌；一人限一份，代購需重新排隊。週六半天；週日公休
5902042376,佶辰藥局,高雄市楠梓區德民路６４１號１Ｆ,120.2962,22.72237,(07)3662802,羅氏家用新冠病毒抗原自我檢測套組,92,2022/05/02 09:35:02,營業日09:00~22:00為販賣快篩試劑時間 售完為止.如有更動以現場公告為主
5902042447,建佑藥局,高雄市楠梓區右昌街１９１號,120.2889,22.71153,(07)3626893,羅氏家用新冠病毒抗原自我檢測套組,78,2022/05/02 09:35:02,5／2（一）公費快篩尚未到貨，請先不要來排隊 營業時間 09:00~21:00
5902042474,誠群藥局,高雄市楠梓區樂群路１８２號１樓,120.297,22.71914,(07)3661733,羅氏家用新冠病毒抗原自我檢測套組,78,2022/05/02 09:35:02,每天早上9點開始販售快篩試劑
5902042492,合德中西藥師藥局,高雄市楠梓區楠梓路４８６號,120.3244,22.73812,(07)3581291,羅氏家用新冠病毒抗原自我檢測套組,78,2022/05/02 09:35:02,快篩實名制09:00開始販售
5902042563,天健藥局,高雄市楠梓區後昌路１０８７號,120.2922,22.71718,(07)3634179,羅氏家用新冠病毒抗原自我檢測套組,78,2022/05/02 09:35:02,無
5902042661,元春中西藥師藥局,高雄市楠梓區後昌路８３７巷３７號,120.294,22.71109,(07)3605656,羅氏家用新冠病毒抗原自我檢測套組,83,2022/05/02 09:35:02,早上.9:00開始為快篩領取時間，售完為止
5902042769,家安藥局,高雄市楠梓區後昌新路１３號１樓,120.2917,22.71844,(07)3600066,羅氏家用新冠病毒抗原自我檢測套組,78,2022/05/02 09:35:02,無
5902050092,明曜藥局,高雄市三民區澄和路９６號,120.3441,22.64481,(07)3803807,羅氏家用新冠病毒抗原自我檢測套組,78,2022/05/02 09:35:02,營業日13:30販售快篩當場排隊.當場販售.售完為止
5902050298,瑞鶴藥局,高雄市三民區寶德里義德路２５號,120.3352,22.64301,(07)3862757,羅氏家用新冠病毒抗原自我檢測套組,78,2022/05/02 09:35:02,下午2:00至4:30午休勿擾，每日09:30至21:00發售快篩。
5902050350,日星藥局,高雄市三民區寶龍里惠德街３８號,120.3241,22.64741,(07)3845188,羅氏家用新冠病毒抗原自我檢測套組,158,2022/05/02 09:35:02,銷售口罩時間:星期一至五16:00-22:00；星期六09:00-11:30，售完為止
5902050378,安成藥局,高雄市三民區察哈爾二街６３號,120.301,22.64766,(07)3229295,羅氏家用新冠病毒抗原自我檢測套組,61,2022/05/02 09:35:02,AM8:30開始販售快篩實名制
5902050412,春仁藥局,高雄市三民區覺民路２２５號,120.3391,22.63944,(07)3962341,羅氏家用新冠病毒抗原自我檢測套組,78,2022/05/02 09:35:02,5／1-5／301時間自9:00-22:30現場排隊.（賣完為止）
5902050467,人禾藥局,高雄市三民區達仁里九如二路３２４號,120.3036,22.64137,(07)3215681,羅氏家用新冠病毒抗原自我檢測套組,156,2022/05/02 09:35:02,口罩販賣時段上午9:00至上午11: 00星期日放假
5902050565,澄和藥局,高雄市三民區澄和路６６號,120.3445,22.64474,(07)3923111,羅氏家用新冠病毒抗原自我檢測套組,78,2022/05/02 09:35:02,快篩試劑- 販售時間自下午14:00起至售完為止
5902050592,建昌藥局,高雄市三民區十全一路１０５號１樓,120.3105,22.64469,(07)3232356,羅氏家用新冠病毒抗原自我檢測套組,156,2022/05/02 09:35:02,賣口罩時間：周一至週五下午1:00起，周六至週日上午10:00起，售完為止。
5902050636,嘉益藥局,高雄市三民區重慶街３０號,120.302,22.64223,(07)3110157,羅氏家用新冠病毒抗原自我檢測套組,78,2022/05/02 09:35:02,快篩實名制早上11：00開始販售.
5902050770,仁生藥局,高雄市三民區民享里熱河二街７８號,120.3006,22.64431,(07)3118765,羅氏家用新冠病毒抗原自我檢測套組,78,2022/05/02 09:35:02,上午:8點開始販售
5902050798,友泰藥局,高雄市三民區中和街１６９號,120.2868,22.6388,(07)3125236,羅氏家用新冠病毒抗原自我檢測套組,195,2022/05/02 09:35:02,無
5902051222,利民藥局,高雄市三民區孝順街７４號,120.3128,22.6431,(07)3125436,羅氏家用新冠病毒抗原自我檢測套組,76,2022/05/02 09:35:02,快篩實名制早上9點30分開始販售，發號碼牌
5902051240,明皇藥局,高雄市三民區寶國里義華路１８１號,120.3399,22.64276,(07)3860121,羅氏家用新冠病毒抗原自我檢測套組,78,2022/05/02 09:35:02,藥局販售口罩時間，依藥局門口公告時間為主（售完為止）
5902051268,上正藥師藥局,高雄市三民區憲政路２５５號,120.3185,22.63647,(07)2223355,羅氏家用新冠病毒抗原自我檢測套組,78,2022/05/02 09:35:02,無
5902051642,安寧藥局,高雄市三民區嫩江街３９號,120.2981,22.64208,(07)3217585,羅氏家用新冠病毒抗原自我檢測套組,78,2022/05/02 09:35:02,無
5902051786,億生藥局,高雄市三民區南台路２００號,120.2982,22.63706,(07)2873436,羅氏家用新冠病毒抗原自我檢測套組,78,2022/05/02 09:35:02,「藥局販售口罩時間，依藥局門口公告時間為主（售完為止）」
5902051866,久大藥局,高雄市三民區本文里立忠路３２號１Ｆ,120.3253,22.65318,(07)3858116,羅氏家用新冠病毒抗原自我檢測套組,78,2022/05/02 09:35:02,無
5902053833,建銘藥局,高雄市三民區吉林街２６２號,120.3068,22.64818,(07)3133460,羅氏家用新冠病毒抗原自我檢測套組,74,2022/05/02 09:35:02,0900營業時間販賣口罩.售完為止
5902054858,勝發藥局,高雄市三民區金鼎路３５０號,120.3197,22.66521,(07)3474780,羅氏家用新冠病毒抗原自我檢測套組,78,2022/05/02 09:35:02,營業日08:00為販賣快篩試劑時間.售完為止
5902056638,柏仁藥局,高雄市三民區覺民路５０４號,120.3317,22.64092,(07)3976016,羅氏家用新冠病毒抗原自我檢測套組,156,2022/05/02 09:35:02,0502 am09:12 快篩地圖 庫存是156份，實際上庫存是0， 還沒有到貨
5902056718,岱安藥局,高雄市三民區熱河二街２３號,120.3018,22.6439,(07)3219946,羅氏家用新冠病毒抗原自我檢測套組,156,2022/05/02 09:35:02,下午1點開始販售實名制快篩（日公休）
5902057126,民安藥局,高雄市三民區嫩江街７０號,120.2985,22.64282,(07)3121381,羅氏家用新冠病毒抗原自我檢測套組,78,2022/05/02 09:35:02,販賣快篩09:00~12:00_16:00~18:00_19:00~21:00（售完為止），週日休息
5902057144,欣仁惠藥局,高雄市三民區大昌二路２４８號,120.3323,22.64529,(07)3837833,羅氏家用新冠病毒抗原自我檢測套組,78,2022/05/02 09:35:02,無
5902057288,育英藥局,高雄市三民區灣子里和順街３９號,120.3159,22.65336,(07)3824467,羅氏家用新冠病毒抗原自我檢測套組,78,2022/05/02 09:35:02,營業時間:8:30-21:00， 週日休息
5902057368,崧民藥師藥局,高雄市三民區金鼎路２２８號,120.3238,22.66483,(07)3102496,羅氏家用新冠病毒抗原自我檢測套組,234,2022/05/02 09:35:02,服務時間9:00-22:30自05／01日~5月31日
5902057484,永勝藥局,高雄市三民區褒忠街１１４號,120.334,22.64262,(07)3814643,羅氏家用新冠病毒抗原自我檢測套組,78,2022/05/02 09:35:02,新冠檢測組代售時間14:00--16:00.週日休
5902057493,上泰藥局,高雄市三民區鼎山街５６９號,120.3177,22.65148,(07)3987396,羅氏家用新冠病毒抗原自我檢測套組,149,2022/05/02 09:35:02,販售實名制快篩時間早上10:00開始
5902057546,華南藥局,高雄市三民區中和街１２４號,120.2878,22.63941,(07)3127483,羅氏家用新冠病毒抗原自我檢測套組,107,2022/05/02 09:35:02,快篩代售時間9:00起，售完為止，11:30點-1:30點，5點-6點30分用餐時間不代售，週日不代售。
5902057680,健爾康藥局,高雄市三民區正興路２３號,120.3226,22.6456,(07)3965658,羅氏家用新冠病毒抗原自我檢測套組,78,2022/05/02 09:35:02,自2／11日~2／29日，營業日08:30~2100為販賣口罩時間，售完為止。
5902057831,愛橋藥局,高雄市三民區陽明路１９２號,120.3422,22.64207,(07)3945146,羅氏家用新冠病毒抗原自我檢測套組,78,2022/05/02 09:35:02,下午1:30開始販售罩藥局販售口罩時間，依藥局門口公告時間為主（售完為止）
5902057902,利安藥局,高雄市三民區建工路５４５號,120.3213,22.64854,(07)3965550,羅氏家用新冠病毒抗原自我檢測套組,144,2022/05/02 09:35:02,營業日9:00AM起販賣口罩，售完為止
5902057920,必好藥局,高雄市三民區義華路４６０號,120.3313,22.64356,(07)3851751,羅氏家用新冠病毒抗原自我檢測套組,78,2022/05/02 09:35:02,早上九點開始販售快篩，售完為止。
5902060025,連作藥局,高雄市新興區大同一路２０３－１號,120.3003,22.62856,(07)2154716,羅氏家用新冠病毒抗原自我檢測套組,84,2022/05/02 09:35:02,快篩試紙領用時間為每日下午2點  5／1日周日加班 晚間目前營業中開放領快篩
5902060150,永明藥局,高雄市新興區仁智街２２３號,120.3027,22.62084,(07)2619832,羅氏家用新冠病毒抗原自我檢測套組,78,2022/05/02 09:35:02,政府專用快篩劑限量販售中，週一至週日早上十時起。
5902071528,岩生藥局,高雄市前金區自立一路１５－１號,120.2975,22.63437,(07)2863608,羅氏家用新冠病毒抗原自我檢測套組,78,2022/05/02 09:35:02,營業時間為24小時 過年期間正常營業
5902071537,大衛藥局,高雄市前金區中華三路１８８號,120.295,22.63218,(07)2859958,羅氏家用新冠病毒抗原自我檢測套組,91,2022/05/02 09:35:02,元旦休假
5902071546,中華藥局,高雄市前金區中華四路３６３號,120.2987,22.62137,(07)2712779,羅氏家用新冠病毒抗原自我檢測套組,156,2022/05/02 09:35:02,星期日固定休假， 快篩於工作天下午1.00 販售
5902080312,正和藥局,高雄市苓雅區福建街３６２號,120.3138,22.6266,(07)2265377,羅氏家用新冠病毒抗原自我檢測套組,51,2022/05/02 09:35:02,無
5902080465,廣德泰藥局,高雄市苓雅區苓雅二路７６號,120.2997,22.61762,(07)3340769,羅氏家用新冠病毒抗原自我檢測套組,156,2022/05/02 09:35:02,快篩實名制，售完為止一人限購買一份
5902080474,弘宗藥局,高雄市苓雅區武智街２號,120.3356,22.62303,(07)7211088,羅氏家用新冠病毒抗原自我檢測套組,78,2022/05/02 09:35:02,8:00~22:00（營業時段）
5902080518,福海藥局,高雄市苓雅區武慶三路５８號,120.332,22.61958,(07)7618855,羅氏家用新冠病毒抗原自我檢測套組,78,2022/05/02 09:35:02,無
5902080545,柏松藥局,高雄市苓雅區輔仁路１７５號,120.3332,22.63065,(07)7119786,羅氏家用新冠病毒抗原自我檢測套組,78,2022/05/02 09:35:02,實名制快篩試劑.5／2.5／3.16:00開賣..平日早上9:00開始販售.假日早上9:30開始販售.售完為止!!
5902080616,一加藥局,高雄市苓雅區和平一路四二號,120.3218,22.62093,(07)7212748,羅氏家用新冠病毒抗原自我檢測套組,78,2022/05/02 09:35:02,05／01~05／31 7:30開始販賣快篩暨口罩
5902080803,功安中西大藥局,高雄市苓雅區三多二路２９１號,120.3195,22.61858,(07)7215949,羅氏家用新冠病毒抗原自我檢測套組,78,2022/05/02 09:35:02,營業日早上08:00開始為販賣口罩時間，售完為止
5902080858,福興藥局,高雄市苓雅區成功一路５２號,120.2983,22.6131,(07)3331862,羅氏家用新冠病毒抗原自我檢測套組,78,2022/05/02 09:35:02,每日上午九點販賣快篩試劑售完止.營業時間9-21時.
5902081015,明群藥局,高雄市苓雅區英明路５４號,120.3253,22.61276,(07)7254953,羅氏家用新冠病毒抗原自我檢測套組,78,2022/05/02 09:35:02,周一至周日每日8:00開始販售快篩試劑依現場排隊序販賣售完為止
5902081328,東信藥局,高雄市苓雅區三多一路１８９號,120.3313,22.62258,(07)7613309,羅氏家用新冠病毒抗原自我檢測套組,78,2022/05/02 09:35:02,早上8:30開始發送號碼牌販售口罩，售完為止，假日正常販售
5902083582,健智藥局,高雄市苓雅區四維二路９６之２號,120.3192,22.62258,(07)7249153,羅氏家用新冠病毒抗原自我檢測套組,19,2022/05/02 09:35:02,營業日8:30~12:00為販賣口罩時間.售完為止
5902083591,晨安藥局,高雄市苓雅區興中一路１６０號,120.3096,22.61753,(07)3365463,羅氏家用新冠病毒抗原自我檢測套組,78,2022/05/02 09:35:02,每日上午9開始販賣快篩.售完為止
5902084703,瑞生藥局,高雄市苓雅區自強三路３１號,120.2996,22.61376,(07)3305239,羅氏家用新冠病毒抗原自我檢測套組,78,2022/05/02 09:35:02,自6／1日~12／31日，營業日09:30~23:00為販賣口罩時間.售完為止
5902084749,琉璃光藥師藥局,高雄市苓雅區四維一路２９２號之一樓,120.3244,22.6242,(07)7160930,羅氏家用新冠病毒抗原自我檢測套組,215,2022/05/02 09:35:02,早上9點開始販賣口罩
5902084785,新良安藥局,高雄市苓雅區苓雅二路１０６號,120.2987,22.61731,(07)3386980,羅氏家用新冠病毒抗原自我檢測套組,78,2022/05/02 09:35:02,早上9點開始代售實名制快篩
5902084801,邱吉祥藥局,高雄市苓雅區凱旋二路１３５號,120.3218,22.62917,(07)2226055,羅氏家用新冠病毒抗原自我檢測套組,78,2022/05/02 09:35:02,快篩販賣時間週一至週六早上08:30現場賣
5902085031,上好藥局,高雄市苓雅區四維一路六三號一樓,120.3294,22.6257,(07)7266863,羅氏家用新冠病毒抗原自我檢測套組,78,2022/05/02 09:35:02,快篩販售時間.每日上午11:00~下午13:00
5902085148,召祐健保藥局,高雄市苓雅區正義路９３號,120.3385,22.63037,(07)7493719,羅氏家用新冠病毒抗原自我檢測套組,130,2022/05/02 09:35:02,無
5902085166,景福藥局,高雄市苓雅區和平一路１４７之５號,120.3204,22.62364,(07)7719152,羅氏家用新冠病毒抗原自我檢測套組,78,2022/05/02 09:35:02,2／11早上9:00至下午15:00，2／12至16日休
5902085184,惠春藥局,高雄市苓雅區武慶三路９６號,120.3319,22.62043,(07)7611358,羅氏家用新冠病毒抗原自我檢測套組,174,2022/05/02 09:35:02,「藥局販售口罩時間，依藥局門口公告時間為主（售完為止）」
5902085228,永森藥局,高雄市苓雅區建國一路２９０號,120.3262,22.63308,(07)7163087,羅氏家用新冠病毒抗原自我檢測套組,85,2022/05/02 09:35:02,快篩代售時間:營業時間
5902085308,幸福藥師藥局,高雄市苓雅區青年一路１６７－３號,120.3079,22.62172,(07)5368701,羅氏家用新冠病毒抗原自我檢測套組,78,2022/05/02 09:35:02,1: 自111／5／1起：快篩販售時間為14:00開始。2: 販售方式依現場公告為主，售完為止。
5902085344,意祥藥局,高雄市苓雅區武廟路１４２之１號,120.3276,22.63125,(07)7224835,羅氏家用新冠病毒抗原自我檢測套組,78,2022/05/02 09:35:02,藥局販售口罩時間，依藥局門口公告時間為主（售完為止）
5902085371,加和藥局,高雄市苓雅區和平一路１４３之７號,120.3205,22.62331,(07)7219332,羅氏家用新冠病毒抗原自我檢測套組,168,2022/05/02 09:35:02,無
5902090032,全國大藥局,高雄市前鎮區三多二路４０３號１樓,120.3166,22.61777,(07)3345775,羅氏家用新冠病毒抗原自我檢測套組,78,2022/05/02 09:35:02,快篩實名制下午13:30開始..賣完為止
5902090087,久億藥局,高雄市前鎮區保泰路３５１號,120.3341,22.60289,(07)7619333,羅氏家用新冠病毒抗原自我檢測套組,42,2022/05/02 09:35:02,無實名制口罩
5902090121,意文藥局,高雄市前鎮區瑞華里武營路１８３號,120.3374,22.60991,(07)7226570,羅氏家用新冠病毒抗原自我檢測套組,28,2022/05/02 09:35:02,每天8點營業開始販賣
5902090167,勝惠藥局,高雄市前鎮區忠孝里三多三路７１號,120.3122,22.6163,(07)3354766,羅氏家用新冠病毒抗原自我檢測套組,126,2022/05/02 09:35:02,快篩發放時間早上9點
5902090765,家安大藥局,高雄市前鎮區崗山南街３４２巷２１號,120.3323,22.6021,(07)7137711,羅氏家用新冠病毒抗原自我檢測套組,78,2022/05/02 09:35:02,販售快篩實名制時間:週一.二.三.五.六.日（上午9點）、週四（晚上7點），依藥局門口公告時間為主（售完為止）
5902090827,博平藥局,高雄市前鎮區草衙二路３７７號,120.3224,22.57808,(07)8311814,羅氏家用新冠病毒抗原自我檢測套組,78,2022/05/02 09:35:02,下午2點開始販售快篩.售完為止
5902091100,佳加藥局,高雄市前鎮區瑞北路１１４號,120.3325,22.60923,(07)7228112,羅氏家用新冠病毒抗原自我檢測套組,78,2022/05/02 09:35:02,早上8:30開始銷售快篩  售完為止
5902091128,北京藥局,高雄市前鎮區公正路３１號,120.3322,22.60291,(07)7113100,羅氏家用新冠病毒抗原自我檢測套組,109,2022/05/02 09:35:02,發放方式，上午9；00現場過健保卡領取口罩。
5902092205,百宏中西大藥局,高雄市前鎮區復興三路１９４號,120.3117,22.61311,(07)3386719,羅氏家用新冠病毒抗原自我檢測套組,78,2022/05/02 09:35:02,早上9:00開始發放號碼牌並依序販售口罩，售完為止！
5902092321,彥芳藥局,高雄市前鎮區長江街６５號１樓,120.3156,22.60993,(07)3302007,羅氏家用新冠病毒抗原自我檢測套組,78,2022/05/02 09:35:02,發快篩及口罩時間: 週一至週六 早上:9:00~下午18:00 （ 備註 : 週日公休` 週六營業到下午6:00止）
5902092410,旺盛藥局,高雄市前鎮區永豐路１０８號,120.3337,22.6065,(07)7512899,羅氏家用新冠病毒抗原自我檢測套組,50,2022/05/02 09:35:02,過年期間 111／01／31下午至111／02／03  休診
5902092492,元生藥局,高雄市前鎮區鎮興路２２６號１樓,120.3117,22.59305,(07)8156356,羅氏家用新冠病毒抗原自我檢測套組,55,2022/05/02 09:35:02,無
5902092554,協和藥局,高雄市前鎮區中華五路９８３號,120.306,22.60221,(07)5377769,羅氏家用新冠病毒抗原自我檢測套組,156,2022/05/02 09:35:02,快篩代售:除星期天休息 周一至周六下午2:00 周六:8:30  （5／4下午3點）
5902092896,廣泰藥局,高雄市前鎮區瑞北路５６號,120.3346,22.60931,(07)7162166,羅氏家用新冠病毒抗原自我檢測套組,156,2022/05/02 09:35:02,快篩實名制早上11點販賣
5902092956,慈濟健保藥局,高雄市前鎮區鎮州路２１１號,120.3082,22.58819,(07)8159788,羅氏家用新冠病毒抗原自我檢測套組,71,2022/05/02 09:35:02,每天早上8點開始賣.售完為止藥局販售口罩時間，依藥局門口公告時間為主（售完為止）
5902100033,旗后藥局,高雄市旗津區中洲三路７１５號,120.2705,22.61096,(07)5715838,羅氏家用新冠病毒抗原自我檢測套組,78,2022/05/02 09:35:02,快篩每日下午1點開賣，售完為止.
5902100042,千佑藥局,高雄市旗津區復興里中洲三路５１３號,120.2736,22.60608,(07)5712619,羅氏家用新冠病毒抗原自我檢測套組,78,2022/05/02 09:35:02,5月1日-5月31日早上0831至2130為販賣快篩時間
5902110299,大裕藥局,高雄市小港區小港里小港路２６１號,120.3359,22.56386,(07)8211467,羅氏家用新冠病毒抗原自我檢測套組,78,2022/05/02 09:35:02,口罩販售時間為下午2點到6點止
5902110422,臨生藥局,高雄市小港區鳳鳴路１４６－４號,120.3588,22.51445,(07)8711290,羅氏家用新冠病毒抗原自我檢測套組,43,2022/05/02 09:35:02,早上9:00開始販售快篩劑售完為止。
5902110593,慈林藥局,高雄市小港區鳳林路９３號,120.3464,22.52635,(07)8718087,羅氏家用新冠病毒抗原自我檢測套組,136,2022/05/02 09:35:02,早上9:00開始販售，售完為止，周日不販售（10:30~12:00）（18:30~20:00）較忙碌，需稍作等待.
5902110628,悅是康藥局,高雄市小港區漢民路２７６號,120.3536,22.56665,(07)8010012,羅氏家用新冠病毒抗原自我檢測套組,78,2022/05/02 09:35:02,5 ／ 2下午3:30開賣
5902111670,桂林活力藥師藥局,高雄市小港區桂陽路４０號,120.3575,22.58194,(07)7931248,羅氏家用新冠病毒抗原自我檢測套組,24,2022/05/02 09:35:02,自2／11日~2／29日，營業日08:30及13:00各50份為販賣口罩時間.售完為止
5902111938,丁丁藥局小港店,高雄市小港區宏平路８５號,120.3635,22.57096,(07)8603388,羅氏家用新冠病毒抗原自我檢測套組,78,2022/05/02 09:35:02,營業時間9-23
5903010127,友誠藥局,臺中市豐原區豐東路４０１號１樓,120.7336,24.25457,(04)25132371,羅氏家用新冠病毒抗原自我檢測套組,78,2022/05/02 09:35:02,禮拜一至禮拜日快篩發放時間下午兩點開始販售，售完為止。
5903010181,永豐藥局,臺中市豐原區中山路４２２號１樓,120.7153,24.24733,(04)25280088,羅氏家用新冠病毒抗原自我檢測套組,140,2022/05/02 09:35:02,快篩星期一至五 暫時不確定 星期六 下午三點 開始販售
5903010261,豐原西勢藥局,臺中市豐原區西勢路２００號１樓,120.7067,24.24379,(04)25262330,羅氏家用新冠病毒抗原自我檢測套組,78,2022/05/02 09:35:02,5／1起實名制快篩因物流因素，於到貨後於FB粉絲頁與店面公告開始販售時間。
5903010270,福心藥局,臺中市豐原區中正路７１５號１樓,120.7014,24.2491,(04)25229292,羅氏家用新冠病毒抗原自我檢測套組,156,2022/05/02 09:35:02,無
5903010289,心美日藥局,臺中市豐原區中山路３５９號１樓,120.7149,24.24929,(04)25260703,羅氏家用新冠病毒抗原自我檢測套組,78,2022/05/02 09:35:02,無
5903010341,昭仁藥局,臺中市豐原區南陽路１４０號,120.7307,24.24275,(04)25243559,羅氏家用新冠病毒抗原自我檢測套組,78,2022/05/02 09:35:02,星期一至星期六早上8:30開始現場排隊販售，售完為止。
5903010350,甲蒂健保藥局,臺中市豐原區豐東路３０８號,120.7331,24.25093,(04)25256028,羅氏家用新冠病毒抗原自我檢測套組,78,2022/05/02 09:35:02,9點30分開始發號碼牌購買
5903010485,大樹圓環藥局,臺中市豐原區圓環東路６１７號１樓,120.7283,24.25084,(04)25122212,羅氏家用新冠病毒抗原自我檢測套組,78,2022/05/02 09:35:02,口罩販售時間：14:00 - 16:00
5903010547,佑全豐原中正藥局,臺中市豐原區中正路２２３、２２５號１、２樓,120.7175,24.25179,(04)25152886,羅氏家用新冠病毒抗原自我檢測套組,78,2022/05/02 09:35:02,實名制快篩販售時間:下午2點開始
5903010583,林居藥局,臺中市豐原區源豐路１１４號１樓,120.7173,24.25367,(04)25159168,羅氏家用新冠病毒抗原自我檢測套組,78,2022/05/02 09:35:02,無
5903010609,隔壁藥局,臺中市豐原區一心路２４０之２號１樓,120.7007,24.24613,(04)25231527,羅氏家用新冠病毒抗原自我檢測套組,78,2022/05/02 09:35:02,無
5903020034,國良豐藥局,臺中市東勢區豐勢路２１號１樓,120.8318,24.24779,(04)25885778,羅氏家用新冠病毒抗原自我檢測套組,78,2022/05/02 09:35:02,快篩試劑下午2:00開始
5903020052,東勢福倫藥局,臺中市東勢區豐勢路４３８號,120.829,24.25586,(04)25876118,羅氏家用新冠病毒抗原自我檢測套組,78,2022/05/02 09:35:02,1110428起公費快篩販賣時間:周一至周六AM08:30起，現場排隊售完為止（約09:30結束）
5903020089,新明通藥局,臺中市東勢區豐勢路２３２號１樓,120.8302,24.25113,(04)25873969,羅氏家用新冠病毒抗原自我檢測套組,78,2022/05/02 09:35:02,實名制快篩 門口公告
5903030030,大甲健康藥局,臺中市大甲區蔣公路２４２-１號１樓,120.6195,24.34722,(04)26805833,羅氏家用新冠病毒抗原自我檢測套組,78,2022/05/02 09:35:02,無
5903030058,康達藥局,臺中市大甲區蔣公路２６６號１樓,120.6189,24.34749,(04)26862001,羅氏家用新冠病毒抗原自我檢測套組,78,2022/05/02 09:35:02,5／1（日）快篩試劑13:00開始販售，售完為止。
5903030067,甲尚藥局,臺中市大甲區順天路１２９號１樓,120.622,24.3446,(04)26760885,羅氏家用新冠病毒抗原自我檢測套組,156,2022/05/02 09:35:02,早上08-10 不領號碼牌 直接過卡發售口罩 （過卡需時間 請耐心等候）
5903030110,大甲啄木鳥藥局,臺中市大甲區中山路１段９０５號,120.6251,24.3431,(04)26804502,羅氏家用新冠病毒抗原自我檢測套組,78,2022/05/02 09:35:02,週一~週日每日AM08:15開始販售口罩~PM10:20   啄木鳥藥局歡迎您   ︿__________︿
5903030209,世芳中西藥局,臺中市大甲區光明路１２８之３號１樓,120.6224,24.34447,(04)26861906,羅氏家用新冠病毒抗原自我檢測套組,74,2022/05/02 09:35:02,尚未收到5／2（一）配送，暫無提供實名制快篩販售
5903040036,得康藥局,臺中市清水區高美路１１７號,120.5753,24.27879,(04)26260622,羅氏家用新冠病毒抗原自我檢測套組,156,2022/05/02 09:35:02,5／2快篩未到貨，上午停售.
5903040116,千順藥局,臺中市清水區光復街１１０－２號１樓,120.5752,24.27125,(04)26220580,羅氏家用新冠病毒抗原自我檢測套組,78,2022/05/02 09:35:02,快篩試劑9:00準時販售，另有提供領慢籤服務及保健食品，任何疑問請洽藥師。
5903050103,北勢進騰藥局,臺中市沙鹿區北勢東路５０９之７號１樓,120.576,24.22526,(04)26330893,羅氏家用新冠病毒抗原自我檢測套組,157,2022/05/02 09:35:02,營業時間12:00-22:00，每日12:00販售實名制快篩
5903050176,全國藥局,臺中市沙鹿區臺灣大道７段９９２號,120.5622,24.24074,(04)26627097,羅氏家用新冠病毒抗原自我檢測套組,78,2022/05/02 09:35:02,週一至週日每日早上10：30排隊購買快篩劑
5903050194,樂齊藥局,臺中市沙鹿區北中路８６－１、８６－２號,120.5692,24.22827,(04)26338867,羅氏家用新冠病毒抗原自我檢測套組,78,2022/05/02 09:35:02,防疫家用快篩試劑每日19點開賣，售完為止，庫存請依現場為主。
5903050210,富康沙鹿藥局,臺中市沙鹿區沙田路１４２號１樓,120.5595,24.23613,(04)26633399,羅氏家用新冠病毒抗原自我檢測套組,78,2022/05/02 09:35:02,*5／2預計下午兩點販售防疫快篩。（全年無休）*固定周一到周日
5903050238,百岳大藥局,臺中市沙鹿區鎮南路二段７７號１樓,120.5697,24.21895,(04)26359825,羅氏家用新冠病毒抗原自我檢測套組,78,2022/05/02 09:35:02,9:00憑健保卡購買口罩
5903050247,好利藥局,臺中市沙鹿區中山路４８７－１號１樓,120.5619,24.2454,(04)26630087,羅氏家用新冠病毒抗原自我檢測套組,156,2022/05/02 09:35:02,無
5903050256,大安心藥局,臺中市沙鹿區星河路１２－１號１樓,120.5679,24.25208,(04)26620082,羅氏家用新冠病毒抗原自我檢測套組,78,2022/05/02 09:35:02,防疫口罩每日上午9時開始販售
5903050274,鹿寮藥局,臺中市沙鹿區中山路４６１、４６１－１號１、２樓,120.5615,24.24387,(04)26630677,羅氏家用新冠病毒抗原自我檢測套組,78,2022/05/02 09:35:02,快篩實名制，每天16:00開始販售，售完為止。
5903060010,大芳藥局,臺中市梧棲區中央路１段９０７號,120.5381,24.24742,(04)26561755,羅氏家用新冠病毒抗原自我檢測套組,156,2022/05/02 09:35:02,快篩試劑.下午兩點開始販售 排隊人數足夠即提早販售.（附設戒菸門診）
5903060038,梧棲玖裕藥局,臺中市梧棲區中和街８５號,120.5316,24.25545,(04)26583909,羅氏家用新冠病毒抗原自我檢測套組,197,2022/05/02 09:35:02,快篩代售星期一~五 下午2點發.星期六早上9點 星期休假
5903060127,沐光藥師連鎖藥局梧棲店,臺中市梧棲區文昌路４４９號１樓,120.5386,24.24486,(04)26562262,羅氏家用新冠病毒抗原自我檢測套組,78,2022/05/02 09:35:02,實名制快篩9:30開賣 9:30~21:30慢箋領藥／長照特約／孕期&小兒保健
5903070016,泉興中西大藥局,臺中市后里區甲后路一段５９８號,120.7171,24.30986,(04)25583883,羅氏家用新冠病毒抗原自我檢測套組,78,2022/05/02 09:35:02,無
5903070025,得安藥局,臺中市后里區四村路７８號,120.7129,24.30469,(04)25585333,羅氏家用新冠病毒抗原自我檢測套組,156,2022/05/02 09:35:02,快篩販賣時間 14:00~15:00（售完為止）
5903070052,后里宏安藥局,臺中市后里區福音路２８號１樓,120.7134,24.30512,(04)25581036,羅氏家用新冠病毒抗原自我檢測套組,156,2022/05/02 09:35:02,固定週一至五早上10點快篩發放周六下午2:30，週日休息。
5903070061,豪銘藥局,臺中市后里區公安路６８號,120.7113,24.30469,(04)25562991,羅氏家用新冠病毒抗原自我檢測套組,78,2022/05/02 09:35:02,每天早上8:30點開始販售口罩，售完為止。
5903070089,后里瑞士藥師藥局,臺中市后里區甲后路二段５７９號,120.7063,24.31155,(04)25566999,羅氏家用新冠病毒抗原自我檢測套組,78,2022/05/02 09:35:02,周一到周五，早上8點到10點。周六、周日早上9點到11點
5903070098,祐恩藥局,臺中市后里區甲后路一段４７８號１樓,120.6819,24.3157,(04)25587518,羅氏家用新冠病毒抗原自我檢測套組,78,2022/05/02 09:35:02,固定周一到周六，國定例假日照常調劑藥服務。清明、端午、中秋節晚上休息。
5903070132,內埔瑞士藥師藥局,臺中市后里區中山路３７號１樓,120.7113,24.30446,(04)25566959,羅氏家用新冠病毒抗原自我檢測套組,78,2022/05/02 09:35:02,發放口罩以藥局店內公告為主
5903070169,佑全后里甲后藥局,臺中市后里區甲后路一段７２８號１、２樓,120.7193,24.30951,(04)25583116,羅氏家用新冠病毒抗原自我檢測套組,78,2022/05/02 09:35:02,實名制快篩每日14:00販售。13:50發放號碼牌。
5903080094,灃洲大藥局,臺中市神岡區豐洲路４６６－３號１樓,120.7045,24.26179,(04)25150169,羅氏家用新冠病毒抗原自我檢測套組,156,2022/05/02 09:35:02,星期日公休
5903080138,佑全神岡中山藥局,臺中市神岡區中山路５４９、５４９之１、５４９之２號１樓,120.6842,24.24638,(04)25634677,羅氏家用新冠病毒抗原自我檢測套組,78,2022/05/02 09:35:02,今日快篩下午2:00開賣，1:50發號碼牌
5903090072,元康健保藥局,臺中市潭子區圓通南路１９６號１樓,120.7043,24.20725,(04)25353893,羅氏家用新冠病毒抗原自我檢測套組,78,2022/05/02 09:35:02,下午3點現場分號碼後  依序賣口罩
5903090143,佳福藥局,臺中市潭子區中山路１段４３－１號,120.7023,24.19138,(04)25332982,羅氏家用新冠病毒抗原自我檢測套組,78,2022/05/02 09:35:02,每日中午12:00至下午3:00休息，星期六公休
5903090189,名方藥局,臺中市潭子區勝利路２８５號１樓,120.7004,24.21321,(04)25341777,羅氏家用新冠病毒抗原自我檢測套組,156,2022/05/02 09:35:02,營業時間:AM0800~1200；PM1500~1930
5903090330,潭子炘星藥局,臺中市潭子區中山路一段９７號１樓,120.7023,24.19319,(04)25320107,羅氏家用新冠病毒抗原自我檢測套組,156,2022/05/02 09:35:02,12:00~15:00中午休息時間 快篩下午3:15開始販售
5903090367,成記藥局,臺中市潭子區潭興路三段９３號１樓,120.7024,24.21151,(04)25358076,羅氏家用新冠病毒抗原自我檢測套組,78,2022/05/02 09:35:02,早上10點販售快篩試劑.售完為止
5903090394,全球健康藥局,臺中市潭子區南環路５號１樓,120.7045,24.21661,(04)25340212,羅氏家用新冠病毒抗原自我檢測套組,78,2022/05/02 09:35:02,無
5903090429,佑全潭子中山藥局,臺中市潭子區中山路一段９之１號,120.7023,24.18847,(04)25356140,羅氏家用新冠病毒抗原自我檢測套組,78,2022/05/02 09:35:02,營業時間:09:00-21:00／健保實聯制購買時間:14:00開始販售，13:50開始發號碼牌，售完為止。
5903100037,大雅東亞藥師大藥局,臺中市大雅區民生路１段２２、２２－１號,120.6543,24.22924,(04)25605233,羅氏家用新冠病毒抗原自我檢測套組,77,2022/05/02 09:35:02,10am-12n，不發號碼牌，全年無休
5903100046,躍獅佑仁藥局,臺中市大雅區雅環路２段２８７號,120.6488,24.22919,(04)25608256,羅氏家用新冠病毒抗原自我檢測套組,135,2022/05/02 09:35:02,家用快篩販售-星期一~星期五 晚上7點（19:00）開始.時間更新異動請參閱粉專
5903100055,大詮藥師藥局,臺中市大雅區民生路３段４３２號,120.6655,24.23441,(04)25682767,羅氏家用新冠病毒抗原自我檢測套組,78,2022/05/02 09:35:02,營業時間；週一到週五11:30至22:00，週六晚上9點打烊，周日固定公休。
5903100091,樂心藥局,臺中市大雅區建興路１４３號,120.6659,24.21654,(04)25682568,羅氏家用新冠病毒抗原自我檢測套組,156,2022/05/02 09:35:02,每日上午10:00發放號碼牌且開始販售。星期日公休
5903100117,妙昌藥局,臺中市大雅區永和路１９４號,120.6472,24.22272,(04)25664426,羅氏家用新冠病毒抗原自我檢測套組,78,2022/05/02 09:35:02,每日上午9:30發放號碼牌，10:00開始販售。（固定周一到周日）
5903100135,大雅安德藥局,臺中市大雅區中清東路２２９號１樓,120.6469,24.22459,(04)25604133,羅氏家用新冠病毒抗原自我檢測套組,78,2022/05/02 09:35:02,5／2（一）未到貨.實名制快篩13:30領取號碼牌，14:00販賣，不找零，每張卡隔一個月買一次，限每人一卡一份
5903100180,杏一大雅中清藥局,臺中市大雅區中清路四段３１、３３、３５號１樓,120.6448,24.22615,(04)25601791,羅氏家用新冠病毒抗原自我檢測套組,161,2022/05/02 09:35:02,週一~週六14:00販售（13:50發號碼牌）每人每卡1份，最多可買2份 *週日無販售!
5903100206,民生藥局,臺中市大雅區民生路一段２２１號１樓,120.6512,24.22789,(04)25662229,羅氏家用新冠病毒抗原自我檢測套組,78,2022/05/02 09:35:02,快篩實名制，每天16:00開始販售，售完為止。
5903100215,佑全大雅雅環藥局,臺中市大雅區雅環路二段８８號１樓,120.653,24.22634,(04)25605942,羅氏家用新冠病毒抗原自我檢測套組,78,2022/05/02 09:35:02,5／1已售完，5／2尚未到貨。
5903130017,祐民健保藥局,臺中市外埔區甲后路三段１０３０號１樓,120.6615,24.32387,(04)26836736,羅氏家用新冠病毒抗原自我檢測套組,78,2022/05/02 09:35:02,固定周一到周六，早上8:00開始發放號碼牌及販賣防疫口罩
5903130035,政修藥局,臺中市外埔區中山路２９０號,120.6569,24.33043,(04)26831881,羅氏家用新冠病毒抗原自我檢測套組,78,2022/05/02 09:35:02,政府防疫口罩每日早上7:45發放號碼牌，8:05依序販售口罩，售完為止
5903140013,音聲藥局,臺中市大安區中松路１８號１樓,120.5872,24.34664,(04)26715318,羅氏家用新冠病毒抗原自我檢測套組,78,2022/05/02 09:35:02,固定周一到周六，早上8:00開始販賣防疫口罩（依排隊順序）
5903150028,全成烏日藥局,臺中市烏日區溪南路１段７７６號,120.6427,24.07423,(04)23352656,羅氏家用新冠病毒抗原自我檢測套組,78,2022/05/02 09:35:02,實名制快篩晚上7:00發放，售完為止
5903150091,學田藥局,臺中市烏日區學田路便行巷１４號,120.6075,24.12086,(04)23382230,羅氏家用新冠病毒抗原自我檢測套組,78,2022/05/02 09:35:02,快篩以實際到貨時間為主，到貨開賣至售完為止。
5903150135,全品藥局,臺中市烏日區公園路２４０之１號１樓,120.6254,24.10234,(04)23362690,羅氏家用新冠病毒抗原自我檢測套組,165,2022/05/02 09:35:02,防疫口罩每日上午8時30分開始販售
5903150180,九德藥局,臺中市烏日區中山路一段４３８、４４０號１樓,120.6365,24.10748,(04)23385456,羅氏家用新冠病毒抗原自我檢測套組,78,2022/05/02 09:35:02,快篩實名制，每天16:00開始販售，售完為止。
5903160042,大肚新庄藥局,臺中市大肚區遊園路２段２２１－３號１樓,120.5808,24.17376,(04)26912119,羅氏家用新冠病毒抗原自我檢測套組,78,2022/05/02 09:35:02,每天下午3點開始排隊販賣，賣完為止
5903160097,安昌藥局,臺中市大肚區遊園路二段１７６號１樓,120.5808,24.17289,(04)26913890,羅氏家用新冠病毒抗原自我檢測套組,78,2022/05/02 09:35:02,上班時間星期一至星期日.早上8:30之前發放號碼牌.晚上20:00以前皆可憑號碼牌.健保卡購取口罩.
5903170048,龍井新庄藥局,臺中市龍井區遊園南路１７９號１樓,120.5843,24.18216,(04)26322169,羅氏家用新冠病毒抗原自我檢測套組,79,2022/05/02 09:35:02,實名制快篩每日下午3點半開賣
5903170119,開心果藥局,臺中市龍井區新興路１１２號１樓,120.5835,24.18225,(04)26315252,羅氏家用新冠病毒抗原自我檢測套組,78,2022/05/02 09:35:02,無
5903170146,向陽藥師連鎖藥局,臺中市龍井區中央路三段３７號１樓,120.5248,24.21176,(04)26390500,羅氏家用新冠病毒抗原自我檢測套組,78,2022/05/02 09:35:02,09:30發放快篩.除過年全年無休.癌症諮詢.慢箋領藥.長照特約.更年期.糖尿病.戒菸諮詢.孕期保健.小兒營養
5903180062,霧峰安德藥局,臺中市霧峰區中正路１１３５號１樓,120.6992,24.07002,(04)23300365,羅氏家用新冠病毒抗原自我檢測套組,78,2022/05/02 09:35:02,快篩代售時間14:00。售完為止。
5903180115,永合藥局,臺中市霧峰區中正路９６５號,120.6989,24.06597,(04)23391910,羅氏家用新冠病毒抗原自我檢測套組,59,2022/05/02 09:35:02,無
5903180133,正開心大藥局,臺中市霧峰區中正路９５１號１樓,120.6987,24.06565,(04)23396940,羅氏家用新冠病毒抗原自我檢測套組,165,2022/05/02 09:35:02,週一~週五09:00販賣快篩試劑，賣完為止。
5903180142,峰正藥局,臺中市霧峰區中正路８３０號１樓,120.6987,24.06244,(04)23303353,羅氏家用新冠病毒抗原自我檢測套組,78,2022/05/02 09:35:02,快篩實名制，每天16:00開始販售，售完為止。
5903190139,劍橋藥局,臺中市太平區宜昌路５５２號１樓,120.7157,24.14758,(04)22776619,羅氏家用新冠病毒抗原自我檢測套組,78,2022/05/02 09:35:02,星期一到星期日
5903190148,亞洲藥師連鎖大藥局,臺中市太平區中山路２段４５８號,120.7253,24.14984,(04)23921681,羅氏家用新冠病毒抗原自我檢測套組,78,2022/05/02 09:35:02,實名制快篩，每天14:30開賣，一人一卡，請自備500元
5903190184,太平中大藥局,臺中市太平區宜欣二路４４號１樓,120.7164,24.14525,(04)22787846,羅氏家用新冠病毒抗原自我檢測套組,78,2022/05/02 09:35:02,快篩販售時間，早上8：40。營業時間：早上9點～晚上9點，星期日休息。
5903190228,中山德侑藥局,臺中市太平區中山路３段２之２號１樓,120.7222,24.14942,(04)23920682,羅氏家用新冠病毒抗原自我檢測套組,78,2022/05/02 09:35:02,每日上午現場9:00販售口罩
5903190273,太平小林健保藥局,臺中市太平區育賢路５１８號,120.7133,24.15883,(04)23954436,羅氏家用新冠病毒抗原自我檢測套組,76,2022/05/02 09:35:02,每天早上8點發號碼牌，下午4:30販售口罩
5903190291,新平和藥局,臺中市太平區光興路８２７號１樓,120.7307,24.11198,(04)22771262,羅氏家用新冠病毒抗原自我檢測套組,78,2022/05/02 09:35:02,如需領藥請先電話洽詢。口罩現場販售.不用排隊
5903190335,育賢德侑藥局,臺中市太平區育賢路１０７號、１０９號,120.7219,24.15768,(04)23920696,羅氏家用新冠病毒抗原自我檢測套組,78,2022/05/02 09:35:02,防疫口罩販售時間：星期一~星期日 早上9點~晚上9點（售完為止）
5903190362,太平中山藥局,臺中市太平區中山路４段１１號,120.7139,24.14931,(04)23959200,羅氏家用新冠病毒抗原自我檢測套組,78,2022/05/02 09:35:02,快篩實名制，每天16:00開始販售，售完為止。
5903190380,及宏藥局,臺中市太平區樹孝路５０２號,120.7205,24.15806,(04)23919911,羅氏家用新冠病毒抗原自我檢測套組,165,2022/05/02 09:35:02,5／3起快篩發放時段為晚間6:30開始，詳情請隨時看臉書公告
5903190497,太平惠民藥師藥局,臺中市太平區東平路３６８號１樓,120.7267,24.13433,(04)22768799,羅氏家用新冠病毒抗原自我檢測套組,78,2022/05/02 09:35:02,周一到周日
5903190522,聖康佳禾藥局,臺中市太平區光興路８３１號,120.7307,24.1121,(04)22772065,羅氏家用新冠病毒抗原自我檢測套組,156,2022/05/02 09:35:02,周一到周五早上11點30分開始發放
5903190531,承泓藥局,臺中市太平區育賢路３６３號１樓,120.7137,24.1591,(04)23935148,羅氏家用新冠病毒抗原自我檢測套組,78,2022/05/02 09:35:02,營業時間08:30~23:00   公費快篩發放時間09:00
5903190666,川越藥局,臺中市太平區新興二街１３６號１樓,120.7056,24.15992,(04)23935719,羅氏家用新冠病毒抗原自我檢測套組,78,2022/05/02 09:35:02,5／2 尚未到貨  .快篩販售資訊於臉書／IG隨時更新
5903190700,佑全太平藥局,臺中市太平區樹德路１２１號１樓,120.712,24.15444,(04)23910016,羅氏家用新冠病毒抗原自我檢測套組,78,2022/05/02 09:35:02,5／2快篩販售時間請留意佑全太平樹德粉絲專頁
5903190728,太平瑞昌藥局,臺中市太平區新興路２８號１樓,120.7124,24.15916,(04)23956319,羅氏家用新冠病毒抗原自我檢測套組,129,2022/05/02 09:35:02,無
5903190737,精武丁丁藥局,臺中市太平區中山路四段１３２－１號,120.7044,24.14856,(04)23957235,羅氏家用新冠病毒抗原自我檢測套組,77,2022/05/02 09:35:02,無
5903200176,聖康藥局,臺中市大里區立仁路７９號１樓,120.7036,24.1078,(04)22700625,羅氏家用新冠病毒抗原自我檢測套組,78,2022/05/02 09:35:02,無
5903200229,信元藥局,臺中市大里區益民路２段３７２號１樓,120.684,24.11545,(04)24876051,羅氏家用新冠病毒抗原自我檢測套組,78,2022/05/02 09:35:02,下午5點發號碼牌並依序販賣
5903200318,廣信藥局,臺中市大里區益民路１段１６４號１樓,120.6924,24.10673,(04)24829981,羅氏家用新冠病毒抗原自我檢測套組,78,2022/05/02 09:35:02,周一至周六，下午13:30~售完為止
5903200372,國光丁丁藥局,臺中市大里區國光路２段５５１－１號１樓,120.6788,24.11241,(04)24069711,羅氏家用新冠病毒抗原自我檢測套組,78,2022/05/02 09:35:02,星期一至星期日早上9點依排隊順序直接領取
5903200443,佳霖藥局,臺中市大里區塗城路９６４號１樓,120.6933,24.09081,(04)24960895,羅氏家用新冠病毒抗原自我檢測套組,156,2022/05/02 09:35:02,健保卡快篩:（周日和周三停賣）.請備好健保卡和500元整.下午3點半開賣.現場排隊／售完為止
5903200514,大明永欣藥局,臺中市大里區大明路５３９號１樓、５４１號１樓,120.6735,24.11478,(04)24068864,羅氏家用新冠病毒抗原自我檢測套組,78,2022/05/02 09:35:02,實名制快篩每天下午2點開始發號碼牌
5903200541,大里康媞藥局,臺中市大里區塗城路４９４號,120.7024,24.08867,(04)24966627,羅氏家用新冠病毒抗原自我檢測套組,78,2022/05/02 09:35:02,快篩下午兩點開始
5903200569,和信健康藥局,臺中市大里區德芳路一段５９號,120.6905,24.11342,(04)24833677,羅氏家用新冠病毒抗原自我檢測套組,156,2022/05/02 09:35:02,9am，發號碼牌，周日休
5903200587,大里安德健保藥局,臺中市大里區大明路１１７號,120.6861,24.11527,(04)24875607,羅氏家用新冠病毒抗原自我檢測套組,78,2022/05/02 09:35:02,無
5903200596,大樹大里藥局,臺中市大里區中興路二段１０１號,120.6885,24.10305,(04)24861133,羅氏家用新冠病毒抗原自我檢測套組,78,2022/05/02 09:35:02,快篩實名制，每天16:00開始販售，售完為止。
5903200621,德芳東榮藥局,臺中市大里區東榮路８號,120.6893,24.1102,(04)24863898,羅氏家用新冠病毒抗原自我檢測套組,156,2022/05/02 09:35:02,快篩販售時間：下午3點~6點，現場排隊，完售即停
5903200649,躍獅日新藥局,臺中市大里區日新路３４２號１樓,120.6925,24.11528,(04)24822345,羅氏家用新冠病毒抗原自我檢測套組,93,2022/05/02 09:35:02,每日9:00代售口罩及快篩（星期日公休）（週六到17:30）
5903200658,德芳成功藥局,臺中市大里區成功路５３５－３號１樓,120.7033,24.0913,(04)24920298,羅氏家用新冠病毒抗原自我檢測套組,151,2022/05/02 09:35:02,快篩販售時間:下午3點~6點
5903200667,永欣東榮藥局,臺中市大里區東榮路３７０號１樓,120.6836,24.11032,(04)24810599,羅氏家用新冠病毒抗原自我檢測套組,78,2022/05/02 09:35:02,無
5903200694,大里福倫藥局,臺中市大里區中興路二段１８３－２號１樓,120.6896,24.10679,(04)24850218,羅氏家用新冠病毒抗原自我檢測套組,78,2022/05/02 09:35:02,無
5903200738,杏一大里國光藥局,臺中市大里區國光路二段４１１號１樓,120.6796,24.10921,(04)24071492,羅氏家用新冠病毒抗原自我檢測套組,156,2022/05/02 09:35:02,周一至周六16:00~19:00，周日及補假日人力不足不販售
5903200756,佑全大里大明藥局,臺中市大里區大明路３６０、３６２號,120.6787,24.11511,(04)24818633,羅氏家用新冠病毒抗原自我檢測套組,78,2022/05/02 09:35:02,實名制快篩，開賣時間:下午14:00，售完為止
5903220061,宏信大藥局,臺中市中區自由路２段４５號１樓,120.6815,24.13959,(04)22222021,羅氏家用新冠病毒抗原自我檢測套組,78,2022/05/02 09:35:02,周1~周5 早上9點至晚上7點周6周日早上10點到晚上9點
5903220141,雙十小林健保藥局,臺中市中區雙十路一段３５號,120.6855,24.14172,(04)22253662,羅氏家用新冠病毒抗原自我檢測套組,78,2022/05/02 09:35:02,每日8點販賣
5903220150,老順安大藥局,臺中市中區中華路二段６３號、６５號１樓,120.6794,24.14801,(04)22016306,羅氏家用新冠病毒抗原自我檢測套組,159,2022/05/02 09:35:02,實名制快施銷售時間:周一至周六下午兩點至三點
5903220169,公園大藥局,臺中市中區公園路９５號１樓,120.6796,24.1462,(04)22062682,羅氏家用新冠病毒抗原自我檢測套組,78,2022/05/02 09:35:02,每日上午8點至下午11點59分
5903230156,樂業小林健保藥局,臺中市東區樂業路４４３號１樓,120.7062,24.13693,(04)22139123,羅氏家用新冠病毒抗原自我檢測套組,78,2022/05/02 09:35:02,無
5903230183,恒生藥局,臺中市東區樂業路３９５號１樓,120.7051,24.138,(04)22135179,羅氏家用新冠病毒抗原自我檢測套組,156,2022/05/02 09:35:02,快篩11點開始過卡，中午1~3點為清消時間 暫停發放。周日公休
5903230192,康是美藥局東英店,臺中市東區十甲路４５０號１樓,120.7097,24.14406,(04)22139034,羅氏家用新冠病毒抗原自我檢測套組,78,2022/05/02 09:35:02,無
5903230209,東京藥師藥局,臺中市東區復興路五段１４９號１樓,120.6893,24.14543,(04)22132278,羅氏家用新冠病毒抗原自我檢測套組,60,2022/05/02 09:35:02,無
5903230218,十甲東亞藥師大藥局,臺中市東區十甲路４１０號１樓,120.7081,24.14425,(04)22118879,羅氏家用新冠病毒抗原自我檢測套組,78,2022/05/02 09:35:02,實名快篩 星期一至六 每日下午一點至五點販售 售完為止
5903230227,東區小林健保藥局,臺中市東區十甲路４８５號１樓,120.7104,24.14464,(04)22135148,羅氏家用新冠病毒抗原自我檢測套組,78,2022/05/02 09:35:02,無
5903230236,佳境藥局,臺中市東區大智路１－１號１樓,120.6881,24.13635,(04)22211395,羅氏家用新冠病毒抗原自我檢測套組,78,2022/05/02 09:35:02,下午14:00開始販售實名制快篩
5903240090,嶸曜藥局,臺中市西區美村路１段５９２號,120.6615,24.13783,(04)23782478,羅氏家用新冠病毒抗原自我檢測套組,78,2022/05/02 09:35:02,週一至週六11:30至21:30販賣實名制快篩，售完為止
5903240143,利民藥局,臺中市西區四維街２３號１樓,120.6758,24.13714,(04)22292931,羅氏家用新冠病毒抗原自我檢測套組,161,2022/05/02 09:35:02,平日營業時間10-20，周六10-15，周日休。實名制快篩下午1點半開始販售至售完或營業結束。
5903240152,陽光藥局,臺中市西區中美街３０５號１樓,120.6601,24.14977,(04)23020711,羅氏家用新冠病毒抗原自我檢測套組,108,2022/05/02 09:35:02,早上9點開始銷售快篩，售完為止。
5903240170,美村全成藥局,臺中市西區美村路１段２２２號１樓,120.6615,24.14875,(04)23014006,羅氏家用新冠病毒抗原自我檢測套組,78,2022/05/02 09:35:02,5／1的快篩已經到貨  14:30開始販賣. 售完為止
5903240198,鑫祐藥局,臺中市西區民權路３０２－５號,120.67,24.14767,(04)23027778,羅氏家用新冠病毒抗原自我檢測套組,65,2022/05/02 09:35:02,快篩早上09:00開始販售，1人1卡，週一至週六早上銷售，週日停售
5903240205,捷登藥局,臺中市西區公益路１０６號,120.6613,24.15105,(04)23191929,羅氏家用新冠病毒抗原自我檢測套組,78,2022/05/02 09:35:02,實名制快篩 每日下午 2:00 準時開賣，售完為止 .
5903240367,宇祥藥局,臺中市西區五權五街１１９號１樓,120.6601,24.13635,(04)23728239,羅氏家用新冠病毒抗原自我檢測套組,78,2022/05/02 09:35:02,實名制快篩 14:30開始販售
5903240385,喆星藥局,臺中市西區精誠路４２２號,120.655,24.14522,(04)24715301,羅氏家用新冠病毒抗原自我檢測套組,78,2022/05/02 09:35:02,快篩試劑下午2點現場排隊領號碼牌，售完為止
5903240410,德芳美村藥局,臺中市西區美村路一段６８１、６８３號１樓,120.6618,24.13545,(04)23782848,羅氏家用新冠病毒抗原自我檢測套組,229,2022/05/02 09:35:02,快篩販售時間:周一到周五下午3點~6點 每日配發78份
5903240429,神農藥局,臺中市西區公益路１９０之１號１樓,120.6567,24.15103,(04)23103335,羅氏家用新冠病毒抗原自我檢測套組,156,2022/05/02 09:35:02,上午10:00開始販賣快篩試劑，售完為止
5903240438,真誠藥局,臺中市西區美村路一段３７８號１樓,120.6615,24.14458,(04)23015750,羅氏家用新冠病毒抗原自我檢測套組,156,2022/05/02 09:35:02,世鴻診所旁，今日貨運延遲，快篩實名制15:00開始販售，中午休息，週日休息
5903240447,大樹五權藥局,臺中市西區五權路９７－１號１樓,120.6717,24.14626,(04)22022910,羅氏家用新冠病毒抗原自我檢測套組,78,2022/05/02 09:35:02,快篩實名制，每天16:00開始販售，售完為止。
5903240456,杏一台中美村藥局,臺中市西區美村路一段２４２、２４６號１樓,120.6615,24.14825,(04)23013310,羅氏家用新冠病毒抗原自我檢測套組,156,2022/05/02 09:35:02,5／2快篩販售時間11:00~19:00（或售完為止）
5903240465,德恩藥師藥局,臺中市西區精誠路２５２號１樓,120.6549,24.14949,(04)23102358,羅氏家用新冠病毒抗原自我檢測套組,170,2022/05/02 09:35:02,無
5903240474,佑全台中向上藥局,臺中市西區向上路一段３８６、３８８號１樓,120.6559,24.14688,(04)23204732,羅氏家用新冠病毒抗原自我檢測套組,78,2022/05/02 09:35:02,因政府配貨時間不一，依照門市現場公告時間為主
5903240492,好好誠美藥局,臺中市西區向上北路１８６號１樓,120.6611,24.14797,(04)23022838,羅氏家用新冠病毒抗原自我檢測套組,156,2022/05/02 09:35:02,快篩販售時間下午兩點
5903250041,小林健保藥局,臺中市南區美村路２段１８２號,120.6631,24.12549,(04)22622099,羅氏家用新冠病毒抗原自我檢測套組,78,2022/05/02 09:35:02,固定周一到周日，早上8:00發號碼牌，下午4:30開始販賣防疫口罩
5903250103,忠孝德侑健保藥局,臺中市南區正義街１５９號,120.6806,24.12919,(04)22851400,羅氏家用新冠病毒抗原自我檢測套組,89,2022/05/02 09:35:02,實名制快篩:早上九點販售（售完為止，一人一卡）.以現場庫存為主，電腦更新較慢）
5903250112,立成藥局,臺中市南區學府路１４３號,120.6739,24.1289,(04)22205915,羅氏家用新冠病毒抗原自我檢測套組,156,2022/05/02 09:35:02,快篩實名制，週一至週六上午10:00開賣，78份（390劑）售完為止，庫存依現場為準，星期日店休
5903250210,好好藥局,臺中市南區忠明南路７８６號,120.6605,24.12233,(04)22612961,羅氏家用新冠病毒抗原自我檢測套組,156,2022/05/02 09:35:02,無
5903250309,台杏藥局,臺中市南區復興路三段３３７號,120.678,24.13261,(04)22218087,羅氏家用新冠病毒抗原自我檢測套組,156,2022/05/02 09:35:02,周一到周五中午12點，周六早上11點，開始販售實名制快篩
5903250318,全太藥局,臺中市南區復興路一段４４７號,120.6572,24.11699,(04)22600068,羅氏家用新冠病毒抗原自我檢測套組,78,2022/05/02 09:35:02,政府配送時間不定，販售時間以門市公告為準
5903250381,大樹美村藥局,臺中市南區美村南路１２４號,120.667,24.11499,(04)22621113,羅氏家用新冠病毒抗原自我檢測套組,78,2022/05/02 09:35:02,口罩販售時間：14:00 - 16:00
5903250443,千美台安藥局,臺中市南區美村南路２６３號,120.6666,24.11426,(04)22602101,羅氏家用新冠病毒抗原自我檢測套組,78,2022/05/02 09:35:02,周一到周日，下午2:30開始販售居家快篩
5903250505,心安藥局,臺中市南區國光路２４１號１樓,120.6794,24.12676,(04)22858773,羅氏家用新冠病毒抗原自我檢測套組,234,2022/05/02 09:35:02,下次販售時間5／2（一）下午三點。一人限一卡，依現場庫存為準。
5903250578,樂碩藥局,臺中市南區建國南路一段２５９號１樓,120.6583,24.12491,(04)22601288,羅氏家用新冠病毒抗原自我檢測套組,78,2022/05/02 09:35:02,快篩週一到週六15:00、週日16:30開始販售，售完為止
5903250587,俊達藥師藥局,臺中市南區五權南路５２９號１樓,120.6698,24.11692,(04)22650023,羅氏家用新冠病毒抗原自我檢測套組,102,2022/05/02 09:35:02,快篩販售時間上午9點至12點，周日店休
5903250596,白金藥局,臺中市南區復興路一段３８０號４樓,120.6564,24.11572,(04)22609879,羅氏家用新冠病毒抗原自我檢測套組,156,2022/05/02 09:35:02,4／30早上9:40開始販售快篩
5903250612,杏一南區台中藥局,臺中市南區台中路６６、６８號１樓,120.683,24.1339,(04)22220652,羅氏家用新冠病毒抗原自我檢測套組,78,2022/05/02 09:35:02,每日早上10點開始販售實名制快篩，售完為止。
5903250658,田園藥局,臺中市南區學府路１６０號１樓,120.6742,24.12909,(04)22220605,羅氏家用新冠病毒抗原自我檢測套組,226,2022/05/02 09:35:02,每週三公休。5／2（週一） 14:00開始販售，一人限一卡
5903260163,康甫藥師藥局,臺中市北區進化北路３６６號１樓,120.6806,24.16333,(04)22366682,羅氏家用新冠病毒抗原自我檢測套組,159,2022/05/02 09:35:02,有關口罩販售：周一至周六早上9:30發號碼牌，下午3:00過後發售口罩。周日休息。
5903260270,冠安藥局,臺中市北區進化路５１０、５１２號,120.6946,24.16047,(04)22335770,羅氏家用新冠病毒抗原自我檢測套組,78,2022/05/02 09:35:02,快篩10點半開賣
5903260314,喜悅健保藥局,臺中市北區健行路４１４號１樓,120.6818,24.15927,(04)22333988,羅氏家用新冠病毒抗原自我檢測套組,156,2022/05/02 09:35:02,星期一到星期五早上10點到晚上9點半，星期六中午12點到晚上6點半.
5903260341,台中漢口藥局,臺中市北區漢口路３段１８３號,120.6711,24.16703,(04)22936166,羅氏家用新冠病毒抗原自我檢測套組,40,2022/05/02 09:35:02,實名制快篩販售時間：下午2點
5903260421,忠明小林健保藥局,臺中市北區忠明路１６１號,120.6642,24.16235,(04)22013666,羅氏家用新冠病毒抗原自我檢測套組,78,2022/05/02 09:35:02,每日早上8點發號碼牌及收健保卡，下午4點半領回
5903260476,康媞藥局,臺中市北區北平路二段１２８號１樓,120.6774,24.17124,(04)22925388,羅氏家用新冠病毒抗原自我檢測套組,78,2022/05/02 09:35:02,無
5903260501,瑞鋒藥師藥局,臺中市北區育德路１６號,120.6795,24.15763,(04)22020786,羅氏家用新冠病毒抗原自我檢測套組,156,2022/05/02 09:35:02,依排班人力，周一至周六早上10點半或下午2點發號碼牌
5903260547,源順大藥局,臺中市北區健行路４８４號,120.6797,24.15931,(04)22072651,羅氏家用新冠病毒抗原自我檢測套組,80,2022/05/02 09:35:02,早上9:00~晚上10:00，固定周一至周六上午09:30開始販售口罩，售完為止.
5903260618,中清小林健保藥局,臺中市北區中清路一段８６、８８號１樓,120.6767,24.15622,(04)22034197,羅氏家用新冠病毒抗原自我檢測套組,76,2022/05/02 09:35:02,24小時營業無公休，早上八點發號碼牌，十二點以後過健保卡發放口罩.
5903260654,康新藥局,臺中市北區五權路２３２號,120.677,24.15078,(04)22020008,羅氏家用新冠病毒抗原自我檢測套組,173,2022/05/02 09:35:02,無
5903260663,佑全台中五權藥局,臺中市北區五權路４９６號,120.6833,24.15329,(04)22080702,羅氏家用新冠病毒抗原自我檢測套組,78,2022/05/02 09:35:02,因政府配貨時間不一，依照門市現場公告時間為主
5903260681,昭德藥師藥局,臺中市北區西屯路一段３４５號,120.6654,24.16007,(04)23235655,羅氏家用新冠病毒抗原自我檢測套組,78,2022/05/02 09:35:02,早上八點至下午十一點營業，上午九點至下午九點現場排隊過卡買口罩，售完為止
5903260707,新藥林藥局,臺中市北區健行路４４５－５號１樓,120.6803,24.15896,(04)22053458,羅氏家用新冠病毒抗原自我檢測套組,156,2022/05/02 09:35:02,快篩:星期一~星期五 下午3點開始，星期六下午一點，星期三.日公休，現場排隊
5903260743,黎明安德藥局,臺中市北區中清路１段８５２號１樓,120.6718,24.17295,(04)22956098,羅氏家用新冠病毒抗原自我檢測套組,78,2022/05/02 09:35:02,禮拜四公休、禮拜日下午2點開始營業，一到六下午3點開始販賣快篩，禮拜日下午5點開始販賣快篩
5903260789,瑞昌藥局,臺中市北區學士路１５５號１樓,120.6807,24.15841,(04)22056819,羅氏家用新冠病毒抗原自我檢測套組,97,2022/05/02 09:35:02,每日中午9:00開始販售，販售至21:30（周日不販售）
5903260814,杏一北區文心藥局,臺中市北區文心路４段２１０－８號１、２樓,120.678,24.1729,(04)22993847,羅氏家用新冠病毒抗原自我檢測套組,156,2022/05/02 09:35:02,防疫口罩每日中午12時開始販售
5903260930,大西洋藥局,臺中市北區北平路２段２８號１樓,120.6726,24.17165,(04)22932469,羅氏家用新冠病毒抗原自我檢測套組,78,2022/05/02 09:35:02,無
5903260949,進化瑞昌藥局,臺中市北區進化路３３２號１樓,120.6946,24.15378,(04)23608199,羅氏家用新冠病毒抗原自我檢測套組,156,2022/05/02 09:35:02,無
5903260958,健康達人藥局,臺中市北區北平路２段５６號１樓,120.6735,24.17153,(04)22994866,羅氏家用新冠病毒抗原自我檢測套組,156,2022/05/02 09:35:02,無
5903260967,正尚藥局,臺中市北區榮華街１６６號１樓,120.6868,24.16444,(04)22350347,羅氏家用新冠病毒抗原自我檢測套組,78,2022/05/02 09:35:02,周六營業至20:00，實名制快篩18:00發放，周日09:00（若有剩餘）
5903260976,躍獅達心藥局,臺中市北區雙十路二段１８７號１樓,120.6906,24.15779,(04)22344548,羅氏家用新冠病毒抗原自我檢測套組,78,2022/05/02 09:35:02,實名制快篩販售於早上11:00開始
5903260985,森川健保藥局,臺中市北區五權路２５１號１樓,120.6764,24.15074,(09)78157008,羅氏家用新冠病毒抗原自我檢測套組,195,2022/05/02 09:35:02,快篩試劑每日上午10點開賣，售完為止
5903261008,台中大樹藥局,臺中市北區漢口路三段２６１號,120.6726,24.16703,(04)22981113,羅氏家用新冠病毒抗原自我檢測套組,78,2022/05/02 09:35:02,快篩實名制，每天16:00開始販售，售完為止。
5903270089,信心藥局,臺中市西屯區四川路１９０號,120.6559,24.16046,(04)23163430,羅氏家用新冠病毒抗原自我檢測套組,78,2022/05/02 09:35:02,每天早上08:00開始販售快篩試劑，售完為止
5903270105,樂得好大藥局,臺中市西屯區上石路２號１樓,120.644,24.16669,(04)24521173,羅氏家用新冠病毒抗原自我檢測套組,156,2022/05/02 09:35:02,快篩試劑尚未到貨，販賣時間滾動式調整
5903270301,宥承藥局,臺中市西屯區西屯路３段１４８－１６號,120.6242,24.18563,(04)24626559,羅氏家用新冠病毒抗原自我檢測套組,156,2022/05/02 09:35:02,星期一到星期六， 開始販售防疫口罩
5903270310,弘福藥師藥局,臺中市西屯區西屯路３段１６６－２１號１樓,120.6159,24.18918,(04)24611916,羅氏家用新冠病毒抗原自我檢測套組,78,2022/05/02 09:35:02,每日15:00發放號碼牌，發完即開始販售（全年無休）
5903270365,麒霖藥局,臺中市西屯區福順路３０７號１樓,120.6185,24.1832,(04)24638978,羅氏家用新冠病毒抗原自我檢測套組,156,2022/05/02 09:35:02,販售健保快篩時間：週一至週六10:00開始至售完、週日公休。
5903270392,瑞德大藥局,臺中市西屯區中清西二街８４號,120.6671,24.17511,(04)22939820,羅氏家用新冠病毒抗原自我檢測套組,78,2022/05/02 09:35:02,固定周一至周日早上9:00開始販售口罩.售完為止
5903270516,中科何藥局,臺中市西屯區福康路４０號,120.6173,24.18421,(04)24612570,羅氏家用新冠病毒抗原自我檢測套組,78,2022/05/02 09:35:02,防疫快篩每日15:00開始販售。（全年無休）
5903270749,大墩藥局,臺中市西屯區大墩１９街６８號１樓,120.6518,24.15734,(04)23209602,羅氏家用新冠病毒抗原自我檢測套組,78,2022/05/02 09:35:02,每天下午三點開賣，請提早來排隊
5903270776,河南丁丁藥局,臺中市西屯區河南路４段１９１號,120.6367,24.15565,(04)22511658,羅氏家用新冠病毒抗原自我檢測套組,82,2022/05/02 09:35:02,周一至周日每天上午9:00開始販售口罩[有口罩庫存時]
5903270801,榮友藥局,臺中市西屯區臺灣大道四段１７４２號,120.6024,24.18286,(04)23508392,羅氏家用新冠病毒抗原自我檢測套組,156,2022/05/02 09:35:02,4／30販賣快篩試劑上午11:00開賣
5903270810,佑全福星藥局,臺中市西屯區黎明路三段３９５、３９７號,120.639,24.18251,(04)24527465,羅氏家用新冠病毒抗原自我檢測套組,78,2022/05/02 09:35:02,周一至週日下午2:00開始發放快篩實名制，售完為止
5903270847,分子藥局,臺中市西屯區惠來路二段２３６－１號,120.6421,24.16318,(04)22513080,羅氏家用新冠病毒抗原自我檢測套組,156,2022/05/02 09:35:02,口罩發放時間週一至週六早上10點起售完為止
5903270865,尚禾藥局,臺中市西屯區青海路一段６５號,120.6548,24.16438,(04)23147688,羅氏家用新冠病毒抗原自我檢測套組,156,2022/05/02 09:35:02,實名制快篩發放時間：第一時段中午12:30~14:00。第二時段20：30~22：30。第一時段若未發完，餘量將遞延至第二時段發放。
5903270874,熊健康藥局,臺中市西屯區太原路一段２３２號,120.6632,24.16394,(04)23163505,羅氏家用新冠病毒抗原自我檢測套組,156,2022/05/02 09:35:02,快篩實名制販售時間: 14:30-15:30 ，星期日公休。
5903270909,元生藥局,臺中市西屯區大墩路９６０號,120.6516,24.15817,(04)23274539,羅氏家用新冠病毒抗原自我檢測套組,78,2022/05/02 09:35:02,快篩販售時段下午4點起
5903270918,全成西屯藥局,臺中市西屯區黎明路三段２２１、２２３號1樓,120.6373,24.17723,(04)24512290,羅氏家用新冠病毒抗原自我檢測套組,78,2022/05/02 09:35:02,星期一至星期六15點開始販售實名制快篩
5903270927,河南小林健保藥局,臺中市西屯區河南路二段２９８號１樓,120.6485,24.17477,(04)24512830,羅氏家用新冠病毒抗原自我檢測套組,78,2022/05/02 09:35:02,固定每日早上8點發放口罩號碼牌，下午4點半開始販售。
5903270936,新元藥局,臺中市西屯區文心路三段５３２號１樓,120.6659,24.17267,(04)23121383,羅氏家用新冠病毒抗原自我檢測套組,200,2022/05/02 09:35:02,5／1-5／2公休，快篩為滾動式配送，請電洽04-23121383
5903270963,源興大藥局,臺中市西屯區西屯路二段１２號,120.6622,24.16387,(04)23143045,羅氏家用新冠病毒抗原自我檢測套組,82,2022/05/02 09:35:02,口罩販售時間：每日下午2點至售完為止。
5903271004,西屯青育藥師藥局,臺中市西屯區西屯路二段２９５－３號１樓,120.6425,24.17735,(04)27077898,羅氏家用新冠病毒抗原自我檢測套組,78,2022/05/02 09:35:02,無
5903271022,西屯藥局,臺中市西屯區西屯路三段１５０－４５號１樓,120.621,24.18716,(04)24621822,羅氏家用新冠病毒抗原自我檢測套組,78,2022/05/02 09:35:02,快篩實名制，每天16:00開始販售，售完為止。
5903271031,美十樂中科藥局,臺中市西屯區西屯路三段１６６－６５號１樓,120.6129,24.19035,(04)24610219,羅氏家用新冠病毒抗原自我檢測套組,390,2022/05/02 09:35:02,固定周一至周日10:00開始販售口罩
5903271068,西墩藥局,臺中市西屯區黎明路三段２７５、２７７號１樓,120.6373,24.17812,(04)24510770,羅氏家用新冠病毒抗原自我檢測套組,78,2022/05/02 09:35:02,快篩實名制，每天16:00開始販售，售完為止。
5903271086,常春藤藥局,臺中市西屯區福康路８０號１樓,120.618,24.18603,(04)24619296,羅氏家用新冠病毒抗原自我檢測套組,78,2022/05/02 09:35:02,每日下午兩點到四點、晚上七點到九點 販賣防疫家用快篩
5903271102,杏東美藥局,臺中市西屯區智惠街１５６號１樓,120.6438,24.17032,(04)24523798,羅氏家用新冠病毒抗原自我檢測套組,78,2022/05/02 09:35:02,快篩實名制4／30 19:00發
