醫事機構代碼,醫事機構名稱,醫事機構地址,經度,緯度,醫事機構電話,廠牌項目,快篩試劑截至目前結餘存貨數量,來源資料時間,備註
5901012632,晨安藥局,臺北市松山區八德路３段１５５巷２０弄２號,121.5553,25.04914,(02)25798460,羅氏家用新冠病毒抗原自我檢測套組,33,2022/05/01 13:43:03,3／7起，星期六停止販賣口罩；星期一至星期五，15:00~17:00、星期日12:00~14:00，直行販售口罩業務。
5901012963,綠之家藥局,臺北市松山區延壽街４２８號,121.5562,25.0562,(02)25289595,羅氏家用新冠病毒抗原自我檢測套組,78,2022/05/01 13:43:03,禮拜日不販售快篩
5901013200,專品南京藥局,臺北市松山區南京東路４段７３號,121.5532,25.05185,(02)25147685,羅氏家用新冠病毒抗原自我檢測套組,78,2022/05/01 13:43:03,無
5901013399,一安正昇藥局,臺北市松山區南京東路５段３０９號,121.5667,25.05155,(02)27680993,羅氏家用新冠病毒抗原自我檢測套組,78,2022/05/01 13:43:03,無
5901013442,松山八德藥局,臺北市松山區八德路２段４００號,121.5466,25.04804,(02)27782773,羅氏家用新冠病毒抗原自我檢測套組,78,2022/05/01 13:43:03,快篩實名制，每天16:00開始販售，售完為止。
5901013737,全欣藥局,臺北市松山區復興北路７３號２樓,121.5442,25.05104,(02)87729066,羅氏家用新冠病毒抗原自我檢測套組,118,2022/05/01 13:43:03,9:00am開始販售30人份15:00販售30人份:18:00販售18人份；週六:9:00販售39人份；週日:15:00販售39人份
5901013746,富景藥局,臺北市松山區三民路１４５號１樓,121.5631,25.06078,(02)27455666,羅氏家用新冠病毒抗原自我檢測套組,14,2022/05/01 13:43:03,無
5901020376,靜園藥局,臺北市大安區和平東路２段１１８巷５７之１號,121.5429,25.02254,(02)27336390,羅氏家用新冠病毒抗原自我檢測套組,78,2022/05/01 13:43:03,無
5901020689,四維藥局,臺北市大安區復興南路２段１５１巷４３號１樓,121.5454,25.02846,(02)27094222,羅氏家用新冠病毒抗原自我檢測套組,78,2022/05/01 13:43:03,假日可先打電話聯絡
5901022898,永康藥局,臺北市大安區麗水街６之２號,121.529,25.03289,(02)23279362,羅氏家用新冠病毒抗原自我檢測套組,78,2022/05/01 13:43:03,5月開始下午2點開賣快篩
5901023386,弘昇藥局,臺北市大安區復興南路１段１０７巷３２號,121.5458,25.04349,(02)27110061,羅氏家用新冠病毒抗原自我檢測套組,78,2022/05/01 13:43:03,上午11點以後至晚上11點
5901024310,躍獅新生藥局,臺北市大安區和平東路２段２０號,121.5362,25.02566,(02)23623367,羅氏家用新冠病毒抗原自我檢測套組,42,2022/05/01 13:43:03,快篩發放時間0900-1200。每日78份。星期日不販售
5901024490,明星大藥局,臺北市大安區光復南路４３０之１號,121.5574,25.03618,(02)27023747,羅氏家用新冠病毒抗原自我檢測套組,78,2022/05/01 13:43:03,無
5901024516,博昱師大藥局,臺北市大安區羅斯福路３段１８９號,121.5281,25.02109,(02)23696966,羅氏家用新冠病毒抗原自我檢測套組,76,2022/05/01 13:43:03,實名制快篩販售時間為下午14:00~15:30
5901024678,大安健康人生藥局,臺北市大安區信義路４段３４號,121.5447,25.03316,(02)27025553,羅氏家用新冠病毒抗原自我檢測套組,78,2022/05/01 13:43:03,無
5901024687,博昱大藥局,臺北市大安區樂業街１４８號、１５０號,121.5529,25.01998,(02)23776199,羅氏家用新冠病毒抗原自我檢測套組,78,2022/05/01 13:43:03,快篩發放為周一至周五1600開始發放
5901024838,昶青藥局,臺北市大安區濟南路３段２２之１號,121.5346,25.04008,(02)27515678,羅氏家用新冠病毒抗原自我檢測套組,78,2022/05/01 13:43:03,每天下午13:00販售快篩實名制
5901025022,躍獅敦和藥局,臺北市大安區和平東路３段１０號,121.547,25.02453,(02)23785767,羅氏家用新冠病毒抗原自我檢測套組,78,2022/05/01 13:43:03,無
5901025031,中力信義藥局,臺北市大安區信義路４段５１號（１樓）,121.545,25.03354,(02)23250266,羅氏家用新冠病毒抗原自我檢測套組,78,2022/05/01 13:43:03,下午一點到三點販售實名制快篩
5901025059,博醫仁愛藥局,臺北市大安區仁愛路４段８巷２號１樓,121.5443,25.0375,(02)27019107,羅氏家用新冠病毒抗原自我檢測套組,11,2022/05/01 13:43:03,無
5901025077,敦南春天藥局,臺北市大安區敦化南路２段８１巷６３號１樓,121.5513,25.03002,(02)27553266,羅氏家用新冠病毒抗原自我檢測套組,78,2022/05/01 13:43:03,無
5901090154,柯藥局,臺北市大同區重慶北路３段３３５巷６號,121.5144,25.07452,(02)25948515,羅氏家用新冠病毒抗原自我檢測套組,94,2022/05/01 13:43:03,库存已零如何歸零
5901090181,時春藥局,臺北市大同區赤峰街４號,121.5191,25.05356,(02)25597918,羅氏家用新冠病毒抗原自我檢測套組,78,2022/05/01 13:43:03,上午9點發號碼牌
5901091688,宏泰藥師藥局,臺北市大同區酒泉街１３１號,121.5145,25.07213,(02)25957025,羅氏家用新冠病毒抗原自我檢測套組,156,2022/05/01 13:43:03,發放口罩時間上午9:30-晚間9:00  其餘時間不販賣。75%酒精到貨供應
5901091857,佳禾藥局,臺北市大同區大龍街２６２號,121.5158,25.07061,(02)25953806,羅氏家用新冠病毒抗原自我檢測套組,78,2022/05/01 13:43:03,無
5901092103,新聖安藥局,臺北市大同區昌吉街１３０號,121.5143,25.06584,(02)25977877,羅氏家用新冠病毒抗原自我檢測套組,27,2022/05/01 13:43:03,無
5901092112,酒泉春天藥局,臺北市大同區酒泉街９４號、９４號２樓,121.5146,25.07193,(02)25977932,羅氏家用新冠病毒抗原自我檢測套組,78,2022/05/01 13:43:03,無
5901092130,大同民生藥局,臺北市大同區民生西路１２８號１樓、２樓及１３０號１樓、２樓,121.5191,25.05734,(02)25558886,羅氏家用新冠病毒抗原自我檢測套組,78,2022/05/01 13:43:03,快篩實名制，每天16:00開始販售，售完為止。
5901100057,百源堂大藥局,臺北市中山區長安東路２段４７－５號,121.5322,25.04857,(02)25364362,羅氏家用新冠病毒抗原自我檢測套組,44,2022/05/01 13:43:03,週休2 日及國定假日休營業時間上午8時30分至晚間7點
5901100066,名祥藥局,臺北市中山區龍江路１６６號,121.5403,25.05505,(02)25036265,羅氏家用新冠病毒抗原自我檢測套組,78,2022/05/01 13:43:03,5月1日 實名制快篩代售時間為14:00＜售完為止＞
5901100333,明美藥局,臺北市中山區長春路６９號,121.5266,25.05502,(02)25365419,羅氏家用新冠病毒抗原自我檢測套組,143,2022/05/01 13:43:03,口罩周一至周五，16:30-18:30販售
5901100431,長生藥局,臺北市中山區松江路３６２巷５５號１樓,121.5313,25.06207,(02)25816210,羅氏家用新冠病毒抗原自我檢測套組,5,2022/05/01 13:43:03,無
5901101321,文德藥局,臺北市中山區龍江路３５６巷１９號１樓,121.5401,25.06607,(02)25181178,羅氏家用新冠病毒抗原自我檢測套組,78,2022/05/01 13:43:03,無
5901102408,康林藥局,臺北市中山區興安街１０５號,121.5438,25.05617,(02)25171867,羅氏家用新冠病毒抗原自我檢測套組,78,2022/05/01 13:43:03,無
5901102560,龍江藥局,臺北市中山區龍江路３５６巷１４號,121.5403,25.06591,(02)25023724,羅氏家用新冠病毒抗原自我檢測套組,78,2022/05/01 13:43:03,無
5901102597,德惠藥局,臺北市中山區德惠街１２２號,121.53,25.06652,(02)25971131,羅氏家用新冠病毒抗原自我檢測套組,78,2022/05/01 13:43:03,每日下午3點30分開始販售快篩實名制
5901102855,錦西春天生活藥局,臺北市中山區錦西街１０號,121.5216,25.06024,(02)25312658,羅氏家用新冠病毒抗原自我檢測套組,78,2022/05/01 13:43:03,口罩15:30領號碼牌 即行販售至16:30
5901103352,美康正康藥局,臺北市中山區北安路６１６之１號、６１８號２樓之１,121.549,25.08243,(02)25323077,羅氏家用新冠病毒抗原自我檢測套組,78,2022/05/01 13:43:03,實名制快篩:14:30~售完
5901103487,錦州春天生活藥局,臺北市中山區錦州街２１３號、２１３號２樓,121.5321,25.06039,(02)25213586,羅氏家用新冠病毒抗原自我檢測套組,78,2022/05/01 13:43:03,快篩14:40發號碼牌15:00販賣 每天78盒
5901103585,禾全藥局,臺北市中山區龍江路３３２號,121.5409,25.06532,(02)25165721,羅氏家用新冠病毒抗原自我檢測套組,78,2022/05/01 13:43:03,口罩代售時間：1400、20:00  ；現場排隊
5901103629,十二願藥局,臺北市中山區林森北路３０９號,121.5256,25.05588,(02)25311223,羅氏家用新冠病毒抗原自我檢測套組,81,2022/05/01 13:43:03,快篩晚上8點開始發放.營業時間下午1點至凌晨3點
5901103656,大樹龍江藥局,臺北市中山區龍江路２４２號,121.5406,25.05889,(02)25035666,羅氏家用新冠病毒抗原自我檢測套組,78,2022/05/01 13:43:03,國定假日仍執行調劑業務
5901103745,吉林藥局,臺北市中山區吉林路３７１號（１樓）,121.5305,25.06511,(02)25865990,羅氏家用新冠病毒抗原自我檢測套組,78,2022/05/01 13:43:03,快篩實名制，每天16:00開始販售，售完為止。
5901103790,可康藥局,臺北市中山區林森北路３７３號（１樓）,121.5257,25.05826,(02)25361078,羅氏家用新冠病毒抗原自我檢測套組,25,2022/05/01 13:43:03,因物流配送不及5／1（日）沒有販售實名制快篩；5／2（一）起為早上07:00
5901103807,專品龍江藥局,臺北市中山區龍江路３１１號１樓,121.5409,25.06127,(02)25178870,羅氏家用新冠病毒抗原自我檢測套組,78,2022/05/01 13:43:03,實名制快篩下午三點開始發號碼牌販售
5901110311,永安藥局,臺北市內湖區文德路２１０巷３０弄４８號,121.5852,25.07723,(02)26586658,羅氏家用新冠病毒抗原自我檢測套組,5,2022/05/01 13:43:03,口罩販售時間早上10點開始發號碼牌  同時販售
5901110393,明湖藥局,臺北市內湖區東湖路７巷２７號１Ｆ,121.6125,25.0697,(02)26313515,羅氏家用新冠病毒抗原自我檢測套組,78,2022/05/01 13:43:03,春節期間看診時段請電洽
5901112100,盧狄聯合藥局,臺北市內湖區康寧路３段１８９巷５７號,121.6129,25.07133,(02)26308897,羅氏家用新冠病毒抗原自我檢測套組,78,2022/05/01 13:43:03,營業時間早上9點至晚上8點，週六上半天 **快篩實名制08:00開賣 **
5901112351,康信藥局,臺北市內湖區民權東路６段２９６巷２９號,121.6062,25.07203,(02)26342088,羅氏家用新冠病毒抗原自我檢測套組,78,2022/05/01 13:43:03,兒童口罩:全天供應.成人口罩發放時間:下午4:00.售完為止
5901112682,富康東湖藥局,臺北市內湖區東湖路１１９巷４９弄１６號,121.617,25.06988,(02)26323222,羅氏家用新冠病毒抗原自我檢測套組,67,2022/05/01 13:43:03,週一至週六，每天9:00~22:00販售口罩，請記得攜帶健保卡與零錢（恕不找零）
5901112977,瑞光藥局,臺北市內湖區瑞光路２１２號,121.5763,25.07525,(02)87513365,羅氏家用新冠病毒抗原自我檢測套組,78,2022/05/01 13:43:03,實名制快篩每日PM14:00開賣
5901113081,宜昇優良藥局,臺北市內湖區康寧路３段１６５巷１０號,121.6118,25.07081,(02)26327817,羅氏家用新冠病毒抗原自我檢測套組,78,2022/05/01 13:43:03,快篩代售時間:星期一-五早上9:00；星期六.日.例假日早上10:00
5901113456,佑全內湖康寧藥局,臺北市內湖區康寧路３段３９號、３９號２樓、４１號、４３號,121.6078,25.07264,(02)26346578,羅氏家用新冠病毒抗原自我檢測套組,78,2022/05/01 13:43:03,實名制快篩每日14:00販售 13:50發號碼牌
5901113643,博昱東福藥局,臺北市內湖區東湖路１４７號,121.6172,25.06815,(02)26308599,羅氏家用新冠病毒抗原自我檢測套組,37,2022/05/01 13:43:03,無
5901113661,內湖藥局,臺北市內湖區康寧路１段１１６號１樓,121.5934,25.07948,(02)27940545,羅氏家用新冠病毒抗原自我檢測套組,77,2022/05/01 13:43:03,快篩實名制，每天16:00開始販售，售完為止。
5901113705,富康活力湖光藥局,臺北市內湖區康寧路１段２５號１樓,121.5914,25.08062,(02)87927999,羅氏家用新冠病毒抗原自我檢測套組,33,2022/05/01 13:43:03,視快篩實際到貨時間販售（通常是下午2:00）**Line社群搜尋[[富康活力湖光藥局]]，會有第一線消息唷**
5901121734,湳港藥局,臺北市南港區研究院路１段１０１巷１２號,121.6167,25.05175,(02)27892200,羅氏家用新冠病毒抗原自我檢測套組,110,2022/05/01 13:43:03,週一至週日，2:30開賣（政府有配送的況狀下）（沒有發放號碼牌），售完為止
5901150468,太安藥局,臺北市士林區延平北路５段１５７號,121.5101,25.08251,(02)28111468,羅氏家用新冠病毒抗原自我檢測套組,12,2022/05/01 13:43:03,無
5901152739,芳圓藥局,臺北市士林區社子街２６－１號,121.508,25.0875,(02)28168666,羅氏家用新冠病毒抗原自我檢測套組,78,2022/05/01 13:43:03,快篩購買時間為早上9點15分到10點
5901153263,健揚藥局,臺北市士林區延平北路５段２５１號,121.5097,25.08483,(02)28163698,羅氏家用新冠病毒抗原自我檢測套組,110,2022/05/01 13:43:03,無
5901153272,光榮藥局,臺北市士林區社中街１１８號,121.5103,25.0899,(02)28136060,羅氏家用新冠病毒抗原自我檢測套組,78,2022/05/01 13:43:03,實名制快篩販售時間~下午兩點半（14:30）開始販售~另外若當日未收到快篩無法販售會公告，謝謝大家~
5901153432,大南春天生活藥局,臺北市士林區大南路３１７、３１９號,121.518,25.08888,(02)28882196,羅氏家用新冠病毒抗原自我檢測套組,78,2022/05/01 13:43:03,本藥局可領慢箋 快篩是下午3點開始販售 售完為止（物流無配送&配送不及例外）
5901153496,躍獅忠誠藥局,臺北市士林區忠義街７０號,121.5314,25.10594,(02)28387948,羅氏家用新冠病毒抗原自我檢測套組,156,2022/05/01 13:43:03,實名制快篩下午兩點販售
5901153567,華齡春天生活藥局,臺北市士林區華齡街３６、３８號,121.5195,25.08359,(02)28882156,羅氏家用新冠病毒抗原自我檢測套組,78,2022/05/01 13:43:03,下午3點開始發號碼牌持健保卡購買快篩售完為止
5901153585,德行春天生活藥局,臺北市士林區德行東路７６號,121.5275,25.1073,(02)28380306,羅氏家用新冠病毒抗原自我檢測套組,78,2022/05/01 13:43:03,下午2點40持健保卡領號碼牌販售快篩到晚上10點售完為止
5901153665,康佑藥局,臺北市士林區延平北路５段１７６號,121.5103,25.08299,(02)28119981,羅氏家用新冠病毒抗原自我檢測套組,78,2022/05/01 13:43:03,實名制快篩9點開始
5901153941,士東藥局,臺北市士林區士東路９１巷３號,121.5291,25.11256,(02)28760588,羅氏家用新冠病毒抗原自我檢測套組,78,2022/05/01 13:43:03,快篩實名制，每天16:00開始販售，售完為止。
5901154082,德行盛康藥局,臺北市士林區德行東路２０６之１號１樓,121.532,25.1089,(02)28348756,羅氏家用新冠病毒抗原自我檢測套組,78,2022/05/01 13:43:03,無
5901160062,丸三大藥局,臺北市北投區自強街１０５號,121.5153,25.11086,(02)28230637,羅氏家用新冠病毒抗原自我檢測套組,116,2022/05/01 13:43:03,實名制快篩試劑13:30開始販售
5901160197,川秀藥局,臺北市北投區石牌路２段９９巷９號１樓,121.5166,25.11792,(02)28270702,羅氏家用新冠病毒抗原自我檢測套組,156,2022/05/01 13:43:03,快篩下午2點開買
5901160400,世全藥局,臺北市北投區知行路２７３號,121.4672,25.12134,(02)28585378,羅氏家用新冠病毒抗原自我檢測套組,78,2022/05/01 13:43:03,早0000-0100，午1300-1600，晚1600-2400
5901161890,良興藥局,臺北市北投區中和街２８６號,121.5004,25.14047,(02)28933360,羅氏家用新冠病毒抗原自我檢測套組,37,2022/05/01 13:43:03,18點30分點開始營業
5901162119,祐鄰藥局,臺北市北投區尊賢街２５０號,121.5073,25.11707,(02)28281232,羅氏家用新冠病毒抗原自我檢測套組,78,2022/05/01 13:43:03,無
5901162477,長宜藥局,臺北市北投區自強街１１２號,121.5155,25.11074,(02)28216605,羅氏家用新冠病毒抗原自我檢測套組,156,2022/05/01 13:43:03,實名制快篩試劑發放時間:14:00~售完為止，會依政府配送狀況調整
5901163152,石牌健康人生藥局,臺北市北投區石牌路２段１８７號,121.5183,25.11868,(02)28225169,羅氏家用新冠病毒抗原自我檢測套組,78,2022/05/01 13:43:03,政府快篩每日14點賣（星期一到五13:30發號碼牌）；週末不發號碼牌，請自行排隊
5901163250,關渡松藥局,臺北市北投區知行路２４７號,121.4671,25.12074,(02)28584824,羅氏家用新冠病毒抗原自我檢測套組,78,2022/05/01 13:43:03,口罩時段: 星期一至星期五早上9:00及晚上18:30，星期六日為下午15:00
5901163296,天禧大藥局,臺北市北投區實踐街３５號,121.5087,25.11521,(02)28213558,羅氏家用新冠病毒抗原自我檢測套組,35,2022/05/01 13:43:03,實名制快篩下午1:30現場販售
5901163394,致遠春天藥局,臺北市北投區致遠一路１段１３２號１、２樓,121.5149,25.11051,(02)28253258,羅氏家用新冠病毒抗原自我檢測套組,78,2022/05/01 13:43:03,15:30開始發放號碼牌15:30開始販售口罩
5901163509,吉利春天生活藥局,臺北市北投區吉利街１２０號,121.5068,25.11851,(02)28253256,羅氏家用新冠病毒抗原自我檢測套組,78,2022/05/01 13:43:03,無
5901163545,天康大藥局,臺北市北投區中央南路１段５７號,121.5014,25.13192,(02)28914265,羅氏家用新冠病毒抗原自我檢測套組,120,2022/05/01 13:43:03,實名制快篩下午1:30現場販售
5901163563,躍獅光明藥局,臺北市北投區光明路５１號、５３號（實際使用：１樓）,121.4998,25.13286,(02)28915993,羅氏家用新冠病毒抗原自我檢測套組,78,2022/05/01 13:43:03,無
5901163643,致遠盛康藥局,臺北市北投區致遠二路１４１號１樓,121.5128,25.1173,(02)28263580,羅氏家用新冠病毒抗原自我檢測套組,78,2022/05/01 13:43:03,下午2點發號碼牌開始販售實名制快篩試劑
5901170059,必欣藥局,臺北市信義區松仁路２６４號,121.5696,25.02425,(02)27225060,羅氏家用新冠病毒抗原自我檢測套組,78,2022/05/01 13:43:03,實名制快篩販售時間：星期一至星期日晚上20：00開始
5901170433,松山大藥局,臺北市信義區永吉路４３６號,121.5781,25.04526,(02)27620624,羅氏家用新冠病毒抗原自我檢測套組,78,2022/05/01 13:43:03,購防疫快篩早上10:00，_21:00發售.週日下午1點起售完即止
5901172240,德康大藥局,臺北市信義區松山路５４１巷２１號,121.579,25.03794,(02)27272502,羅氏家用新冠病毒抗原自我檢測套組,71,2022/05/01 13:43:03,物流未到 5／2暫停1天
5901172820,安心藥局,臺北市信義區永吉路３０巷１４８弄４之１號,121.5685,25.04266,(02)27474992,羅氏家用新冠病毒抗原自我檢測套組,79,2022/05/01 13:43:03,口罩代售時間14:00起現場排隊
5901172924,躍獅松仁藥局,臺北市信義區松仁路２３３號（實際營業地址：１樓）,121.5688,25.02617,(02)27238626,羅氏家用新冠病毒抗原自我檢測套組,78,2022/05/01 13:43:03,快篩販售時段:下午13:30開始售完至晚上19:00前
5901173390,馨馨藥局,臺北市信義區虎林街８２巷１９號,121.5764,25.04336,(02)27491208,羅氏家用新冠病毒抗原自我檢測套組,1,2022/05/01 13:43:03,無
5901173694,洪暘藥局,臺北市信義區富陽街８６號,121.5564,25.02127,(02)27337099,羅氏家用新冠病毒抗原自我檢測套組,78,2022/05/01 13:43:03,下午2點開始發號碼牌，領取號碼牌後請於下午4點前購買，否則視同放棄。
5901173710,專品光復藥局,臺北市信義區光復南路４６７之１號,121.5577,25.03384,(02)27586682,羅氏家用新冠病毒抗原自我檢測套組,77,2022/05/01 13:43:03,禮拜一到六下午三點販售口罩
5901174002,吳興春天藥局,臺北市信義區吳興街１３７號１樓,121.5618,25.02947,(02)27585618,羅氏家用新冠病毒抗原自我檢測套組,77,2022/05/01 13:43:03,下午2:40發號碼牌
5901174084,市政藥局,臺北市信義區忠孝東路５段１６９號１樓、１７１號１樓,121.5688,25.0412,(02)27560050,羅氏家用新冠病毒抗原自我檢測套組,78,2022/05/01 13:43:03,快篩實名制，每天16:00開始販售，售完為止。
5901182068,永興藥局,臺北市中正區汀州路１段９２巷２８號,121.5068,25.02999,(02)23050986,羅氏家用新冠病毒抗原自我檢測套組,77,2022/05/01 13:43:03,無
5901183789,佑康大藥局,臺北市中正區汀州路２段６４號,121.5184,25.02513,(02)23683602,羅氏家用新冠病毒抗原自我檢測套組,78,2022/05/01 13:43:03,快篩下午2點開賣
5901183798,佳和藥局,臺北市中正區黎明里公園路３０號,121.5169,25.04448,(02)23117102,羅氏家用新冠病毒抗原自我檢測套組,78,2022/05/01 13:43:03,無
5901183985,正康藥局,臺北市中正區漢口街１段２２號,121.5142,25.04507,(02)23712831,羅氏家用新冠病毒抗原自我檢測套組,71,2022/05/01 13:43:03,快篩固定下午2:00發放
5901184179,保德中華藥局,臺北市中正區中華路２段１５９號,121.5042,25.03101,(02)23027720,羅氏家用新冠病毒抗原自我檢測套組,78,2022/05/01 13:43:03,快篩視政府有無配發而販售；有貨的話下午三點開始發號碼牌及販售，限當日購買
5901184222,豐仁藥局,臺北市中正區寧波西街１６１號,121.5109,25.02736,(02)23033908,羅氏家用新冠病毒抗原自我檢測套組,78,2022/05/01 13:43:03,實名制快篩販售: 周一至周六 12:30-13:30
5901184473,中力藥局,臺北市中正區襄陽路１３之５號、１５號,121.5155,25.04349,(02)23313768,羅氏家用新冠病毒抗原自我檢測套組,78,2022/05/01 13:43:03,實名制快篩 販售時間：09:30~售完為止
5901184491,躍獅南門藥局,臺北市中正區中華路２段３９巷１０號,121.5074,25.03484,(02)23141111,羅氏家用新冠病毒抗原自我檢測套組,78,2022/05/01 13:43:03,口罩販售時段：成人早上9點及晚上7點各200個
5901184633,躍獅東門藥局,臺北市中正區金山南路１段１０８之１號（１樓）,121.5273,25.03538,(02)23920339,羅氏家用新冠病毒抗原自我檢測套組,156,2022/05/01 13:43:03,下午兩點販售
5901184660,南昌春天藥局,臺北市中正區南昌路１段１５７號１樓,121.5188,25.02927,(02)23972886,羅氏家用新冠病毒抗原自我檢測套組,78,2022/05/01 13:43:03,無
5901184679,汀州藥局,臺北市中正區汀州路１段１８７、１８９、１９１號（１樓）,121.5112,25.02704,(02)23090705,羅氏家用新冠病毒抗原自我檢測套組,78,2022/05/01 13:43:03,快篩實名制，每天16:00開始販售，售完為止。
5901190024,長泰藥局,臺北市萬華區西園路２段２８０號,121.4942,25.02753,(02)23012869,羅氏家用新冠病毒抗原自我檢測套組,63,2022/05/01 13:43:03,現場排隊 口罩販賣時段：9:00至售完為止
5901190177,信昌藥局,臺北市萬華區長泰街３６號１樓,121.5007,25.02336,(02)23054898,羅氏家用新冠病毒抗原自我檢測套組,78,2022/05/01 13:43:03,快篩實名制販售時間:週一~週日9:00起售完為止
5901190668,聯慶大藥局,臺北市萬華區萬大路３０６號１樓,121.5003,25.02495,(02)23039850,羅氏家用新冠病毒抗原自我檢測套組,78,2022/05/01 13:43:03,無
5901192448,健誠大藥局,臺北市萬華區環河南路２段１８５號,121.4919,25.03246,(02)23042223,羅氏家用新冠病毒抗原自我檢測套組,78,2022/05/01 13:43:03,口罩販售：週六早上10點開始， 其他日早上9點開始， 周日休息
5901192822,專品藥局,臺北市萬華區長沙街２段７１－１號,121.5051,25.04062,(02)23718892,羅氏家用新冠病毒抗原自我檢測套組,80,2022/05/01 13:43:03,快篩實名制下午3點發放
5901192975,萬華藥局,臺北市萬華區萬大路２４８號實際營業地址１樓、２樓,121.5003,25.02626,(02)23012221,羅氏家用新冠病毒抗原自我檢測套組,78,2022/05/01 13:43:03,快篩實名制，每天16:00開始販售，售完為止。
5901193150,日森人文藥局,臺北市萬華區和平西路３段１４９號,121.4988,25.03543,(02)23082100,羅氏家用新冠病毒抗原自我檢測套組,78,2022/05/01 13:43:03,快篩每日11點現場發放號碼牌購買
5901193230,啟仁藥局,臺北市萬華區環河南路２段１７７號,121.492,25.03259,(02)23362771,羅氏家用新冠病毒抗原自我檢測套組,156,2022/05/01 13:43:03,六日沒配送停售，一般時間下午2點開始發號碼牌， 發完為止
5901193310,和德藥局,臺北市萬華區西園路２段２９２號１樓,121.4935,25.02698,(02)23331522,羅氏家用新冠病毒抗原自我檢測套組,78,2022/05/01 13:43:03,快篩實名制，每天16:00開始販售，售完為止。
5901193365,企鵝藥局,臺北市萬華區西昌街１７５號（１樓）,121.5007,25.03886,(02)23884691,羅氏家用新冠病毒抗原自我檢測套組,78,2022/05/01 13:43:03,公費快篩試劑，下午2點發號碼牌
5901200490,永明大藥局,臺北市文山區興隆路１段２９７號１樓,121.5449,24.99875,(02)29314428,羅氏家用新冠病毒抗原自我檢測套組,156,2022/05/01 13:43:03,無
5901201835,巧康藥局,臺北市文山區木新路３段２６２、２６４號,121.5585,24.98132,(02)29372061,羅氏家用新冠病毒抗原自我檢測套組,75,2022/05/01 13:43:03,每日下午2點發放號碼牌，2點15進行快篩販售
5901202047,華君藥局,臺北市文山區興隆路２段６０號,121.5478,24.99955,(02)29319510,羅氏家用新冠病毒抗原自我檢測套組,1,2022/05/01 13:43:03,每天12:00開始販售快篩
5901202654,康宜庭萬隆藥局,臺北市文山區羅斯福路５段２０２號,121.5384,25.00322,(02)29348662,羅氏家用新冠病毒抗原自我檢測套組,78,2022/05/01 13:43:03,5／1快篩已到， 現場排隊，準時14:00開賣
5901202841,欣安景美藥局,臺北市文山區景文街７７號,121.5414,24.99126,(02)29316008,羅氏家用新冠病毒抗原自我檢測套組,78,2022/05/01 13:43:03,每天快篩劑AM10：00發號碼牌PM14:00開始販賣售完為止
5901202958,杏一萬安藥局,臺北市文山區萬安街１５號,121.5706,25.00139,(02)22302126,羅氏家用新冠病毒抗原自我檢測套組,78,2022/05/01 13:43:03,營業時間0900-2200
5901203044,木新健康人生藥局,臺北市文山區木新路３段２０３號,121.5598,24.9814,(02)86611465,羅氏家用新冠病毒抗原自我檢測套組,153,2022/05/01 13:43:03,9：30~22：00
5901203062,大樹文山藥局,臺北市文山區興隆路３段１３號（１、２、３樓）,121.555,25.00088,(02)29342226,羅氏家用新冠病毒抗原自我檢測套組,78,2022/05/01 13:43:03,口罩販售時間：14:00 - 16:00
5901203080,杏一木柵藥局,臺北市文山區木柵路３段９８號,121.5674,24.98861,(02)29371839,羅氏家用新冠病毒抗原自我檢測套組,78,2022/05/01 13:43:03,無
5901203375,大樹景美藥局,臺北市文山區羅斯福路６段２３４之１號,121.5404,24.99244,(02)29322951,羅氏家用新冠病毒抗原自我檢測套組,80,2022/05/01 13:43:03,快篩實名制，每天16:00開始販售，售完為止。
5901203428,康宜庭景文藥局,臺北市文山區景文街９７號１樓,121.5413,24.99093,(02)29302801,羅氏家用新冠病毒抗原自我檢測套組,79,2022/05/01 13:43:03,營業時間為08:30-22:30；14:00開始發放快篩實名制號碼牌並立即販售，謝謝您的配合
5902011291,長庚藥局,高雄市鹽埕區五福四路１６３號一樓,120.2834,22.62347,(07)5513436,羅氏家用新冠病毒抗原自我檢測套組,64,2022/05/01 13:43:03,無
5902020012,永松藥局,高雄市鼓山區鼓山三路１３０－１５號,120.2802,22.66454,(07)5810657,羅氏家用新冠病毒抗原自我檢測套組,9,2022/05/01 13:43:03,周一到周日早上9點開始賣口罩，到晚上10點.
5902022801,裕康中西大藥局,高雄市鼓山區裕誠路１５１９號,120.2951,22.66479,(07)5555352,羅氏家用新冠病毒抗原自我檢測套組,80,2022/05/01 13:43:03,藥局販售口罩時間，依藥局門口公告時間為主（售完為止）
5902022972,高雄藥局,高雄市鼓山區九如四路９２４號,120.2793,22.65466,(07)5214266,羅氏家用新冠病毒抗原自我檢測套組,78,2022/05/01 13:43:03,賣口罩時間為週一～週六晚上6點，售完為止
5902030287,慈德藥局,高雄市左營區重愛路５３號,120.3186,22.68308,(07)3416212,羅氏家用新冠病毒抗原自我檢測套組,78,2022/05/01 13:43:03,快篩發放時間.週一至周六:上午9點-點.週日下午2點半至5點.
5902030410,重仁藥局,高雄市左營區左營大路４０８號,120.2935,22.68725,(07)5824083,羅氏家用新冠病毒抗原自我檢測套組,11,2022/05/01 13:43:03,自2／11日~2／29日，營業日08:00~22:30為販賣口罩時間.售完為止
5902030643,新高橋藥局,高雄市左營區民族一路１０２８號,120.3201,22.68255,(07)3100696,羅氏家用新冠病毒抗原自我檢測套組,78,2022/05/01 13:43:03,下午2:30開始販售口罩
5902031999,平安藥局,高雄市左營區中華一路５之１號,120.287,22.66961,(07)5833688,羅氏家用新冠病毒抗原自我檢測套組,53,2022/05/01 13:43:03,無
5902040087,世詠藥局,高雄市楠梓區楠都東街１３８號,120.3262,22.72532,(07)3539869,羅氏家用新冠病毒抗原自我檢測套組,76,2022/05/01 13:43:03,快篩周一~周五早上9:00-21:30周六.日下午15:00-21:30，售完為止
5902042769,家安藥局,高雄市楠梓區後昌新路１３號１樓,120.2917,22.71844,(07)3600066,羅氏家用新冠病毒抗原自我檢測套組,11,2022/05/01 13:43:03,無
5902050636,嘉益藥局,高雄市三民區重慶街３０號,120.302,22.64223,(07)3110157,羅氏家用新冠病毒抗原自我檢測套組,67,2022/05/01 13:43:03,快篩實名制早上11：00開始販售.
5902051222,利民藥局,高雄市三民區孝順街７４號,120.3128,22.6431,(07)3125436,羅氏家用新冠病毒抗原自我檢測套組,78,2022/05/01 13:43:03,快篩實名制早上9點30分開始販售，發號碼牌
5902051240,明皇藥局,高雄市三民區寶國里義華路１８１號,120.3399,22.64276,(07)3860121,羅氏家用新冠病毒抗原自我檢測套組,33,2022/05/01 13:43:03,藥局販售口罩時間，依藥局門口公告時間為主（售完為止）
5902051786,億生藥局,高雄市三民區南台路２００號,120.2982,22.63706,(07)2873436,羅氏家用新冠病毒抗原自我檢測套組,5,2022/05/01 13:43:03,「藥局販售口罩時間，依藥局門口公告時間為主（售完為止）」
5902054689,善全藥局,高雄市三民區義華路３９１號,120.3332,22.64339,(07)3960269,羅氏家用新冠病毒抗原自我檢測套組,23,2022/05/01 13:43:03,開始營業即販售，售完為止，其它看休息公告.
5902057288,育英藥局,高雄市三民區灣子里和順街３９號,120.3159,22.65336,(07)3824467,羅氏家用新冠病毒抗原自我檢測套組,11,2022/05/01 13:43:03,營業時間:8:30-21:00， 週日休息
5902057680,健爾康藥局,高雄市三民區正興路２３號,120.3226,22.6456,(07)3965658,羅氏家用新冠病毒抗原自我檢測套組,78,2022/05/01 13:43:03,自2／11日~2／29日，營業日08:30~2100為販賣口罩時間，售完為止。
5902057939,朝陽健保藥局,高雄市三民區陽明路５７號１樓,120.341,22.63871,(07)3839886,羅氏家用新冠病毒抗原自我檢測套組,7,2022/05/01 13:43:03,營業日下午4:00-6:00為販賣口罩時間，若有異動依藥局門口公告時間為主
5902060025,連作藥局,高雄市新興區大同一路２０３－１號,120.3003,22.62856,(07)2154716,羅氏家用新冠病毒抗原自我檢測套組,54,2022/05/01 13:43:03,快篩試紙領用時間為每日下午2點  5／1日周日加班 快篩貨未到店 中午再詢問
5902080465,廣德泰藥局,高雄市苓雅區苓雅二路７６號,120.2997,22.61762,(07)3340769,羅氏家用新冠病毒抗原自我檢測套組,156,2022/05/01 13:43:03,早上8點開始快篩實名制，售完為止一人限購買一份
5902080545,柏松藥局,高雄市苓雅區輔仁路１７５號,120.3332,22.63065,(07)7119786,羅氏家用新冠病毒抗原自我檢測套組,71,2022/05/01 13:43:03,實名制快篩試劑.平日早上9:00開始販售.假日早上9:30開始販售.售完為止!!
5902081186,寶麒藥局,高雄市苓雅區三多一路１４４號,120.3315,22.62306,(07)7610355,羅氏家用新冠病毒抗原自我檢測套組,13,2022/05/01 13:43:03,停售口罩
5902081328,東信藥局,高雄市苓雅區三多一路１８９號,120.3313,22.62258,(07)7613309,羅氏家用新冠病毒抗原自我檢測套組,44,2022/05/01 13:43:03,早上8:30開始發送號碼牌販售口罩，售完為止，假日正常販售
5902085166,景福藥局,高雄市苓雅區和平一路１４７之５號,120.3204,22.62364,(07)7719152,羅氏家用新冠病毒抗原自我檢測套組,33,2022/05/01 13:43:03,2／11早上9:00至下午15:00，2／12至16日休
5902085228,永森藥局,高雄市苓雅區建國一路２９０號,120.3262,22.63308,(07)7163087,羅氏家用新冠病毒抗原自我檢測套組,24,2022/05/01 13:43:03,快篩代售時間:營業時間
5902090032,全國大藥局,高雄市前鎮區三多二路４０３號１樓,120.3166,22.61777,(07)3345775,羅氏家用新冠病毒抗原自我檢測套組,11,2022/05/01 13:43:03,快篩實名制下午13:30開始..賣完為止
5902090827,博平藥局,高雄市前鎮區草衙二路３７７號,120.3224,22.57808,(07)8311814,羅氏家用新冠病毒抗原自我檢測套組,78,2022/05/01 13:43:03,下午2點開始販售快篩.售完為止
5902092492,元生藥局,高雄市前鎮區鎮興路２２６號１樓,120.3117,22.59305,(07)8156356,羅氏家用新冠病毒抗原自我檢測套組,26,2022/05/01 13:43:03,無
5902100033,旗后藥局,高雄市旗津區中洲三路７１５號,120.2705,22.61096,(07)5715838,羅氏家用新冠病毒抗原自我檢測套組,75,2022/05/01 13:43:03,無
5902110628,悅是康藥局,高雄市小港區漢民路２７６號,120.3536,22.56665,(07)8010012,羅氏家用新冠病毒抗原自我檢測套組,78,2022/05/01 13:43:03,4／30下午3:30開賣
5902111670,桂林活力藥師藥局,高雄市小港區桂陽路４０號,120.3575,22.58194,(07)7931248,羅氏家用新冠病毒抗原自我檢測套組,83,2022/05/01 13:43:03,自2／11日~2／29日，營業日08:30及13:00各50份為販賣口罩時間.售完為止
5902111938,丁丁藥局小港店,高雄市小港區宏平路８５號,120.3635,22.57096,(07)8603388,羅氏家用新冠病毒抗原自我檢測套組,1,2022/05/01 13:43:03,無
5903010127,友誠藥局,臺中市豐原區豐東路４０１號１樓,120.7336,24.25457,(04)25132371,羅氏家用新冠病毒抗原自我檢測套組,78,2022/05/01 13:43:03,禮拜一至禮拜日快篩發放時間下午兩點開始販售，售完為止。
5903010261,豐原西勢藥局,臺中市豐原區西勢路２００號１樓,120.7067,24.24379,(04)25262330,羅氏家用新冠病毒抗原自我檢測套組,78,2022/05/01 13:43:03,5／1起實名制快篩因物流因素，於到貨後於FB粉絲頁與店面公告開始販售時間。
5903010485,大樹圓環藥局,臺中市豐原區圓環東路６１７號１樓,120.7283,24.25084,(04)25122212,羅氏家用新冠病毒抗原自我檢測套組,78,2022/05/01 13:43:03,口罩販售時間：14:00 - 16:00
5903010547,佑全豐原中正藥局,臺中市豐原區中正路２２３、２２５號１、２樓,120.7175,24.25179,(04)25152886,羅氏家用新冠病毒抗原自我檢測套組,78,2022/05/01 13:43:03,實名制快篩販售時間:下午2點開始
5903020034,國良豐藥局,臺中市東勢區豐勢路２１號１樓,120.8318,24.24779,(04)25885778,羅氏家用新冠病毒抗原自我檢測套組,78,2022/05/01 13:43:03,快篩試劑下午2:00開始
5903020089,新明通藥局,臺中市東勢區豐勢路２３２號１樓,120.8302,24.25113,(04)25873969,羅氏家用新冠病毒抗原自我檢測套組,73,2022/05/01 13:43:03,實名制快篩 門口公告
5903030156,盈盈藥局,臺中市大甲區文武路１８號,120.626,24.34582,(04)26804212,羅氏家用新冠病毒抗原自我檢測套組,7,2022/05/01 13:43:03,無
5903040107,佑全清水中山三藥局,臺中市清水區中山路２４、２６、２８號１樓,120.572,24.26043,(04)26224469,羅氏家用新冠病毒抗原自我檢測套組,78,2022/05/01 13:43:03,5／1週日實名制快篩發放時間為下午14:00開始，13:50發放號碼牌，請關注本藥局臉書。慢性箋、牙科箋領藥全年無休。
5903050238,百岳大藥局,臺中市沙鹿區鎮南路二段７７號１樓,120.5697,24.21895,(04)26359825,羅氏家用新冠病毒抗原自我檢測套組,78,2022/05/01 13:43:03,9:00憑健保卡購買口罩
5903050274,鹿寮藥局,臺中市沙鹿區中山路４６１、４６１－１號１、２樓,120.5615,24.24387,(04)26630677,羅氏家用新冠病毒抗原自我檢測套組,78,2022/05/01 13:43:03,快篩實名制，每天16:00開始販售，售完為止。
5903060092,佑全梧棲文化藥局,臺中市梧棲區文化路二段１５０號１樓,120.531,24.25526,(04)26566433,羅氏家用新冠病毒抗原自我檢測套組,78,2022/05/01 13:43:03,實名制快篩下午1：50發號碼牌：2點準時販售
5903070016,泉興中西大藥局,臺中市后里區甲后路一段５９８號,120.7171,24.30986,(04)25583883,羅氏家用新冠病毒抗原自我檢測套組,38,2022/05/01 13:43:03,無
5903070089,后里瑞士藥師藥局,臺中市后里區甲后路二段５７９號,120.7063,24.31155,(04)25566999,羅氏家用新冠病毒抗原自我檢測套組,78,2022/05/01 13:43:03,周一到周五，早上8點到10點。周六、周日早上9點到11點
5903070098,祐恩藥局,臺中市后里區甲后路一段４７８號１樓,120.6819,24.3157,(04)25587518,羅氏家用新冠病毒抗原自我檢測套組,50,2022/05/01 13:43:03,固定周一到周六，國定例假日照常調劑藥服務。清明、端午、中秋節晚上休息。
5903070132,內埔瑞士藥師藥局,臺中市后里區中山路３７號１樓,120.7113,24.30446,(04)25566959,羅氏家用新冠病毒抗原自我檢測套組,16,2022/05/01 13:43:03,發放口罩以藥局店內公告為主
5903070169,佑全后里甲后藥局,臺中市后里區甲后路一段７２８號１、２樓,120.7193,24.30951,(04)25583116,羅氏家用新冠病毒抗原自我檢測套組,78,2022/05/01 13:43:03,實名制快篩每日14:00販售。13:50發放號碼牌。
5903080138,佑全神岡中山藥局,臺中市神岡區中山路５４９、５４９之１、５４９之２號１樓,120.6842,24.24638,(04)25634677,羅氏家用新冠病毒抗原自我檢測套組,78,2022/05/01 13:43:03,今日快篩下午2:00開賣，1:50發號碼牌
5903090116,上宇藥局,臺中市潭子區中山路２段３８１號１樓,120.7051,24.21301,(04)25321258,羅氏家用新冠病毒抗原自我檢測套組,52,2022/05/01 13:43:03,週一至週五上午9點至12點，下午三點至九點，週六早上9點至12點，依序發售口罩，週日休息。
5903090143,佳福藥局,臺中市潭子區中山路１段４３－１號,120.7023,24.19138,(04)25332982,羅氏家用新冠病毒抗原自我檢測套組,78,2022/05/01 13:43:03,每日中午12:00至下午3:00休息，星期六公休
5903090429,佑全潭子中山藥局,臺中市潭子區中山路一段９之１號,120.7023,24.18847,(04)25356140,羅氏家用新冠病毒抗原自我檢測套組,78,2022/05/01 13:43:03,健保實聯制購買時間:14:00開始販售，13:50開始發號碼牌，售完為止。
5903100135,大雅安德藥局,臺中市大雅區中清東路２２９號１樓,120.6469,24.22459,(04)25604133,羅氏家用新冠病毒抗原自我檢測套組,78,2022/05/01 13:43:03,5／1（日）有到貨.實名制快篩13:30領取號碼牌，14:00販賣，不找零，每張卡一個月僅能買一次，限每人一卡一份
5903100206,民生藥局,臺中市大雅區民生路一段２２１號１樓,120.6512,24.22789,(04)25662229,羅氏家用新冠病毒抗原自我檢測套組,78,2022/05/01 13:43:03,快篩實名制，每天16:00開始販售，售完為止。
5903100215,佑全大雅雅環藥局,臺中市大雅區雅環路二段８８號１樓,120.653,24.22634,(04)25605942,羅氏家用新冠病毒抗原自我檢測套組,78,2022/05/01 13:43:03,今日快篩13:50開始發放號碼牌，14:00開始販售。
5903150091,學田藥局,臺中市烏日區學田路便行巷１４號,120.6075,24.12086,(04)23382230,羅氏家用新冠病毒抗原自我檢測套組,5,2022/05/01 13:43:03,快篩以實際到貨時間為主，到貨開賣至售完為止。
5903150144,佑全台中烏日藥局,臺中市烏日區中山路一段３５４號１樓,120.6386,24.10816,(04)23367756,羅氏家用新冠病毒抗原自我檢測套組,78,2022/05/01 13:43:03,實名制快篩販售時間：依據物流配送到貨時間滾動式調整， 造成不便， 請見諒！
5903150153,溪南藥局,臺中市烏日區溪南路一段５６５號１樓,120.6431,24.07523,(04)23353666,羅氏家用新冠病毒抗原自我檢測套組,78,2022/05/01 13:43:03,快篩實名制，每天16:00開始販售，售完為止。
5903170039,大佶安藥局龍井店,臺中市龍井區沙田路６段１９７號１樓,120.5496,24.20907,(04)26361410,羅氏家用新冠病毒抗原自我檢測套組,156,2022/05/01 13:43:03,營業時間（早上9:30-12:30，下午13:30-21:30）都有賣口罩，售完為止
5903180062,霧峰安德藥局,臺中市霧峰區中正路１１３５號１樓,120.6992,24.07002,(04)23300365,羅氏家用新冠病毒抗原自我檢測套組,77,2022/05/01 13:43:03,快篩代售時間14:00。售完即提早結束。
5903180142,峰正藥局,臺中市霧峰區中正路８３０號１樓,120.6987,24.06244,(04)23303353,羅氏家用新冠病毒抗原自我檢測套組,78,2022/05/01 13:43:03,快篩實名制，每天16:00開始販售，售完為止。
5903190022,藥源藥局,臺中市太平區中山路４段２２０號,120.7019,24.14817,(04)23955108,羅氏家用新冠病毒抗原自我檢測套組,71,2022/05/01 13:43:03,周一至周六9:00~9:30營業，星期日，國定假日公休
5903190148,亞洲藥師連鎖大藥局,臺中市太平區中山路２段４５８號,120.7253,24.14984,(04)23921681,羅氏家用新冠病毒抗原自我檢測套組,78,2022/05/01 13:43:03,實名制快篩，每天14:30開賣，一人一卡，請自備500元
5903190362,太平中山藥局,臺中市太平區中山路４段１１號,120.7139,24.14931,(04)23959200,羅氏家用新冠病毒抗原自我檢測套組,78,2022/05/01 13:43:03,快篩實名制，每天16:00開始販售，售完為止。
5903190693,維肯藥局,臺中市太平區中興路７８－１號１樓,120.7163,24.12783,(04)23512198,羅氏家用新冠病毒抗原自我檢測套組,78,2022/05/01 13:43:03,實名制快篩 星期一~六早上九點開始發放
5903190700,佑全太平藥局,臺中市太平區樹德路１２１號１樓,120.712,24.15444,(04)23910016,羅氏家用新冠病毒抗原自我檢測套組,78,2022/05/01 13:43:03,5／1實名制快篩:13:40發號碼牌.14點開始販售
5903200318,廣信藥局,臺中市大里區益民路１段１６４號１樓,120.6924,24.10673,(04)24829981,羅氏家用新冠病毒抗原自我檢測套組,54,2022/05/01 13:43:03,周一至周六，下午13:30~售完為止
5903200372,國光丁丁藥局,臺中市大里區國光路２段５５１－１號１樓,120.6788,24.11241,(04)24069711,羅氏家用新冠病毒抗原自我檢測套組,27,2022/05/01 13:43:03,星期一至星期日早上9點依排隊順序直接領取
5903200514,大明永欣藥局,臺中市大里區大明路５３９號１樓、５４１號１樓,120.6735,24.11478,(04)24068864,羅氏家用新冠病毒抗原自我檢測套組,78,2022/05/01 13:43:03,實名制快篩每天下午2點開始發號碼牌
5903200541,大里康媞藥局,臺中市大里區塗城路４９４號,120.7024,24.08867,(04)24966627,羅氏家用新冠病毒抗原自我檢測套組,78,2022/05/01 13:43:03,快篩下午兩點開始
5903200596,大樹大里藥局,臺中市大里區中興路二段１０１號,120.6885,24.10305,(04)24861133,羅氏家用新冠病毒抗原自我檢測套組,78,2022/05/01 13:43:03,快篩實名制，每天16:00開始販售，售完為止。
5903200621,德芳東榮藥局,臺中市大里區東榮路８號,120.6893,24.1102,(04)24863898,羅氏家用新冠病毒抗原自我檢測套組,156,2022/05/01 13:43:03,快篩販售時間：下午3點~6點，現場排隊，完售即停
5903200658,德芳成功藥局,臺中市大里區成功路５３５－３號１樓,120.7033,24.0913,(04)24920298,羅氏家用新冠病毒抗原自我檢測套組,152,2022/05/01 13:43:03,快篩販售時間:下午3點~6點
5903200667,永欣東榮藥局,臺中市大里區東榮路３７０號１樓,120.6836,24.11032,(04)24810599,羅氏家用新冠病毒抗原自我檢測套組,2,2022/05/01 13:43:03,無
5903200685,塗城藥局,臺中市大里區中興路一段１８７、１８９、１９１號１樓,120.6933,24.09008,(04)24967234,羅氏家用新冠病毒抗原自我檢測套組,78,2022/05/01 13:43:03,快篩實名制，每天16:00開始販售，售完為止。
5903200701,大益藥局,臺中市大里區益民路二段３３５號１、２樓,120.6837,24.11311,(04)24811551,羅氏家用新冠病毒抗原自我檢測套組,78,2022/05/01 13:43:03,快篩實名制，每天16:00開始販售，售完為止。
5903200756,佑全大里大明藥局,臺中市大里區大明路３６０、３６２號,120.6787,24.11511,(04)24818633,羅氏家用新冠病毒抗原自我檢測套組,78,2022/05/01 13:43:03,實名制快篩，開賣時間:下午14:00，售完為止
5903230209,東京藥師藥局,臺中市東區復興路五段１４９號１樓,120.6893,24.14543,(04)22132278,羅氏家用新冠病毒抗原自我檢測套組,78,2022/05/01 13:43:03,無
5903230236,佳境藥局,臺中市東區大智路１－１號１樓,120.6881,24.13635,(04)22211395,羅氏家用新冠病毒抗原自我檢測套組,78,2022/05/01 13:43:03,下午14:00開始販售實名制快篩
5903240170,美村全成藥局,臺中市西區美村路１段２２２號１樓,120.6615,24.14875,(04)23014006,羅氏家用新冠病毒抗原自我檢測套組,78,2022/05/01 13:43:03,5／1快篩未到貨   暫停販賣
5903240198,鑫祐藥局,臺中市西區民權路３０２－５號,120.67,24.14767,(04)23027778,羅氏家用新冠病毒抗原自我檢測套組,41,2022/05/01 13:43:03,快篩早上09:00開始販售，1人1卡，週一至週六早上銷售，週日停售
5903240385,喆星藥局,臺中市西區精誠路４２２號,120.655,24.14522,(04)24715301,羅氏家用新冠病毒抗原自我檢測套組,61,2022/05/01 13:43:03,快篩試劑下午2點現場排隊領號碼牌，售完為止
5903240447,大樹五權藥局,臺中市西區五權路９７－１號１樓,120.6717,24.14626,(04)22022910,羅氏家用新冠病毒抗原自我檢測套組,78,2022/05/01 13:43:03,快篩實名制，每天16:00開始販售，售完為止。
5903240474,佑全台中向上藥局,臺中市西區向上路一段３８６、３８８號１樓,120.6559,24.14688,(04)23204732,羅氏家用新冠病毒抗原自我檢測套組,78,2022/05/01 13:43:03,因政府配貨時間不一，依照門市現場公告時間為主
5903240483,名華藥局,臺中市西區中華路一段７號１樓,120.6732,24.14209,(04)22231187,羅氏家用新冠病毒抗原自我檢測套組,78,2022/05/01 13:43:03,實名制快篩，5／1週日PM3:00開賣
5903250381,大樹美村藥局,臺中市南區美村南路１２４號,120.667,24.11499,(04)22621113,羅氏家用新冠病毒抗原自我檢測套組,78,2022/05/01 13:43:03,口罩販售時間：14:00 - 16:00
5903250550,旭康藥局,臺中市南區台中路３８０號１樓,120.6841,24.12652,(04)22857372,羅氏家用新冠病毒抗原自我檢測套組,78,2022/05/01 13:43:03,實名制快篩每天下午3點販售
5903250578,樂碩藥局,臺中市南區建國南路一段２５９號１樓,120.6583,24.12491,(04)22601288,羅氏家用新冠病毒抗原自我檢測套組,78,2022/05/01 13:43:03,快篩週一到週六15:00、週日16:30開始販售，售完為止
5903250612,杏一南區台中藥局,臺中市南區台中路６６、６８號１樓,120.683,24.1339,(04)22220652,羅氏家用新冠病毒抗原自我檢測套組,78,2022/05/01 13:43:03,每日早上10點開始販售實名制快篩，售完為止。
5903260270,冠安藥局,臺中市北區進化路５１０、５１２號,120.6946,24.16047,(04)22335770,羅氏家用新冠病毒抗原自我檢測套組,2,2022/05/01 13:43:03,快篩10點半開賣
5903260341,台中漢口藥局,臺中市北區漢口路３段１８３號,120.6711,24.16703,(04)22936166,羅氏家用新冠病毒抗原自我檢測套組,78,2022/05/01 13:43:03,實名制快篩販售時間：下午2點
5903260449,喜樂藥局,臺中市北區中清路１段３１號,120.677,24.1529,(04)22060423,羅氏家用新冠病毒抗原自我檢測套組,7,2022/05/01 13:43:03,無
5903260743,黎明安德藥局,臺中市北區中清路１段８５２號１樓,120.6718,24.17295,(04)22956098,羅氏家用新冠病毒抗原自我檢測套組,78,2022/05/01 13:43:03,禮拜四公休、禮拜日下午2點開始營業，下午3點開始販賣快篩
5903260814,杏一北區文心藥局,臺中市北區文心路４段２１０－８號１、２樓,120.678,24.1729,(04)22993847,羅氏家用新冠病毒抗原自我檢測套組,78,2022/05/01 13:43:03,防疫口罩每日中午12時開始販售
5903260912,莒光藥局,臺中市北區錦南街１２號１樓,120.6886,24.15399,(04)22336663,羅氏家用新冠病毒抗原自我檢測套組,78,2022/05/01 13:43:03,5／1 下午3點準時開賣 78份售完為止
5903260930,大西洋藥局,臺中市北區北平路２段２８號１樓,120.6726,24.17165,(04)22932469,羅氏家用新冠病毒抗原自我檢測套組,11,2022/05/01 13:43:03,無
5903261008,台中大樹藥局,臺中市北區漢口路三段２６１號,120.6726,24.16703,(04)22981113,羅氏家用新冠病毒抗原自我檢測套組,78,2022/05/01 13:43:03,快篩實名制，每天16:00開始販售，售完為止。
5903270310,弘福藥師藥局,臺中市西屯區西屯路３段１６６－２１號１樓,120.6159,24.18918,(04)24611916,羅氏家用新冠病毒抗原自我檢測套組,78,2022/05/01 13:43:03,每日15:00發放號碼牌，發完即開始販售（全年無休）
5903270570,百富藥局,臺中市西屯區福上巷１６號,120.6425,24.17577,(04)22970708,羅氏家用新冠病毒抗原自我檢測套組,22,2022/05/01 13:43:03,營業時間（=發快篩，當日量售完為止）: 週一到週五 8~13+午休+15~21， 週六8~16， 週日8~12／ Line id:buyfu
5903270776,河南丁丁藥局,臺中市西屯區河南路４段１９１號,120.6367,24.15565,(04)22511658,羅氏家用新冠病毒抗原自我檢測套組,65,2022/05/01 13:43:03,周一至周日每天上午9:00開始販售口罩[有口罩庫存時]
5903270810,佑全福星藥局,臺中市西屯區黎明路三段３９５、３９７號,120.639,24.18251,(04)24527465,羅氏家用新冠病毒抗原自我檢測套組,78,2022/05/01 13:43:03,周一至週日下午2:00開始發放快篩實名制，售完為止
5903270865,尚禾藥局,臺中市西屯區青海路一段６５號,120.6548,24.16438,(04)23147688,羅氏家用新冠病毒抗原自我檢測套組,117,2022/05/01 13:43:03,實名制快篩發放時間：第一時段中午12:30~14:00。第二時段20：30~22：30。第一時段若未發完，餘量將遞延至第二時段發放。
5903270883,祥和大藥局,臺中市西屯區青海路二段２４０－９號,120.6418,24.17323,(04)27000122,羅氏家用新冠病毒抗原自我檢測套組,12,2022/05/01 13:43:03,快篩販售時間：每日下午1點至夜間10點。
5903270909,元生藥局,臺中市西屯區大墩路９６０號,120.6516,24.15817,(04)23274539,羅氏家用新冠病毒抗原自我檢測套組,78,2022/05/01 13:43:03,口罩販售時段:9:00-21:00
5903271004,西屯青育藥師藥局,臺中市西屯區西屯路二段２９５－３號１樓,120.6425,24.17735,(04)27077898,羅氏家用新冠病毒抗原自我檢測套組,77,2022/05/01 13:43:03,無
5903271022,西屯藥局,臺中市西屯區西屯路三段１５０－４５號１樓,120.621,24.18716,(04)24621822,羅氏家用新冠病毒抗原自我檢測套組,156,2022/05/01 13:43:03,快篩實名制，每天16:00開始販售，售完為止。
5903271059,安德藥局,臺中市西屯區福康路１７號１樓,120.6165,24.1833,(04)24638302,羅氏家用新冠病毒抗原自我檢測套組,78,2022/05/01 13:43:03,實名制快篩下午2:00開始販售（請排隊自備現金不找零）
5903271068,西墩藥局,臺中市西屯區黎明路三段２７５、２７７號１樓,120.6373,24.17812,(04)24510770,羅氏家用新冠病毒抗原自我檢測套組,78,2022/05/01 13:43:03,快篩實名制，每天16:00開始販售，售完為止。
5903271086,常春藤藥局,臺中市西屯區福康路８０號１樓,120.618,24.18603,(04)24619296,羅氏家用新冠病毒抗原自我檢測套組,78,2022/05/01 13:43:03,每日下午兩點到四點、晚上七點到九點 販賣防疫家用快篩
5903271175,維康中榮藥局,臺中市西屯區東大路一段１３號１樓,120.6022,24.18315,(04)23593195,羅氏家用新冠病毒抗原自我檢測套組,34,2022/05/01 13:43:03,無
5903271193,何安藥局,臺中市西屯區西屯路二段１０１號Ｂ棟１樓,120.6531,24.16616,(04)23161110,羅氏家用新冠病毒抗原自我檢測套組,78,2022/05/01 13:43:03,快篩實名制，每天16:00開始販售，售完為止。
5903271282,禾安藥局,臺中市西屯區西屯路二段１２６之８號,120.6518,24.16682,(04)23176162,羅氏家用新冠病毒抗原自我檢測套組,46,2022/05/01 13:43:03,無
5903271291,西屯長安藥局,臺中市西屯區成都路３６８號１樓,120.6641,24.17322,(04)22981221,羅氏家用新冠病毒抗原自我檢測套組,78,2022/05/01 13:43:03,快篩實名制，每天16:00開始販售，售完為止。
5903280067,博川健保藥局,臺中市南屯區大墩５街２９８號１樓,120.6486,24.14257,(04)24732995,羅氏家用新冠病毒抗原自我檢測套組,78,2022/05/01 13:43:03,實名制快篩12:00開始販售
5903280245,大墩何藥局,臺中市南屯區大敦南路４３１號１．２樓,120.6476,24.13497,(04)24710655,羅氏家用新冠病毒抗原自我檢測套組,78,2022/05/01 13:43:03,防疫用快篩試劑下午4點開始販售，售完為止
5903280325,亞洲連鎖大藥局,臺中市南屯區黎明路２段１３３、１３５號,120.6336,24.15977,(04)23812886,羅氏家用新冠病毒抗原自我檢測套組,78,2022/05/01 13:43:03,無
5903280521,百康健保藥局,臺中市南屯區黎明路二段３６３號,120.6353,24.15033,(04)22547776,羅氏家用新冠病毒抗原自我檢測套組,78,2022/05/01 13:43:03,營業每日上午8:30到晚上22:30!實名制快篩販售下午三點開始
5903280567,康總藥局,臺中市南屯區南屯路二段１０１號１樓,120.6524,24.13579,(04)24735285,羅氏家用新冠病毒抗原自我檢測套組,4,2022/05/01 13:43:03,周一到周日每日上午9:30開始販賣，賣完為止（營業時間到晚上10:00）。
5903280576,佑全黎明藥局,臺中市南屯區黎明路２段２６６號,120.6359,24.14816,(04)23805560,羅氏家用新冠病毒抗原自我檢測套組,78,2022/05/01 13:43:03,實名制快篩販售時間下午兩點
5903280763,全順藥局,臺中市南屯區永春東路３３９號１樓,120.6477,24.13447,(04)24730983,羅氏家用新冠病毒抗原自我檢測套組,78,2022/05/01 13:43:03,實名制口罩販賣時段-平日8：00~12:00，15:00~21:00，週六8點~13點，周日公休
5903280807,大樹南屯藥局,臺中市南屯區向上路一段６４３號１樓,120.6486,24.14659,(04)24758887,羅氏家用新冠病毒抗原自我檢測套組,78,2022/05/01 13:43:03,快篩實名制，每天16:00開始販售，售完為止。
5903280889,精科藥局,臺中市南屯區嶺東路３２１號１樓,120.6106,24.14513,(04)23806288,羅氏家用新冠病毒抗原自我檢測套組,68,2022/05/01 13:43:03,5／1發放時間為下午2：00，發完為止
5903280898,佑全台中忠勇藥局,臺中市南屯區忠勇路５１－８號１樓,120.614,24.14376,(04)23803282,羅氏家用新冠病毒抗原自我檢測套組,78,2022/05/01 13:43:03,實名制快篩發放號碼牌13:50  販售14:00（限量78份）
5903290661,康博中西健保藥局,臺中市北屯區后庄一街７號１樓,120.6644,24.1865,(04)24252468,羅氏家用新冠病毒抗原自我檢測套組,78,2022/05/01 13:43:03,快篩發放於下午01:00作業.週六.日及假日下午06:30開始
5903290867,軍功啄木鳥藥局,臺中市北屯區軍功路二段１７５號,120.7195,24.17982,(04)22390160,羅氏家用新冠病毒抗原自我檢測套組,35,2022/05/01 13:43:03,每日0820至售完為止
5903290876,北屯軍功藥局,臺中市北屯區軍功路一段７５２號,120.7193,24.17513,(04)24375111,羅氏家用新冠病毒抗原自我檢測套組,78,2022/05/01 13:43:03,快篩實名制，每天16:00開始販售，售完為止。
5903290929,微笑藥局,臺中市北屯區昌平路一段３１８號１樓,120.6907,24.17344,(04)22432699,羅氏家用新冠病毒抗原自我檢測套組,156,2022/05/01 13:43:03,【快篩試劑】下午2:30起~現場排隊~
5903290965,崇德藥局,臺中市北屯區崇德路二段３１號,120.685,24.16962,(04)22361331,羅氏家用新冠病毒抗原自我檢測套組,79,2022/05/01 13:43:03,快篩實名制，每天16:00開始販售，售完為止。
5903290983,祥和藥局,臺中市北屯區太原路三段１４７號１樓,120.6901,24.16507,(04)22369603,羅氏家用新冠病毒抗原自我檢測套組,76,2022/05/01 13:43:03,快篩販售4／30後：下午2點開始
5903290992,益川健保藥局,臺中市北屯區昌平路二段４７－１號１樓,120.6829,24.1917,(04)24213696,羅氏家用新冠病毒抗原自我檢測套組,78,2022/05/01 13:43:03,快篩試劑早上10點現場販售，售完為止，星期日下午3點開始販售
5903291006,五和健保藥局,臺中市北屯區崇德路二段４６０號１樓,120.6863,24.18001,(04)22415533,羅氏家用新冠病毒抗原自我檢測套組,78,2022/05/01 13:43:03,週六公休 。周一至周五 14:30 發號碼牌 15:00販售； 週日 9:00發號碼牌 10:00販售
5903291131,兩隻老虎藥局,臺中市北屯區崇德路２段１２號１樓,120.6855,24.16869,(04)22364635,羅氏家用新冠病毒抗原自我檢測套組,78,2022/05/01 13:43:03,營業時間早上九點到晚上九點半（快篩下午兩點開賣）
5903291140,興安藥局,臺中市北屯區興安路二段５２號１、２樓,120.6949,24.1762,(04)22460369,羅氏家用新冠病毒抗原自我檢測套組,76,2022/05/01 13:43:03,快篩實名制，每天16:00開始販售，售完為止。
5903291168,日初藥局,臺中市北屯區軍功路一段４８２－３號１樓,120.7188,24.17102,(04)24363150,羅氏家用新冠病毒抗原自我檢測套組,78,2022/05/01 13:43:03,無
5903291257,新一代何藥局,臺中市北屯區環中東路二段２６６、２６８號１樓,120.7207,24.17576,(04)24364366,羅氏家用新冠病毒抗原自我檢測套組,78,2022/05/01 13:43:03,5／1（日）下午開賣
5903291266,佑全台中興安藥局,臺中市北屯區興安路一段２５３號,120.6941,24.17221,(04)22490355,羅氏家用新冠病毒抗原自我檢測套組,78,2022/05/01 13:43:03,無
5905010143,啄木鳥藥師藥局,臺南市新營區新南里民治路２４２號,120.3041,23.30767,(06)6590248,羅氏家用新冠病毒抗原自我檢測套組,78,2022/05/01 13:43:03,5／1晚上6:00開賣
5905010250,大樹新營藥局,臺南市新營區民權路７４、７６、７８號１樓,120.3127,23.30615,(06)6328300,羅氏家用新冠病毒抗原自我檢測套組,78,2022/05/01 13:43:03,快篩實名制，每天16:00開始販售，售完為止。
5905020023,大樹鹽水藥局,臺南市鹽水區朝琴路１２６－３號１樓,120.271,23.32228,(06)6520432,羅氏家用新冠病毒抗原自我檢測套組,78,2022/05/01 13:43:03,快篩實名制，每天16:00開始販售，售完為止。
5905030092,大樹白河藥局,臺南市白河區中山路１５３號１樓,120.417,23.35255,(06)6830006,羅氏家用新冠病毒抗原自我檢測套組,78,2022/05/01 13:43:03,快篩實名制，每天16:00開始販售，售完為止。
5905040141,大樹麻豆藥局,臺南市麻豆區中山路４８、５０號１樓,120.2469,23.18382,(06)5716556,羅氏家用新冠病毒抗原自我檢測套組,78,2022/05/01 13:43:03,快篩實名制，每天16:00開始販售，售完為止。
5905050058,佳里啄木鳥藥局,臺南市佳里區延平路７６號１樓,120.1795,23.15507,(06)7236396,羅氏家用新冠病毒抗原自我檢測套組,78,2022/05/01 13:43:03,0900-售完為止
5905050209,大樹佳里藥局,臺南市佳里區延平路２３７號１樓,120.1783,23.1599,(06)7231323,羅氏家用新冠病毒抗原自我檢測套組,78,2022/05/01 13:43:03,快篩實名制，每天16:00開始販售，售完為止。
5905060161,和德藥局新化店,臺南市新化區清水里中山路４２０號１樓,120.3047,23.0359,(06)5802518,羅氏家用新冠病毒抗原自我檢測套組,78,2022/05/01 13:43:03,快篩販售時間:星期一~星期六 一人限2 張卡下午3點~售完
5905060198,大樹新化藥局,臺南市新化區中正路５３１號１樓,120.3072,23.03764,(06)5901331,羅氏家用新冠病毒抗原自我檢測套組,78,2022/05/01 13:43:03,快篩實名制，每天16:00開始販售，售完為止。
5905070121,大樹善化藥局,臺南市善化區民權路５４、５６、５８號１樓,120.3034,23.1322,(06)5830550,羅氏家用新冠病毒抗原自我檢測套組,78,2022/05/01 13:43:03,快篩實名制，每天16:00開始販售，售完為止。
5905080056,大樹學甲藥局,臺南市學甲區中正路１３５號１樓,120.1793,23.23029,(06)7820001,羅氏家用新冠病毒抗原自我檢測套組,78,2022/05/01 13:43:03,快篩實名制，每天16:00開始販售，售完為止。
5905090061,安安藥局柳營店,臺南市柳營區福安一街５０號１樓,120.3126,23.27711,(06)6220585,羅氏家用新冠病毒抗原自我檢測套組,9,2022/05/01 13:43:03,快篩實名制早上8點開始販售，請帶健保卡，現場排隊!
5905200085,大樹新市藥局,臺南市新市區中正路４９、５１號１樓,120.2916,23.07223,(06)5892552,羅氏家用新冠病毒抗原自我檢測套組,78,2022/05/01 13:43:03,快篩實名制，每天16:00開始販售，售完為止。
5905210027,愛心藥師藥局,臺南市安定區港南里港口１４７號,120.233,23.09041,(06)5935104,羅氏家用新冠病毒抗原自我檢測套組,1,2022/05/01 13:43:03,春節營業時間請電洽或依現場公告
5905270041,仁德市安藥師藥局,臺南市仁德區中正西路２５號,120.2244,22.91814,(06)2661933,羅氏家用新冠病毒抗原自我檢測套組,78,2022/05/01 13:43:03,快篩販賣：5／1 及5／2~以貨運配送抵達時間再決定販售時間
5905270176,大樹仁德藥局,臺南市仁德區中正路二段１１５２號１樓,120.2519,22.97062,(06)2797466,羅氏家用新冠病毒抗原自我檢測套組,78,2022/05/01 13:43:03,快篩實名制，每天16:00開始販售，售完為止。
5905280109,大樹青青藥局,臺南市歸仁區中山路三段１２號,120.2875,22.96765,(06)2300301,羅氏家用新冠病毒抗原自我檢測套組,78,2022/05/01 13:43:03,快篩實名制，每天16:00開始販售，售完為止。
5905280163,歸仁丁丁藥局,臺南市歸仁區中山路三段７３號１樓,120.2861,22.96753,(06)2300767,羅氏家用新冠病毒抗原自我檢測套組,47,2022/05/01 13:43:03,快篩實名制早上9點販售，發號碼牌
5905290034,大樹關廟藥局,臺南市關廟區中央路２６３號１樓,120.3272,22.96109,(06)5965889,羅氏家用新冠病毒抗原自我檢測套組,78,2022/05/01 13:43:03,快篩實名制，每天16:00開始販售，售完為止。
5905310344,昱賢藥師藥局中正店,臺南市永康區中正路１４１、１４３號１樓,120.2375,23.04097,(06)2021535,羅氏家用新冠病毒抗原自我檢測套組,78,2022/05/01 13:43:03,快篩販售時間：星期一~星期日每天14點購買快篩
5905310817,永大啄木鳥藥局,臺南市永康區永大路二段３９７號１樓,120.2632,23.01227,(06)2071575,羅氏家用新冠病毒抗原自我檢測套組,78,2022/05/01 13:43:03,快篩販售星期一~星期日15:00~售完
5905310880,永東藥局,臺南市永康區中山路５５號１樓,120.2562,23.02921,(06)2318700,羅氏家用新冠病毒抗原自我檢測套組,38,2022/05/01 13:43:03,口罩販售時間：星期一~五09:45~11:45、16:00~18:00星期六08.30~10.30、16:00~18:00 星期日08:30~10:30
5905311010,樂丞藥局,臺南市永康區中正北路６０號１樓,120.2406,23.04138,(06)2433319,羅氏家用新冠病毒抗原自我檢測套組,78,2022/05/01 13:43:03,快篩販售時間：晚上七點開賣至售完
5905311074,中華長億藥局,臺南市永康區中華路７３４、７３６號１樓,120.2288,23.0167,(06)3022322,羅氏家用新冠病毒抗原自我檢測套組,78,2022/05/01 13:43:03,快篩實名制，每天16:00開始販售，售完為止。
5905311127,台南永康藥局,臺南市永康區中山南路８１６、８１６─１、２、３號１樓,120.2471,23.02099,(06)2020201,羅氏家用新冠病毒抗原自我檢測套組,79,2022/05/01 13:43:03,快篩實名制，每天16:00開始販售，售完為止。
5905311145,慈惠中西藥局,臺南市永康區北興里北興路３５８號１樓,120.2709,23.01289,(06)2050956,羅氏家用新冠病毒抗原自我檢測套組,78,2022/05/01 13:43:03,快篩實名制：週一至週日14:00開始販售（以實際到貨時間為主）
5905311190,和德藥局大灣店,臺南市永康區崑山里永大路二段９號１樓,120.2595,23.00127,(06)2735049,羅氏家用新冠病毒抗原自我檢測套組,78,2022/05/01 13:43:03,快篩販售時間14:30-17:00
5905320135,安麗兒藥局裕農店,臺南市東區裕農路１００號１樓,120.2268,22.9857,(06)2377378,羅氏家用新冠病毒抗原自我檢測套組,78,2022/05/01 13:43:03,無
5905320466,佑全中華藥局,臺南市東區中華東路三段２１５號,120.2253,22.97603,(06)2906386,羅氏家用新冠病毒抗原自我檢測套組,77,2022/05/01 13:43:03,星期一-六08:00-21:00
5905320608,中華台安藥局,臺南市東區中華東路一段４號１樓,120.2344,22.99818,(06)2092622,羅氏家用新冠病毒抗原自我檢測套組,21,2022/05/01 13:43:03,固定週一至周五13點-16點販售口罩，售完為止，現場為主
5905320635,晉大藥局,臺南市東區東光里東興路２６４號１樓,120.2298,22.99522,(06)2092580,羅氏家用新冠病毒抗原自我檢測套組,72,2022/05/01 13:43:03,快篩實名制下午3點開始販售
5905320706,悅橙藥局,臺南市東區崇明路４５９號１樓,120.2247,22.97311,(06)2605168,羅氏家用新冠病毒抗原自我檢測套組,78,2022/05/01 13:43:03,無
5905320797,大樹自由藥局,臺南市東區自由路三段３８２號１樓,120.2373,22.98241,(06)2890800,羅氏家用新冠病毒抗原自我檢測套組,78,2022/05/01 13:43:03,快篩實名制，每天16:00開始販售，售完為止。
5905320804,大樹大同藥局,臺南市東區大同路二段２２７、２２９號１樓,120.2143,22.97567,(06)2158700,羅氏家用新冠病毒抗原自我檢測套組,78,2022/05/01 13:43:03,快篩實名制，每天16:00開始販售，售完為止。
5905320868,大樹東寧藥局,臺南市東區東寧路４３６號１樓,120.2291,22.9895,(06)2360006,羅氏家用新冠病毒抗原自我檢測套組,78,2022/05/01 13:43:03,快篩實名制，每天16:00開始販售，售完為止。
5905320886,中華崇德藥局,臺南市東區中華東路三段１８１、１８３號１樓,120.2259,22.97667,(06)2880800,羅氏家用新冠病毒抗原自我檢測套組,78,2022/05/01 13:43:03,快篩實名制，每天16:00開始販售，售完為止。
5905320911,大樹崇道藥局,臺南市東區崇道路６３號１樓,120.2272,22.97227,(06)2680456,羅氏家用新冠病毒抗原自我檢測套組,79,2022/05/01 13:43:03,快篩實名制，每天16:00開始販售，售完為止。
5905320948,崇明台安藥局,臺南市東區崇明路３０４號１樓,120.2198,22.97762,(06)2900350,羅氏家用新冠病毒抗原自我檢測套組,70,2022/05/01 13:43:03,無
5905320975,萬錠藥局,臺南市東區崇成里崇德路６１９號１樓,120.2277,22.97181,(06)2679299,羅氏家用新冠病毒抗原自我檢測套組,156,2022/05/01 13:43:03,無
5905330159,勝一藥局,臺南市南區省躬里灣裡路９０號１樓,120.1807,22.93114,(06)2626168,羅氏家用新冠病毒抗原自我檢測套組,156,2022/05/01 13:43:03,快篩實名制時間:下午2點~售完
5905330275,太子藥局大同店,臺南市南區大同路二段３４８號１樓,120.2138,22.97574,(06)2158339,羅氏家用新冠病毒抗原自我檢測套組,2,2022/05/01 13:43:03,快篩實名制：星期一至星期日，9:00起至售完為止。
5905330337,千薏台安藥局,臺南市南區金華路二段２號１樓,120.1912,22.97556,(06)2638265,羅氏家用新冠病毒抗原自我檢測套組,50,2022/05/01 13:43:03,快篩試劑每天下午兩點開始銷售
5905340235,人人藥局,臺南市中西區和緯路５段１９７號１樓,120.1845,23.00393,(06)3583668,羅氏家用新冠病毒抗原自我檢測套組,78,2022/05/01 13:43:03,快篩，每日下午兩點開始過卡販售。
5905350035,海安藥師藥局,臺南市北區北成路４１８號１樓,120.202,23.01928,(06)2814600,羅氏家用新冠病毒抗原自我檢測套組,38,2022/05/01 13:43:03,快篩販售時間.週一至週五中午12點
5905350133,大昌藥局,臺南市北區北安路１段１３２號１樓,120.2127,23.01481,(06)2519121,羅氏家用新冠病毒抗原自我檢測套組,78,2022/05/01 13:43:03,下午3點開賣快篩
5905350366,千多藥局,臺南市北區金華路五段１號,120.1962,23.0016,(06)2228641,羅氏家用新冠病毒抗原自我檢測套組,78,2022/05/01 13:43:03,晚上6點開始銷售實名制快篩試劑，賣完為止
5905370304,大樹安南藥局,臺南市安南區安和路四段５５７號１樓,120.2185,23.06181,(06)3563370,羅氏家用新冠病毒抗原自我檢測套組,78,2022/05/01 13:43:03,口罩販賣時段：14:00 - 16:00
5905370466,大樹北安藥局,臺南市安南區北安路三段１５８號１樓,120.2036,23.04256,(06)2553633,羅氏家用新冠病毒抗原自我檢測套組,78,2022/05/01 13:43:03,快篩實名制，每天16:00開始販售，售完為止。
5905380097,宜康永華藥局,臺南市安平區國平里永華路二段７８５號１樓,120.1701,22.99098,(06)2930119,羅氏家用新冠病毒抗原自我檢測套組,78,2022/05/01 13:43:03,快篩販售:星期一~日:15~16點， 備妥剛好金額
5905380239,怡家藥局,臺南市安平區國平里華平路１４６─５號１樓,120.174,22.98438,(06)2970519,羅氏家用新冠病毒抗原自我檢測套組,78,2022/05/01 13:43:03,本週日5／1（08:00-10:00售完為止）特地加開發售公費快篩
5905380408,永華啄木鳥藥局,臺南市安平區永華路二段３６９號１樓,120.1806,22.98956,(06)2985173,羅氏家用新冠病毒抗原自我檢測套組,78,2022/05/01 13:43:03,快篩暫定於每日早上10點30分販售
5905380426,好朋友藥師藥局,臺南市安平區建平七街６８３號１樓,120.1692,22.98999,(06)2997907,羅氏家用新冠病毒抗原自我檢測套組,78,2022/05/01 13:43:03,無
5907010150,育英藥局文德店,高雄市鳳山區文德路２９號,120.3527,22.63836,(07)7777059,羅氏家用新冠病毒抗原自我檢測套組,78,2022/05/01 13:43:03,營業時間上午12:00~下午10:00藥局發口罩時間為下午:12:00售完為止
5907010427,好郝藥局鳳林店,高雄市鳳山區誠智里鳳林路２９０號,120.3779,22.62216,(07)7869188,羅氏家用新冠病毒抗原自我檢測套組,156,2022/05/01 13:43:03,健保快篩周一到周日下午三點開始現場販售，售完為止
5907010730,鳳山啄木鳥藥局,高雄市鳳山區善美里保泰路３３６號１樓,120.3348,22.60287,(07)7162314,羅氏家用新冠病毒抗原自我檢測套組,78,2022/05/01 13:43:03,營業日08:50發號碼牌，發完立即販售，售完為止
5907011004,永豐久億藥局,高雄市鳳山區和興里五甲一路１１號１樓,120.3586,22.62189,(07)7104281,羅氏家用新冠病毒抗原自我檢測套組,32,2022/05/01 13:43:03,無
5907011095,鳳山五甲藥局,高雄市鳳山區正義里五甲二路１３９號１樓,120.3409,22.6014,(07)7269899,羅氏家用新冠病毒抗原自我檢測套組,78,2022/05/01 13:43:03,快篩實名制，每天16:00開始販售，售完為止。
5907011111,壹然藥局,高雄市鳳山區中正里瑞興路４６２號１樓,120.3713,22.63084,(07)7014755,羅氏家用新冠病毒抗原自我檢測套組,11,2022/05/01 13:43:03,今日已停止營業販售，明日5／1（日）早上8:30開始販賣，剩餘22，其餘須等政府當日配售，時間不定
5907011148,大樹國泰藥局,高雄市鳳山區興仁里五甲一路２９２號,120.3539,22.61698,(07)7407234,羅氏家用新冠病毒抗原自我檢測套組,78,2022/05/01 13:43:03,快篩實名制，每天16:00開始販售，售完為止。
5907011175,鳳西藥局,高雄市鳳山區忠義里中山西路２３８號１樓,120.3471,22.62831,(07)7902717,羅氏家用新冠病毒抗原自我檢測套組,78,2022/05/01 13:43:03,快篩實名制，每天16:00開始販售，售完為止。
5907011317,凱旋藥局,高雄市鳳山區國隆里新富路３７３號１樓,120.3475,22.61494,(07)7671181,羅氏家用新冠病毒抗原自我檢測套組,78,2022/05/01 13:43:03,快篩實名制，每天16:00開始販售，售完為止。
5907011362,佑全鳳山藥局,高雄市鳳山區文德里青年路二段４６３號１－２樓,120.3498,22.64513,(07)7801568,羅氏家用新冠病毒抗原自我檢測套組,78,2022/05/01 13:43:03,無
5907011371,大樹五甲藥局,高雄市鳳山區福祥里五甲三路２４號１－２樓．２６號１－２樓,120.3278,22.59317,(07)8224926,羅氏家用新冠病毒抗原自我檢測套組,78,2022/05/01 13:43:03,快篩實名制，每天16:00開始販售，售完為止。
5907020030,鑫德昌藥局,高雄市岡山區溪東路３８號１樓,120.2915,22.79249,(07)6233338,羅氏家用新冠病毒抗原自我檢測套組,78,2022/05/01 13:43:03,實名制快篩 販售時間 14:30-16:00
5907020085,大德藥局,高雄市岡山區大德一路９８號,120.3025,22.79689,(07)6221456,羅氏家用新冠病毒抗原自我檢測套組,78,2022/05/01 13:43:03,快篩實名制，每天16:00開始販售，售完為止。
5907020094,大樹岡山藥局,高雄市岡山區岡山路１３６號,120.2967,22.78913,(07)6219477,羅氏家用新冠病毒抗原自我檢測套組,78,2022/05/01 13:43:03,快篩實名制，每天16:00開始販售，售完為止。
5907030134,旗山啄木鳥藥局,高雄市旗山區中華路１０５０號,120.4828,22.87904,(07)6625728,羅氏家用新冠病毒抗原自我檢測套組,1,2022/05/01 13:43:03,發口罩時間:09:00-19:00
5907030152,旗山藥局,高雄市旗山區中華路２３號,120.4841,22.88027,(07)6621158,羅氏家用新冠病毒抗原自我檢測套組,77,2022/05/01 13:43:03,快篩實名制，每天16:00開始販售，售完為止。
5907050010,新朋友藥師連鎖藥局,高雄市林園區東林東路４４號,120.3971,22.50389,(07)6460588,羅氏家用新冠病毒抗原自我檢測套組,156,2022/05/01 13:43:03,快篩於每日下午3:30，開始發放
5907050109,林園藥局,高雄市林園區仁愛路１３號１樓,120.3928,22.50418,(07)6425855,羅氏家用新冠病毒抗原自我檢測套組,78,2022/05/01 13:43:03,快篩實名制，每天16:00開始販售，售完為止。
5907060230,華思中西藥局,高雄市大寮區永芳里進學路１２２號１樓,120.3933,22.60468,(07)7835567,羅氏家用新冠病毒抗原自我檢測套組,78,2022/05/01 13:43:03,星期一~星期六 下午四點販售實名制快篩  星期天店休
5907060267,加嘉藥局,高雄市大寮區山頂里內厝路１９１號１樓,120.3901,22.60793,(07)7860683,羅氏家用新冠病毒抗原自我檢測套組,6,2022/05/01 13:43:03,無
5907070012,舒康藥師藥局,高雄市大樹區久堂路１２９號,120.4167,22.65781,(07)6520268,羅氏家用新冠病毒抗原自我檢測套組,66,2022/05/01 13:43:03,14:00~18:00若提前售完，銷售時間提前結束。
5907070030,久堂藥局,高雄市大樹區久堂里久堂路１３６號１樓,120.4178,22.65813,(07)6512800,羅氏家用新冠病毒抗原自我檢測套組,78,2022/05/01 13:43:03,快篩實名制，每天16:00開始販售，售完為止。
5907080232,大樹仁武藥局,高雄市仁武區赤山里仁雄路８０－９號,120.3469,22.67811,(07)3744777,羅氏家用新冠病毒抗原自我檢測套組,78,2022/05/01 13:43:03,快篩實名制，每天16:00開始販售，售完為止。
5907080330,文武藥局,高雄市仁武區文武里中華路３５３號,120.3535,22.7011,(07)3733551,羅氏家用新冠病毒抗原自我檢測套組,78,2022/05/01 13:43:03,快篩實名制，每天16:00開始販售，售完為止。
5907090167,大樹大社藥局,高雄市大社區中山路３０８號１樓,120.3503,22.73145,(07)3531682,羅氏家用新冠病毒抗原自我檢測套組,78,2022/05/01 13:43:03,快篩實名制，每天16:00開始販售，售完為止。
5907100088,本館藥局,高雄市鳥松區大華里本館路１９０號１樓,120.3361,22.65556,(07)3707655,羅氏家用新冠病毒抗原自我檢測套組,78,2022/05/01 13:43:03,營業時間每日09:00-22:00  實名制快篩販賣時間15:00-20:00
5907120017,和德藥局燕巢店,高雄市燕巢區西燕里中民路６２８號,120.3612,22.79345,(07)6143499,羅氏家用新冠病毒抗原自我檢測套組,78,2022/05/01 13:43:03,5／1 因物流無配送快篩試劑，無法確定到貨時間，故早上9:00暫停發放，造成不便請見諒!!
5907150257,大樹大立藥局,高雄市路竹區國昌路５１號,120.26,22.85409,(07)6961663,羅氏家用新冠病毒抗原自我檢測套組,78,2022/05/01 13:43:03,快篩實名制，每天16:00開始販售，售完為止。
5907160093,保生藥局,高雄市湖內區葉厝里保生路３４０．３４２號,120.2195,22.90733,(07)6990800,羅氏家用新冠病毒抗原自我檢測套組,78,2022/05/01 13:43:03,快篩實名制，每天16:00開始販售，售完為止。
5907200065,復安堂藥局,高雄市梓官區信蚵里廣澤路２號１樓,120.2553,22.7297,(07)6103147,羅氏家用新冠病毒抗原自我檢測套組,78,2022/05/01 13:43:03,W一-五0830~1200，1500~1800，1900~2100，W六08:30~12:00，週日1800（實名制快篩試劑每天早上0830開始販售，售完為止）
5907280036,七賢藥局,高雄市鹽埕區七賢三路１６２號１樓,120.2829,22.62712,(07)5330616,羅氏家用新冠病毒抗原自我檢測套組,78,2022/05/01 13:43:03,快篩實名制，每天16:00開始販售，售完為止。
5907290265,新美館藥局,高雄市鼓山區中華一路９７２號,120.2919,22.65513,(07)5522006,羅氏家用新冠病毒抗原自我檢測套組,78,2022/05/01 13:43:03,無
5907290309,鼓山藥局,高雄市鼓山區華榮路１０號,120.2973,22.66156,(07)5520017,羅氏家用新冠病毒抗原自我檢測套組,78,2022/05/01 13:43:03,快篩實名制，每天16:00開始販售，售完為止。
5907290327,金好藥局,高雄市鼓山區青海路４１８號１樓,120.2845,22.65177,(07)5869556,羅氏家用新冠病毒抗原自我檢測套組,1,2022/05/01 13:43:03,無
5907290345,新高橋藥局裕明店,高雄市鼓山區裕誠路１６６８號１樓,120.294,22.66065,(07)5224680,羅氏家用新冠病毒抗原自我檢測套組,75,2022/05/01 13:43:03,連續假期正常營業
5907300088,神農健保藥局,高雄市左營區重和路１１７號,120.3121,22.68463,(07)3418228,羅氏家用新冠病毒抗原自我檢測套組,131,2022/05/01 13:43:03,星期一到六每天14點購買快篩，星期天公休
5907300239,左野藥局,高雄市左營區崇德路２２２號,120.3052,22.675,(07)3486883,羅氏家用新冠病毒抗原自我檢測套組,78,2022/05/01 13:43:03,每日營業．實名制快篩販售時間15:00-20:00售完為止! 14:50發號碼牌
5907300319,士凱藥局,高雄市左營區孟子路１７８號,120.3126,22.67387,(07)3430257,羅氏家用新冠病毒抗原自我檢測套組,78,2022/05/01 13:43:03,快篩實名制，每天14:30開始販售，售完為止。
5907300631,大樹孟子藥局,高雄市左營區孟子路２２６、２２８號,120.3112,22.67415,(07)3461772,羅氏家用新冠病毒抗原自我檢測套組,78,2022/05/01 13:43:03,快篩實名制，每天16:00開始販售，售完為止。
5907300686,左營自由藥局,高雄市左營區自由二路３５０、３５０－１號,120.3091,22.66599,(07)5589991,羅氏家用新冠病毒抗原自我檢測套組,78,2022/05/01 13:43:03,快篩實名制，每天16:00開始販售，售完為止。
5907300908,明自丁丁藥局,高雄市左營區自由二路１５２號１樓,120.3089,22.66223,(07)5568902,羅氏家用新冠病毒抗原自我檢測套組,27,2022/05/01 13:43:03,無
5907300926,高鐵藥局,高雄市左營區華夏路１３２２．１３２６號,120.312,22.68587,(07)3452797,羅氏家用新冠病毒抗原自我檢測套組,78,2022/05/01 13:43:03,快篩實名制，每天16:00開始販售，售完為止。
5907300944,左營藥局,高雄市左營區華夏路３２５號,120.2972,22.67167,(07)5501017,羅氏家用新冠病毒抗原自我檢測套組,78,2022/05/01 13:43:03,快篩實名制，每天16:00開始販售，售完為止。
5907300980,大路藥局,高雄市左營區左營大路５５－２號１樓,120.2877,22.6813,(07)5851001,羅氏家用新冠病毒抗原自我檢測套組,78,2022/05/01 13:43:03,快篩實名制，每天16:00開始販售，售完為止。
5907301012,新高橋藥局華夏店,高雄市左營區華夏路１１１０號,120.3085,22.68343,(07)3410915,羅氏家用新冠病毒抗原自我檢測套組,76,2022/05/01 13:43:03,無
5907310262,大樹楠梓藥局,高雄市楠梓區軍校路９０８號,120.2919,22.71246,(07)3632322,羅氏家用新冠病毒抗原自我檢測套組,78,2022/05/01 13:43:03,快篩實名制，每天16:00開始販售，售完為止。
5907310360,百康藥局,高雄市楠梓區右昌街４１６號,120.2884,22.71571,(07)3601281,羅氏家用新冠病毒抗原自我檢測套組,61,2022/05/01 13:43:03,賣快篩時間：周一至週六早上09:00起買快篩，至晚上10:00，周日依前日未購完之數量可續購
5907310379,德昌藥局,高雄市楠梓區德賢路２１５號,120.3053,22.72632,(07)3619998,羅氏家用新冠病毒抗原自我檢測套組,78,2022/05/01 13:43:03,實名制快篩販售時間：周一至週日，14:30至16:00，售完為止。
5907310404,藍田藥局,高雄市楠梓區藍田路１號,120.2953,22.72643,(07)3601236,羅氏家用新冠病毒抗原自我檢測套組,78,2022/05/01 13:43:03,快篩實名制，每天16:00開始販售，售完為止。
5907320133,莊敬藥局,高雄市三民區大昌一路３２號１樓,120.3278,22.65307,(07)3976079,羅氏家用新冠病毒抗原自我檢測套組,5,2022/05/01 13:43:03,無
5907320259,明誠藥局,高雄市三民區明誠一路１７２號,120.3273,22.65994,(07)3108636,羅氏家用新冠病毒抗原自我檢測套組,78,2022/05/01 13:43:03,星期一到星期六早上9點售快篩.星期日下午3點售快篩
5907320428,東京藥局,高雄市三民區建工路６８５號,120.3173,22.6478,(07)3874567,羅氏家用新冠病毒抗原自我檢測套組,78,2022/05/01 13:43:03,實名制快篩販售時間: 每日15:00-晚上20:00
5907320697,鄰好藥師藥局,高雄市三民區褒揚街２８７號,120.3398,22.64097,(07)3909589,羅氏家用新冠病毒抗原自我檢測套組,78,2022/05/01 13:43:03,購買實名制快篩時間下午14:00-16:00，各類防疫用品販售中
5907320848,仕康健保藥妝藥局,高雄市三民區建興路２２２號,120.325,22.6447,(07)3845050,羅氏家用新冠病毒抗原自我檢測套組,156,2022/05/01 13:43:03,下午3點販售，現場排隊
5907320875,耀美麗藥局,高雄市三民區中華三路２８３號,120.2931,22.63585,(07)2153885,羅氏家用新冠病毒抗原自我檢測套組,3,2022/05/01 13:43:03,中午12:00販售現場排隊（仕康健保藥局）
5907320893,大樹天祥藥局,高雄市三民區天祥一路１６７號,120.3191,22.66737,(07)3429902,羅氏家用新冠病毒抗原自我檢測套組,79,2022/05/01 13:43:03,快篩實名制，每天16:00開始販售，售完為止。
5907320900,大昌藥局,高雄市三民區大昌二路３９７號,120.3317,22.64915,(07)3961396,羅氏家用新冠病毒抗原自我檢測套組,78,2022/05/01 13:43:03,快篩實名制，每天16:00開始販售，售完為止。
5907321069,桂林活力藥局九如店,高雄市三民區懷安街１１２號１樓,120.3176,22.64095,(07)3981009,羅氏家用新冠病毒抗原自我檢測套組,78,2022/05/01 13:43:03,每天15:30發號碼牌，於18:00前兌換完畢，逾期棄權，剩餘則繼續發放
5907321078,振源藥局,高雄市三民區熱河一街３５５號１樓,120.3061,22.64365,(07)3112541,羅氏家用新冠病毒抗原自我檢測套組,83,2022/05/01 13:43:03,4／30起15:00開始販售快篩，六日皆有營業
5907321103,自由藥局,高雄市三民區自由一路７８號,120.3089,22.64422,(07)3223113,羅氏家用新冠病毒抗原自我檢測套組,78,2022/05/01 13:43:03,快篩實名制，每天16:00開始販售，售完為止。
5907321158,窩窩香藥局,高雄市三民區明哲路４２－１號１樓,120.312,22.66176,(07)3505883,羅氏家用新冠病毒抗原自我檢測套組,78,2022/05/01 13:43:03,快篩配送時間尚未固定，依FB公告販售時間為主
5907330200,新興復興藥局,高雄市新興區復興一路７６號１樓,120.3085,22.63312,(07)2352550,羅氏家用新冠病毒抗原自我檢測套組,78,2022/05/01 13:43:03,快篩實名制，每天16:00開始販售，售完為止。
5907350220,仁愛藥師藥局,高雄市苓雅區中正一路２３０號,120.3296,22.62921,(07)7222300,羅氏家用新冠病毒抗原自我檢測套組,15,2022/05/01 13:43:03,快篩販售一到五10:30開始，紅字假日12:30開始
5907350499,鑫美健保特約藥局,高雄市苓雅區光華一路１４８－５８號１樓,120.3158,22.62389,(07)7715088,羅氏家用新冠病毒抗原自我檢測套組,78,2022/05/01 13:43:03,14:00開賣實名制快篩，馨田診所配合公費快篩，慢箋免費領藥，防疫物資特賣
5907350506,大樹苓雅藥局,高雄市苓雅區中華四路１５３號,120.3001,22.61783,(07)5353111,羅氏家用新冠病毒抗原自我檢測套組,78,2022/05/01 13:43:03,快篩實名制，每天16:00開始販售，售完為止。
5907350551,大樹武廟藥局,高雄市苓雅區武廟路４３、４５號１樓,120.3314,22.63005,(07)7222268,羅氏家用新冠病毒抗原自我檢測套組,78,2022/05/01 13:43:03,快篩實名制，每天16:00開始販售，售完為止。
5907350560,成功合豐藥局,高雄市苓雅區成功一路１７０號１樓,120.2972,22.61595,(07)2695657,羅氏家用新冠病毒抗原自我檢測套組,34,2022/05/01 13:43:03,早上9點開始賣口罩~晚上9點   售完為止
5907350631,三多藥局,高雄市苓雅區三多二路２９２號１樓,120.3173,22.61838,(07)3365889,羅氏家用新冠病毒抗原自我檢測套組,78,2022/05/01 13:43:03,快篩實名制，每天16:00開始販售，售完為止。
5907360324,有承中西藥局,高雄市前鎮區德昌路２５７號１樓,120.3155,22.5849,(07)8120880,羅氏家用新冠病毒抗原自我檢測套組,54,2022/05/01 13:43:03,配合政府實名制快篩， 販售時間依政府配送時間滾動式調整
5907360379,金服安藥局,高雄市前鎮區鎮興路１９１號,120.3115,22.59249,(07)8150061,羅氏家用新冠病毒抗原自我檢測套組,78,2022/05/01 13:43:03,每日下午2-4點販賣快篩試劑
5907360413,益源藥局,高雄市前鎮區草衙二路４１８號,120.3226,22.57903,(07)8412120,羅氏家用新冠病毒抗原自我檢測套組,73,2022/05/01 13:43:03,無
5907360431,佛公健保藥局,高雄市前鎮區后平路２０２號１樓,120.3205,22.57371,(07)8317755,羅氏家用新冠病毒抗原自我檢測套組,78,2022/05/01 13:43:03,實名制快篩原則上早上10:30開始販售，售完為止。實際販售時間依到貨時間滾動式調整
5907360664,忠純藥局,高雄市前鎮區中華五路１００９號１樓,120.3056,22.60341,(07)3366886,羅氏家用新冠病毒抗原自我檢測套組,78,2022/05/01 13:43:03,快篩實名制，每天16:00開始販售，售完為止。
5907360673,前鎮大樹藥局,高雄市前鎮區瑞隆路４７２號１樓,120.3291,22.60547,(07)7137171,羅氏家用新冠病毒抗原自我檢測套組,78,2022/05/01 13:43:03,快篩實名制，每天16:00開始販售，售完為止。
5907380184,桂林活力藥師藥局孔鳳店,高雄市小港區孔鳳路５６１號１樓,120.3586,22.58393,(07)7912331,羅氏家用新冠病毒抗原自我檢測套組,89,2022/05/01 13:43:03,無
5907380264,大樹孔鳳藥局,高雄市小港區孔鳳路５１９、５２１號,120.3587,22.5828,(07)7918521,羅氏家用新冠病毒抗原自我檢測套組,78,2022/05/01 13:43:03,快篩實名制，每天16:00開始販售，售完為止。
5907380353,桂林活力藥師藥局漢民店,高雄市小港區漢民路６９１－１及６９１－２號１樓,120.3614,22.56762,(07)8010636,羅氏家用新冠病毒抗原自我檢測套組,80,2022/05/01 13:43:03,無
5907380424,大樹小港藥局,高雄市小港區康莊路７５號１樓,120.3559,22.56853,(07)8068328,羅氏家用新冠病毒抗原自我檢測套組,78,2022/05/01 13:43:03,快篩實名制，每天16:00開始販售，售完為止。
5911010015,喬寶藥局,基隆市中正區義二路６６號１樓,121.7461,25.13187,(02)24202827,羅氏家用新冠病毒抗原自我檢測套組,78,2022/05/01 13:43:03,下午2點開賣
5911011478,天康新豐藥局,基隆市中正區新豐街２５１巷４弄９號１樓,121.7885,25.13594,(02)24695168,羅氏家用新冠病毒抗原自我檢測套組,73,2022/05/01 13:43:03,無
5911011594,禾新藥局,基隆市中正區新豐街２０５巷７號,121.7895,25.138,(02)24698940,羅氏家用新冠病毒抗原自我檢測套組,78,2022/05/01 13:43:03,快篩實名制販售時間:下午3點開始
5911011638,中正藥局,基隆市中正區新豐街３８５號１、２樓,121.7856,25.13537,(02)24690660,羅氏家用新冠病毒抗原自我檢測套組,78,2022/05/01 13:43:03,快篩實名制，每天16:00開始販售，售完為止。
5911030035,陸記藥局,基隆市暖暖區源遠路２４１號,121.7543,25.09882,(02)24576712,羅氏家用新冠病毒抗原自我檢測套組,78,2022/05/01 13:43:03,每日下午兩點販售快篩試劑
5911031327,百福暖暖專業藥局,基隆市暖暖區暖暖街１８９號１樓,121.7357,25.09904,(02)24596999,羅氏家用新冠病毒抗原自我檢測套組,78,2022/05/01 13:43:03,無
5911040228,大田大藥局,基隆市仁愛區仁二路５號,121.7507,25.12744,(02)24258762,羅氏家用新冠病毒抗原自我檢測套組,156,2022/05/01 13:43:03,下午2:00發號碼牌並販售
5911041350,何房藥局,基隆市仁愛區忠三路８１號,121.7389,25.12931,(02)24222978,羅氏家用新冠病毒抗原自我檢測套組,30,2022/05/01 13:43:03,無
5911041958,百福仁愛專業藥局,基隆市仁愛區仁四路５０號１樓,121.7413,25.12829,(02)24266699,羅氏家用新冠病毒抗原自我檢測套組,78,2022/05/01 13:43:03,4／30起，早上8:00販售快篩
5911050153,隆泰藥局,基隆市中山區西定路１２號,121.7355,25.13184,(02)24225889,羅氏家用新冠病毒抗原自我檢測套組,74,2022/05/01 13:43:03,無
5911050162,錦泰藥局,基隆市中山區中山二路４３號,121.7405,25.13786,(02)24228523,羅氏家用新冠病毒抗原自我檢測套組,78,2022/05/01 13:43:03,快篩販賣時間星期一至五晚上7點，星期六，星期日休息
5911051267,親親藥局,基隆市中山區復興路１８１號,121.7264,25.14587,(02)24378323,羅氏家用新冠病毒抗原自我檢測套組,78,2022/05/01 13:43:03,無
5911051392,寶慷藥局,基隆市中山區復興路１９１號１樓,121.7263,25.14611,(02)24362338,羅氏家用新冠病毒抗原自我檢測套組,78,2022/05/01 13:43:03,無
5911051409,順豐藥局,基隆市中山區中華路４號,121.7388,25.14545,(02)24369176,羅氏家用新冠病毒抗原自我檢測套組,78,2022/05/01 13:43:03,家用快篩每日下2點起隨到隨領售完為止。
5911051543,復興藥局,基隆市中山區復興路１２８、１３０、１３２、１３４號１、２樓,121.7262,25.1446,(02)24362566,羅氏家用新冠病毒抗原自我檢測套組,78,2022/05/01 13:43:03,快篩實名制，每天16:00開始販售，售完為止。
5911060051,濟生藥局,基隆市安樂區基金三路８２－２號,121.6956,25.15706,(02)24310884,羅氏家用新冠病毒抗原自我檢測套組,78,2022/05/01 13:43:03,無
5911061370,佑全基隆麥金藥局,基隆市安樂區麥金路２０１號地下１樓之１,121.7211,25.12158,(02)24347816,羅氏家用新冠病毒抗原自我檢測套組,78,2022/05/01 13:43:03,實名制快篩下午兩點開買，營業時間09:00-21:00
5911071536,小不點健保藥局,基隆市信義區深溪路１２６號１樓,121.7827,25.13375,(02)24683985,羅氏家用新冠病毒抗原自我檢測套組,78,2022/05/01 13:43:03,無
5911071572,元登藥局,基隆市信義區深溪路１４９號,121.7826,25.13475,(02)24663826,羅氏家用新冠病毒抗原自我檢測套組,75,2022/05/01 13:43:03,無
5911071590,基隆藥局,基隆市信義區東信路１６６、１６８號１、２樓,121.7646,25.12821,(02)24680955,羅氏家用新冠病毒抗原自我檢測套組,106,2022/05/01 13:43:03,快篩實名制，每天16:00開始販售，售完為止。
5911071607,家安藥師藥局,基隆市信義區信二路２５７、２５９號１樓,121.7478,25.1301,(02)24223917,羅氏家用新冠病毒抗原自我檢測套組,78,2022/05/01 13:43:03,星期一 ~ 星期五13:30開始銷售。
5912012737,婷婷藥局,新竹市東區明湖路965號,120.9669,24.77371,(03)5290999,羅氏家用新冠病毒抗原自我檢測套組,70,2022/05/01 13:43:03,5／1星期日下午17點賣快篩
5912012862,佑信大藥局,新竹市東區新莊里光復路一段３６２─１３號,121.0157,24.78419,(03)6663578,羅氏家用新冠病毒抗原自我檢測套組,78,2022/05/01 13:43:03,快篩實際販售時間:13:00-15:00
5912013216,宏禎藥局,新竹市東區建新路４０號１樓,120.9971,24.79818,(03)5750238,羅氏家用新冠病毒抗原自我檢測套組,78,2022/05/01 13:43:03,口罩販賣時段:平日與假日上午8:00起現場排隊至售完為止
5912013261,禾心藥局,新竹市東區民生路２３１號１樓,120.9754,24.81199,(03)5332403,羅氏家用新冠病毒抗原自我檢測套組,78,2022/05/01 13:43:03,無
5912013494,田美藥局,新竹市東區田美三街３５之１號１樓,120.9767,24.81572,(03)5350233,羅氏家用新冠病毒抗原自我檢測套組,78,2022/05/01 13:43:03,快篩實名制，每天16:00開始販售，售完為止。
5912013547,佑全新竹光復藥局,新竹市東區仙水里光復路１段３５３號１樓,121.0176,24.78315,(03)6661826,羅氏家用新冠病毒抗原自我檢測套組,78,2022/05/01 13:43:03,（因快篩配送作業不及，快篩開賣時間可能會有所調整，請依現場公告為主）原則上為上午9:30開賣，9:20發號碼牌
5912013627,合康連鎖藥局食品店,新竹市東區食品路１４０號１樓,120.977,24.79771,(03)5621111,羅氏家用新冠病毒抗原自我檢測套組,78,2022/05/01 13:43:03,實名快篩販售時間：下午17:00
5912013672,關東藥局,新竹市東區光復路１段３３２、３３４號１至２樓,121.0187,24.78289,(03)5777077,羅氏家用新冠病毒抗原自我檢測套組,78,2022/05/01 13:43:03,快篩實名制，每天16:00開始販售，售完為止。
5912040222,保健藥局,新竹市北區中山路１５３號１樓,120.9635,24.80324,(03)5242088,羅氏家用新冠病毒抗原自我檢測套組,78,2022/05/01 13:43:03,快篩販賣時段：下午2:00現場排隊至售完為止。
5912042771,悅橙藥局,新竹市北區延平路１段１６１巷４３號１樓,120.9561,24.80333,(03)5250805,羅氏家用新冠病毒抗原自我檢測套組,78,2022/05/01 13:43:03,快篩販賣時間：08：30-10：00；營業時段；8:30-12:00、14:00-17:00、18:00-21:00
5912042815,合康連鎖藥局西大店,新竹市北區西大路６３６、６３８號１樓,120.9585,24.8101,(03)5233111,羅氏家用新冠病毒抗原自我檢測套組,78,2022/05/01 13:43:03,09:00
5912042940,新竹北門藥局,新竹市北區中正路３６０、３６２號１樓,120.9629,24.81414,(03)5333234,羅氏家用新冠病毒抗原自我檢測套組,156,2022/05/01 13:43:03,無
5912042968,大樹新竹藥局,新竹市北區西大路５４０、５４２號１、２樓,120.9619,24.80676,(03)5250388,羅氏家用新冠病毒抗原自我檢測套組,78,2022/05/01 13:43:03,快篩實名制，每天16:00開始販售，售完為止。
5912051430,三姓藥局,新竹市香山區中華路四段５７６號１、２樓,120.9297,24.78886,(03)5385886,羅氏家用新冠病毒抗原自我檢測套組,78,2022/05/01 13:43:03,快篩實名制，每天16:00開始販售，售完為止。
5912051467,健佑藥局,新竹市香山區大庄路４５巷２、６號,120.9284,24.78931,(03)5306555,羅氏家用新冠病毒抗原自我檢測套組,78,2022/05/01 13:43:03,快篩試劑下午兩點開始販售
5917010082,仁壽藥局,臺中市中區東墩里三民路三段１號,120.6817,24.14482,(04)22228058,羅氏家用新冠病毒抗原自我檢測套組,35,2022/05/01 13:43:03,週一至週六上午9時30分起販售快篩劑
5917020060,來安藥局,臺中市東區十甲東路４８８號１樓,120.7073,24.13824,(04)22116977,羅氏家用新冠病毒抗原自我檢測套組,78,2022/05/01 13:43:03,發快篩時間早上8點
5917020211,何藥局,臺中市東區精武路１８０號１樓,120.691,24.14765,(04)23605435,羅氏家用新冠病毒抗原自我檢測套組,78,2022/05/01 13:43:03,快篩下午4:00開始販售，現場排隊，直接返售，售完為止。
5917030128,太信藥局,臺中市西區三民路一段９５－１號１樓,120.6698,24.13322,(04)23718318,羅氏家用新冠病毒抗原自我檢測套組,8,2022/05/01 13:43:03,請早上09:00→健保卡&快篩
5917030271,國良藥局,臺中市西區西屯路１段２２０號,120.6707,24.15344,(04)22018772,羅氏家用新冠病毒抗原自我檢測套組,78,2022/05/01 13:43:03,快篩試劑，下午2點開始販售，售完為止。星期日照常販售。
5917030842,向上中西藥局,臺中市西區向上路一段３５９號１樓,120.6561,24.1465,(04)24756688,羅氏家用新冠病毒抗原自我檢測套組,78,2022/05/01 13:43:03,週一至週六上午08:30開始販售快篩，售完為止
5917030995,麗新健保大藥局,臺中市西區向上路一段１６２號,120.6612,24.1469,(04)23017100,羅氏家用新冠病毒抗原自我檢測套組,69,2022/05/01 13:43:03,週一至週日下午15:00至售完為止
5917032382,中港大藥局,臺中市西區臺灣大道２段１３２號,120.6714,24.14995,(04)22080708,羅氏家用新冠病毒抗原自我檢測套組,73,2022/05/01 13:43:03,無
5917032800,壹藥局,臺中市西區美村路１段７７５號１樓,120.6618,24.13306,(04)23721998,羅氏家用新冠病毒抗原自我檢測套組,76,2022/05/01 13:43:03,星期一到星期日每天下午二點開始販售快篩試劑售完為止謝謝
5917032908,佑恩藥師藥局,臺中市西區精誠路６７號１樓,120.6553,24.15224,(04)23100058,羅氏家用新冠病毒抗原自我檢測套組,78,2022/05/01 13:43:03,實名制快篩周一到周六，早上9:00，周日下午2:10開始販賣
5917040464,陳信安藥局,臺中市南區永興里高工路３４９號,120.6665,24.11425,(04)22619560,羅氏家用新冠病毒抗原自我檢測套組,78,2022/05/01 13:43:03,實名制快篩 周一至六14:00開賣，庫存依現場為準，周日依政府配送調整
5917041765,荃大藥局,臺中市南區臺中路１５４號,120.6843,24.13114,(04)22858850,羅氏家用新冠病毒抗原自我檢測套組,78,2022/05/01 13:43:03,防疫口罩銷售時間:早上9:15~12:00止.（星期日無防疫口罩）.
5917041836,健康人生藥局,臺中市南區美村南路１３１號,120.6666,24.11725,(04)22633936,羅氏家用新冠病毒抗原自我檢測套組,78,2022/05/01 13:43:03,因政府配貨時間不一，依照門市現場公告時間為主!
5917050880,欣康藥局,臺中市北區館前路２１號,120.6657,24.15543,(04)23226837,羅氏家用新冠病毒抗原自我檢測套組,37,2022/05/01 13:43:03,週一至週六上午9時開始發放號碼牌，週日上午10時開始發放號碼牌。
5917053756,中心旗艦藥局,臺中市北區五權路４０４號,120.6821,24.15288,(04)22068113,羅氏家用新冠病毒抗原自我檢測套組,78,2022/05/01 13:43:03,固定周一到周日，下午2:00開始販賣防疫口罩
5917060055,德維中西藥局,臺中市西屯區西屯路三段１６４－１３號,120.6174,24.18855,(04)24611579,羅氏家用新冠病毒抗原自我檢測套組,78,2022/05/01 13:43:03,週一~週日 8:45販售，售完為止
5917063065,達康藥局,臺中市西屯區中工三路１３９號,120.6186,24.17779,(04)23586332,羅氏家用新冠病毒抗原自我檢測套組,78,2022/05/01 13:43:03,週一~周日下午2點販售快篩售完為止，無發放號碼牌.
5917063350,天立專業藥師藥局,臺中市西屯區太原路１段２０７號１樓,120.6617,24.16318,(04)23160455,羅氏家用新冠病毒抗原自我檢測套組,78,2022/05/01 13:43:03,週一~週六快篩9:00售完為止，週日中午12：00售完為止
5917070355,承諭藥局,臺中市南屯區黎明路２段１９９號,120.636,24.14698,(04)23849128,羅氏家用新冠病毒抗原自我檢測套組,78,2022/05/01 13:43:03,快篩實名制周一、二、四、五早上10:30；周三、六晚上7:00 ； 週日下午4:00
5917070382,得安藥局,臺中市南屯區溝墘里大墩路５９６號,120.6495,24.15136,(04)23234168,羅氏家用新冠病毒抗原自我檢測套組,78,2022/05/01 13:43:03,下午2:00開始現場購買快篩試劑，售完為止。
5917071727,大愛藥局,臺中市南屯區向心南路９６２．９６４號１樓,120.644,24.13718,(04)24733646,羅氏家用新冠病毒抗原自我檢測套組,78,2022/05/01 13:43:03,無
5917072251,五六藥局,臺中市南屯區南屯路２段２４０號,120.6493,24.13696,(04)24757156,羅氏家用新冠病毒抗原自我檢測套組,78,2022/05/01 13:43:03,5 ／ 1 日售快篩，19 : 30 開始販售， 售完為止. （不發號碼牌）
5917072577,睦林藥局,臺中市南屯區黎明路一段１１５５號,120.6381,24.14089,(04)23818218,羅氏家用新冠病毒抗原自我檢測套組,70,2022/05/01 13:43:03,快篩銷售時間：8:00至22:00，售完為止
5917072644,全成藥局,臺中市南屯區大墩６街２２３號,120.6464,24.14254,(04)24712897,羅氏家用新冠病毒抗原自我檢測套組,78,2022/05/01 13:43:03,實名制快篩每日15:00開始販售-售完為止（庫存以現場為主）
5917080119,李藥局,臺中市北屯區和順路３９８號,120.7227,24.17664,(04)22390950,羅氏家用新冠病毒抗原自我檢測套組,14,2022/05/01 13:43:03,周一至周日，早上9點開始販售快篩，售完為止
5917080262,寶麒藥局,臺中市北屯區旅順路２段１５０號,120.6895,24.174,(04)22433918,羅氏家用新冠病毒抗原自我檢測套組,1,2022/05/01 13:43:03,周一~周六每天下午1:00開始販售實名制快篩試劑，售完為止5／1，周日有營業。
5917080619,永佳藥局,臺中市北屯區昌平路１段１０５－５號１樓,120.6904,24.17362,(04)22438886,羅氏家用新冠病毒抗原自我檢測套組,78,2022/05/01 13:43:03,5／1下午2點發號碼牌並販售
5917080744,早安藥局,臺中市北屯區崇德二路一段１９９號１樓,120.693,24.17641,(04)22439411,羅氏家用新冠病毒抗原自我檢測套組,39,2022/05/01 13:43:03,5月起周一至周六開始販售快篩試劑。
5917080780,吉英藥局,臺中市北屯區平順里昌平路一段４３４號１樓,120.6905,24.1763,(04)22448289,羅氏家用新冠病毒抗原自我檢測套組,13,2022/05/01 13:43:03,快篩實名制販賣，早上08:30開始
5917083058,福益藥局,臺中市北屯區東山路１段１８８－７號,120.7093,24.17085,(04)24367031,羅氏家用新冠病毒抗原自我檢測套組,25,2022/05/01 13:43:03,快篩試劑販賣時間7:00~9:00  （星期日依貨到時間開賣）
5917083101,北屯德康藥局,臺中市北屯區四平路４６９號１樓,120.681,24.19161,(04)24223378,羅氏家用新冠病毒抗原自我檢測套組,43,2022/05/01 13:43:03,每天早上9點30分發售口罩；前往領藥前先電話洽詢
5917083343,豋盛藥局,臺中市北屯區北平路三段１０７號,120.6827,24.17117,(04)22373863,羅氏家用新冠病毒抗原自我檢測套組,45,2022/05/01 13:43:03,實名制快篩販賣時間:5／1下午1點30分開賣
5921010072,統一藥局,臺南市東區中西里東門路１段２９１號,120.2186,22.98683,(06)2376638,羅氏家用新冠病毒抗原自我檢測套組,45,2022/05/01 13:43:03,早上9點到晚間9點半  星期日休假
5921010223,王藥局,臺南市東區小東里小東路１９０－１號,120.2276,22.99976,(06)2378697,羅氏家用新冠病毒抗原自我檢測套組,78,2022/05/01 13:43:03,週一 至 週日，下午 2:00 ~ 晚上9:00 （ 需健保卡 ）
5921012085,台安藥局,臺南市東區大同路一段１６３號,120.2113,22.98503,(06)2150011,羅氏家用新冠病毒抗原自我檢測套組,78,2022/05/01 13:43:03,快篩下午四點開始銷售
5921012530,早安藥師藥局,臺南市東區裕學路１１２號,120.2358,22.98502,(06)3350535,羅氏家用新冠病毒抗原自我檢測套組,78,2022/05/01 13:43:03,營業時間:8:30~23:30   快篩試劑發放時間 : 星期一到日14:00開始售完為止
5921013206,和德藥局,臺南市東區崇德路４９７號,120.2272,22.97435,(06)2882789,羅氏家用新冠病毒抗原自我檢測套組,78,2022/05/01 13:43:03,實名制快篩試劑販售時間14:30~17:00，開賣前10分鐘發號碼牌，售完即止
5921020167,全民藥局,臺南市南區喜東里喜樹路７３之１８號,120.18,22.94471,(06)2625814,羅氏家用新冠病毒抗原自我檢測套組,2,2022/05/01 13:43:03,08:00-22:00
5921020185,安心藥局,臺南市南區喜東里喜樹路１５１巷３３號,120.18,22.94099,(06)2622570,羅氏家用新冠病毒抗原自我檢測套組,78,2022/05/01 13:43:03,快篩服務時間 星期一至星期五 上午8時至10時
5921020425,日大中西藥局,臺南市南區永興一街３２號,120.1927,22.9659,(06)2612817,羅氏家用新冠病毒抗原自我檢測套組,65,2022/05/01 13:43:03,每日08:00~21:30
5921040294,澄清堂藥局,臺南市北區勝利路４９５號,120.2185,23.00648,(06)2377224,羅氏家用新冠病毒抗原自我檢測套組,3,2022/05/01 13:43:03,星期一~六14:30~售完
5921040392,宏吉藥局,臺南市北區大港里大興街２２４號,120.1879,23.01085,(06)2589692,羅氏家用新冠病毒抗原自我檢測套組,3,2022/05/01 13:43:03,代售實名制快篩時間早上八點至12點止
5921042252,佳愛藥局,臺南市北區西門路四段３４１巷２號,120.2097,23.01532,(06)2516697,羅氏家用新冠病毒抗原自我檢測套組,53,2022/05/01 13:43:03,平日08:30-12:00 16:00-20:00 週六0830-12:00 國定假日公休
5921050174,春天藥局,臺南市中西區民族路２段２７４號,120.2008,22.99758,(06)2221562,羅氏家用新冠病毒抗原自我檢測套組,98,2022/05/01 13:43:03,上午10:00至晚上9:30，周日停售
5921050423,吉仁大藥局,臺南市中西區白金里民權路２段８６號,120.2045,22.99468,(06)2263777,羅氏家用新冠病毒抗原自我檢測套組,11,2022/05/01 13:43:03,周ㄧ到周日09:00~10:00開始依序購買快篩，售完為止。
5921060205,建壽藥局,臺南市安南區海東里海佃路２段５７２號,120.1874,23.04221,(06)2555388,羅氏家用新冠病毒抗原自我檢測套組,78,2022/05/01 13:43:03,快篩實名制早上8點開始販售
5921071360,蘋果藥師藥局,臺南市安平區健康三街２０６號,120.1688,22.98987,(06)2955351,羅氏家用新冠病毒抗原自我檢測套組,78,2022/05/01 13:43:03,快篩16:30-21:00販賣，請自備零錢.
5922012383,振安藥局,嘉義市東區王田里林森東路３００號１樓,120.464,23.48889,(05)2756541,羅氏家用新冠病毒抗原自我檢測套組,64,2022/05/01 13:43:03,實名制快篩:周一至周日14:00開始販售，售完為止
5922012945,大明藥局,嘉義市東區大雅路二段６８２號,120.4663,23.47719,(05)2760958,羅氏家用新冠病毒抗原自我檢測套組,78,2022/05/01 13:43:03,4／30星期六9:00領號碼卡 10:00-11:00 販售 5／1 星期日 晚上8:00 快篩供應
5922013068,佑全嘉義吳鳳南藥局,嘉義市東區吳鳳南路５８５、５８７號,120.459,23.45639,(05)2399311,羅氏家用新冠病毒抗原自我檢測套組,78,2022/05/01 13:43:03,領取快篩14:00
5922013102,後庄藥局,嘉義市東區吳鳳南路６４９號,120.4594,23.45511,(05)2391233,羅氏家用新冠病毒抗原自我檢測套組,78,2022/05/01 13:43:03,快篩實名制，每天16:00開始販售，售完為止。
5922013184,軍輝啄木鳥藥局,嘉義市東區軍輝路２２２號,120.4588,23.455,(05)2395963,羅氏家用新冠病毒抗原自我檢測套組,78,2022/05/01 13:43:03,週一~日下午4:00開始
5922013193,民權藥局,嘉義市東區民權路１５５號１樓、１５７號１樓,120.4604,23.48374,(05)2775322,羅氏家用新冠病毒抗原自我檢測套組,78,2022/05/01 13:43:03,快篩實名制，每天16:00開始販售，售完為止。
5922021006,竹圍藥局,嘉義市西區友愛路２７０、２７２號,120.4339,23.4837,(05)2811233,羅氏家用新冠病毒抗原自我檢測套組,78,2022/05/01 13:43:03,快篩實名制，每天16:00開始販售，售完為止。
5922028881,中興中西藥局,嘉義市西區垂楊路５０１號,120.4422,23.47297,(05)2353096,羅氏家用新冠病毒抗原自我檢測套組,78,2022/05/01 13:43:03,周一至周五10點開始，周末下午5點開始，並依序販售快篩售完為止
592202A465,廣元藥局,嘉義市西區民安里中正路６９７號,120.4421,23.47842,(05)2252733,羅氏家用新冠病毒抗原自我檢測套組,78,2022/05/01 13:43:03,4／30 快篩試劑未到貨，預計5／1 下午2點才開賣，售完為止!
5931010011,埔墘藥局,新北市板橋區中山路２段２２７號,121.477,25.01741,(02)29646705,羅氏家用新冠病毒抗原自我檢測套組,78,2022/05/01 13:43:03,實名制快篩每天14:30發放號碼牌
5931010342,宏達大藥局,新北市板橋區莒光路１７號,121.47,25.02478,(02)22572345,羅氏家用新冠病毒抗原自我檢測套組,156,2022/05/01 13:43:03,快篩 晚上20:00開始販售! 不要打電話來 問題這麼多就到現場 也不給你問
5931010397,正成藥師藥局,新北市板橋區三民路２段１５４巷７號,121.4787,25.01515,(02)29512760,羅氏家用新冠病毒抗原自我檢測套組,156,2022/05/01 13:43:03,無
5931011330,戴安藥局,新北市板橋區溪北路５４號,121.4276,24.98982,(02)26818663,羅氏家用新冠病毒抗原自我檢測套組,78,2022/05/01 13:43:03,無
5931014046,欣安藥局,新北市板橋區懷德街１０９號１樓,121.4786,25.03147,(02)82570296,羅氏家用新冠病毒抗原自我檢測套組,6,2022/05/01 13:43:03,每天快篩劑發號碼牌時間AM10:00販賣時間AM10:00售完為止
5931014420,萬泰藥局,新北市板橋區信義路２２１之１號,121.4597,24.99145,(02)89645570,羅氏家用新冠病毒抗原自我檢測套組,78,2022/05/01 13:43:03,無
5931014555,廣益藥局,新北市板橋區自由路２１號,121.4654,25.02296,(02)22545726,羅氏家用新冠病毒抗原自我檢測套組,78,2022/05/01 13:43:03,無
5931014831,詠濟藥局,新北市板橋區幸福路２３號,121.4618,25.02023,(02)22536951,羅氏家用新冠病毒抗原自我檢測套組,22,2022/05/01 13:43:03,無
5931015187,皇慶藥局,新北市板橋區南門街８１、８３號１、２樓及館前西路１１２巷７號,121.4568,25.0077,(02)29655351,羅氏家用新冠病毒抗原自我檢測套組,78,2022/05/01 13:43:03,現場排隊／號碼牌發放防疫口罩時間自09:00
5931015301,利安中西藥局,新北市板橋區板新路１４３號,121.4702,25.01544,(02)29644745,羅氏家用新冠病毒抗原自我檢測套組,155,2022/05/01 13:43:03,快篩每日下午三點開（周六還未到貨
5931015981,立安中西藥局,新北市板橋區後埔街８３號１樓,121.4607,25.00523,(02)29582241,羅氏家用新冠病毒抗原自我檢測套組,78,2022/05/01 13:43:03,無
5931017001,聯康藥局,新北市板橋區南雅南路２段１３６號（１樓）,121.4518,24.99656,(02)89674888,羅氏家用新冠病毒抗原自我檢測套組,84,2022/05/01 13:43:03,無
5931017010,醫安藥局,新北市板橋區南雅南路１段１１號１樓及２樓,121.4565,25.00706,(02)29692588,羅氏家用新冠病毒抗原自我檢測套組,3,2022/05/01 13:43:03,無
5931017047,永欣藥師藥局,新北市板橋區龍興街４６號１樓,121.4433,25.00094,(02)29687120,羅氏家用新冠病毒抗原自我檢測套組,78,2022/05/01 13:43:03,無
5931017289,板橋大樹藥局,新北市板橋區忠孝路２８號（１樓）,121.4603,25.00176,(02)29555551,羅氏家用新冠病毒抗原自我檢測套組,78,2022/05/01 13:43:03,快篩實名制，每天16:00開始販售，售完為止。
5931017529,埔全藥局,新北市板橋區忠孝路３３號（１樓）,121.4608,25.00206,(02)29567309,羅氏家用新冠病毒抗原自我檢測套組,78,2022/05/01 13:43:03,實名快篩 早上10點39份／晚上7點39份 賣完為止
5931017636,福澤藥局,新北市板橋區南雅南路１段８５號（１樓）,121.4556,25.00543,(02)29690013,羅氏家用新冠病毒抗原自我檢測套組,78,2022/05/01 13:43:03,口罩代售9:00-23:00
5931017645,松立藥局,新北市板橋區四川路２段９９之１０號（１樓）,121.4521,24.99448,(02)89670100,羅氏家用新冠病毒抗原自我檢測套組,25,2022/05/01 13:43:03,無
5931017663,盛生藥局,新北市板橋區合宜路９９號（１樓）,121.4479,24.9984,(02)89697299,羅氏家用新冠病毒抗原自我檢測套組,78,2022/05/01 13:43:03,政府快篩下午1:50發放號碼牌.下午2:00準時銷售..假日視政府配量（銷售時間相同）
5931017789,明翠藥局,新北市板橋區四維路１４６、１４８號１、２樓,121.4651,25.02555,(02)22550201,羅氏家用新冠病毒抗原自我檢測套組,78,2022/05/01 13:43:03,快篩實名制，每天16:00開始販售，售完為止。
5931017805,利安藥師藥局,新北市板橋區南雅西路２段１１７號１樓、１１９號１樓,121.4524,25.01085,(02)29666951,羅氏家用新冠病毒抗原自我檢測套組,78,2022/05/01 13:43:03,快篩每日下午三點依現場順序販售，售完為止
5931017814,順儷新板藥局,新北市板橋區漢生東路１８７號１樓,121.4698,25.01181,(02)29512590,羅氏家用新冠病毒抗原自我檢測套組,12,2022/05/01 13:43:03,5／1 快篩9:40到貨! 請稍早有領到號碼牌的民眾盡速前往買快篩 謝謝!
5931017841,莊敬健康人生藥局,新北市板橋區莊敬路８７號１樓,121.4728,25.02645,(02)22570028,羅氏家用新冠病毒抗原自我檢測套組,156,2022/05/01 13:43:03,實名快篩下午2:30發放號碼牌及販售
5931017985,松柏藥局,新北市板橋區松柏街９４號（１樓）,121.4767,25.03065,(02)82585223,羅氏家用新冠病毒抗原自我檢測套組,78,2022/05/01 13:43:03,快篩實名制，每天16:00開始販售，售完為止。
5931017994,後埔藥局,新北市板橋區華興街９號（１樓）,121.459,25.00457,(02)89510306,羅氏家用新冠病毒抗原自我檢測套組,15,2022/05/01 13:43:03,5／1   下午2點發放號碼牌每天78份當天不限時間領取完畢（過卡時間差異剩餘數量僅供參考）
5931018026,莊敬藥局,新北市板橋區莊敬路１６３號（１樓）,121.4715,25.02456,(02)22551105,羅氏家用新冠病毒抗原自我檢測套組,78,2022/05/01 13:43:03,快篩實名制，每天16:00開始販售，售完為止。
5931018044,重成藥局,新北市板橋區民族路２６７號（１樓）,121.4706,25.00693,(02)29504057,羅氏家用新冠病毒抗原自我檢測套組,78,2022/05/01 13:43:03,實名制快篩9:30開賣
5931018053,廣福健保藥局,新北市板橋區三民路１段７６號（１樓）,121.4793,25.02207,(02)29544288,羅氏家用新冠病毒抗原自我檢測套組,78,2022/05/01 13:43:03,實名制快篩每日下午16:00開始販售
5931018115,振昌藥局,新北市板橋區溪崑二街１４號１樓,121.4288,24.99175,(02)26862119,羅氏家用新冠病毒抗原自我檢測套組,78,2022/05/01 13:43:03,快篩實名制14:50發放號碼牌，15:00開始憑號碼牌販售
5931018142,重慶藥局,新北市板橋區國慶路１２７號（１樓）,121.4608,24.99602,(02)29565586,羅氏家用新冠病毒抗原自我檢測套組,78,2022/05/01 13:43:03,快篩實名制，每天16:00開始販售，售完為止。
5931020562,力健藥局,新北市三重區自強路３段３８號,121.4868,25.07266,(02)29856255,羅氏家用新冠病毒抗原自我檢測套組,24,2022/05/01 13:43:03,無
5931020991,久洲藥局,新北市三重區長元街５１－９號,121.5009,25.06616,(02)29783515,羅氏家用新冠病毒抗原自我檢測套組,4,2022/05/01 13:43:03,快篩八點半發號碼牌售完為止
5931021167,禮隆藥局,新北市三重區自強路４段６４號,121.4901,25.07853,(02)29894735,羅氏家用新冠病毒抗原自我檢測套組,2,2022/05/01 13:43:03,早上九點發號牌，發完為止
5931023349,迪化藥局,新北市三重區中華路７７號,121.4836,25.06267,(02)29834445,羅氏家用新冠病毒抗原自我檢測套組,2,2022/05/01 13:43:03,每日早上09:00發號碼牌
5931023581,大重仁藥局,新北市三重區重新路５段５９２號１樓,121.4694,25.04539,(02)29958283,羅氏家用新冠病毒抗原自我檢測套組,39,2022/05/01 13:43:03,無
5931023858,開元藥局,新北市三重區正義北路３２４號２樓,121.4949,25.07039,(02)29873976,羅氏家用新冠病毒抗原自我檢測套組,59,2022/05/01 13:43:03,無
5931024677,博愛藥局,新北市三重區三民街２２０號１樓,121.4803,25.06712,(02)29711606,羅氏家用新冠病毒抗原自我檢測套組,78,2022/05/01 13:43:03,無
5931025290,康新藥局,新北市三重區正義北路１８５號２樓,121.4964,25.06783,(02)29865982,羅氏家用新冠病毒抗原自我檢測套組,78,2022/05/01 13:43:03,實名制代售時段：下午2點到4點。請自備零錢，恕不找零。.
5931025441,尚好藥局,新北市三重區力行路２段１４２號１樓,121.4823,25.07611,(02)22863232,羅氏家用新冠病毒抗原自我檢測套組,78,2022/05/01 13:43:03,星期一~星期六早上9點開賣實名制，星期日公休
5931025610,大樹三重藥局,新北市三重區正義北路６６號１樓,121.4972,25.06415,(02)29713188,羅氏家用新冠病毒抗原自我檢測套組,78,2022/05/01 13:43:03,口罩販售時間：14:00 - 16:00
5931025807,永福藥局,新北市三重區永福街３號１樓,121.4827,25.07837,(02)22861161,羅氏家用新冠病毒抗原自我檢測套組,156,2022/05/01 13:43:03,無
5931025914,仁美藥局,新北市三重區慈愛街５１號１、２樓,121.4861,25.07908,(02)22805150,羅氏家用新冠病毒抗原自我檢測套組,78,2022/05/01 13:43:03,快篩實名制，每天16:00開始販售，售完為止。
5931025932,永吉藥局,新北市三重區車路頭街９１號１樓,121.4844,25.07422,(02)22860432,羅氏家用新冠病毒抗原自我檢測套組,78,2022/05/01 13:43:03,快篩實名制，每天16:00開始販售，售完為止。
5931025969,躍獅欣欣藥局,新北市三重區正義北路２３３號１樓,121.496,25.06915,(02)29816955,羅氏家用新冠病毒抗原自我檢測套組,78,2022/05/01 13:43:03,16:00開始販售，15:50發號碼牌，離開視同放棄。
5931026064,五華春天生活藥局,新北市三重區五華街７３號１、２樓,121.4925,25.08291,(02)29876838,羅氏家用新冠病毒抗原自我檢測套組,78,2022/05/01 13:43:03,快篩代售時間：週一至週日15：00，現場排隊購買，售完為止。（物流配送不及則例外，以門市公告為主）
5931026073,重陽藥局,新北市三重區重陽路４段３６、３８號１樓,121.4913,25.06975,(02)29880456,羅氏家用新冠病毒抗原自我檢測套組,78,2022/05/01 13:43:03,快篩實名制，每天16:00開始販售，售完為止。
5931026082,大有藥局,新北市三重區中正北路２１３號１、２樓及２１５號１、２樓,121.4763,25.07013,(02)29885771,羅氏家用新冠病毒抗原自我檢測套組,78,2022/05/01 13:43:03,快篩實名制，每天16:00開始販售，售完為止。
5931026091,重新藥局,新北市三重區重新路４段１２號１樓,121.4888,25.05775,(02)29742700,羅氏家用新冠病毒抗原自我檢測套組,78,2022/05/01 13:43:03,快篩實名制，每天16:00開始販售，售完為止。
5931030013,皇誼藥局,新北市永和區文化路３３號,121.5147,25.01499,(02)29278732,羅氏家用新冠病毒抗原自我檢測套組,78,2022/05/01 13:43:03,無
5931030531,成功藥局,新北市永和區成功路１段１３３號,121.5269,25.00171,(02)29293622,羅氏家用新冠病毒抗原自我檢測套組,104,2022/05/01 13:43:03,營業時間 09:00 -20:00
5931032188,原大藥局,新北市永和區永和路１段２０號１樓,121.513,25.00471,(02)29272767,羅氏家用新冠病毒抗原自我檢測套組,3,2022/05/01 13:43:03,下午1點可領取
5931032811,華特健康藥局,新北市永和區永貞路３６２號１樓,121.5102,25.00667,(02)29264391,羅氏家用新冠病毒抗原自我檢測套組,20,2022/05/01 13:43:03,無
5931033032,弘光藥局,新北市永和區竹林路中興里６６巷１９號１樓,121.5201,25.01396,(02)29282000,羅氏家用新冠病毒抗原自我檢測套組,68,2022/05/01 13:43:03,早上9點至晚上10點 口罩代售號碼牌自1400開始發放
5931033649,敦品民治藥局,新北市永和區民治街８１號１樓,121.5175,24.99805,(02)29494150,羅氏家用新冠病毒抗原自我檢測套組,2,2022/05/01 13:43:03,口罩下午2點-4點半現場購買
5931033774,台化藥局,新北市永和區勵行街１１９號１樓,121.5175,25.01202,(02)22318585,羅氏家用新冠病毒抗原自我檢測套組,77,2022/05/01 13:43:03,無
5931033863,欣安大藥局,新北市永和區福和路２２１號１樓,121.5189,25.00749,(02)22326685,羅氏家用新冠病毒抗原自我檢測套組,58,2022/05/01 13:43:03,快篩試劑pm13:30發號碼牌暨銷售，售完為止。
5931033961,永和大樹藥局,新北市永和區福和路１４３號１、２樓,121.5207,25.00766,(02)29233377,羅氏家用新冠病毒抗原自我檢測套組,78,2022/05/01 13:43:03,快篩實名制，每天16:00開始販售，售完為止。
5931034146,亮點藥局,新北市永和區竹林路７１號１樓,121.5186,25.01355,(02)89253895,羅氏家用新冠病毒抗原自我檢測套組,137,2022/05/01 13:43:03,快篩發放時段 下午16:30-18:00
5931042648,恩溢藥局,新北市中和區復興路７９號１樓.２樓,121.5035,24.9902,(02)22452450,羅氏家用新冠病毒抗原自我檢測套組,113,2022/05/01 13:43:03,無
5931043047,藥安藥局,新北市中和區廣福路１６號１樓,121.5052,25.00277,(02)22447066,羅氏家用新冠病毒抗原自我檢測套組,78,2022/05/01 13:43:03,星期日公休
5931043396,立健藥局,新北市中和區連城路３１７號１樓,121.4892,24.99607,(02)22230614,羅氏家用新冠病毒抗原自我檢測套組,78,2022/05/01 13:43:03,週一~週六營業時間均有口罩銷售 ，週日休假
5931043529,新雙和藥師藥局,新北市中和區中正路２８１－８號１樓,121.4943,24.99374,(02)22404276,羅氏家用新冠病毒抗原自我檢測套組,78,2022/05/01 13:43:03,無
5931043565,一安藥妝藥局,新北市中和區中和路９號１.２樓,121.4998,25.00221,(02)22483778,羅氏家用新冠病毒抗原自我檢測套組,156,2022/05/01 13:43:03,營業時間9:00~22:00
5931043690,捷勝藥師藥局,新北市中和區華順街１２２號〈１樓〉,121.4651,24.99646,(02)29646225,羅氏家用新冠病毒抗原自我檢測套組,78,2022/05/01 13:43:03,1-6早上0830開始賣快篩.
5931043798,永成藥局,新北市中和區景平路１５６號１樓,121.5176,24.99222,(02)29407619,羅氏家用新冠病毒抗原自我檢測套組,156,2022/05/01 13:43:03,實名制快篩，下午三點領取號碼並開始販售
5931044268,冠品藥師藥局,新北市中和區連城路１１９號１樓,121.4963,24.9993,(02)22452129,羅氏家用新冠病毒抗原自我檢測套組,156,2022/05/01 13:43:03,無
5931044624,奕采藥局,新北市中和區宜安路７７號１樓,121.5109,24.99733,(02)29429770,羅氏家用新冠病毒抗原自我檢測套組,78,2022/05/01 13:43:03,週一~週六10:00~12:00販售實名制快篩（週日停售）
5931044704,惠民藥局,新北市中和區中興街１５３號１樓,121.5001,24.99102,(02)22475303,羅氏家用新冠病毒抗原自我檢測套組,78,2022/05/01 13:43:03,口罩於8:40發放號碼牌，並同時開始領取。
5931044768,民樂健保藥局,新北市中和區員山路２２６巷３弄５號１樓,121.4817,25.00103,(02)22228999,羅氏家用新冠病毒抗原自我檢測套組,101,2022/05/01 13:43:03,13:30-16:00
5931045032,朝安藥局,新北市中和區復興路２６２號１樓,121.5035,24.99038,(02)31511269,羅氏家用新冠病毒抗原自我檢測套組,78,2022/05/01 13:43:03,實名制快篩現場排隊過卡，不發號碼牌，販售時間依現場公告。
5931045041,大誠藥局,新北市中和區民享街８７號１樓,121.4744,25.00162,(02)22258394,羅氏家用新冠病毒抗原自我檢測套組,78,2022/05/01 13:43:03,實名制快篩 每日下午03:30開始販售
5931045069,禾昌藥局,新北市中和區中安街１７８巷２號１樓,121.5109,24.99954,(02)29267330,羅氏家用新冠病毒抗原自我檢測套組,77,2022/05/01 13:43:03,實名制快篩14:00開始販售／醫護警消優先
5931045130,四維藥局,新北市中和區四維街３７巷２號１樓,121.5124,24.98679,(02)86681345,羅氏家用新冠病毒抗原自我檢測套組,78,2022/05/01 13:43:03,快篩實名制，每天16:00開始販售，售完為止。
5931045176,藥安連勝藥局,新北市中和區連勝街３７號１樓,121.4983,24.9977,(02)22425266,羅氏家用新冠病毒抗原自我檢測套組,78,2022/05/01 13:43:03,實名制快篩下午1點開始過卡配發
5931045229,佑全中和景新藥局,新北市中和區景新街３９５號１樓,121.5126,24.98995,(02)29431408,羅氏家用新冠病毒抗原自我檢測套組,156,2022/05/01 13:43:03,實名制快篩試劑---僅限5／1（日）第一階段14:00 開始販售78份，第二階段16:00 開始販售78份
5931045443,台昕藥局,新北市中和區復興路２５５號（１樓）,121.5032,24.9902,(02)22406080,羅氏家用新冠病毒抗原自我檢測套組,78,2022/05/01 13:43:03,無
5931045505,順儷民享藥局,新北市中和區民享街５３號１樓,121.4742,25.00265,(02)22222825,羅氏家用新冠病毒抗原自我檢測套組,78,2022/05/01 13:43:03,無
5931050417,世明藥局,新北市新店區北新路３段１２０號１樓,121.5417,24.98174,(02)29122139,羅氏家用新冠病毒抗原自我檢測套組,80,2022/05/01 13:43:03,＜因4／30（六）、5／1（日）政府無配送快篩，故停售兩日＞ 快篩實名制販售時間：下午13:00~14:00
5931051558,信龍大藥局,新北市新店區安康路２段５６號,121.515,24.96385,(02)22115533,羅氏家用新冠病毒抗原自我檢測套組,156,2022/05/01 13:43:03,無
5931052484,大河藥局,新北市新店區三民路１４０號１樓,121.5351,24.97502,(02)29140910,羅氏家用新冠病毒抗原自我檢測套組,78,2022/05/01 13:43:03,週一至週六下午2點開始發購實名制快篩試劑。限1人1卡購買1份。5／8週日不發購。
5931052751,新康藥局,新北市新店區北新路１段１９５號１樓、２樓,121.5402,24.9648,(02)29178179,羅氏家用新冠病毒抗原自我檢測套組,77,2022/05/01 13:43:03,無
5931053034,康宜庭市公所藥局,新北市新店區北新路１段２８５號１樓,121.541,24.96707,(02)29151709,羅氏家用新冠病毒抗原自我檢測套組,78,2022/05/01 13:43:03,實名制快篩下午兩點開賣
5931053169,貳品藥局,新北市新店區新和街７５號１樓,121.5205,24.98612,(02)89418890,羅氏家用新冠病毒抗原自我檢測套組,156,2022/05/01 13:43:03,實名制快篩下午一點開始發號碼牌，請不用提早到
5931053178,長照藥局,新北市新店區如意街１６號１樓,121.4944,24.94838,(02)22153325,羅氏家用新冠病毒抗原自我檢測套組,78,2022/05/01 13:43:03,無
5931053310,安和藥局,新北市新店區安和路３段１３７號１樓,121.517,24.9853,(02)86685309,羅氏家用新冠病毒抗原自我檢測套組,80,2022/05/01 13:43:03,111年春節連假期間1／31-2／4不營業
5931053347,健詮藥局,新北市新店區建國路１１９號１樓,121.5398,24.97777,(02)29116312,羅氏家用新冠病毒抗原自我檢測套組,43,2022/05/01 13:43:03,無
5931053365,十二願藥局,新北市新店區中正路６８２號１樓,121.5341,24.98998,(02)22181899,羅氏家用新冠病毒抗原自我檢測套組,148,2022/05/01 13:43:03,無
5931060342,十安藥局,新北市新莊區中港路３１６號,121.4524,25.04544,(02)29922859,羅氏家用新冠病毒抗原自我檢測套組,81,2022/05/01 13:43:03,自111／04／01起不再販賣實名制口罩
5931060557,一安藥局,新北市新莊區立德里新泰路２６８號,121.446,25.04029,(02)29941618,羅氏家用新冠病毒抗原自我檢測套組,156,2022/05/01 13:43:03,口罩發放時段，每日8:30~22:00 （發完為止）
5931060619,蘇藥局,新北市新莊區中平路６巷３７號,121.446,25.04284,(02)29917818,羅氏家用新冠病毒抗原自我檢測套組,78,2022/05/01 13:43:03,販售口罩時間  固定周1~周6 下午4點發放號碼牌並依序販售口罩  售完為止  6點以前未領取口罩 號碼牌作廢
5931060628,錄新藥局,新北市新莊區後港一路７６巷１０弄１號,121.427,25.02604,(02)22051849,羅氏家用新冠病毒抗原自我檢測套組,78,2022/05/01 13:43:03,無
5931067109,揚明藥師藥局,新北市新莊區中港路１５４號,121.4552,25.04131,(02)29921473,羅氏家用新冠病毒抗原自我檢測套組,78,2022/05/01 13:43:03,無
5931067136,蒲陽藥局,新北市新莊區中港路５１４號,121.4518,25.05187,(02)29930069,羅氏家用新冠病毒抗原自我檢測套組,78,2022/05/01 13:43:03,無
5931068160,三大藥局,新北市新莊區建安里民安路１９７號,121.4262,25.02256,(02)22030503,羅氏家用新冠病毒抗原自我檢測套組,78,2022/05/01 13:43:03,實名制快篩13:00發號碼.發完號碼開始領快篩及收費
5931068819,東京大藥局,新北市新莊區民安路１７６號１樓,121.4251,25.02392,(02)22063806,羅氏家用新冠病毒抗原自我檢測套組,76,2022/05/01 13:43:03,口罩代售時間為9:30開始現場排隊販售
5931068991,新莊健業藥局,新北市新莊區昌平街３７號１樓至２樓,121.4547,25.05221,(02)22798808,羅氏家用新冠病毒抗原自我檢測套組,156,2022/05/01 13:43:03,快篩實名制下午三點開始販售
5931069498,新杏藥局,新北市新莊區新泰路９９號１樓,121.449,25.03497,(02)22011012,羅氏家用新冠病毒抗原自我檢測套組,156,2022/05/01 13:43:03,固定週一至週日15:00開始發放號碼牌並依序販售口罩，售完為止。
5931069765,健業藥妝藥局,新北市新莊區中和街１３０號１樓,121.4475,25.04809,(02)22796279,羅氏家用新冠病毒抗原自我檢測套組,78,2022/05/01 13:43:03,口罩販售資訊:下午3點~11點販售
593106A093,環球藥局,新北市新莊區中港路４３６號１、２樓,121.452,25.05105,(02)29901934,羅氏家用新冠病毒抗原自我檢測套組,156,2022/05/01 13:43:03,營業時間8-23，全年無休
593106A566,一心春天藥局,新北市新莊區中和街１３號１樓、地下室,121.4481,25.04342,(02)89929482,羅氏家用新冠病毒抗原自我檢測套組,77,2022/05/01 13:43:03,每日下午3:00開始販售實名制快篩（14:40發號碼牌）
593106A833,欣國藥局,新北市新莊區富國路５７號１樓、２樓,121.4196,25.02625,(02)29080958,羅氏家用新冠病毒抗原自我檢測套組,78,2022/05/01 13:43:03,每天快篩劑發號碼牌AM09:30販賣AM09:30售完為止
593106A977,丹鳳藥局,新北市新莊區中正路７４５、７４７號（１樓）,121.4227,25.0288,(02)29065755,羅氏家用新冠病毒抗原自我檢測套組,78,2022/05/01 13:43:03,快篩實名制，每天16:00開始販售，售完為止。
593106B027,樂福藥局,新北市新莊區幸福路４８號１樓、幸福路６４巷２弄１６號１樓,121.4577,25.04953,(02)29923388,羅氏家用新冠病毒抗原自我檢測套組,78,2022/05/01 13:43:03,快篩每日上午11點發放號碼牌 下午2:30開始依號碼牌時間領取 4／30無快篩販售
593106B036,家嘉藥局,新北市新莊區自立街１０３號（１樓）,121.4553,25.04549,(02)89926488,羅氏家用新冠病毒抗原自我檢測套組,78,2022/05/01 13:43:03,無
593106B090,依都勇藥局,新北市新莊區自信街６３號（１樓）,121.4554,25.04829,(02)29901516,羅氏家用新冠病毒抗原自我檢測套組,78,2022/05/01 13:43:03,無
593106B107,大樹新莊藥局,新北市新莊區新泰路５９號１樓、２樓,121.4494,25.03405,(02)22010566,羅氏家用新冠病毒抗原自我檢測套組,78,2022/05/01 13:43:03,快篩實名制，每天16:00開始販售，售完為止。
593106B152,福原藥局,新北市新莊區中原東路７０號（１樓）,121.4632,25.05461,(02)85216190,羅氏家用新冠病毒抗原自我檢測套組,156,2022/05/01 13:43:03,無
593106B205,藥師佛藥局,新北市新莊區中正路８８１之４號１樓,121.4175,25.02544,(02)29016625,羅氏家用新冠病毒抗原自我檢測套組,80,2022/05/01 13:43:03,晚上7點開始賣快篩，會預留警察消防人員額度，所以民眾購買額度不會是78盒！七點後不接電話，不用再打來問了！
593106B287,盛弘藥局,新北市新莊區中平路２９５號１樓,121.4447,25.05099,(02)22763336,羅氏家用新冠病毒抗原自我檢測套組,78,2022/05/01 13:43:03,政府快篩於平日下午13:50發放號碼牌，下午14:00準時販售，假日視政府配量（販售時間相同）
593106B321,大樹幸福藥局,新北市新莊區幸福路６７２號１樓,121.4509,25.0493,(02)29981066,羅氏家用新冠病毒抗原自我檢測套組,78,2022/05/01 13:43:03,快篩實名制，每天16:00開始販售，售完為止。
593106B349,騰康藥局,新北市新莊區富國路１８４號１樓,121.4245,25.02446,(02)26793069,羅氏家用新冠病毒抗原自我檢測套組,78,2022/05/01 13:43:03,無
5931070053,仁一藥局,新北市樹林區中正路６２２號,121.4102,25.016,(02)26893915,羅氏家用新冠病毒抗原自我檢測套組,78,2022/05/01 13:43:03,快篩代售時間自08:30；現場排隊 （周日均為公休日）
5931071881,盛立藥局,新北市樹林區大雅路２８５號１樓,121.3795,24.94735,(02)35018218,羅氏家用新冠病毒抗原自我檢測套組,78,2022/05/01 13:43:03,政府快篩平日下午1:50發號碼牌，下午2:00準時販售，假日視政府配量（販售時間相同）
5931071970,保康藥局,新北市樹林區保安街１段３６４號,121.4176,24.99856,(02)86875503,羅氏家用新冠病毒抗原自我檢測套組,78,2022/05/01 13:43:03,無
5931072351,瑪諾藥局,新北市樹林區復興路２０號,121.4225,24.99462,(02)26830304,羅氏家用新冠病毒抗原自我檢測套組,71,2022/05/01 13:43:03,無
5931072431,樹林大樹藥局,新北市樹林區育英街５４號１－２樓,121.4213,24.98928,(02)26815488,羅氏家用新冠病毒抗原自我檢測套組,78,2022/05/01 13:43:03,快篩實名制，每天16:00開始販售，售完為止。
5931080031,林政德西藥局,新北市鶯歌區建國路２５６號１樓,121.3477,24.95354,(02)26781412,羅氏家用新冠病毒抗原自我檢測套組,46,2022/05/01 13:43:03,春節期間看診時段請電洽
5931081289,唯新示範藥局,新北市鶯歌區建國路１６１號１樓,121.3503,24.95345,(02)86775363,羅氏家用新冠病毒抗原自我檢測套組,78,2022/05/01 13:43:03,實名制快篩購買時段下午2:50-4:00
5931081510,鶯歌藥局,新北市鶯歌區鶯桃路２段１１號１樓,121.3258,24.97205,(02)86778778,羅氏家用新冠病毒抗原自我檢測套組,78,2022/05/01 13:43:03,口罩販售時間：14:00 - 16:00
5931081547,信義健保藥局,新北市鶯歌區信義街６３號１樓,121.3534,24.95571,(02)86775563,羅氏家用新冠病毒抗原自我檢測套組,93,2022/05/01 13:43:03,4／30 晚上店休，暫不發放
5931090180,人來安藥局,新北市三峽區文化路２６６－５號,121.3665,24.93583,(02)26721199,羅氏家用新冠病毒抗原自我檢測套組,78,2022/05/01 13:43:03,早上8點開始過卡領快篩劑售完為止
5931091481,盛加藥局,新北市三峽區民生街４９號,121.3755,24.9362,(02)26739797,羅氏家用新冠病毒抗原自我檢測套組,78,2022/05/01 13:43:03,政府快篩平日下午1:50發號碼牌，下午2:00準時販售，假日視政府配量（販售時間相同）
5931091865,大新藥局,新北市三峽區大義路２５９號１樓,121.3774,24.94638,(02)86713204,羅氏家用新冠病毒抗原自我檢測套組,153,2022/05/01 13:43:03,實名制快篩下午2:50開始發號碼牌 3:00販售
5931091874,盛台藥局,新北市三峽區大學路１０８號１、２樓,121.375,24.9438,(02)26722730,羅氏家用新冠病毒抗原自我檢測套組,78,2022/05/01 13:43:03,政府快篩平日13:50發號碼牌，14:00準時販售。假日視政府配量販售（販售時間相同）。
5931091892,三峽藥局,新北市三峽區介壽路１段２７號１樓,121.3757,24.93321,(02)26738868,羅氏家用新冠病毒抗原自我檢測套組,78,2022/05/01 13:43:03,快篩實名制，每天16:00開始販售，售完為止。
5931091972,三峽大昌藥局,新北市三峽區民生街５６號１樓,121.3752,24.93635,(02)26711560,羅氏家用新冠病毒抗原自我檢測套組,156,2022/05/01 13:43:03,無
5931092022,瑞達美藥局,新北市三峽區民權街１８０號１樓,121.3678,24.92983,(02)86741627,羅氏家用新冠病毒抗原自我檢測套組,78,2022/05/01 13:43:03,若政府有配送則早上9點10分開始發號碼牌，拿到號碼牌要離開請先寄卡付費，否則視同放棄
5931092095,禾雅藥局,新北市三峽區文化路１３０號（１樓）,121.3709,24.93626,(02)26718621,羅氏家用新冠病毒抗原自我檢測套組,20,2022/05/01 13:43:03,無
5931092219,北大藥局,新北市三峽區大義路９號１樓,121.3788,24.94372,(02)26738535,羅氏家用新冠病毒抗原自我檢測套組,74,2022/05/01 13:43:03,快篩發放時段下午1點-2點 晚上9:30-11:00
5931101651,天文大藥局,新北市淡水區新春街１３６號,121.4415,25.18166,(02)86312050,羅氏家用新冠病毒抗原自我檢測套組,98,2022/05/01 13:43:03,無
5931101973,良順藥局,新北市淡水區中山北路１段２４號１樓,121.4417,25.1751,(02)26218111,羅氏家用新冠病毒抗原自我檢測套組,78,2022/05/01 13:43:03,無
5931102292,佑全淡水淡金藥局,新北市淡水區淡金路５５號、５７號１樓,121.4559,25.16127,(02)26228040,羅氏家用新冠病毒抗原自我檢測套組,78,2022/05/01 13:43:03,實名制快篩每日兩點開賣（售完為止）
5931102434,西雅圖聯合藥局,新北市淡水區新市一路３段１０１巷１６弄２０號１樓,121.4471,25.18403,(02)26200910,羅氏家用新冠病毒抗原自我檢測套組,78,2022/05/01 13:43:03,實名制快篩劑販售時間:於下午2點30分依排隊順序發號碼牌、下午3點販賣。
5931102452,池慶藥局,新北市淡水區中山北路２段５號１樓,121.4443,25.18344,(02)26238852,羅氏家用新冠病毒抗原自我檢測套組,75,2022/05/01 13:43:03,快篩販售14:50到16:00
5931111586,品康藥局,新北市汐止區湖前街４７號１樓,121.632,25.07005,(02)26954441,羅氏家用新冠病毒抗原自我檢測套組,78,2022/05/01 13:43:03,下午2點販售實名制快篩
5931112136,汐芷藥局,新北市汐止區福德一路２５５號,121.6335,25.06447,(02)26924087,羅氏家用新冠病毒抗原自我檢測套組,38,2022/05/01 13:43:03,無
5931112145,汐止健康人生藥局,新北市汐止區忠孝東路２６９號,121.6633,25.06809,(02)86421820,羅氏家用新冠病毒抗原自我檢測套組,78,2022/05/01 13:43:03,快篩代售時間 14:00~售完為止 ；現場排隊
5931112234,安泰藥局,新北市汐止區連興街１１４號１樓,121.6537,25.06284,(02)26488486,羅氏家用新冠病毒抗原自我檢測套組,78,2022/05/01 13:43:03,實名制快篩每天下午5點開始作業，現場排隊不發號碼牌
5931112976,永康中西綜合藥局,新北市汐止區龍安路１７５號１樓,121.6536,25.06303,(02)86915580,羅氏家用新冠病毒抗原自我檢測套組,51,2022/05/01 13:43:03,國定假日仍執行調劑業務
5931113071,蒲公英藥局,新北市汐止區連興街１２６號（１樓）,121.6538,25.06188,(02)26907770,羅氏家用新冠病毒抗原自我檢測套組,78,2022/05/01 13:43:03,實名制快篩銷售時間:下午17:00-19:00（無發放號碼牌）
5931113160,社后藥局,新北市汐止區康寧街４２４號１樓,121.6307,25.06801,(02)26956321,羅氏家用新冠病毒抗原自我檢測套組,78,2022/05/01 13:43:03,快篩實名制，每天16:00開始販售，售完為止。
5931113188,汐止藥局,新北市汐止區福德二路７０號１樓,121.6331,25.06651,(02)86932587,羅氏家用新冠病毒抗原自我檢測套組,78,2022/05/01 13:43:03,無
5931113197,博昱忠孝藥局,新北市汐止區忠孝東路２７８號（１樓）,121.6637,25.06809,(02)86423838,羅氏家用新冠病毒抗原自我檢測套組,77,2022/05/01 13:43:03,無
5931113204,富康活力忠孝藥局,新北市汐止區忠孝東路２７９號１樓,121.6638,25.06854,(02)26422666,羅氏家用新冠病毒抗原自我檢測套組,78,2022/05/01 13:43:03,無
5931121279,大埔藥局,新北市瑞芳區大埔路１２８－３號１樓,121.762,25.10079,(02)24587020,羅氏家用新冠病毒抗原自我檢測套組,35,2022/05/01 13:43:03,無
5931121411,長興堂藥局,新北市瑞芳區明燈路３段６９號１樓,121.8055,25.10824,(02)24972050,羅氏家用新冠病毒抗原自我檢測套組,74,2022/05/01 13:43:03,每周一至五上午8時半開始發放口罩。
5931121466,瑞芳藥局,新北市瑞芳區明燈路３段５９之１及５９之２號,121.8057,25.10812,(02)24966588,羅氏家用新冠病毒抗原自我檢測套組,78,2022/05/01 13:43:03,快篩實名制，每天16:00開始販售，售完為止。
5931130152,博惠藥局,新北市土城區中央路１段２４９巷２０號,121.4463,24.98538,(02)22618337,羅氏家用新冠病毒抗原自我檢測套組,78,2022/05/01 13:43:03,每日10:30發號碼牌／／取消晚間派發
5931130349,祥發藥局,新北市土城區青雲路２５５號,121.4592,24.9809,(02)22655056,羅氏家用新冠病毒抗原自我檢測套組,78,2022/05/01 13:43:03,5／1（日）快篩下午3:00開始販售，售完為止
5931132538,宏奇藥局,新北市土城區延吉街１２６號１樓,121.4695,24.98586,(02)82619585,羅氏家用新冠病毒抗原自我檢測套組,78,2022/05/01 13:43:03,無
5931132601,吉城大藥局,新北市土城區學府路１段２０５號１樓,121.4518,24.98459,(02)22626870,羅氏家用新冠病毒抗原自我檢測套組,77,2022/05/01 13:43:03,★★★每天都有 現領不用等★★★
5931132727,順儷藥師藥局,新北市土城區延和路１６之３號１樓,121.4644,24.98813,(02)22648655,羅氏家用新冠病毒抗原自我檢測套組,156,2022/05/01 13:43:03,春節期間看診時段請電洽
5931132807,健業藥局,新北市土城區中央路２段２２３－１０號,121.4407,24.97312,(02)22704798,羅氏家用新冠病毒抗原自我檢測套組,78,2022/05/01 13:43:03,無
5931133546,宏林保健藥局,新北市土城區裕民路１３４號（１樓）,121.4515,24.98622,(02)82615919,羅氏家用新冠病毒抗原自我檢測套組,66,2022/05/01 13:43:03,無
5931133644,貓頭鷹藥妝藥局,新北市土城區中央路３段８８、９０號１樓,121.4361,24.96702,(02)22695659,羅氏家用新冠病毒抗原自我檢測套組,78,2022/05/01 13:43:03,無
5931133662,中央藥局,新北市土城區中央路２段８４、８６號（１樓）,121.4423,24.97885,(02)22630345,羅氏家用新冠病毒抗原自我檢測套組,78,2022/05/01 13:43:03,快篩實名制，每天16:00開始販售，售完為止。
5931133680,土城金城藥局,新北市土城區裕民路２８０號１、２樓,121.4554,24.982,(02)22631616,羅氏家用新冠病毒抗原自我檢測套組,78,2022/05/01 13:43:03,快篩實名制，每天16:00開始販售，售完為止。
5931142634,華安大藥局,新北市蘆洲區長安街４８號１樓,121.4633,25.07973,(02)22881168,羅氏家用新冠病毒抗原自我檢測套組,156,2022/05/01 13:43:03,無
5931143202,蘆洲丁丁藥局,新北市蘆洲區三民路５５９號１樓,121.4624,25.09199,(02)82851962,羅氏家用新冠病毒抗原自我檢測套組,34,2022/05/01 13:43:03,無
5931143275,集賢藥局,新北市蘆洲區信義路２２２巷６１號１、２樓,121.4813,25.08535,(02)22882400,羅氏家用新冠病毒抗原自我檢測套組,78,2022/05/01 13:43:03,快篩實名制，每天16:00開始販售，售完為止。
5931143300,大樹蘆洲藥局,新北市蘆洲區民族路２６５號１樓,121.4762,25.09063,(02)22810747,羅氏家用新冠病毒抗原自我檢測套組,78,2022/05/01 13:43:03,無
5931143364,光禾藥局,新北市蘆洲區民權路１２２號１樓,121.4734,25.08868,(02)28480050,羅氏家用新冠病毒抗原自我檢測套組,78,2022/05/01 13:43:03,無
5931151277,永任藥局,新北市五股區水碓路９號１樓,121.4336,25.07236,(02)22911093,羅氏家用新冠病毒抗原自我檢測套組,78,2022/05/01 13:43:03,5／1 販售時間未定 待時間確定 另行公佈
5931151302,宏安藥局,新北市五股區成泰路２段１３６號,121.4382,25.08369,(02)22915932,羅氏家用新冠病毒抗原自我檢測套組,149,2022/05/01 13:43:03,口罩販售時間:每日08:15~23:00售完為止 星期日如果前一日還有庫存，當日照常販售
5931151473,百成中西藥師藥局,新北市五股區五福里五福路２０號１樓,121.4343,25.08881,(02)22915531,羅氏家用新冠病毒抗原自我檢測套組,156,2022/05/01 13:43:03,口罩代售時間為09:10-22:00；如有餘額，週日亦有販售
5931151615,陽光健保藥局,新北市五股區五福路５４號１樓,121.4335,25.08973,(02)22922400,羅氏家用新冠病毒抗原自我檢測套組,78,2022/05/01 13:43:03,快篩有配送到的話 目前為早上9:00開始販售
5931151660,祐康藥師藥局,新北市五股區五福路３６號１樓,121.4339,25.08922,(02)82921335,羅氏家用新冠病毒抗原自我檢測套組,78,2022/05/01 13:43:03,口罩代售時間:一至六早上8:30開始販售， 星期日早上9:00
5931151713,五股藥局,新北市五股區成泰路１段２３５之２號（１樓）,121.4363,25.07968,(02)22951150,羅氏家用新冠病毒抗原自我檢測套組,78,2022/05/01 13:43:03,快篩實名制，每天16:00開始販售，售完為止。
5931161353,台灣藥局,新北市泰山區明志路１段２８２－２８６號,121.4319,25.06002,(02)22971969,羅氏家用新冠病毒抗原自我檢測套組,141,2022/05/01 13:43:03,下午2:20發號碼牌2:30販售實名制快篩試劑
5931170129,麗園藥局,新北市林口區麗園一街６巷１－４號１Ｆ,121.3766,25.07012,(02)26009405,羅氏家用新冠病毒抗原自我檢測套組,78,2022/05/01 13:43:03,無
5931171411,康旭藥局,新北市林口區麗園一街６巷９號１樓－３,121.3751,25.07145,(02)26007808,羅氏家用新冠病毒抗原自我檢測套組,78,2022/05/01 13:43:03,口罩販賣時間：星期一到星期六08:00-17:30，售完為止。（星期日暫停販售）
5931171582,綠園藥局,新北市林口區仁愛路２段１０５號１樓,121.3843,25.07507,(02)86012258,羅氏家用新冠病毒抗原自我檢測套組,11,2022/05/01 13:43:03,上午8:30-12:00、下午2:30-18:00、晚上18:00-21:30
5931171706,榮新藥局,新北市林口區忠孝路３８３號１樓,121.3695,25.0713,(02)26089789,羅氏家用新冠病毒抗原自我檢測套組,78,2022/05/01 13:43:03,快篩發放時間  14:50發放號碼牌下午15:00開賣（直至賣完）
5931171779,全球忠孝藥局,新北市林口區忠孝路４９７號１樓,121.3708,25.07028,(02)26092139,羅氏家用新冠病毒抗原自我檢測套組,1,2022/05/01 13:43:03,營業時間:9:00-22:00
5931171813,力行藥局,新北市林口區文化３路１段４２３、４２５號１、２樓,121.3653,25.07438,(02)26080711,羅氏家用新冠病毒抗原自我檢測套組,78,2022/05/01 13:43:03,快篩實名制，每天16:00開始販售，售完為止。
5931171822,榮昌藥局,新北市林口區仁愛路１段４１０號１樓,121.3867,25.07683,(02)26011312,羅氏家用新冠病毒抗原自我檢測套組,78,2022/05/01 13:43:03,實名制快篩15:00開賣唷！
5931171877,杏一林口仁愛藥局,新北市林口區仁愛路２段９１號１樓,121.3846,25.07532,(02)26016453,羅氏家用新冠病毒抗原自我檢測套組,78,2022/05/01 13:43:03,無
5931171886,林口辰安藥局,新北市林口區文化三路１段１９１巷５號１樓,121.3619,25.07016,(02)26099151,羅氏家用新冠病毒抗原自我檢測套組,156,2022/05/01 13:43:03,快篩1600開始販售，現場排隊領取
5931171895,奇異果三井藥局,新北市林口區文化三路１段２４１號１樓,121.3632,25.07147,(02)26068650,羅氏家用新冠病毒抗原自我檢測套組,30,2022/05/01 13:43:03,實名制快篩每日13:00開賣喔
5931181159,信東深坑北深藥局,新北市深坑區北深路３段１０３號１樓,121.6056,25.00171,(02)77092976,羅氏家用新冠病毒抗原自我檢測套組,78,2022/05/01 13:43:03,快篩代售時間自13:00 ； 現場排隊
5931211045,三芝藥師藥局,新北市三芝區中正路１段４３號１樓,121.5032,25.25816,(02)86353982,羅氏家用新冠病毒抗原自我檢測套組,78,2022/05/01 13:43:03,無
5931231314,天康八里藥局,新北市八里區中山路２段３６７號１樓,121.3988,25.14701,(02)26101569,羅氏家用新冠病毒抗原自我檢測套組,78,2022/05/01 13:43:03,無
5931250015,松南藥局,新北市雙溪區中華路２９號,121.8658,25.03728,(02)24931085,羅氏家用新冠病毒抗原自我檢測套組,24,2022/05/01 13:43:03,週一至週五營業至晚上21點.週六至20點週日至12點
5932010631,新華興清溪藥局,桃園市桃園區東門里中山東路１０號１樓,121.3136,24.99548,(03)3330011,羅氏家用新冠病毒抗原自我檢測套組,78,2022/05/01 13:43:03,實明制快篩週一~週日14:30，不發號碼牌依序排隊購買
5932011370,家福聯合藥局,桃園市桃園區中山路６２３號,121.2939,24.99093,(03)2289492,羅氏家用新冠病毒抗原自我檢測套組,50,2022/05/01 13:43:03,無
5932011638,明光藥局,桃園市桃園區中山東路１１７之１號,121.317,24.9968,(03)3380427,羅氏家用新冠病毒抗原自我檢測套組,66,2022/05/01 13:43:03,口罩販賣時段：0900-1200--1400-1800
5932011692,正安藥局,桃園市桃園區東山里安東街５８號,121.3158,24.99265,(03)3329461,羅氏家用新冠病毒抗原自我檢測套組,5,2022/05/01 13:43:03,口罩販賣時段：09:00起 售完為止
5932012813,桃園大興藥局,桃園市桃園區大興西路二段７６巷３號,121.2984,25.01183,(03)3013222,羅氏家用新冠病毒抗原自我檢測套組,78,2022/05/01 13:43:03,快篩實名制，每天16:00開始販售，售完為止。
5932013338,合豐藥局,桃園市桃園區中山東路８２號,121.3176,24.99664,(03)3394007,羅氏家用新冠病毒抗原自我檢測套組,78,2022/05/01 13:43:03,口罩販售時間：週一至週日
5932013374,芳鄰藥局,桃園市桃園區昆明路３９號,121.3173,24.98372,(03)3679498,羅氏家用新冠病毒抗原自我檢測套組,78,2022/05/01 13:43:03,無
5932013392,桃園中正藥局,桃園市桃園區中正路３７３號,121.3079,24.99955,(03)3381600,羅氏家用新冠病毒抗原自我檢測套組,78,2022/05/01 13:43:03,快篩實名制，每天16:00開始販售，售完為止。
5932013436,和康藥局,桃園市桃園區三民路三段５６９號１樓,121.3076,24.98395,(03)3672399,羅氏家用新冠病毒抗原自我檢測套組,78,2022/05/01 13:43:03,快篩販售時間:周一至周六上午8:30發放號碼牌.
5932013687,桃園春日藥局,桃園市桃園區春日路８７８號,121.3096,25.01561,(03)3580101,羅氏家用新冠病毒抗原自我檢測套組,78,2022/05/01 13:43:03,快篩實名制，每天16:00開始販售，售完為止。
5932013721,桃園民光藥局,桃園市桃園區中正路５６９號,121.3049,25.0041,(03)3364888,羅氏家用新冠病毒抗原自我檢測套組,78,2022/05/01 13:43:03,快篩實名制，每天16:00開始販售，售完為止。
5932013749,桃園寶山藥局,桃園市桃園區寶山街７２號,121.3175,25.01291,(03)3250562,羅氏家用新冠病毒抗原自我檢測套組,78,2022/05/01 13:43:03,快篩實名制，每天16:00開始販售，售完為止。
5932013909,莊敬長青藥師藥局,桃園市桃園區莊敬路一段３２３號１樓,121.2971,25.02393,(03)3587676,羅氏家用新冠病毒抗原自我檢測套組,78,2022/05/01 13:43:03,4／30（六）5／1（日）快篩下午4:30販售 之後販售時間另行公布
5932013918,益壽藥局,桃園市桃園區中山路８２８、８３０、８３２、８３４、８３６號,121.2902,24.99093,(03)3693100,羅氏家用新冠病毒抗原自我檢測套組,78,2022/05/01 13:43:03,快篩實名制，每天16:00開始販售，售完為止。
5932013990,福澤大業藥局,桃園市桃園區大業路１段４２２號１樓,121.3118,25.01473,(03)3563865,羅氏家用新冠病毒抗原自我檢測套組,72,2022/05/01 13:43:03,家用快篩販賣時段15:30至售完為止
5932014004,同德辰安藥局,桃園市桃園區同德十街２５號,121.294,25.01835,(03)3012028,羅氏家用新冠病毒抗原自我檢測套組,78,2022/05/01 13:43:03,實名制快篩試劑於下午4點開始販售，現場排隊，沒有發放號碼牌。
5932014059,桃園南平藥局,桃園市桃園區南平路３０２－１號１樓,121.2989,25.01855,(03)3165222,羅氏家用新冠病毒抗原自我檢測套組,78,2022/05/01 13:43:03,快篩實名制，每天16:00開始販售，售完為止。
5932014157,愛兒康藥局,桃園市桃園區龍安街１４７號１樓,121.2794,24.99127,(03)3789142,羅氏家用新冠病毒抗原自我檢測套組,49,2022/05/01 13:43:03,營業時間AM:900-PM23:00 實名制快篩 15:00販售
5932014273,藝文藥局,桃園市桃園區大興西路１段１６５號,121.3049,25.01414,(03)3261789,羅氏家用新冠病毒抗原自我檢測套組,78,2022/05/01 13:43:03,快篩實名制，每天16:00開始販售，售完為止。
5932014326,闔新藥局,桃園市桃園區中正路５７６號１樓,121.3054,25.00388,(03)3317279,羅氏家用新冠病毒抗原自我檢測套組,156,2022/05/01 13:43:03,營業時間:9:00-21:00，實名制快篩領取時間14:30開始，現場排隊
5932014415,多多藥局,桃園市桃園區南平路１８３號１樓,121.3022,25.01946,(03)3162133,羅氏家用新冠病毒抗原自我檢測套組,68,2022/05/01 13:43:03,實名制快篩販售時段[下午3:00~3:30]
5932014424,桃園中山藥局,桃園市桃園區中山路７０７號,121.2914,24.99079,(03)2207168,羅氏家用新冠病毒抗原自我檢測套組,78,2022/05/01 13:43:03,快篩實名制，每天16:00開始販售，售完為止。
5932014460,桃鶯藥局,桃園市桃園區桃鶯路１０２號,121.318,24.98516,(03)3675100,羅氏家用新冠病毒抗原自我檢測套組,78,2022/05/01 13:43:03,快篩實名制，每天16:00開始販售，售完為止。
5932017112,全安藥師藥局,桃園市桃園區寶慶路４２９號,121.29,25.01915,(03)3023107,羅氏家用新冠病毒抗原自我檢測套組,75,2022/05/01 13:43:03,快篩實名制09:00~~售完為止（週日休息）
5932020360,日進藥局,桃園市中壢區中山東路二段１５６號,121.2394,24.95276,(03)4569132,羅氏家用新冠病毒抗原自我檢測套組,78,2022/05/01 13:43:03,營業時間:早上08:30至晚上09:30（周日下午休息）
5932021036,廣怡藥局,桃園市中壢區華勛街２５６號,121.2603,24.94865,(03)4366885,羅氏家用新冠病毒抗原自我檢測套組,1,2022/05/01 13:43:03,口罩販賣時段：開賣時間周一~周六13:30~17:30 、  周日8:30~11:30
5932021269,優良藥局,桃園市中壢區長春路２０號,121.2499,24.97907,(03)4612336,羅氏家用新冠病毒抗原自我檢測套組,1,2022/05/01 13:43:03,口罩販賣時段：9:30-10:30
5932021438,全球永美大藥局,桃園市中壢區中山東路二段５３０號１至２樓,121.2454,24.9468,(03)4661839,羅氏家用新冠病毒抗原自我檢測套組,78,2022/05/01 13:43:03,營業時間:9:00-22:00
5932022355,新家福藥局,桃園市中壢區福州二街４１９號,121.2325,24.968,(03)4621658,羅氏家用新冠病毒抗原自我檢測套組,78,2022/05/01 13:43:03,實名制快篩販售時間: 15:30開始至售完為止
5932022524,家佳聯合藥局,桃園市中壢區中光路１４號,121.2256,24.95717,(03)4273960,羅氏家用新冠病毒抗原自我檢測套組,78,2022/05/01 13:43:03,實名制快篩:12：00販賣，售完為止
5932022631,中壢中正藥局,桃園市中壢區中正路３６３、３６５號,121.2163,24.95532,(03)4014100,羅氏家用新冠病毒抗原自我檢測套組,78,2022/05/01 13:43:03,快篩實名制，每天16:00開始販售，售完為止。
5932022980,美佑康活力藥局,桃園市中壢區五福里中正路６２７號,121.2108,24.95947,(03)2810018,羅氏家用新冠病毒抗原自我檢測套組,78,2022/05/01 13:43:03,快篩販賣時段：周一到周日每天14:00
5932023094,中壢民權藥局,桃園市中壢區民權路３２６、３２８號,121.2054,25.0001,(03)4014961,羅氏家用新冠病毒抗原自我檢測套組,76,2022/05/01 13:43:03,實聯制快篩每天78份週一至週六下午1350拿取號碼牌1400開始販售.依序入場販售.過號視同放棄
5932023281,裕翔藥局,桃園市中壢區榮民路４８號１樓,121.2606,24.96956,(03)4355499,羅氏家用新冠病毒抗原自我檢測套組,156,2022/05/01 13:43:03,快篩下午五點販售
5932023325,新資生榮民大藥局,桃園市中壢區興仁里榮民路１０３號,121.2608,24.9682,(03)4636831,羅氏家用新冠病毒抗原自我檢測套組,78,2022/05/01 13:43:03,實名制快篩販賣時段：下午2點起
5932023334,欣安藥局,桃園市中壢區龍岡路三段１７６號,121.2335,24.93561,(03)4285880,羅氏家用新冠病毒抗原自我檢測套組,56,2022/05/01 13:43:03,快篩販賣時段：13:00
5932023487,新賀生大藥局,桃園市中壢區中山東路三段２６０號,121.2505,24.94174,(03)4163900,羅氏家用新冠病毒抗原自我檢測套組,33,2022/05/01 13:43:03,營業時間:9:00-21:00 ／ 快篩13:00開始販賣
5932023512,大順藥局,桃園市中壢區興仁路三段５６號,121.2642,24.95469,(03)4654675,羅氏家用新冠病毒抗原自我檢測套組,78,2022/05/01 13:43:03,營業時間:8:00-22:30；口罩販賣時段：早上8點
5932023683,祥合藥局,桃園市中壢區中北路二段４３１號,121.2321,24.95431,(03)2841880,羅氏家用新冠病毒抗原自我檢測套組,48,2022/05/01 13:43:03,口罩販賣時段:16:00
5932023772,佑全中壢中正藥局,桃園市中壢區中正路１０８號１、２樓,121.2229,24.95498,(03)2807899,羅氏家用新冠病毒抗原自我檢測套組,78,2022/05/01 13:43:03,實名制快篩販售時間：下午1400-售完為止
5932023807,東興藥局,桃園市中壢區中北路２段３９號,121.224,24.95033,(03)4282611,羅氏家用新冠病毒抗原自我檢測套組,78,2022/05/01 13:43:03,快篩實名制，每天16:00開始販售，售完為止。
5932023889,華勛藥局,桃園市中壢區華勛街１１２、１１４號,121.2597,24.95065,(03)4161881,羅氏家用新冠病毒抗原自我檢測套組,78,2022/05/01 13:43:03,快篩實名制，每天16:00開始販售，售完為止。
5932023914,內壢忠孝藥局,桃園市中壢區忠孝路３６號,121.2566,24.97338,(03)4636641,羅氏家用新冠病毒抗原自我檢測套組,78,2022/05/01 13:43:03,快篩實名制，每天16:00開始販售，售完為止。
5932023923,朝日藥局,桃園市中壢區新生路１２９號,121.2227,24.96044,(03)2805882,羅氏家用新冠病毒抗原自我檢測套組,78,2022/05/01 13:43:03,實名快篩下午3點發號碼牌，下午3點30分發放試劑
5932023932,龍東藥局,桃園市中壢區龍東路２０５號,121.2523,24.92966,(03)4383088,羅氏家用新冠病毒抗原自我檢測套組,78,2022/05/01 13:43:03,快篩實名制，每天16:00開始販售，售完為止。
5932023996,青瑭藥局,桃園市中壢區民權路４段２７７號１樓,121.2022,25.00625,(03)2875901,羅氏家用新冠病毒抗原自我檢測套組,78,2022/05/01 13:43:03,無
5932024019,全球青埔藥局,桃園市中壢區高鐵南路２段２２７號,121.2057,25.00346,(03)2873147,羅氏家用新冠病毒抗原自我檢測套組,79,2022/05/01 13:43:03,營業時間:9:00-22:00
5932024206,杏一中壢天晟藥局,桃園市中壢區延平路１７３號１樓,121.2291,24.96265,(03)4554517,羅氏家用新冠病毒抗原自我檢測套組,71,2022/05/01 13:43:03,營業時間：上午0800-1200，下午1300-1700，晚上1800-2200
5932024215,幸運星藥師藥局,桃園市中壢區龍東路４４號１樓,121.2502,24.9284,(03)4563356,羅氏家用新冠病毒抗原自我檢測套組,39,2022/05/01 13:43:03,快篩實名制，實際發售以官網及店公佈欄公告為主
5932024251,佑全中壢中山藥局,桃園市中壢區中山東路２段２７號１樓,121.2374,24.95443,(03)4385373,羅氏家用新冠病毒抗原自我檢測套組,73,2022/05/01 13:43:03,家用快篩販售時間：下午1400-售完為止
5932024279,中壢環東藥局,桃園市中壢區中山東路２段１９３號,121.2404,24.95171,(03)4562345,羅氏家用新冠病毒抗原自我檢測套組,78,2022/05/01 13:43:03,快篩實名制，每天16:00開始販售，售完為止。
5932028311,千福藥局,桃園市中壢區高鐵站前西路二段８７號,121.2203,25.00709,(03)4533789,羅氏家用新冠病毒抗原自我檢測套組,78,2022/05/01 13:43:03,口罩販賣時段-上午九時至售完為止
5932028491,新典藥局,桃園市中壢區龍東路４２５號,121.2561,24.93391,(03)4371986,羅氏家用新冠病毒抗原自我檢測套組,78,2022/05/01 13:43:03,8:00-12:00；15:00-21:00；三節營業至12:00／口罩販賣時段：08：00發放號碼牌
593202B296,慧康藥局,桃園市中壢區中北路二段１０１號１樓,121.2255,24.95122,(03)2840064,羅氏家用新冠病毒抗原自我檢測套組,11,2022/05/01 13:43:03,口罩販賣時段:16:00
5932031578,宜暉健保藥局,桃園市大溪區介壽路７１８號,121.2849,24.90544,(03)3806695,羅氏家用新冠病毒抗原自我檢測套組,156,2022/05/01 13:43:03,9:00-22:00／端午.中秋.除夕~初三休息／快篩販賣時間19:00發號碼牌，售完為止
5932031729,德安堂藥局,桃園市大溪區介壽路８９２號,121.2837,24.90016,(03)3808173,羅氏家用新冠病毒抗原自我檢測套組,78,2022/05/01 13:43:03,口罩販賣時段：14:00 - 16:00
5932031747,欣康藥局,桃園市大溪區員林路２段３９０－６號,121.2677,24.88412,(03)3076310,羅氏家用新冠病毒抗原自我檢測套組,156,2022/05/01 13:43:03,快篩販賣時段：15:30
5932031881,大溪藥局,桃園市大溪區康莊路１６０號,121.2886,24.8808,(03)3873873,羅氏家用新冠病毒抗原自我檢測套組,78,2022/05/01 13:43:03,快篩實名制，每天16:00開始販售，售完為止。
5932040246,龍泰藥局,桃園市楊梅區民族路五段１４７巷２號,121.1736,24.9586,(03)4901525,羅氏家用新冠病毒抗原自我檢測套組,78,2022/05/01 13:43:03,口罩販售時間：08:00開賣至11:00
5932042679,得康美藥局,桃園市楊梅區環南路１２８號１樓,121.1466,24.90164,(03)4788128,羅氏家用新冠病毒抗原自我檢測套組,1,2022/05/01 13:43:03,口罩販售時段~A:10:00-11:00 B:15:30-16:30 C:19:30-20:30
5932043130,宜康美藥局,桃園市楊梅區環東路４５２號,121.1571,24.91005,(03)4883805,羅氏家用新冠病毒抗原自我檢測套組,78,2022/05/01 13:43:03,口罩販賣時段：早上09:30~10:30（100份）下午15:30~16:30（50份）晚上19:30~20:30（50份）
5932043336,楊梅藥局,桃園市楊梅區大成路１４８、１５０號,121.1458,24.91148,(03)4880776,羅氏家用新冠病毒抗原自我檢測套組,78,2022/05/01 13:43:03,快篩實名制，每天16:00開始販售，售完為止。
5932051329,恆安藥局,桃園市蘆竹區忠孝西路２４號,121.2924,25.04425,(03)2120206,羅氏家用新冠病毒抗原自我檢測套組,79,2022/05/01 13:43:03,口罩販賣時段：下午16:00  晚上20:00
5932052077,明安藥局,桃園市蘆竹區南竹路一之六號,121.2934,25.04765,(03)3527087,羅氏家用新冠病毒抗原自我檢測套組,78,2022/05/01 13:43:03,販售時段；周一至周日（快篩送達時間不定，依現場公告為主）
5932052433,承昇藥局,桃園市蘆竹區桃園街８６號,121.2918,25.04607,(03)3211085,羅氏家用新冠病毒抗原自我檢測套組,78,2022/05/01 13:43:03,口罩販賣時段：週一~週五10:00~12:00
5932052826,青新藥師藥局,桃園市蘆竹區南竹路五段２５１之１號,121.2597,25.0247,(03)3134328,羅氏家用新冠病毒抗原自我檢測套組,78,2022/05/01 13:43:03,無
5932052853,奇安藥局,桃園市蘆竹區南昌路２６９號,121.2921,25.03999,(03)2120207,羅氏家用新冠病毒抗原自我檢測套組,78,2022/05/01 13:43:03,無
5932052933,天康南崁藥局,桃園市蘆竹區南崁路２４５號,121.2933,25.04894,(03)2122569,羅氏家用新冠病毒抗原自我檢測套組,80,2022/05/01 13:43:03,快篩販賣時段：週一至週日14:00起
5932052951,永青健康人生藥局,桃園市蘆竹區奉化路１４２號１樓,121.289,25.03917,(03)3528361,羅氏家用新冠病毒抗原自我檢測套組,63,2022/05/01 13:43:03,實名制快篩每日兩點開賣，人潮眾多額滿會提早開始
5932052979,南崁藥局,桃園市蘆竹區中正路２５１、２５３、２５５號,121.2921,25.04695,(03)3522022,羅氏家用新冠病毒抗原自我檢測套組,78,2022/05/01 13:43:03,快篩實名制，每天16:00開始販售，售完為止。
5932053047,桃園大竹藥局,桃園市蘆竹區大竹路３６５號,121.2652,25.01997,(03)3235959,羅氏家用新冠病毒抗原自我檢測套組,80,2022/05/01 13:43:03,快篩實名制，每天16:00開始販售，售完為止。
5932053083,健力藥局,桃園市蘆竹區奉化路１３６號,121.2888,25.03924,(03)2221918,羅氏家用新冠病毒抗原自我檢測套組,78,2022/05/01 13:43:03,快篩下午三點開賣
5932060088,銘方大藥局,桃園市大園區大園里中華路３２號,121.1982,25.06647,(03)3865077,羅氏家用新冠病毒抗原自我檢測套組,1,2022/05/01 13:43:03,快篩試劑販賣時段 : 早上 8:30 起至售完為止
5932060177,勝峰藥師藥局,桃園市大園區菓林里３鄰菓林路５１號１樓,121.2585,25.07499,(03)3835588,羅氏家用新冠病毒抗原自我檢測套組,78,2022/05/01 13:43:03,16:00
5932062046,家宏藥局,桃園市大園區祰林里三民路二段４６６號,121.2587,25.07888,(03)3838866,羅氏家用新冠病毒抗原自我檢測套組,78,2022/05/01 13:43:03,快篩販賣時段： 15:.00-17:00
5932062144,唯新藥局,桃園市大園區忠孝一街１１號１樓,121.1977,25.06585,(03)3869380,羅氏家用新冠病毒抗原自我檢測套組,24,2022/05/01 13:43:03,快篩販賣時段：下午1:30販售
5932062439,青埔長青藥師藥局,桃園市大園區新生路四段２５１號,121.2134,25.0081,(03)3815097,羅氏家用新冠病毒抗原自我檢測套組,78,2022/05/01 13:43:03,快篩販賣時段：週一~週五10:00；六日14:00開放直接排隊購買
5932062484,園正藥局,桃園市大園區中正東路７５號,121.2003,25.06315,(03)3865250,羅氏家用新冠病毒抗原自我檢測套組,78,2022/05/01 13:43:03,快篩實名制，每天16:00開始販售，售完為止。
5932077056,桃園龜山藥局,桃園市龜山區萬壽路二段８９６號,121.3394,24.99586,(03)3203312,羅氏家用新冠病毒抗原自我檢測套組,78,2022/05/01 13:43:03,快篩實名制，每天16:00開始販售，售完為止。
5932077305,全興藥局,桃園市龜山區光峰路１５３號１樓,121.3427,25.0026,(03)3597901,羅氏家用新冠病毒抗原自我檢測套組,78,2022/05/01 13:43:03,上午8:30開始販售實名制快篩試劑，禮拜日公休。
5932077403,穩好保健藥局,桃園市龜山區中興路１３７號,121.3317,24.9889,(03)3500088,羅氏家用新冠病毒抗原自我檢測套組,78,2022/05/01 13:43:03,口罩販賣時段：0900
5932077510,左外野藥局,桃園市龜山區文光街６號１樓,121.3802,25.05471,(03)3271503,羅氏家用新冠病毒抗原自我檢測套組,156,2022/05/01 13:43:03,快篩販售時間:19:30-20:30 （週五公休）
5932077565,文新藥局,桃園市龜山區文化二路７１－１號１樓,121.3682,25.05596,(03)3978659,羅氏家用新冠病毒抗原自我檢測套組,78,2022/05/01 13:43:03,實名制快篩於14：50發放號碼牌　過卡後開始發放快篩試劑
5932077574,樂樂聯合藥局,桃園市龜山區萬壽路１段１０９號１、２樓,121.4091,25.01886,(02)82000560,羅氏家用新冠病毒抗原自我檢測套組,6,2022/05/01 13:43:03,無
5932077592,南崁南祥藥局,桃園市龜山區南祥路４６號,121.2975,25.04633,(03)2227733,羅氏家用新冠病毒抗原自我檢測套組,78,2022/05/01 13:43:03,快篩實名制，每天16:00開始販售，售完為止。
5932077627,文興藥局,桃園市龜山區復興一路１０２號１、２、３樓,121.368,25.0592,(03)3285330,羅氏家用新冠病毒抗原自我檢測套組,78,2022/05/01 13:43:03,快篩實名制，每天16:00開始販售，售完為止。
5932077645,美康萬壽藥局,桃園市龜山區萬壽路１段３２５號１、２樓,121.4024,25.0169,(02)82000001,羅氏家用新冠病毒抗原自我檢測套組,123,2022/05/01 13:43:03,5／1下午兩點開始發號碼牌販售公費快篩
5932080455,日鴻藥局,桃園市八德區義勇街１７５號,121.3065,24.96335,(03)3763304,羅氏家用新冠病毒抗原自我檢測套組,78,2022/05/01 13:43:03,口罩販賣時段：早上9:00 發號碼牌下午4:00~6:00領取
5932083545,興豐藥局,桃園市八德區介壽路二段一一七五號,121.2975,24.93165,(03)3654229,羅氏家用新冠病毒抗原自我檢測套組,78,2022/05/01 13:43:03,口罩販賣時段：7:20~10:00
5932083974,晨鴻藥師藥局,桃園市八德區桃鶯路７號１樓,121.3265,24.97179,(03)3764299,羅氏家用新冠病毒抗原自我檢測套組,79,2022/05/01 13:43:03,兒童口罩早上8:30領取號碼牌 一定發完 因為一天只有20個名額 ，請勿再打電話詢問 謝謝
5932084300,博泰藥局,桃園市八德區介壽路二段９８２號,121.2973,24.93407,(03)3731010,羅氏家用新冠病毒抗原自我檢測套組,78,2022/05/01 13:43:03,口罩販賣時段：14:00 - 16:00
5932084319,新寶樹藥局,桃園市八德區介壽路一段９６６號,121.2991,24.95818,(03)3770000,羅氏家用新冠病毒抗原自我檢測套組,78,2022/05/01 13:43:03,無
5932084373,悅康藥局,桃園市八德區介壽路一段９１６號,121.2993,24.95943,(03)3662930,羅氏家用新冠病毒抗原自我檢測套組,45,2022/05/01 13:43:03,全年無休、口罩販賣時段：13:00-17:00
5932084560,慈幼藥局,桃園市八德區忠勇六街７號,121.3053,24.96491,(03)3749915,羅氏家用新冠病毒抗原自我檢測套組,78,2022/05/01 13:43:03,快篩販賣時段：下午3:00
5932084695,康馥藥局,桃園市八德區金和路５３號１樓,121.2971,24.95494,(03)3749620,羅氏家用新冠病毒抗原自我檢測套組,156,2022/05/01 13:43:03,口罩販賣時段：15:00 ， 週日14:30開始營業；星期六公休。
5932084793,美康健保藥局,桃園市八德區桃鶯路９１號１、２樓,121.328,24.97036,(03)3613624,羅氏家用新冠病毒抗原自我檢測套組,78,2022/05/01 13:43:03,無
5932084855,中山啄木鳥藥局,桃園市八德區中山路２１１號、２１３號、２１５號、２１７號１樓,121.2849,24.92539,(03)3656375,羅氏家用新冠病毒抗原自我檢測套組,2,2022/05/01 13:43:03,無
5932084864,阿寶藥局,桃園市八德區東勇一路６號,121.3064,24.96452,(03)3750060,羅氏家用新冠病毒抗原自我檢測套組,52,2022/05/01 13:43:03,無
5932099776,愛心藥局,桃園市龍潭區五福街１５巷３號,121.2177,24.86528,(03)4706717,羅氏家用新冠病毒抗原自我檢測套組,78,2022/05/01 13:43:03,口罩販賣時段：0800～售完
5932100210,福澤中豐藥局,桃園市平鎮區中豐路３４５號,121.2116,24.91034,(03)4283805,羅氏家用新冠病毒抗原自我檢測套組,34,2022/05/01 13:43:03,家用快篩販賣時段15:30至售完為止
5932100685,閤家康聯合藥局,桃園市平鎮區中豐路山頂段２５６號,121.2108,24.89805,(03)4194550,羅氏家用新冠病毒抗原自我檢測套組,142,2022/05/01 13:43:03,快篩販賣時段:15:00
5932100836,好的快藥局,桃園市平鎮區和平路１２３號１樓,121.2207,24.94728,(03)4574208,羅氏家用新冠病毒抗原自我檢測套組,78,2022/05/01 13:43:03,快篩販賣時段:5／1下午14:30至售完（滾動式調整）
5932100863,新昕藥局,桃園市平鎮區東社里龍南路９２號１樓,121.2463,24.92401,(03)4509616,羅氏家用新冠病毒抗原自我檢測套組,156,2022/05/01 13:43:03,快篩販售時間  下午2:00，目前六、日無販售
5932100934,崴皓藥師藥局,桃園市平鎮區平東路１３２號,121.2506,24.91727,(03)4500915,羅氏家用新冠病毒抗原自我檢測套組,78,2022/05/01 13:43:03,實名制快篩販售時間『下午14:30開始』，一人一張健保卡，請自備500元，不收銅板。售完為止
5932101226,平鎮中豐藥局,桃園市平鎮區中豐路山頂段１６４號,121.2109,24.90035,(03)4690939,羅氏家用新冠病毒抗原自我檢測套組,77,2022/05/01 13:43:03,快篩實名制，每天16:00開始販售，售完為止。
5932101253,新大賀藥局,桃園市平鎮區新榮路２５９號１樓,121.2135,24.94617,(03)4927100,羅氏家用新冠病毒抗原自我檢測套組,156,2022/05/01 13:43:03,下午兩點開始發號碼牌販售快篩
5932109955,優達藥局,桃園市平鎮區廣明路六六號,121.2139,24.9538,(03)4943488,羅氏家用新冠病毒抗原自我檢測套組,40,2022/05/01 13:43:03,快篩下午2點賣
593210A238,美樂蒂藥局,桃園市平鎮區民族路二三七號二樓,121.2091,24.95658,(03)4023131,羅氏家用新冠病毒抗原自我檢測套組,78,2022/05/01 13:43:03,每日快篩販售時間14:30（因配送當天早上才送達）當天早上可賣昨天剩餘量
5932120016,吉利藥師藥局,桃園市觀音區富源里新富路１７０５號,121.1326,24.99095,(03)4901701,羅氏家用新冠病毒抗原自我檢測套組,78,2022/05/01 13:43:03,口罩販賣時段：週一至週六早上7:30起，售完為止
5932120114,廣福藥局,桃園市觀音區新坡里新生路４１號,121.1358,25.01381,(03)4984488,羅氏家用新冠病毒抗原自我檢測套組,78,2022/05/01 13:43:03,實名制快篩下午3點開始販售
5932123008,立明藥局,桃園市觀音區草漯里大觀路二段３３－１號１樓,121.1433,25.04796,(03)4838292,羅氏家用新冠病毒抗原自我檢測套組,156,2022/05/01 13:43:03,下午兩點開始販售快篩
5932124096,松樹藥師藥局,桃園市觀音區中山路二段777號,121.1382,25.01172,(03)4988995,羅氏家用新冠病毒抗原自我檢測套組,78,2022/05/01 13:43:03,快篩販售時間：14:00~售完為止.
5932124381,日昇藥局,桃園市觀音區成功路一段７８１號,121.119,25.05221,(03)4834212,羅氏家用新冠病毒抗原自我檢測套組,76,2022/05/01 13:43:03,下午4點開始販售快篩試劑
5933010082,仁泰藥局,新竹縣關西鎮石光里６鄰２６８號,121.1307,24.81263,(03)5868391,羅氏家用新冠病毒抗原自我檢測套組,69,2022/05/01 13:43:03,無
5933011196,高平堂藥局,新竹縣關西鎮正義路66號,121.1762,24.79269,(03)5872263,羅氏家用新冠病毒抗原自我檢測套組,1,2022/05/01 13:43:03,相關公告 請搜尋FB【高平堂藥局】
5933011267,關西藥局,新竹縣關西鎮中山路６８號,121.1764,24.79148,(03)5171121,羅氏家用新冠病毒抗原自我檢測套組,79,2022/05/01 13:43:03,快篩實名制，每天16:00開始販售，售完為止。
5933020104,廣和藥局,新竹縣新埔鎮中正路２９２號,121.0807,24.82769,(035)885959,羅氏家用新冠病毒抗原自我檢測套組,156,2022/05/01 13:43:03,實名制快篩 下午15:00開始販售
5933031652,合康藥局,新竹縣竹東鎮興農街１１號,121.0861,24.73988,(03)5103818,羅氏家用新冠病毒抗原自我檢測套組,78,2022/05/01 13:43:03,實名制快篩時段：下午17:00~22:30
5933031769,竹東朝陽藥局,新竹縣竹東鎮朝陽路１號１、２樓,121.0852,24.74199,(03)5111166,羅氏家用新冠病毒抗原自我檢測套組,78,2022/05/01 13:43:03,口罩販售時間：14:00 - 16:00
5933031885,東林藥局,新竹縣竹東鎮東林路８０號,121.0913,24.73683,(03)5961321,羅氏家用新冠病毒抗原自我檢測套組,78,2022/05/01 13:43:03,快篩實名制，每天16:00開始販售，售完為止。
5933052866,晶華藥局,新竹縣竹北市莊敬南路１１０號１樓,121.0203,24.81736,(03)5502107,羅氏家用新冠病毒抗原自我檢測套組,1,2022/05/01 13:43:03,4／28 14:00  販售公費快篩
5933052955,仁里藥局,新竹縣竹北市勝利二路１２５號,121.0278,24.82236,(03)6673878,羅氏家用新冠病毒抗原自我檢測套組,78,2022/05/01 13:43:03,口罩販賣時段：星期一~日10:00-12:00
5933052973,芳鄰藥局,新竹縣竹北市三民路２６１號之１號,121.013,24.83308,(03)6213887,羅氏家用新冠病毒抗原自我檢測套組,136,2022/05/01 13:43:03,快篩販售時間:下午1:30     現場排隊領號碼牌
5933052982,如佳藥局,新竹縣竹北市中正西路１８９號,120.9989,24.84168,(03)5533161,羅氏家用新冠病毒抗原自我檢測套組,44,2022/05/01 13:43:03,實名制快篩於下午兩點開始販售，一點半發放號碼牌
5933053023,禾坊藥局,新竹縣竹北市科大一路８５號,121.0095,24.82142,(03)5588797,羅氏家用新冠病毒抗原自我檢測套組,78,2022/05/01 13:43:03,口罩販賣時段：09:00
5933053041,中一藥局,新竹縣竹北市文興路一段２４２號１樓,121.0287,24.81018,(03)6670827,羅氏家用新冠病毒抗原自我檢測套組,78,2022/05/01 13:43:03,更新:快篩販售時間下午16:00
5933053158,竹北啄木鳥藥局,新竹縣竹北市博愛街１８３號,121.0054,24.83222,(03)5539420,羅氏家用新冠病毒抗原自我檢測套組,1,2022/05/01 13:43:03,政府防疫口罩販售時段 : 10:00起至21:00為止
