醫事機構代碼,醫事機構名稱,醫事機構地址,經度,緯度,醫事機構電話,廠牌項目,快篩試劑截至目前結餘存貨數量,來源資料時間,備註
2331260016,新北市貢寮區衛生所,新北市貢寮區朝陽街７０巷１０號、新北市貢寮區仁愛路１２８號,121.9095,25.02258,(02)24901431,羅氏家用新冠病毒抗原自我檢測套組,156,2022/04/29 14:51:02,星期一至星期日上午8點購買防疫口罩，售完為止.
2331290014,新北市烏來區衛生所,新北市烏來區新烏路５段１０９號,121.548,24.87197,(02)26617200,羅氏家用新冠病毒抗原自我檢測套組,171,2022/04/29 14:51:02,無
2333140017,新竹縣五峰鄉衛生所,新竹縣五峰鄉大隘村六鄰９９號,121.1194,24.63184,(03)5851005,羅氏家用新冠病毒抗原自我檢測套組,156,2022/04/29 14:51:02,無
2335110017,苗栗縣南庄鄉衛生所,苗栗縣南庄鄉東村大同路１７號,121,24.59733,(037)822024,羅氏家用新冠病毒抗原自我檢測套組,156,2022/04/29 14:51:02,口罩販賣時段:週一至週五上午8:00~下午5:00
2335180019,苗栗縣泰安鄉衛生所,苗栗縣泰安鄉清安村２鄰７２號,120.9083,24.44722,(037)941054,羅氏家用新冠病毒抗原自我檢測套組,156,2022/04/29 14:51:02,口罩販賣時段：星期一~五：8:30~15：00。
2336210034,臺中市和平區梨山衛生所,臺中市和平區中正路１２號１樓、６８號１樓,121.2592,24.25678,(04)25989540,羅氏家用新冠病毒抗原自我檢測套組,156,2022/04/29 14:51:02,提供24小時急診待診服務，111年4月28日起，快篩試劑販售時段為周一至周五0900-12:00，六日及國定假日為0900-1100
2338070010,南投縣鹿谷鄉衛生所,南投縣鹿谷鄉中正路二段２０號,120.7542,23.74488,(049)2752002,羅氏家用新冠病毒抗原自我檢測套組,160,2022/04/29 14:51:02,快篩試劑販售時間 上班日（星期一至星期五）14:00~16:00
2338120015,南投縣信義鄉衛生所,南投縣信義鄉明德村玉山路４５號,120.8547,23.69653,(049)2791148,羅氏家用新冠病毒抗原自我檢測套組,156,2022/04/29 14:51:02,快篩試劑販售時間星期一至星期五上午09：00-11：00，現場排隊發售，國定假日不販賣。
2340170016,嘉義縣大埔鄉衛生所,嘉義縣大埔鄉大埔村５３－１號,120.5928,23.29397,(05)2521214,羅氏家用新冠病毒抗原自我檢測套組,156,2022/04/29 14:51:02,無
2342130010,高雄市田寮區衛生所,高雄市田寮區南安里崗北路３２號,120.3594,22.87301,(07)6361504,羅氏家用新冠病毒抗原自我檢測套組,7,2022/04/29 14:51:02,巡迴醫療:每星期一、四下午及每月第一個有上班的星期三下午巡迴醫療
2342250017,高雄市茂林區衛生所,高雄市茂林區茂林里茂林巷８－４號,120.6641,22.88641,(07)6801046,羅氏家用新冠病毒抗原自我檢測套組,267,2022/04/29 14:51:02,夜間急診，請先撥電話07-6801046
2342260013,高雄市桃源區衛生所,高雄市桃源區桃源里南進巷１８８－１號,120.7642,23.15845,(07)6861126,羅氏家用新冠病毒抗原自我檢測套組,202,2022/04/29 14:51:02,IDS提供24小時服務
2342270019,高雄市那瑪夏區衛生所,高雄市那瑪夏區瑪雅里６鄰平和巷２５２號,120.7024,23.24708,(07)6701142,羅氏家用新冠病毒抗原自我檢測套組,243,2022/04/29 14:51:02,春節期間正常門診
2343270013,屏東縣霧台鄉衛生所,屏東縣霧台鄉霧台村神山巷６８號,120.7261,22.74989,(08)7902232,羅氏家用新冠病毒抗原自我檢測套組,233,2022/04/29 14:51:02,無
2343290015,屏東縣泰武鄉衛生所,屏東縣泰武鄉佳平村１７９號,120.6327,22.59212,(08)7832059,羅氏家用新冠病毒抗原自我檢測套組,173,2022/04/29 14:51:02,4／2-4／5門診照常
2343300016,屏東縣來義鄉衛生所,屏東縣來義鄉古樓村中正路９０號,120.632,22.52584,(08)7850103,羅氏家用新冠病毒抗原自我檢測套組,165,2022/04/29 14:51:02,無
2344030022,澎湖縣白沙鄉鳥嶼衛生所,澎湖縣白沙鄉鳥嶼村漁港新村３號,119.6599,23.66008,(06)9916092,羅氏家用新冠病毒抗原自我檢測套組,213,2022/04/29 14:51:02,非上班時間提供急診服務
2344030031,澎湖縣白沙鄉吉貝衛生所,澎湖縣白沙鄉吉貝村８－１３號,119.6138,23.74056,(06)9911430,羅氏家用新冠病毒抗原自我檢測套組,260,2022/04/29 14:51:02,無
2344050015,澎湖縣望安鄉衛生所,澎湖縣望安鄉西安村３６－７號,119.4972,23.36161,(06)9991036,羅氏家用新冠病毒抗原自我檢測套組,158,2022/04/29 14:51:02,夜間急診。口罩、快篩試劑販售時間為:每日08:00-12:00、13:30-17:30售完為止，如有餘數為離島未售出（東嶼坪、花嶼衛生室）。
2344050024,澎湖縣望安鄉將軍衛生所,澎湖縣望安鄉將軍村１２鄰將軍澳１之３號,119.5216,23.3615,(06)9902066,羅氏家用新冠病毒抗原自我檢測套組,268,2022/04/29 14:51:02,24小時急診
2344060011,澎湖縣七美鄉衛生所,澎湖縣七美鄉中和村埔內５４號,119.431,23.2041,(06)9971005,羅氏家用新冠病毒抗原自我檢測套組,194,2022/04/29 14:51:02,無
2345080017,花蓮縣豐濱鄉衛生所,花蓮縣豐濱鄉豐濱村光豐路３９號,121.5215,23.60195,(03)8791156,羅氏家用新冠病毒抗原自我檢測套組,107,2022/04/29 14:51:02,*本院口罩每天販售，時間自上午8點至晚上9點  *本院週一至週五上下午皆有門診，星期六隔週提供門診，及24小時急診。
2345110010,花蓮縣秀林鄉衛生所,花蓮縣秀林鄉秀林村１２鄰秀林路８８號,121.6334,24.1269,(03)8612122,羅氏家用新冠病毒抗原自我檢測套組,48,2022/04/29 14:51:02,口罩代售時間上班日上午8:10至12時止（口罩限量故售完為止）
2346160014,台東縣蘭嶼鄉衛生所,臺東縣蘭嶼鄉紅頭村３６號,121.5546,22.02493,(089)732575,羅氏家用新冠病毒抗原自我檢測套組,157,2022/04/29 14:51:02,販售口罩時間 星期一至星期五 8:00~12:00 13:30~17:30
2391020010,連江縣北竿鄉衛生所,連江縣北竿鄉塘岐村２８１－６號,119.9991,26.22617,(083)655592,羅氏家用新冠病毒抗原自我檢測套組,156,2022/04/29 14:51:02,防疫口罩每日08:30-10:00於北竿衛生所購買。
2391030016,連江縣莒光鄉西莒衛生所,連江縣莒光鄉青帆村１４－１號,119.9331,25.97157,(083)689122,羅氏家用新冠病毒抗原自我檢測套組,254,2022/04/29 14:51:02,防疫口罩星期一至五09:00-17:00、（六）09:00-12:00現場購買
2391030026,連江縣莒光鄉東莒衛生所,連江縣莒光鄉大坪村３０－１號,119.9731,25.96113,(083)689038,羅氏家用新冠病毒抗原自我檢測套組,259,2022/04/29 14:51:02,防疫口罩星期一至星期日上午10:00-12:00收取健保卡，下午3:30至本所領取口罩。
2391040012,連江縣東引鄉衛生所,連江縣東引鄉中柳村１２３號,120.4904,26.36701,(083)677206,羅氏家用新冠病毒抗原自我檢測套組,163,2022/04/29 14:51:02,防疫口罩每日10:00-12:00現場購買
5901012409,家音藥局,臺北市松山區民生東路５段７３號,121.5585,25.05871,(02)37652080,羅氏家用新冠病毒抗原自我檢測套組,77,2022/04/29 14:51:02,無
5901012516,惠登藥局,臺北市松山區民生東路３段１３０巷３４號,121.5461,25.0562,(02)25472432,羅氏家用新冠病毒抗原自我檢測套組,78,2022/04/29 14:51:02,無
5901012570,予志藥局,臺北市松山區富錦街５２１號,121.5649,25.06119,(02)27623522,羅氏家用新冠病毒抗原自我檢測套組,77,2022/04/29 14:51:02,快篩 星期一到三 下午2點 四-六 晚上8點
5901012598,婕登藥局,臺北市松山區八德路４段６９９號,121.5766,25.05021,(02)27482893,羅氏家用新冠病毒抗原自我檢測套組,1,2022/04/29 14:51:02,無
5901012632,晨安藥局,臺北市松山區八德路３段１５５巷２０弄２號,121.5553,25.04914,(02)25798460,羅氏家用新冠病毒抗原自我檢測套組,2,2022/04/29 14:51:02,3／7起，星期六停止販賣口罩；星期一至星期五，15:00~17:00、星期日12:00~14:00，直行販售口罩業務。
5901012749,躍獅松和藥局,臺北市松山區八德路四段６６６－１號,121.5761,25.04979,(02)27492569,羅氏家用新冠病毒抗原自我檢測套組,78,2022/04/29 14:51:02,實名制快篩販售時段，下午16:00起，售完為止
5901013120,誠康中西藥局,臺北市松山區南京東路５段５９巷３１弄４３號,121.5607,25.05346,(02)27619679,羅氏家用新冠病毒抗原自我檢測套組,2,2022/04/29 14:51:02,無
5901013148,唯康藥局,臺北市松山區八德路３段２１１號,121.5566,25.0482,(02)25775000,羅氏家用新冠病毒抗原自我檢測套組,1,2022/04/29 14:51:02,無
5901013200,專品南京藥局,臺北市松山區南京東路４段７３號,121.5532,25.05185,(02)25147685,羅氏家用新冠病毒抗原自我檢測套組,72,2022/04/29 14:51:02,無
5901013399,一安正昇藥局,臺北市松山區南京東路５段３０９號,121.5667,25.05155,(02)27680993,羅氏家用新冠病毒抗原自我檢測套組,9,2022/04/29 14:51:02,無
5901013442,松山八德藥局,臺北市松山區八德路２段４００號,121.5466,25.04804,(02)27782773,羅氏家用新冠病毒抗原自我檢測套組,78,2022/04/29 14:51:02,快篩實名制，每天16:00開始販售，售完為止。
5901013586,安禾大藥局,臺北市松山區撫遠街３８２號,121.5656,25.06443,(02)27602952,羅氏家用新冠病毒抗原自我檢測套組,2,2022/04/29 14:51:02,無
5901013595,巧心藥局,臺北市松山區八德路３段１２巷５７弄３９之３號１樓,121.5521,25.04567,(02)25703728,羅氏家用新冠病毒抗原自我檢測套組,1,2022/04/29 14:51:02,快篩試劑販售時間:週二晚間18:00-20:00.週三下午14:00-16:00，售完為止
5901013620,躍獅敦北藥局,臺北市松山區民生東路４段８０巷５號１樓,121.5531,25.05713,(02)27155691,羅氏家用新冠病毒抗原自我檢測套組,2,2022/04/29 14:51:02,無
5901013693,民生盛康藥局,臺北市松山區民生東路５段２０４號１樓,121.5648,25.05826,(02)27460758,羅氏家用新冠病毒抗原自我檢測套組,58,2022/04/29 14:51:02,每日早上9:00發號碼牌，11:00~20:00拿號碼牌回來領取，每人限兩張，逾時不候
5901013719,大樹松山藥局,臺北市松山區民生東路５段１０７號１樓,121.5601,25.05878,(02)27562226,羅氏家用新冠病毒抗原自我檢測套組,78,2022/04/29 14:51:02,快篩實名制，每天16:00開始販售，售完為止。
5901013728,康麗藥局,臺北市松山區南京東路３段３０３巷２０號（１樓）,121.5468,25.05374,(02)27174117,羅氏家用新冠病毒抗原自我檢測套組,8,2022/04/29 14:51:02,無
5901013737,全欣藥局,臺北市松山區復興北路７３號２樓,121.5442,25.05104,(02)87729066,羅氏家用新冠病毒抗原自我檢測套組,45,2022/04/29 14:51:02,9:00am開始販售30人份4:15:00販售30人份:18:00販售18人份........
5901020465,杏友藥局,臺北市大安區復興南路２段１５１巷２５號,121.5446,25.02847,(02)27079451,羅氏家用新冠病毒抗原自我檢測套組,78,2022/04/29 14:51:02,週一-週六 下午3:00開始發放快篩，發完為止
5901020787,吉成藥局,臺北市大安區泰順街７號,121.5316,25.02557,(02)23636475,羅氏家用新冠病毒抗原自我檢測套組,78,2022/04/29 14:51:02,每日下午三點發放號碼牌，同時間開始販賣實名制快篩，五點結束，週日無發放
5901021248,永誠藥局,臺北市大安區忠孝東路４段２１６巷２５之１號,121.5531,25.03997,(02)27520273,羅氏家用新冠病毒抗原自我檢測套組,60,2022/04/29 14:51:02,無
5901021408,生百藥局,臺北市大安區臨江街１２４號,121.5539,25.03024,(02)27371011,羅氏家用新冠病毒抗原自我檢測套組,78,2022/04/29 14:51:02,無
5901022898,永康藥局,臺北市大安區麗水街６之２號,121.529,25.03289,(02)23279362,羅氏家用新冠病毒抗原自我檢測套組,77,2022/04/29 14:51:02,無
5901023215,大愛健康藥局,臺北市大安區敦化南路２段６３巷６５號,121.552,25.03103,(02)27092156,羅氏家用新冠病毒抗原自我檢測套組,77,2022/04/29 14:51:02,無
5901023313,安和藥局,臺北市大安區安和路１段１０２巷３號,121.5519,25.03433,(02)27092349,羅氏家用新冠病毒抗原自我檢測套組,73,2022/04/29 14:51:02,平日下午三點開始販賣，九點結束
5901024098,杏一瑞安藥局,臺北市大安區瑞安街２０８巷１１弄１號,121.5406,25.02866,(02)27096710,羅氏家用新冠病毒抗原自我檢測套組,78,2022/04/29 14:51:02,無
5901024114,好安心藥局,臺北市大安區和平東路２段９８之２號,121.5415,25.02493,(02)23772166,羅氏家用新冠病毒抗原自我檢測套組,77,2022/04/29 14:51:02,快篩發放: 週一至週六 15:30現場開始販售，不發號碼牌。
5901024221,安居藥局,臺北市大安區安居街１９號,121.5549,25.02085,(02)23773537,羅氏家用新冠病毒抗原自我檢測套組,78,2022/04/29 14:51:02,領快篩注意事項:週一到週五晚上7:30-9:00 週六早上8:30-12:00直接排隊購買 .週日不營業
5901024347,博大藥局,臺北市大安區安和路２段６５號,121.5526,25.03063,(02)27027858,羅氏家用新冠病毒抗原自我檢測套組,9,2022/04/29 14:51:02,無
5901024490,明星大藥局,臺北市大安區光復南路４３０之１號,121.5574,25.03618,(02)27023747,羅氏家用新冠病毒抗原自我檢測套組,20,2022/04/29 14:51:02,無
5901024516,博昱師大藥局,臺北市大安區羅斯福路３段１８９號,121.5281,25.02109,(02)23696966,羅氏家用新冠病毒抗原自我檢測套組,1,2022/04/29 14:51:02,執業時間8點到22點
5901024525,國泰維康藥局,臺北市大安區仁愛路４段２６６巷１５弄２０號,121.5541,25.03654,(02)27542185,羅氏家用新冠病毒抗原自我檢測套組,74,2022/04/29 14:51:02,星期一到星期六下午3點到5點販賣實名制快篩（不發號碼牌）
5901024678,大安健康人生藥局,臺北市大安區信義路４段３４號,121.5447,25.03316,(02)27025553,羅氏家用新冠病毒抗原自我檢測套組,78,2022/04/29 14:51:02,無
5901024703,吾家藥局,臺北市大安區信義路４段２６５巷６之１號,121.5542,25.03372,(02)27066425,羅氏家用新冠病毒抗原自我檢測套組,78,2022/04/29 14:51:02,實名制快篩於每日下午三點到四點開放 只限此時段販售 建議您於2點多到現場等候
5901024767,杏一樂業藥局,臺北市大安區樂業街１６２號,121.5535,25.01958,(02)27383194,羅氏家用新冠病毒抗原自我檢測套組,78,2022/04/29 14:51:02,快篩下午三點現場直接販售（不發號碼牌）
5901024918,康祥藥局,臺北市大安區忠孝東路４段２１６巷２１號,121.5531,25.04025,(02)27817891,羅氏家用新冠病毒抗原自我檢測套組,68,2022/04/29 14:51:02,星期天11:00-19:00
5901024981,專品六張犁藥局,臺北市大安區基隆路２段２１７號１樓,121.5513,25.02299,(02)87322226,羅氏家用新冠病毒抗原自我檢測套組,71,2022/04/29 14:51:02,無
5901025059,博醫仁愛藥局,臺北市大安區仁愛路４段８巷２號１樓,121.5443,25.0375,(02)27019107,羅氏家用新冠病毒抗原自我檢測套組,1,2022/04/29 14:51:02,無
5901025077,敦南春天藥局,臺北市大安區敦化南路２段８１巷６３號１樓,121.5513,25.03002,(02)27553266,羅氏家用新冠病毒抗原自我檢測套組,78,2022/04/29 14:51:02,無
5901090369,保慶藥局,臺北市大同區保安街２１號,121.5129,25.05926,(02)25538988,羅氏家用新冠病毒抗原自我檢測套組,78,2022/04/29 14:51:02,快篩販售時間:晚上9:00-10:00（週日不販售），晚上8:50發號碼牌
5901091473,快安藥局,臺北市大同區南京西路２８２、２８４號,121.5146,25.05349,(02)25561925,羅氏家用新冠病毒抗原自我檢測套組,1,2022/04/29 14:51:02,下午2:00開始販售口罩，  至傍晚18:00，星期六日休息
5901091688,宏泰藥師藥局,臺北市大同區酒泉街１３１號,121.5145,25.07213,(02)25957025,羅氏家用新冠病毒抗原自我檢測套組,32,2022/04/29 14:51:02,發放口罩時間上午9:30-晚間9:00  其餘時間不販賣。75%酒精到貨供應
5901091857,佳禾藥局,臺北市大同區大龍街２６２號,121.5158,25.07061,(02)25953806,羅氏家用新冠病毒抗原自我檢測套組,14,2022/04/29 14:51:02,無
5901091884,躍獅雙蓮藥局,臺北市大同區涼州街４號,121.5147,25.06078,(02)25537551,羅氏家用新冠病毒抗原自我檢測套組,78,2022/04/29 14:51:02,周一-周六11:00-7:00.日.不發口罩
5901092014,旭豐藥局,臺北市大同區昌吉街９６號,121.5151,25.06582,(02)25853880,羅氏家用新冠病毒抗原自我檢測套組,78,2022/04/29 14:51:02,無
5901092112,酒泉春天藥局,臺北市大同區酒泉街９４號、９４號２樓,121.5146,25.07193,(02)25977932,羅氏家用新冠病毒抗原自我檢測套組,67,2022/04/29 14:51:02,無
5901092130,大同民生藥局,臺北市大同區民生西路１２８號１樓、２樓及１３０號１樓、２樓,121.5191,25.05734,(02)25558886,羅氏家用新冠病毒抗原自我檢測套組,78,2022/04/29 14:51:02,快篩實名制，每天16:00開始販售，售完為止。
5901092149,123宅藥局,臺北市大同區鄭州路１２３號（１樓）,121.5109,25.05033,(02)25588699,羅氏家用新冠病毒抗原自我檢測套組,35,2022/04/29 14:51:02,【家用快篩實名制】每日兩時段可購買:（1）09:30 （2）18:00 ★前十分鐘開始發放號碼牌
5901100333,明美藥局,臺北市中山區長春路６９號,121.5266,25.05502,(02)25365419,羅氏家用新冠病毒抗原自我檢測套組,15,2022/04/29 14:51:02,口罩周一至周五，16:30-18:30販售
5901100628,貢玄藥局,臺北市中山區錦州街２０７號,121.532,25.06039,(02)25637847,羅氏家用新冠病毒抗原自我檢測套組,4,2022/04/29 14:51:02,早上10點~11點領口罩
5901101250,美日藥局,臺北市中山區天津街６６號１樓,121.5233,25.05136,(02)25631662,羅氏家用新冠病毒抗原自我檢測套組,78,2022/04/29 14:51:02,實名制快篩於營業日下午4點開始發號碼牌
5901101509,永直藥局,臺北市中山區北安路５９５巷２弄６號,121.5483,25.08192,(02)85098059,羅氏家用新冠病毒抗原自我檢測套組,56,2022/04/29 14:51:02,無
5901101910,嘉恩藥局,臺北市中山區錦州街３２１號,121.5385,25.06033,(02)25181418,羅氏家用新冠病毒抗原自我檢測套組,1,2022/04/29 14:51:02,無
5901101929,樂活苑藥局,臺北市中山區北安路５４６號１樓,121.548,25.08014,(02)25323296,羅氏家用新冠病毒抗原自我檢測套組,76,2022/04/29 14:51:02,實名制快篩代售時間為18:00~19:00.
5901102444,啟美藥師藥局,臺北市中山區錦州街２８２號,121.5352,25.06024,(02)25178032,羅氏家用新冠病毒抗原自我檢測套組,78,2022/04/29 14:51:02,快篩 販售時間 20點開賣到21點，星期六日公休
5901102579,躍獅晴光藥局,臺北市中山區農安街２３之２號,121.5245,25.06501,(02)25951393,羅氏家用新冠病毒抗原自我檢測套組,78,2022/04/29 14:51:02,口罩販賣時段:下午2點晚上8點，售完會提前結束
5901102597,德惠藥局,臺北市中山區德惠街１２２號,121.53,25.06652,(02)25971131,羅氏家用新冠病毒抗原自我檢測套組,78,2022/04/29 14:51:02,每日下午3點30分開始販售快篩實名制
5901102686,富宥康藥局,臺北市中山區北安路６０８巷５弄２２號,121.5496,25.08263,(02)25325277,羅氏家用新冠病毒抗原自我檢測套組,5,2022/04/29 14:51:02,無
5901102837,正傑健保藥局,臺北市中山區長安東路２段１８１號,121.5426,25.04839,(02)27310181,羅氏家用新冠病毒抗原自我檢測套組,78,2022/04/29 14:51:02,下午四點開始販售
5901102855,錦西春天生活藥局,臺北市中山區錦西街１０號,121.5216,25.06024,(02)25312658,羅氏家用新冠病毒抗原自我檢測套組,78,2022/04/29 14:51:02,口罩15:30領號碼牌 即行販售至16:30
5901103209,麗恩藥局,臺北市中山區林森北路５７５之５號,121.5258,25.0653,(02)25981982,羅氏家用新冠病毒抗原自我檢測套組,1,2022/04/29 14:51:02,無
5901103272,長安藥局,臺北市中山區長安東路２段１７１－３號,121.5418,25.0484,(02)27772740,羅氏家用新冠病毒抗原自我檢測套組,78,2022/04/29 14:51:02,實名制快篩下午四點開始發放
5901103423,農安藥局,臺北市中山區農安街１８之１號,121.5248,25.06483,(02)25959293,羅氏家用新冠病毒抗原自我檢測套組,36,2022/04/29 14:51:02,無
5901103487,錦州春天生活藥局,臺北市中山區錦州街２１３號、２１３號２樓,121.5321,25.06039,(02)25213586,羅氏家用新冠病毒抗原自我檢測套組,75,2022/04/29 14:51:02,快篩14:40發號碼牌15:00販賣 每天78盒
5901103585,禾全藥局,臺北市中山區龍江路３３２號,121.5409,25.06532,(02)25165721,羅氏家用新冠病毒抗原自我檢測套組,39,2022/04/29 14:51:02,口罩代售時間：1400、20:00  ；現場排隊
5901103629,十二願藥局,臺北市中山區林森北路３０９號,121.5256,25.05588,(02)25311223,羅氏家用新冠病毒抗原自我檢測套組,84,2022/04/29 14:51:02,營業時間下午1點至凌晨3點
5901103656,大樹龍江藥局,臺北市中山區龍江路２４２號,121.5406,25.05889,(02)25035666,羅氏家用新冠病毒抗原自我檢測套組,78,2022/04/29 14:51:02,國定假日仍執行調劑業務
5901103683,東東藥局,臺北市中山區長春路２５７之２號１樓,121.5408,25.05477,(02)25031730,羅氏家用新冠病毒抗原自我檢測套組,78,2022/04/29 14:51:02,快篩發放時間:星期一至六 .15點開始銷售至16點前結束
5901103745,吉林藥局,臺北市中山區吉林路３７１號（１樓）,121.5305,25.06511,(02)25865990,羅氏家用新冠病毒抗原自我檢測套組,78,2022/04/29 14:51:02,快篩實名制，每天16:00開始販售，售完為止。
5901103772,興耀生活藥局,臺北市中山區林森北路４０５號（１樓）,121.5257,25.05943,(02)25818210,羅氏家用新冠病毒抗原自我檢測套組,1,2022/04/29 14:51:02,國定假日仍執行調劑業務
5901103790,可康藥局,臺北市中山區林森北路３７３號（１樓）,121.5257,25.05826,(02)25361078,羅氏家用新冠病毒抗原自我檢測套組,1,2022/04/29 14:51:02,國定假日仍執行調劑業務
5901103807,專品龍江藥局,臺北市中山區龍江路３１１號１樓,121.5409,25.06127,(02)25178870,羅氏家用新冠病毒抗原自我檢測套組,78,2022/04/29 14:51:02,國定假日仍執行調劑業務
5901110133,泰成藥局,臺北市內湖區內湖路３段１３５號１樓,121.5899,25.08685,(02)27921231,羅氏家用新冠病毒抗原自我檢測套組,67,2022/04/29 14:51:02,口罩販售:上午9:00開始發號碼牌，9點同步販售.
5901110268,赫得藥局,臺北市內湖區康樂街７２巷１７弄４號１Ｆ,121.6178,25.06976,(02)26328642,羅氏家用新冠病毒抗原自我檢測套組,1,2022/04/29 14:51:02,營業時間:08:30-13:00及14:30-23:00每周日公休。快篩試劑於4／28早上8:30開賣，一三五單號，二四六雙號領取。
5901110624,宏光藥局,臺北市內湖區成功路２段２２１號１樓,121.5909,25.06738,(02)27919068,羅氏家用新冠病毒抗原自我檢測套組,3,2022/04/29 14:51:02,快篩實名制13:30開始販售現場排隊售完為止（周日休息）
5901112780,樂康藥妝藥局,臺北市內湖區文德路１１７號,121.5841,25.0787,(02)26562110,羅氏家用新冠病毒抗原自我檢測套組,57,2022/04/29 14:51:02,無
5901112995,昇龍藥局,臺北市內湖區東湖路１５１號,121.6174,25.0681,(02)26316783,羅氏家用新冠病毒抗原自我檢測套組,5,2022/04/29 14:51:02,早0800-1200，午1200-1700，晚1800-2200
5901113018,桔子藥局,臺北市內湖區內湖路２段３３３號,121.5917,25.08319,(02)27930052,羅氏家用新冠病毒抗原自我檢測套組,35,2022/04/29 14:51:02,早0900-1200，午1400-1700，晚1900-2100
5901113330,躍獅大湖藥局,臺北市內湖區成功路４段３２９號,121.599,25.08454,(02)27945376,羅氏家用新冠病毒抗原自我檢測套組,74,2022/04/29 14:51:02,星期一~星期六下午4點開始販售快篩 售完為止
5901113661,內湖藥局,臺北市內湖區康寧路１段１１６號１樓,121.5934,25.07948,(02)27940545,羅氏家用新冠病毒抗原自我檢測套組,78,2022/04/29 14:51:02,快篩實名制，每天16:00開始販售，售完為止。
5901113705,富康活力湖光藥局,臺北市內湖區康寧路１段２５號１樓,121.5914,25.08062,(02)87927999,羅氏家用新冠病毒抗原自我檢測套組,8,2022/04/29 14:51:02,無
5901113723,杏一港墘藥局,臺北市內湖區港墘路８３號（１樓）,121.5781,25.08078,(02)87978746,羅氏家用新冠病毒抗原自我檢測套組,78,2022/04/29 14:51:02,無
5901120022,旭村藥局,臺北市南港區興華路１１２號,121.6055,25.05661,(02)27820948,羅氏家用新冠病毒抗原自我檢測套組,10,2022/04/29 14:51:02,無
5901121672,亞博藥師藥局,臺北市南港區興華路８１號,121.6061,25.05545,(02)27838090,羅氏家用新冠病毒抗原自我檢測套組,72,2022/04/29 14:51:02,無
5901121734,湳港藥局,臺北市南港區研究院路１段１０１巷１２號,121.6167,25.05175,(02)27892200,羅氏家用新冠病毒抗原自我檢測套組,36,2022/04/29 14:51:02,週一至週日，2:30開賣（政府有配送的況狀下）（沒有發放號碼牌），售完為止
5901121903,景星藥局,臺北市南港區南港路３段２６號,121.5924,25.05434,(02)27838816,羅氏家用新冠病毒抗原自我檢測套組,78,2022/04/29 14:51:02,快篩實名制 下午4:30 開始販售 現場排隊 售完為止（周日休息）
5901121958,心亮藥局,臺北市南港區玉成街６６之７號,121.5818,25.04692,(02)27881677,羅氏家用新冠病毒抗原自我檢測套組,78,2022/04/29 14:51:02,無
5901121985,勝安藥局,臺北市南港區舊莊街１段１６５號,121.6211,25.03949,(02)27828450,羅氏家用新冠病毒抗原自我檢測套組,78,2022/04/29 14:51:02,實名制快篩固定晚上21:00提供，現場排隊不分號碼牌
5901122062,躍獅忠孝藥局,臺北市南港區成福路１６號,121.586,25.04561,(02)27862829,羅氏家用新冠病毒抗原自我檢測套組,75,2022/04/29 14:51:02,無
5901122115,上丞藥師藥局,臺北市南港區成福路１０號１樓,121.5859,25.04574,(02)26535589,羅氏家用新冠病毒抗原自我檢測套組,77,2022/04/29 14:51:02,實名制快篩下午三點開賣，無發放號碼牌
5901122124,杏安藥局,臺北市南港區昆陽街１４０巷１６號１樓,121.5938,25.04969,(02)27864119,羅氏家用新冠病毒抗原自我檢測套組,78,2022/04/29 14:51:02,無
5901150235,杏城藥局,臺北市士林區天母東路２４號,121.5322,25.11764,(02)28725144,羅氏家用新冠病毒抗原自我檢測套組,7,2022/04/29 14:51:02,無
5901150548,田倉藥局,臺北市士林區士東路１２４號,121.5302,25.11219,(02)88662188,羅氏家用新冠病毒抗原自我檢測套組,77,2022/04/29 14:51:02,每日19:00（傍晚7點）開始販售.
5901152471,得安藥局,臺北市士林區文林路１４０號,121.5267,25.08878,(02)28836336,羅氏家用新冠病毒抗原自我檢測套組,78,2022/04/29 14:51:02,星期一二三五六下午3:30---10:00   星期 四日下午5:00--10:00
5901152793,信光藥局,臺北市士林區文昌路６８號,121.5214,25.09619,(02)28366277,羅氏家用新冠病毒抗原自我檢測套組,65,2022/04/29 14:51:02,無
5901153432,大南春天生活藥局,臺北市士林區大南路３１７、３１９號,121.518,25.08888,(02)28882196,羅氏家用新冠病毒抗原自我檢測套組,78,2022/04/29 14:51:02,本藥局可領慢箋 快篩每天下午3點販售 售完為止
5901153503,祥新藥局,臺北市士林區社子街６５號,121.5067,25.08751,(02)28110906,羅氏家用新冠病毒抗原自我檢測套組,3,2022/04/29 14:51:02,無
5901153521,天母台安藥局,臺北市士林區天母西路３４號,121.5262,25.11835,(02)28728017,羅氏家用新冠病毒抗原自我檢測套組,2,2022/04/29 14:51:02,下午2點開始販售實名制快篩試劑
5901153567,華齡春天生活藥局,臺北市士林區華齡街３６、３８號,121.5195,25.08359,(02)28882156,羅氏家用新冠病毒抗原自我檢測套組,77,2022/04/29 14:51:02,下午3點開始發號碼牌持健保卡購買快篩售完為止
5901153585,德行春天生活藥局,臺北市士林區德行東路７６號,121.5275,25.1073,(02)28380306,羅氏家用新冠病毒抗原自我檢測套組,78,2022/04/29 14:51:02,下午2點40持健保卡領號碼牌販售快篩到晚上10點售完為止
5901153674,愛佳藥局,臺北市士林區承德路４段２２２之１號,121.5215,25.0885,(02)28811199,羅氏家用新冠病毒抗原自我檢測套組,78,2022/04/29 14:51:02,無
5901153683,安奕藥局,臺北市士林區葫蘆街３０巷１２號,121.5099,25.08034,(02)28133289,羅氏家用新冠病毒抗原自我檢測套組,78,2022/04/29 14:51:02,週日休，4／29還沒收到政府的快篩劑，今日收到貨，立即開賣。
5901153941,士東藥局,臺北市士林區士東路９１巷３號,121.5291,25.11256,(02)28760588,羅氏家用新冠病毒抗原自我檢測套組,78,2022/04/29 14:51:02,快篩實名制，每天16:00開始販售，售完為止。
5901153996,文昌春天藥局,臺北市士林區文昌路４４號（１樓）,121.5216,25.09562,(02)28838539,羅氏家用新冠病毒抗原自我檢測套組,78,2022/04/29 14:51:02,無
5901154028,向宇藥局,臺北市士林區德行東路２１７號１樓,121.5328,25.10935,(02)88661101,羅氏家用新冠病毒抗原自我檢測套組,28,2022/04/29 14:51:02,無
5901154108,藥本家藥局,臺北市士林區中山北路７段１４巷２６號１樓,121.5328,25.11884,(02)28766682,羅氏家用新冠病毒抗原自我檢測套組,1,2022/04/29 14:51:02,無
5901160099,進春藥局,臺北市北投區明德路１５１號,121.5206,25.11086,(02)28216938,羅氏家用新冠病毒抗原自我檢測套組,155,2022/04/29 14:51:02,無休
5901160142,德昇藥局,臺北市北投區裕民二路２０號,121.517,25.11604,(02)28217565,羅氏家用新冠病毒抗原自我檢測套組,43,2022/04/29 14:51:02,週一至週五下午 2:30分 實名制快篩發售
5901160222,新祥藥局,臺北市北投區知行路２０８號－１,121.4668,25.11935,(02)28582551,羅氏家用新冠病毒抗原自我檢測套組,1,2022/04/29 14:51:02,無
5901160400,世全藥局,臺北市北投區知行路２７３號,121.4672,25.12134,(02)28585378,羅氏家用新冠病毒抗原自我檢測套組,78,2022/04/29 14:51:02,早0000-0100，午1300-1600，晚1600-2400
5901160428,九福藥局,臺北市北投區公館路２３６號,121.5081,25.12612,(02)28953009,羅氏家用新冠病毒抗原自我檢測套組,11,2022/04/29 14:51:02,★週日店休未營業
5901161890,良興藥局,臺北市北投區中和街２８６號,121.5004,25.14047,(02)28933360,羅氏家用新冠病毒抗原自我檢測套組,53,2022/04/29 14:51:02,18點30分點開始營業
5901162833,維康藥局,臺北市北投區石牌路２段１９１．１９３號,121.5184,25.11874,(02)28206343,羅氏家用新冠病毒抗原自我檢測套組,77,2022/04/29 14:51:02,口罩發放時間為每日下午3點排隊，現場購賣
5901163376,北投春天藥局,臺北市北投區中央南路１段７６號,121.5011,25.13135,(02)28916668,羅氏家用新冠病毒抗原自我檢測套組,78,2022/04/29 14:51:02,每日14:40發號碼牌 15:00販售
5901163394,致遠春天藥局,臺北市北投區致遠一路１段１３２號１、２樓,121.5149,25.11051,(02)28253258,羅氏家用新冠病毒抗原自我檢測套組,77,2022/04/29 14:51:02,15:30開始發放號碼牌15:30開始販售口罩
5901163509,吉利春天生活藥局,臺北市北投區吉利街１２０號,121.5068,25.11851,(02)28253256,羅氏家用新冠病毒抗原自我檢測套組,78,2022/04/29 14:51:02,無
5901163527,理得藥局,臺北市北投區石牌路１段１５０號,121.5131,25.11426,(02)28289680,羅氏家用新冠病毒抗原自我檢測套組,4,2022/04/29 14:51:02,每日10:00開賣，售完為止。
5901163545,天康大藥局,臺北市北投區中央南路１段５７號,121.5014,25.13192,(02)28914265,羅氏家用新冠病毒抗原自我檢測套組,1,2022/04/29 14:51:02,實名制快篩下午1:30現場販售
5901163581,陳藥師藥局,臺北市北投區光明路２巷１３－２號（實際使用：１樓）,121.4997,25.13132,(02)28921971,羅氏家用新冠病毒抗原自我檢測套組,72,2022/04/29 14:51:02,無
5901163634,心樂藥局,臺北市北投區致遠一路２段１０５號１樓,121.5128,25.1131,(02)28210261,羅氏家用新冠病毒抗原自我檢測套組,29,2022/04/29 14:51:02,早上8:30-12:00， 下午4:00-7:00
5901170059,必欣藥局,臺北市信義區松仁路２６４號,121.5696,25.02425,(02)27225060,羅氏家用新冠病毒抗原自我檢測套組,78,2022/04/29 14:51:02,實名制快篩販售時間：星期一至星期六晚上20：00開始
5901170648,立信藥局,臺北市信義區松山路４０３號,121.578,25.04144,(02)27687754,羅氏家用新冠病毒抗原自我檢測套組,62,2022/04/29 14:51:02,快篩試劑販賣時間:晚上七點至九點
5901170915,杏仁藥局,臺北市信義區大道路１３５號,121.5834,25.03901,(02)27262541,羅氏家用新冠病毒抗原自我檢測套組,70,2022/04/29 14:51:02,春節期間看診時段請電洽
5901172268,皇佳大藥局,臺北市信義區松山路５４１巷１９號,121.5789,25.03793,(02)27269868,羅氏家用新冠病毒抗原自我檢測套組,19,2022/04/29 14:51:02,早上9:00~21:00持健保卡領取實名制口罩，請自備零錢
5901172580,文興藥局,臺北市信義區福德街２４５號,121.5859,25.03874,(02)27590989,羅氏家用新冠病毒抗原自我檢測套組,38,2022/04/29 14:51:02,無
5901172704,鴻濟藥局,臺北市信義區永吉路３２６巷２號１樓,121.5754,25.04507,(02)27645331,羅氏家用新冠病毒抗原自我檢測套組,1,2022/04/29 14:51:02,無
5901173041,皇昇大藥局,臺北市信義區松山路２１０號１樓,121.5776,25.04509,(02)27663488,羅氏家用新冠病毒抗原自我檢測套組,71,2022/04/29 14:51:02,無
5901173283,上禾藥師藥局,臺北市信義區林口街２７號,121.5792,25.03741,(02)27592686,羅氏家用新冠病毒抗原自我檢測套組,1,2022/04/29 14:51:02,無
5901173390,馨馨藥局,臺北市信義區虎林街８２巷１９號,121.5764,25.04336,(02)27491208,羅氏家用新冠病毒抗原自我檢測套組,3,2022/04/29 14:51:02,無
5901173710,專品光復藥局,臺北市信義區光復南路４６７之１號,121.5577,25.03384,(02)27586682,羅氏家用新冠病毒抗原自我檢測套組,68,2022/04/29 14:51:02,禮拜一到六下午三點販售口罩
5901173738,尚頤中西藥局,臺北市信義區虎林街１４５號,121.5767,25.03959,(02)27253818,羅氏家用新冠病毒抗原自我檢測套組,78,2022/04/29 14:51:02,無
5901173783,北一健康人生藥局,臺北市信義區吳興街２５５號,121.5637,25.02715,(02)27583945,羅氏家用新冠病毒抗原自我檢測套組,78,2022/04/29 14:51:02,下午3點開始販售實名制快篩
5901173818,博亞藥局,臺北市信義區莊敬路４６２號,121.5677,25.02672,(02)27580506,羅氏家用新冠病毒抗原自我檢測套組,39,2022/04/29 14:51:02,平日早上8:30、晚上8:00；假日早上8:30，發放號碼牌，持號碼牌購買!
5901173854,杏一後山埤藥局,臺北市信義區忠孝東路５段７７８號（實際營業地址：１樓）,121.5816,25.0434,(02)27274357,羅氏家用新冠病毒抗原自我檢測套組,78,2022/04/29 14:51:02,實名制快篩14:30開放排隊／14:55發放號碼牌
5901173925,杏一光復藥局,臺北市信義區光復南路４４９之１號,121.5578,25.03488,(02)87804626,羅氏家用新冠病毒抗原自我檢測套組,78,2022/04/29 14:51:02,無
5901174002,吳興春天藥局,臺北市信義區吳興街１３７號１樓,121.5618,25.02947,(02)27585618,羅氏家用新冠病毒抗原自我檢測套組,23,2022/04/29 14:51:02,下午2:40發號碼牌
5901174039,日安藥局,臺北市信義區松仁路２４０巷１３號１樓,121.5691,25.02454,(02)27203775,羅氏家用新冠病毒抗原自我檢測套組,78,2022/04/29 14:51:02,無
5901174057,詠晴中西藥局,臺北市信義區松山路４８４之４號（１樓含夾層）,121.5778,25.0389,(02)27266890,羅氏家用新冠病毒抗原自我檢測套組,17,2022/04/29 14:51:02,實名制快篩 - 09:10領號碼牌.當天取貨即可.避免群聚風險
5901174066,愛維喜藥局,臺北市信義區莊敬路２７８號１樓,121.5627,25.02882,(02)27586989,羅氏家用新冠病毒抗原自我檢測套組,76,2022/04/29 14:51:02,無
5901174075,信義盛康藥局,臺北市信義區永吉路２８６號（１樓）,121.5744,25.04538,(02)23460521,羅氏家用新冠病毒抗原自我檢測套組,3,2022/04/29 14:51:02,無
5901174084,市政藥局,臺北市信義區忠孝東路５段１６９號１樓、１７１號１樓,121.5688,25.0412,(02)27560050,羅氏家用新冠病毒抗原自我檢測套組,78,2022/04/29 14:51:02,快篩實名制，每天16:00開始販售，售完為止。
5901180304,祥全藥局,臺北市中正區信義路２段７９巷１５－８號１Ｆ,121.527,25.03545,(02)23939339,羅氏家用新冠病毒抗原自我檢測套組,61,2022/04/29 14:51:02,無
5901180322,南昌大藥局,臺北市中正區南昌路１段８６號１樓,121.5174,25.03086,(02)23510322,羅氏家用新冠病毒抗原自我檢測套組,1,2022/04/29 14:51:02,無
5901180368,古亭藥局,臺北市中正區汀州路３段１１７號,121.5301,25.01667,(02)23683618,羅氏家用新冠病毒抗原自我檢測套組,78,2022/04/29 14:51:02,實名制  快篩  每晚7:30  開始賣
5901182111,東華藥局,臺北市中正區汀州路３段１１３號,121.53,25.01673,(02)23640852,羅氏家用新冠病毒抗原自我檢測套組,35,2022/04/29 14:51:02,星期日店休
5901183387,丞良藥局,臺北市中正區南昌路１段７８號地下１樓,121.5173,25.03099,(02)33938868,羅氏家用新冠病毒抗原自我檢測套組,78,2022/04/29 14:51:02,週一~週五 晚上9:00~9:30現場領取
5901184080,活力健康藥妝藥局,臺北市中正區中華路２段３１５巷１號,121.5062,25.02795,(02)23392625,羅氏家用新冠病毒抗原自我檢測套組,38,2022/04/29 14:51:02,快篩販售1100-1200 1800-1900 週日有
5901184106,信康藥局,臺北市中正區南昌路１段１４３號,121.5186,25.02953,(02)23961979,羅氏家用新冠病毒抗原自我檢測套組,1,2022/04/29 14:51:02,14:00開始販售實名制快篩
5901184179,保德中華藥局,臺北市中正區中華路２段１５９號,121.5042,25.03101,(02)23027720,羅氏家用新冠病毒抗原自我檢測套組,79,2022/04/29 14:51:02,快篩視政府有無配發而販售；有貨的話下午三點開始發號碼牌及販售，限當日購買
5901184213,71恩典藥局,臺北市中正區信義路２段７１號,121.5264,25.03466,(02)23223371,羅氏家用新冠病毒抗原自我檢測套組,78,2022/04/29 14:51:02,快篩==週一到週五19:00／週六17:00購買， 十分鐘前發號碼牌
5901184366,宏越藥局,臺北市中正區中華路２段３１３巷４號,121.5061,25.02813,(02)23050880,羅氏家用新冠病毒抗原自我檢測套組,36,2022/04/29 14:51:02,代售防疫口罩時間 每日下午3:00-6:00 其餘時間不便進行代售 敬祈見諒
5901184491,躍獅南門藥局,臺北市中正區中華路２段３９巷１０號,121.5074,25.03484,(02)23141111,羅氏家用新冠病毒抗原自我檢測套組,78,2022/04/29 14:51:02,口罩販售時段：成人早上9點及晚上7點各200個
5901184553,珍忻藥局,臺北市中正區南昌路１段６５號,121.5174,25.03107,(02)23965115,羅氏家用新冠病毒抗原自我檢測套組,69,2022/04/29 14:51:02,健保快篩發放:13:20及18:20分兩梯次發號碼牌
5901184633,躍獅東門藥局,臺北市中正區金山南路１段１０８之１號（１樓）,121.5273,25.03538,(02)23920339,羅氏家用新冠病毒抗原自我檢測套組,78,2022/04/29 14:51:02,無
5901184642,康呈安藥局,臺北市中正區汀州路２段１８７號１樓,121.522,25.02403,(02)23672215,羅氏家用新冠病毒抗原自我檢測套組,78,2022/04/29 14:51:02,快篩14:50~14:55發號碼牌15:00開始販售
5901184660,南昌春天藥局,臺北市中正區南昌路１段１５７號１樓,121.5188,25.02927,(02)23972886,羅氏家用新冠病毒抗原自我檢測套組,78,2022/04/29 14:51:02,無
5901184679,汀州藥局,臺北市中正區汀州路１段１８７、１８９、１９１號（１樓）,121.5112,25.02704,(02)23090705,羅氏家用新冠病毒抗原自我檢測套組,78,2022/04/29 14:51:02,快篩實名制，每天16:00開始販售，售完為止。
5901190515,日昇藥局,臺北市萬華區廣州街１２４號,121.5016,25.03654,(02)23062975,羅氏家用新冠病毒抗原自我檢測套組,1,2022/04/29 14:51:02,實名制快篩04／30無配額（沒貨賣）
5901190668,聯慶大藥局,臺北市萬華區萬大路３０６號１樓,121.5003,25.02495,(02)23039850,羅氏家用新冠病毒抗原自我檢測套組,78,2022/04/29 14:51:02,無
5901192822,專品藥局,臺北市萬華區長沙街２段７１－１號,121.5051,25.04062,(02)23718892,羅氏家用新冠病毒抗原自我檢測套組,79,2022/04/29 14:51:02,快篩實名制下午3點發放
5901192975,萬華藥局,臺北市萬華區萬大路２４８號實際營業地址１樓、２樓,121.5003,25.02626,(02)23012221,羅氏家用新冠病毒抗原自我檢測套組,78,2022/04/29 14:51:02,快篩實名制，每天16:00開始販售，售完為止。
5901193070,榮勝藥局,臺北市萬華區萬大路２３３號,121.5006,25.02649,(02)23331121,羅氏家用新冠病毒抗原自我檢測套組,1,2022/04/29 14:51:02,口罩代售時間禮拜一~禮拜六早上9:00開始，現場排隊／ 看診時間早上8:30-12:00，下午3:00-6:00，晚上6:30-10:00
5901193150,日森人文藥局,臺北市萬華區和平西路３段１４９號,121.4988,25.03543,(02)23082100,羅氏家用新冠病毒抗原自我檢測套組,3,2022/04/29 14:51:02,快篩每日11點現場發放號碼牌購買
5901193169,柏祥藥局,臺北市萬華區西藏路１４１號,121.5017,25.02944,(02)23018272,羅氏家用新冠病毒抗原自我檢測套組,78,2022/04/29 14:51:02,快篩服務時間PM06:00-07:00，售完提前截止。
5901193196,青年宏越藥局,臺北市萬華區青年路４４號,121.5042,25.0255,(02)23011037,羅氏家用新冠病毒抗原自我檢測套組,29,2022/04/29 14:51:02,快篩六日不販售，禮拜一~五下午2:30-3:30，現場排隊
5901193221,正盛藥局,臺北市萬華區中華路２段４３４－１號,121.5064,25.02708,(02)23050386,羅氏家用新冠病毒抗原自我檢測套組,64,2022/04/29 14:51:02,1公費快篩晚上8點依現場後位順序發放 2. 每天預留8-10分給軍警醫療（請出示證件）
5901193310,和德藥局,臺北市萬華區西園路２段２９２號１樓,121.4935,25.02698,(02)23331522,羅氏家用新冠病毒抗原自我檢測套組,78,2022/04/29 14:51:02,快篩實名制，每天16:00開始販售，售完為止。
5901193329,西園宏越藥局,臺北市萬華區西園路２段２１３號,121.4942,25.02714,(02)23097336,羅氏家用新冠病毒抗原自我檢測套組,72,2022/04/29 14:51:02,實名制快篩下午4點~5點販售， 4／30  5／1無配送快篩
5901200141,景美藥局,臺北市文山區景文街１２５號,121.5412,24.99033,(02)29335741,羅氏家用新冠病毒抗原自我檢測套組,5,2022/04/29 14:51:02,無
5901200490,永明大藥局,臺北市文山區興隆路１段２９７號１樓,121.5449,24.99875,(02)29314428,羅氏家用新冠病毒抗原自我檢測套組,7,2022/04/29 14:51:02,無
5901201568,康宜庭生活藥局,臺北市文山區興隆路４段６４號,121.5613,24.98514,(02)29385363,羅氏家用新冠病毒抗原自我檢測套組,2,2022/04/29 14:51:02,實名快篩14:00開賣 現場排隊
5901201728,東京晟藥局,臺北市文山區辛亥路４段９７號,121.5587,25.00684,(02)29356354,羅氏家用新冠病毒抗原自我檢測套組,8,2022/04/29 14:51:02,周日不銷售實名制快篩，預領號碼牌購買
5901201835,巧康藥局,臺北市文山區木新路３段２６２、２６４號,121.5585,24.98132,(02)29372061,羅氏家用新冠病毒抗原自我檢測套組,13,2022/04/29 14:51:02,每日下午2點30進行快篩發放作業
5901202627,杏隆藥局,臺北市文山區羅斯福路５段２６１號,121.5395,25.00115,(02)29313151,羅氏家用新冠病毒抗原自我檢測套組,52,2022/04/29 14:51:02,快篩實名制採預約登記，至5／5已登記額滿。
5901202654,康宜庭萬隆藥局,臺北市文山區羅斯福路５段２０２號,121.5384,25.00322,(02)29348662,羅氏家用新冠病毒抗原自我檢測套組,9,2022/04/29 14:51:02,實名快篩星期一~六 14:00開賣 現場排隊
5901202841,欣安景美藥局,臺北市文山區景文街７７號,121.5414,24.99126,(02)29316008,羅氏家用新冠病毒抗原自我檢測套組,28,2022/04/29 14:51:02,每天快篩劑AM10：00發號碼牌PM14:00開始販賣售完為止
5901202949,萬隆大藥局,臺北市文山區羅斯福路５段２１８巷１５號,121.538,25.00203,(02)29334580,羅氏家用新冠病毒抗原自我檢測套組,9,2022/04/29 14:51:02,9：00~23：00
5901203044,木新健康人生藥局,臺北市文山區木新路３段２０３號,121.5598,24.9814,(02)86611465,羅氏家用新冠病毒抗原自我檢測套組,27,2022/04/29 14:51:02,9：30~22：00
5901203062,大樹文山藥局,臺北市文山區興隆路３段１３號（１、２、３樓）,121.555,25.00088,(02)29342226,羅氏家用新冠病毒抗原自我檢測套組,78,2022/04/29 14:51:02,口罩販售時間：14:00 - 16:00
5901203080,杏一木柵藥局,臺北市文山區木柵路３段９８號,121.5674,24.98861,(02)29371839,羅氏家用新冠病毒抗原自我檢測套組,78,2022/04/29 14:51:02,無
5901203366,大樹木柵藥局,臺北市文山區木柵路３段１０８號、１１０號（１樓、２樓）,121.5676,24.98866,(02)22340110,羅氏家用新冠病毒抗原自我檢測套組,78,2022/04/29 14:51:02,快篩實名制，每天16:00開始販售，售完為止。
5901203375,大樹景美藥局,臺北市文山區羅斯福路６段２３４之１號,121.5404,24.99244,(02)29322951,羅氏家用新冠病毒抗原自我檢測套組,78,2022/04/29 14:51:02,快篩實名制，每天16:00開始販售，售完為止。
5901203393,躍獅景新藥局,臺北市文山區羅斯福路６段３０號１樓,121.5396,24.99978,(02)29356221,羅氏家用新冠病毒抗原自我檢測套組,78,2022/04/29 14:51:02,無
5901203464,大愛幸福藥局,臺北市文山區木新路２段２２１號１樓,121.5675,24.98344,(02)29379977,羅氏家用新冠病毒抗原自我檢測套組,43,2022/04/29 14:51:02,無
5901203473,晴天藥局,臺北市文山區萬壽路１５號（１樓）,121.576,24.98811,(02)29363131,羅氏家用新冠病毒抗原自我檢測套組,3,2022/04/29 14:51:02,實名制快篩: 周一~周六下午3點憑卡（一人限2張卡）販售喔! 祝您身心愉快、有如晴天、疫情早日退散!
5902020012,永松藥局,高雄市鼓山區鼓山三路１３０－１５號,120.2802,22.66454,(07)5810657,羅氏家用新冠病毒抗原自我檢測套組,19,2022/04/29 14:51:02,周一到周日早上9點開始賣口罩，到晚上10點.
5902022874,康爾喜藥局,高雄市鼓山區慶豐街５０號,120.2935,22.66647,(07)5222650,羅氏家用新冠病毒抗原自我檢測套組,3,2022/04/29 14:51:02,早上9點半後開始販售口罩，營業時間為早上9:10至晚間10:00
5902022972,高雄藥局,高雄市鼓山區九如四路９２４號,120.2793,22.65466,(07)5214266,羅氏家用新冠病毒抗原自我檢測套組,2,2022/04/29 14:51:02,賣口罩時間為週一～週六晚上6點，售完為止
5902030287,慈德藥局,高雄市左營區重愛路５３號,120.3186,22.68308,(07)3416212,羅氏家用新冠病毒抗原自我檢測套組,3,2022/04/29 14:51:02,快篩發放時間.週一至周六9點-點
5902032432,威林藥局,高雄市左營區華夏路７２１號,120.3023,22.67845,(07)3414243,羅氏家用新冠病毒抗原自我檢測套組,1,2022/04/29 14:51:02,營業時間販售口罩（售完為止），星期一~五早上9:00~晚上9:00，星期六早上09:00~下午5:00執業
5902032530,杏光藥局,高雄市左營區果峰街４７巷１號１樓,120.2869,22.6703,(07)5837060,羅氏家用新冠病毒抗原自我檢測套組,6,2022/04/29 14:51:02,上午營業時間為9 :00~12:00；晚上營業至21:30
5902032674,辰暘藥局,高雄市左營區富民路１２０號１、２樓,120.3054,22.66066,(07)5588545,羅氏家用新冠病毒抗原自我檢測套組,1,2022/04/29 14:51:02,口罩販售時間09:30-21:30
5902040014,成吉藥局,高雄市楠梓區楠梓東街７４號,120.3301,22.72966,(07)3513339,羅氏家用新冠病毒抗原自我檢測套組,78,2022/04/29 14:51:02,下午6點開始販賣實名制快篩，售完為止!!!星期日店休
5902040041,橘井藥局,高雄市楠梓區楠梓路１２９號,120.3286,22.73026,(07)3511869,羅氏家用新冠病毒抗原自我檢測套組,1,2022/04/29 14:51:02,賣口罩時間：周一至週六每天早上8:00發號碼牌，9:00-11:00販售，售完為止。
5902050565,澄和藥局,高雄市三民區澄和路６６號,120.3445,22.64474,(07)3923111,羅氏家用新冠病毒抗原自我檢測套組,8,2022/04/29 14:51:02,快篩試劑- 販售時間下午14:00起至20；00止
5902050636,嘉益藥局,高雄市三民區重慶街３０號,120.302,22.64223,(07)3110157,羅氏家用新冠病毒抗原自我檢測套組,1,2022/04/29 14:51:02,無
5902050798,友泰藥局,高雄市三民區中和街１６９號,120.2868,22.6388,(07)3125236,羅氏家用新冠病毒抗原自我檢測套組,39,2022/04/29 14:51:02,無
5902050903,皇安藥局,高雄市三民區九如一路４６１號,120.3296,22.63865,(07)3866779,羅氏家用新冠病毒抗原自我檢測套組,4,2022/04/29 14:51:02,營業日08:15~08:30可先領取號碼牌，上午08:30~12:00及下午3:00~10:.00為販賣口罩時間，售完為止
5902051240,明皇藥局,高雄市三民區寶國里義華路１８１號,120.3399,22.64276,(07)3860121,羅氏家用新冠病毒抗原自我檢測套組,32,2022/04/29 14:51:02,藥局販售口罩時間，依藥局門口公告時間為主（售完為止）
5902051642,安寧藥局,高雄市三民區嫩江街３９號,120.2981,22.64208,(07)3217585,羅氏家用新冠病毒抗原自我檢測套組,2,2022/04/29 14:51:02,星日不賣口罩
5902057831,愛橋藥局,高雄市三民區陽明路１９２號,120.3422,22.64207,(07)3945146,羅氏家用新冠病毒抗原自我檢測套組,2,2022/04/29 14:51:02,下午1:30開始販售罩藥局販售口罩時間，依藥局門口公告時間為主（售完為止）
5902071546,中華藥局,高雄市前金區中華四路３６３號,120.2987,22.62137,(07)2712779,羅氏家用新冠病毒抗原自我檢測套組,4,2022/04/29 14:51:02,星期日固定休假
5902080474,弘宗藥局,高雄市苓雅區武智街２號,120.3356,22.62303,(07)7211088,羅氏家用新冠病毒抗原自我檢測套組,1,2022/04/29 14:51:02,8:00~22:00（營業時段）
5902085184,惠春藥局,高雄市苓雅區武慶三路９６號,120.3319,22.62043,(07)7611358,羅氏家用新冠病毒抗原自我檢測套組,11,2022/04/29 14:51:02,「藥局販售口罩時間，依藥局門口公告時間為主（售完為止）」
5902085344,意祥藥局,高雄市苓雅區武廟路１４２之１號,120.3276,22.63125,(07)7224835,羅氏家用新冠病毒抗原自我檢測套組,12,2022/04/29 14:51:02,藥局販售口罩時間，依藥局門口公告時間為主（售完為止）
5902085371,加和藥局,高雄市苓雅區和平一路１４３之７號,120.3205,22.62331,(07)7219332,羅氏家用新冠病毒抗原自我檢測套組,78,2022/04/29 14:51:02,無
5902090827,博平藥局,高雄市前鎮區草衙二路３７７號,120.3224,22.57808,(07)8311814,羅氏家用新冠病毒抗原自我檢測套組,13,2022/04/29 14:51:02,藥局販售口罩時間，依藥局門口公告時間為主（售完為止）
5902110628,悅是康藥局,高雄市小港區漢民路２７６號,120.3536,22.56665,(07)8010012,羅氏家用新冠病毒抗原自我檢測套組,11,2022/04/29 14:51:02,無
5902111670,桂林活力藥師藥局,高雄市小港區桂陽路４０號,120.3575,22.58194,(07)7931248,羅氏家用新冠病毒抗原自我檢測套組,8,2022/04/29 14:51:02,自2／11日~2／29日，營業日08:30及13:00各50份為販賣口罩時間.售完為止
5903010350,甲蒂健保藥局,臺中市豐原區豐東路３０８號,120.7331,24.25093,(04)25256028,羅氏家用新冠病毒抗原自我檢測套組,12,2022/04/29 14:51:02,9點開始發號碼牌購買
5903010485,大樹圓環藥局,臺中市豐原區圓環東路６１７號１樓,120.7283,24.25084,(04)25122212,羅氏家用新冠病毒抗原自我檢測套組,78,2022/04/29 14:51:02,口罩販售時間：14:00 - 16:00
5903010547,佑全豐原中正藥局,臺中市豐原區中正路２２３、２２５號１、２樓,120.7175,24.25179,(04)25152886,羅氏家用新冠病毒抗原自我檢測套組,3,2022/04/29 14:51:02,實名制快篩販售時間:下午2點開始
5903050194,樂齊藥局,臺中市沙鹿區北中路８６－１、８６－２號,120.5692,24.22827,(04)26338867,羅氏家用新冠病毒抗原自我檢測套組,78,2022/04/29 14:51:02,防疫家用快篩試劑每日19點開賣，售完為止，庫存請依現場為主。
5903050247,好利藥局,臺中市沙鹿區中山路４８７－１號１樓,120.5619,24.2454,(04)26630087,羅氏家用新冠病毒抗原自我檢測套組,1,2022/04/29 14:51:02,無
5903050274,鹿寮藥局,臺中市沙鹿區中山路４６１、４６１－１號１、２樓,120.5615,24.24387,(04)26630677,羅氏家用新冠病毒抗原自我檢測套組,78,2022/04/29 14:51:02,快篩實名制，每天16:00開始販售，售完為止。
5903070025,得安藥局,臺中市后里區四村路７８號,120.7129,24.30469,(04)25585333,羅氏家用新冠病毒抗原自我檢測套組,1,2022/04/29 14:51:02,快篩販賣時間 14:00~15:00（售完為止）
5903070098,祐恩藥局,臺中市后里區甲后路一段４７８號１樓,120.6819,24.3157,(04)25587518,羅氏家用新冠病毒抗原自我檢測套組,1,2022/04/29 14:51:02,固定周一到周六，國定例假日照常調劑藥服務。清明、端午、中秋節晚上休息。
5903070169,佑全后里甲后藥局,臺中市后里區甲后路一段７２８號１、２樓,120.7193,24.30951,(04)25583116,羅氏家用新冠病毒抗原自我檢測套組,1,2022/04/29 14:51:02,無
5903090072,元康健保藥局,臺中市潭子區圓通南路１９６號１樓,120.7043,24.20725,(04)25353893,羅氏家用新冠病毒抗原自我檢測套組,9,2022/04/29 14:51:02,下午3點現場分號碼後  依序賣口罩
5903100180,杏一大雅中清藥局,臺中市大雅區中清路四段３１、３３、３５號１樓,120.6448,24.22615,(04)25601791,羅氏家用新冠病毒抗原自我檢測套組,5,2022/04/29 14:51:02,無
5903100206,民生藥局,臺中市大雅區民生路一段２２１號１樓,120.6512,24.22789,(04)25662229,羅氏家用新冠病毒抗原自我檢測套組,78,2022/04/29 14:51:02,快篩實名制，每天16:00開始販售，售完為止。
5903100215,佑全大雅雅環藥局,臺中市大雅區雅環路二段８８號１樓,120.653,24.22634,(04)25605942,羅氏家用新冠病毒抗原自我檢測套組,32,2022/04/29 14:51:02,無
5903150153,溪南藥局,臺中市烏日區溪南路一段５６５號１樓,120.6431,24.07523,(04)23353666,羅氏家用新冠病毒抗原自我檢測套組,78,2022/04/29 14:51:02,快篩實名制，每天16:00開始販售，售完為止。
5903150180,九德藥局,臺中市烏日區中山路一段４３８、４４０號１樓,120.6365,24.10748,(04)23385456,羅氏家用新冠病毒抗原自我檢測套組,78,2022/04/29 14:51:02,快篩實名制，每天16:00開始販售，售完為止。
5903160042,大肚新庄藥局,臺中市大肚區遊園路２段２２１－３號１樓,120.5808,24.17376,(04)26912119,羅氏家用新冠病毒抗原自我檢測套組,78,2022/04/29 14:51:02,每天下午3點開始排隊販賣，賣完為止
5903170048,龍井新庄藥局,臺中市龍井區遊園南路１７９號１樓,120.5843,24.18216,(04)26322169,羅氏家用新冠病毒抗原自我檢測套組,76,2022/04/29 14:51:02,實名制快篩每日下午3點半開賣
5903180142,峰正藥局,臺中市霧峰區中正路８３０號１樓,120.6987,24.06244,(04)23303353,羅氏家用新冠病毒抗原自我檢測套組,78,2022/04/29 14:51:02,快篩實名制，每天16:00開始販售，售完為止。
5903190148,亞洲藥師連鎖大藥局,臺中市太平區中山路２段４５８號,120.7253,24.14984,(04)23921681,羅氏家用新冠病毒抗原自我檢測套組,31,2022/04/29 14:51:02,無
5903190362,太平中山藥局,臺中市太平區中山路４段１１號,120.7139,24.14931,(04)23959200,羅氏家用新冠病毒抗原自我檢測套組,78,2022/04/29 14:51:02,快篩實名制，每天16:00開始販售，售完為止。
5903190675,德芳太平藥局,臺中市太平區中興路１３３巷１－１號１樓,120.7146,24.12617,(04)23511588,羅氏家用新冠病毒抗原自我檢測套組,78,2022/04/29 14:51:02,快篩販售時間:下午3點~6點
5903200096,仁化藥局,臺中市大里區仁化路５４０號,120.7012,24.09623,(04)24915902,羅氏家用新冠病毒抗原自我檢測套組,78,2022/04/29 14:51:02,快篩試劑每日 18:00 發放  W6 休息
5903200229,信元藥局,臺中市大里區益民路２段３７２號１樓,120.684,24.11545,(04)24876051,羅氏家用新冠病毒抗原自我檢測套組,56,2022/04/29 14:51:02,下午5點發號碼牌並依序販賣
5903200443,佳霖藥局,臺中市大里區塗城路９６４號１樓,120.6933,24.09081,(04)24960895,羅氏家用新冠病毒抗原自我檢測套組,65,2022/04/29 14:51:02,健保卡快篩販售時間:請準備好健保卡和500元.下午3點半開賣**現場排隊／售完為止
5903200514,大明永欣藥局,臺中市大里區大明路５３９號１樓、５４１號１樓,120.6735,24.11478,(04)24068864,羅氏家用新冠病毒抗原自我檢測套組,5,2022/04/29 14:51:02,每天下午1點到晚上9點，星期日口罩不發放
5903200596,大樹大里藥局,臺中市大里區中興路二段１０１號,120.6885,24.10305,(04)24861133,羅氏家用新冠病毒抗原自我檢測套組,78,2022/04/29 14:51:02,快篩實名制，每天16:00開始販售，售完為止。
5903200621,德芳東榮藥局,臺中市大里區東榮路８號,120.6893,24.1102,(04)24863898,羅氏家用新冠病毒抗原自我檢測套組,156,2022/04/29 14:51:02,快篩販售時間：下午3點~6點
5903200658,德芳成功藥局,臺中市大里區成功路５３５－３號１樓,120.7033,24.0913,(04)24920298,羅氏家用新冠病毒抗原自我檢測套組,154,2022/04/29 14:51:02,快篩販售時間:下午3點~6點
5903200667,永欣東榮藥局,臺中市大里區東榮路３７０號１樓,120.6836,24.11032,(04)24810599,羅氏家用新冠病毒抗原自我檢測套組,6,2022/04/29 14:51:02,無
5903200685,塗城藥局,臺中市大里區中興路一段１８７、１８９、１９１號１樓,120.6933,24.09008,(04)24967234,羅氏家用新冠病毒抗原自我檢測套組,78,2022/04/29 14:51:02,快篩實名制，每天16:00開始販售，售完為止。
5903200701,大益藥局,臺中市大里區益民路二段３３５號１、２樓,120.6837,24.11311,(04)24811551,羅氏家用新冠病毒抗原自我檢測套組,78,2022/04/29 14:51:02,快篩實名制，每天16:00開始販售，售完為止。
5903200738,杏一大里國光藥局,臺中市大里區國光路二段４１１號１樓,120.6796,24.10921,(04)24071492,羅氏家用新冠病毒抗原自我檢測套組,78,2022/04/29 14:51:02,周一至周六16:00~19:00，周日及補假日人力不足不販售
5903200756,佑全大里大明藥局,臺中市大里區大明路３６０、３６２號,120.6787,24.11511,(04)24818633,羅氏家用新冠病毒抗原自我檢測套組,8,2022/04/29 14:51:02,無
5903220169,公園大藥局,臺中市中區公園路９５號１樓,120.6796,24.1462,(04)22062682,羅氏家用新冠病毒抗原自我檢測套組,5,2022/04/29 14:51:02,每日上午8點至下午11點59分
5903220196,日安藥局,臺中市中區臺灣大道一段３３０號１樓,120.6801,24.1422,(04)22234246,羅氏家用新冠病毒抗原自我檢測套組,156,2022/04/29 14:51:02,無
5903240410,德芳美村藥局,臺中市西區美村路一段６８１、６８３號１樓,120.6618,24.13545,(04)23782848,羅氏家用新冠病毒抗原自我檢測套組,51,2022/04/29 14:51:02,快篩販售時間:下午3點~6點
5903240447,大樹五權藥局,臺中市西區五權路９７－１號１樓,120.6717,24.14626,(04)22022910,羅氏家用新冠病毒抗原自我檢測套組,78,2022/04/29 14:51:02,快篩實名制，每天16:00開始販售，售完為止。
5903240483,名華藥局,臺中市西區中華路一段７號１樓,120.6732,24.14209,(04)22231187,羅氏家用新冠病毒抗原自我檢測套組,5,2022/04/29 14:51:02,無
5903240492,好好誠美藥局,臺中市西區向上北路１８６號１樓,120.6611,24.14797,(04)23022838,羅氏家用新冠病毒抗原自我檢測套組,2,2022/04/29 14:51:02,快篩販售時間下午兩點
5903250041,小林健保藥局,臺中市南區美村路２段１８２號,120.6631,24.12549,(04)22622099,羅氏家用新冠病毒抗原自我檢測套組,13,2022/04/29 14:51:02,固定周一到周日，早上8:00發號碼牌，下午4:30開始販賣防疫口罩
5903250381,大樹美村藥局,臺中市南區美村南路１２４號,120.667,24.11499,(04)22621113,羅氏家用新冠病毒抗原自我檢測套組,78,2022/04/29 14:51:02,口罩販售時間：14:00 - 16:00
5903250443,千美台安藥局,臺中市南區美村南路２６３號,120.6666,24.11426,(04)22602101,羅氏家用新冠病毒抗原自我檢測套組,3,2022/04/29 14:51:02,周一到周日，下午3:00發放號碼牌，開始販售防疫口罩
5903250505,心安藥局,臺中市南區國光路２４１號１樓,120.6794,24.12676,(04)22858773,羅氏家用新冠病毒抗原自我檢測套組,73,2022/04/29 14:51:02,防疫快篩試劑15:00開賣，售完為止，庫存依現場為準
5903250578,樂碩藥局,臺中市南區建國南路一段２５９號１樓,120.6583,24.12491,(04)22601288,羅氏家用新冠病毒抗原自我檢測套組,78,2022/04/29 14:51:02,防疫快篩試劑15:00開賣，售完為止，庫存依現場為主.
5903250603,尚尚藥局,臺中市南區美村南路１９７號１樓,120.6666,24.11516,(04)22606831,羅氏家用新冠病毒抗原自我檢測套組,52,2022/04/29 14:51:02,無
5903250658,田園藥局,臺中市南區學府路１６０號１樓,120.6742,24.12909,(04)22220605,羅氏家用新冠病毒抗原自我檢測套組,130,2022/04/29 14:51:02,周三公休。15:00開始販售，一人限一卡
5903260501,瑞鋒藥師藥局,臺中市北區育德路１６號,120.6795,24.15763,(04)22020786,羅氏家用新冠病毒抗原自我檢測套組,31,2022/04/29 14:51:02,依排班人力，周一至周六早上10點半或下午2點發號碼牌
5903260707,新藥林藥局,臺中市北區健行路４４５－５號１樓,120.6803,24.15896,(04)22053458,羅氏家用新冠病毒抗原自我檢測套組,78,2022/04/29 14:51:02,快篩:星期一~星期五 下午3點開始，星期六下午一點
5903260743,黎明安德藥局,臺中市北區中清路１段８５２號１樓,120.6718,24.17295,(04)22956098,羅氏家用新冠病毒抗原自我檢測套組,78,2022/04/29 14:51:02,禮拜四公休、禮拜日下午2點開始營業，下午3點開始販賣快篩
5903260967,正尚藥局,臺中市北區榮華街１６６號１樓,120.6868,24.16444,(04)22350347,羅氏家用新冠病毒抗原自我檢測套組,78,2022/04/29 14:51:02,實名制快篩18:00發放，周日09:00（若有剩餘）
5903260985,森川健保藥局,臺中市北區五權路２５１號１樓,120.6764,24.15074,(09)78157008,羅氏家用新冠病毒抗原自我檢測套組,1,2022/04/29 14:51:02,快篩試劑每日上午10點開賣，售完為止
5903261008,台中大樹藥局,臺中市北區漢口路三段２６１號,120.6726,24.16703,(04)22981113,羅氏家用新冠病毒抗原自我檢測套組,78,2022/04/29 14:51:02,快篩實名制，每天16:00開始販售，售完為止。
5903270310,弘福藥師藥局,臺中市西屯區西屯路３段１６６－２１號１樓,120.6159,24.18918,(04)24611916,羅氏家用新冠病毒抗原自我檢測套組,78,2022/04/29 14:51:02,每日15:00發放號碼牌，發完即開始販售（全年無休）
5903270516,中科何藥局,臺中市西屯區福康路４０號,120.6173,24.18421,(04)24612570,羅氏家用新冠病毒抗原自我檢測套組,78,2022/04/29 14:51:02,防疫快篩每日15:00開始販售。（全年無休）
5903270721,舒健藥局,臺中市西屯區西屯路二段２５５號２樓,120.6459,24.17179,(04)27077858,羅氏家用新冠病毒抗原自我檢測套組,77,2022/04/29 14:51:02,公費快篩試劑於周一至周六晚上7點現場排隊購買。
5903270749,大墩藥局,臺中市西屯區大墩１９街６８號１樓,120.6518,24.15734,(04)23209602,羅氏家用新冠病毒抗原自我檢測套組,63,2022/04/29 14:51:02,每天下午三點開賣，請提早來排隊
5903270865,尚禾藥局,臺中市西屯區青海路一段６５號,120.6548,24.16438,(04)23147688,羅氏家用新冠病毒抗原自我檢測套組,40,2022/04/29 14:51:02,無
5903270874,熊健康藥局,臺中市西屯區太原路一段２３２號,120.6632,24.16394,(04)23163505,羅氏家用新冠病毒抗原自我檢測套組,26,2022/04/29 14:51:02,快篩實名制販售時間: 14:30-15:30 ，星期日公休。
5903270918,全成西屯藥局,臺中市西屯區黎明路三段２２１、２２３號1樓,120.6373,24.17723,(04)24512290,羅氏家用新冠病毒抗原自我檢測套組,67,2022/04/29 14:51:02,星期一至星期六15點開始販售實名制快篩
5903270963,源興大藥局,臺中市西屯區西屯路二段１２號,120.6622,24.16387,(04)23143045,羅氏家用新冠病毒抗原自我檢測套組,78,2022/04/29 14:51:02,口罩販售時間：每日早上9點至售完為止。
5903271022,西屯藥局,臺中市西屯區西屯路三段１５０－４５號１樓,120.621,24.18716,(04)24621822,羅氏家用新冠病毒抗原自我檢測套組,78,2022/04/29 14:51:02,快篩實名制，每天16:00開始販售，售完為止。
5903271031,美十樂中科藥局,臺中市西屯區西屯路三段１６６－６５號１樓,120.6129,24.19035,(04)24610219,羅氏家用新冠病毒抗原自我檢測套組,156,2022/04/29 14:51:02,固定周一至周日10:00開始販售口罩
5903271068,西墩藥局,臺中市西屯區黎明路三段２７５、２７７號１樓,120.6373,24.17812,(04)24510770,羅氏家用新冠病毒抗原自我檢測套組,78,2022/04/29 14:51:02,快篩實名制，每天16:00開始販售，售完為止。
5903271086,常春藤藥局,臺中市西屯區福康路８０號１樓,120.618,24.18603,(04)24619296,羅氏家用新冠病毒抗原自我檢測套組,39,2022/04/29 14:51:02,每日AM10:00 開始販賣防疫口罩
5903271157,富康家健保藥局,臺中市西屯區漢成四街８號１樓,120.6652,24.17026,(04)23174741,羅氏家用新冠病毒抗原自我檢測套組,2,2022/04/29 14:51:02,無
5903271175,維康中榮藥局,臺中市西屯區東大路一段１３號１樓,120.6022,24.18315,(04)23593195,羅氏家用新冠病毒抗原自我檢測套組,5,2022/04/29 14:51:02,無
5903271193,何安藥局,臺中市西屯區西屯路二段１０１號Ｂ棟１樓,120.6531,24.16616,(04)23161110,羅氏家用新冠病毒抗原自我檢測套組,78,2022/04/29 14:51:02,快篩實名制，每天16:00開始販售，售完為止。
5903271246,柏醫藥局,臺中市西屯區上安路５６號１樓,120.6412,24.17052,(04)24526391,羅氏家用新冠病毒抗原自我檢測套組,52,2022/04/29 14:51:02,公費快篩試劑10:00、15:00、19:00開放過卡領取
5903271291,西屯長安藥局,臺中市西屯區成都路３６８號１樓,120.6641,24.17322,(04)22981221,羅氏家用新冠病毒抗原自我檢測套組,78,2022/04/29 14:51:02,快篩實名制，每天16:00開始販售，售完為止。
5903280165,南屯福倫藥局,臺中市南屯區南屯路２段３１７號,120.6456,24.13754,(04)24758018,羅氏家用新冠病毒抗原自我檢測套組,78,2022/04/29 14:51:02,實名制快篩: 晚上6:00開始販售.售完為止
5903280521,百康健保藥局,臺中市南屯區黎明路二段３６３號,120.6353,24.15033,(04)22547776,羅氏家用新冠病毒抗原自我檢測套組,64,2022/04/29 14:51:02,營業每日上午8:30到晚上22:30!快篩發放下午三點開始
5903280601,方昇藥局,臺中市南屯區大墩路８１３號１樓,120.6495,24.15515,(04)23288818,羅氏家用新冠病毒抗原自我檢測套組,5,2022/04/29 14:51:02,無
5903280656,熊大心藥局,臺中市南屯區河南路四段３７６號,120.6369,24.15208,(04)22516252,羅氏家用新冠病毒抗原自我檢測套組,78,2022/04/29 14:51:02,周一至周六，每天下午15:00-16:00販售實名制快篩
5903280745,亨宇藥局,臺中市南屯區東興路二段２９－２號１樓,120.6529,24.13688,(04)24711206,羅氏家用新冠病毒抗原自我檢測套組,64,2022/04/29 14:51:02,無
5903280807,大樹南屯藥局,臺中市南屯區向上路一段６４３號１樓,120.6486,24.14659,(04)24758887,羅氏家用新冠病毒抗原自我檢測套組,78,2022/04/29 14:51:02,快篩實名制，每天16:00開始販售，售完為止。
5903280816,大育藥局,臺中市南屯區東興路二段７１號１樓,120.6528,24.13835,(04)24755656,羅氏家用新冠病毒抗原自我檢測套組,78,2022/04/29 14:51:02,無
5903280914,豐樹藥局,臺中市南屯區黎明路一段６３號１樓,120.6258,24.11362,(04)24792098,羅氏家用新冠病毒抗原自我檢測套組,5,2022/04/29 14:51:02,販售快篩時間 早上9:00～10：00   晚上8：00~9:00
5903290385,元復藥局,臺中市北屯區東山路１段２２５－７號,120.7155,24.17475,(04)24362075,羅氏家用新冠病毒抗原自我檢測套組,1,2022/04/29 14:51:02,上午9:00開始，週日公休。
5903290518,佳美藥局,臺中市北屯區東山路１段２６５號１樓,120.7184,24.17583,(04)24363658,羅氏家用新冠病毒抗原自我檢測套組,57,2022/04/29 14:51:02,4／28.4／29 快篩下午4點開始販售
5903290607,敦化小林健保藥局,臺中市北屯區敦化路１段６６８號,120.6643,24.18593,(04)24261881,羅氏家用新冠病毒抗原自我檢測套組,2,2022/04/29 14:51:02,每日早上8:00領號碼牌，16:30再回藥局領口罩（全年無休）
5903290625,又昌中西健保藥局,臺中市北屯區東山路１段２２３號,120.7152,24.17452,(04)24375716,羅氏家用新冠病毒抗原自我檢測套組,78,2022/04/29 14:51:02,快篩實名制 周一~周五晚上18:30開賣
5903290689,大德安藥局,臺中市北屯區景賢路２３６號,120.7241,24.16701,(04)24378351,羅氏家用新冠病毒抗原自我檢測套組,67,2022/04/29 14:51:02,口罩代售時間從週一到週六09:00~現場排隊售完為止星期日早上10:00起至售完為止
5903290750,長幼藥局,臺中市北屯區崇德路二路二段１５７號１樓,120.6853,24.17329,(04)22426767,羅氏家用新冠病毒抗原自我檢測套組,3,2022/04/29 14:51:02,防疫口罩於每天早上9點整開賣，採現場排隊無號碼牌，賣完為止
5903290849,新盛藥局,臺中市北屯區松竹路二段１５７號１樓,120.6959,24.18312,(04)22467779,羅氏家用新冠病毒抗原自我檢測套組,14,2022/04/29 14:51:02,下午2:30至8:30賣快篩試劑週一至週六
5903290876,北屯軍功藥局,臺中市北屯區軍功路一段７５２號,120.7193,24.17513,(04)24375111,羅氏家用新冠病毒抗原自我檢測套組,78,2022/04/29 14:51:02,快篩實名制，每天16:00開始販售，售完為止。
5903290894,豐禾藥局,臺中市北屯區同榮路１６３號,120.6618,24.19589,(04)24260588,羅氏家用新冠病毒抗原自我檢測套組,78,2022/04/29 14:51:02,無
5903290929,微笑藥局,臺中市北屯區昌平路一段３１８號１樓,120.6907,24.17344,(04)22432699,羅氏家用新冠病毒抗原自我檢測套組,41,2022/04/29 14:51:02,【快篩試劑】下午2:30起~現場排隊~
5903290965,崇德藥局,臺中市北屯區崇德路二段３１號,120.685,24.16962,(04)22361331,羅氏家用新冠病毒抗原自我檢測套組,78,2022/04/29 14:51:02,快篩實名制，每天16:00開始販售，售完為止。
5903290983,祥和藥局,臺中市北屯區太原路三段１４７號１樓,120.6901,24.16507,(04)22369603,羅氏家用新冠病毒抗原自我檢測套組,2,2022/04/29 14:51:02,快篩販售4／30後：下午2點開始
5903291042,全成北屯藥局,臺中市北屯區北屯路４３９－１１號１樓,120.7004,24.17913,(04)22463518,羅氏家用新冠病毒抗原自我檢測套組,72,2022/04/29 14:51:02,快篩每日下午3:00開始販售
5903291060,大樹北屯藥局,臺中市北屯區松竹路二段４１１號１樓,120.6895,24.18192,(04)22422262,羅氏家用新冠病毒抗原自我檢測套組,78,2022/04/29 14:51:02,快篩實名制，每天16:00開始販售，售完為止。
5903291140,興安藥局,臺中市北屯區興安路二段５２號１、２樓,120.6949,24.1762,(04)22460369,羅氏家用新冠病毒抗原自我檢測套組,78,2022/04/29 14:51:02,快篩實名制，每天16:00開始販售，售完為止。
5903291159,均福藥局,臺中市北屯區軍福十三路１００號１樓,120.7308,24.17096,(04)24391169,羅氏家用新冠病毒抗原自我檢測套組,77,2022/04/29 14:51:02,快篩實名制規則:晚上七點依現場排隊順序發號碼牌 （周日公休不販售）
5903291220,佑全台中四平藥局,臺中市北屯區四平路３６０號１樓,120.682,24.19324,(04)24212792,羅氏家用新冠病毒抗原自我檢測套組,5,2022/04/29 14:51:02,無
5903291266,佑全台中興安藥局,臺中市北屯區興安路一段２５３號,120.6941,24.17221,(04)22490355,羅氏家用新冠病毒抗原自我檢測套組,1,2022/04/29 14:51:02,無
5905010250,大樹新營藥局,臺南市新營區民權路７４、７６、７８號１樓,120.3127,23.30615,(06)6328300,羅氏家用新冠病毒抗原自我檢測套組,78,2022/04/29 14:51:02,快篩實名制，每天16:00開始販售，售完為止。
5905010330,新進啄木鳥藥局,臺南市新營區新進路２段２５４號１樓,120.3056,23.30074,(06)6565303,羅氏家用新冠病毒抗原自我檢測套組,16,2022/04/29 14:51:02,無
5905020023,大樹鹽水藥局,臺南市鹽水區朝琴路１２６－３號１樓,120.271,23.32228,(06)6520432,羅氏家用新冠病毒抗原自我檢測套組,78,2022/04/29 14:51:02,快篩實名制，每天16:00開始販售，售完為止。
5905030092,大樹白河藥局,臺南市白河區中山路１５３號１樓,120.417,23.35255,(06)6830006,羅氏家用新冠病毒抗原自我檢測套組,78,2022/04/29 14:51:02,快篩實名制，每天16:00開始販售，售完為止。
5905040141,大樹麻豆藥局,臺南市麻豆區中山路４８、５０號１樓,120.2469,23.18382,(06)5716556,羅氏家用新冠病毒抗原自我檢測套組,78,2022/04/29 14:51:02,快篩實名制，每天16:00開始販售，售完為止。
5905050165,德昌藥局佳里店,臺南市佳里區光復路２３３號,120.1746,23.16095,(06)7232388,羅氏家用新冠病毒抗原自我檢測套組,38,2022/04/29 14:51:02,固定周一至周六09:00開始販售口罩，售完為止
5905050209,大樹佳里藥局,臺南市佳里區延平路２３７號１樓,120.1783,23.1599,(06)7231323,羅氏家用新冠病毒抗原自我檢測套組,78,2022/04/29 14:51:02,快篩實名制，每天16:00開始販售，售完為止。
5905060125,美麗安藥局,臺南市新化區護國里中山路１５０－１號１樓,120.3102,23.03714,(06)5909509,羅氏家用新冠病毒抗原自我檢測套組,38,2022/04/29 14:51:02,固定周一至周六早上8點發放號碼牌，並依序販賣口罩
5905060161,和德藥局新化店,臺南市新化區清水里中山路４２０號１樓,120.3047,23.0359,(06)5802518,羅氏家用新冠病毒抗原自我檢測套組,78,2022/04/29 14:51:02,快篩販售時間:星期一~星期六 下午3點~售完
5905060198,大樹新化藥局,臺南市新化區中正路５３１號１樓,120.3072,23.03764,(06)5901331,羅氏家用新冠病毒抗原自我檢測套組,78,2022/04/29 14:51:02,快篩實名制，每天16:00開始販售，售完為止。
5905070050,晶德昌藥局,臺南市善化區文光里中山路８５號,120.3034,23.13298,(06)5856141,羅氏家用新冠病毒抗原自我檢測套組,16,2022/04/29 14:51:02,14:30-16:00.依號碼牌售完為止
5905070121,大樹善化藥局,臺南市善化區民權路５４、５６、５８號１樓,120.3034,23.1322,(06)5830550,羅氏家用新冠病毒抗原自我檢測套組,78,2022/04/29 14:51:02,快篩實名制，每天16:00開始販售，售完為止。
5905080056,大樹學甲藥局,臺南市學甲區中正路１３５號１樓,120.1793,23.23029,(06)7820001,羅氏家用新冠病毒抗原自我檢測套組,78,2022/04/29 14:51:02,快篩實名制，每天16:00開始販售，售完為止。
5905080065,生祥大藥局學甲店,臺南市學甲區仁得里華宗路３６９號１樓,120.1821,23.23223,(06)7838462,羅氏家用新冠病毒抗原自我檢測套組,53,2022/04/29 14:51:02,快篩:早上8:00發號碼牌，13:00~19:00購買（週六14:00~17:00購買）
5905100035,華恩藥局,臺南市後壁區菁寮里５１號１樓,120.3356,23.37883,(06)6623491,羅氏家用新冠病毒抗原自我檢測套組,156,2022/04/29 14:51:02,星期一到六上午8:00-12:00，下午2:30-7:30，星期日8:00-12:00；口罩發售時間自08:30-11:30，下午2:30-07:00
5905140039,安安藥局隆田店,臺南市官田區中山路一段１５號１樓,120.3186,23.1927,(06)5795705,羅氏家用新冠病毒抗原自我檢測套組,1,2022/04/29 14:51:02,全日口罩販賣
5905200058,欣和德藥局,臺南市新市區中正路２００號,120.2916,23.07516,(06)5895658,羅氏家用新冠病毒抗原自我檢測套組,26,2022/04/29 14:51:02,政府防疫口罩發放時間:下午2點至8點。售完為止
5905200085,大樹新市藥局,臺南市新市區中正路４９、５１號１樓,120.2916,23.07223,(06)5892552,羅氏家用新冠病毒抗原自我檢測套組,72,2022/04/29 14:51:02,快篩實名制，每天16:00開始販售，售完為止。
5905270176,大樹仁德藥局,臺南市仁德區中正路二段１１５２號１樓,120.2519,22.97062,(06)2797466,羅氏家用新冠病毒抗原自我檢測套組,78,2022/04/29 14:51:02,快篩實名制，每天16:00開始販售，售完為止。
5905280109,大樹青青藥局,臺南市歸仁區中山路三段１２號,120.2875,22.96765,(06)2300301,羅氏家用新冠病毒抗原自我檢測套組,78,2022/04/29 14:51:02,快篩實名制，每天16:00開始販售，售完為止。
5905290034,大樹關廟藥局,臺南市關廟區中央路２６３號１樓,120.3272,22.96109,(06)5965889,羅氏家用新冠病毒抗原自我檢測套組,78,2022/04/29 14:51:02,快篩實名制，每天16:00開始販售，售完為止。
5905310755,德昌藥局永康店,臺南市永康區中華路４６２號,120.2327,23.01082,(06)3020628,羅氏家用新冠病毒抗原自我檢測套組,17,2022/04/29 14:51:02,快篩販售時間：星期一~星期日14:30~16:00
5905311001,和德藥局復國店,臺南市永康區復國里復國一路３３９之７號１樓,120.2464,23.01155,(06)2038728,羅氏家用新冠病毒抗原自我檢測套組,78,2022/04/29 14:51:02,每日／星期日 下午3:00-5:00購買快篩  限一人2張卡
5905311010,樂丞藥局,臺南市永康區中正北路６０號１樓,120.2406,23.04138,(06)2433319,羅氏家用新冠病毒抗原自我檢測套組,78,2022/04/29 14:51:02,快篩販售時間：晚上七點開賣至售完
5905311074,中華長億藥局,臺南市永康區中華路７３４、７３６號１樓,120.2288,23.0167,(06)3022322,羅氏家用新冠病毒抗原自我檢測套組,78,2022/04/29 14:51:02,快篩實名制，每天16:00開始販售，售完為止。
5905311190,和德藥局大灣店,臺南市永康區崑山里永大路二段９號１樓,120.2595,23.00127,(06)2735049,羅氏家用新冠病毒抗原自我檢測套組,5,2022/04/29 14:51:02,快篩販售時間14:30-17:00
5905320331,高福藥局,臺南市東區大智里德東街１６８號,120.2322,22.96171,(06)2904668,羅氏家用新冠病毒抗原自我檢測套組,1,2022/04/29 14:51:02,無
5905320466,佑全中華藥局,臺南市東區中華東路三段２１５號,120.2253,22.97603,(06)2906386,羅氏家用新冠病毒抗原自我檢測套組,1,2022/04/29 14:51:02,星期一-六08:00-21:00
5905320564,杏一台南崇德藥局,臺南市東區崇德路６７４號,120.2274,22.96762,(06)2671939,羅氏家用新冠病毒抗原自我檢測套組,74,2022/04/29 14:51:02,防疫口罩發送時間:周一至周日:下午:15:00
5905320635,晉大藥局,臺南市東區東光里東興路２６４號１樓,120.2298,22.99522,(06)2092580,羅氏家用新冠病毒抗原自我檢測套組,61,2022/04/29 14:51:02,無
5905320797,大樹自由藥局,臺南市東區自由路三段３８２號１樓,120.2373,22.98241,(06)2890800,羅氏家用新冠病毒抗原自我檢測套組,78,2022/04/29 14:51:02,L223902518
5905320804,大樹大同藥局,臺南市東區大同路二段２２７、２２９號１樓,120.2143,22.97567,(06)2158700,羅氏家用新冠病毒抗原自我檢測套組,78,2022/04/29 14:51:02,快篩實名制，每天16:00開始販售，售完為止。
5905320868,大樹東寧藥局,臺南市東區東寧路４３６號１樓,120.2291,22.9895,(06)2360006,羅氏家用新冠病毒抗原自我檢測套組,78,2022/04/29 14:51:02,快篩實名制，每天16:00開始販售，售完為止。
5905320886,中華崇德藥局,臺南市東區中華東路三段１８１、１８３號１樓,120.2259,22.97667,(06)2880800,羅氏家用新冠病毒抗原自我檢測套組,78,2022/04/29 14:51:02,快篩實名制，每天16:00開始販售，售完為止。
5905320911,大樹崇道藥局,臺南市東區崇道路６３號１樓,120.2272,22.97227,(06)2680456,羅氏家用新冠病毒抗原自我檢測套組,78,2022/04/29 14:51:02,快篩實名制，每天16:00開始販售，售完為止。
5905320948,崇明台安藥局,臺南市東區崇明路３０４號１樓,120.2198,22.97762,(06)2900350,羅氏家用新冠病毒抗原自我檢測套組,35,2022/04/29 14:51:02,無
5905320975,萬錠藥局,臺南市東區崇成里崇德路６１９號１樓,120.2277,22.97181,(06)2679299,羅氏家用新冠病毒抗原自我檢測套組,35,2022/04/29 14:51:02,無
5905330284,大樹佳華藥局,臺南市南區金華路二段１２９號１樓,120.1911,22.98035,(06)2641238,羅氏家用新冠病毒抗原自我檢測套組,78,2022/04/29 14:51:02,快篩實名制，每天16:00開始販售，售完為止。
5905340164,田邊藥局,臺南市中西區中正路２３６號,120.1969,22.99326,(06)2200106,羅氏家用新冠病毒抗原自我檢測套組,4,2022/04/29 14:51:02,口罩下午1:00販售售完為止.請自備零錢，
5905350133,大昌藥局,臺南市北區北安路１段１３２號１樓,120.2127,23.01481,(06)2519121,羅氏家用新冠病毒抗原自我檢測套組,55,2022/04/29 14:51:02,無
5905350311,美康藥局,臺南市北區公園路３７５－５號,120.2102,23.00597,(06)2810311,羅氏家用新冠病毒抗原自我檢測套組,12,2022/04/29 14:51:02,快篩實名制販賣時間上午9:00~11:00
5905350366,千多藥局,臺南市北區金華路五段１號,120.1962,23.0016,(06)2228641,羅氏家用新冠病毒抗原自我檢測套組,78,2022/04/29 14:51:02,晚上6點開始銷售實名制快篩試劑，賣完為止
5905350428,大正藥局,臺南市北區公園南路３２４號１樓,120.2033,23.00268,(06)2226899,羅氏家用新冠病毒抗原自我檢測套組,2,2022/04/29 14:51:02,快篩試劑下午13:30發放~售完
5905370073,宜康藥局同安店,臺南市安南區同安路２３５號１樓,120.1921,23.0425,(06)2470720,羅氏家用新冠病毒抗原自我檢測套組,30,2022/04/29 14:51:02,星期一~星期日08:10~23:00
5905370304,大樹安南藥局,臺南市安南區安和路四段５５７號１樓,120.2185,23.06181,(06)3563370,羅氏家用新冠病毒抗原自我檢測套組,78,2022/04/29 14:51:02,口罩販賣時段：14:00 - 16:00
5905370466,大樹北安藥局,臺南市安南區北安路三段１５８號１樓,120.2036,23.04256,(06)2553633,羅氏家用新冠病毒抗原自我檢測套組,78,2022/04/29 14:51:02,快篩實名制，每天16:00開始販售，售完為止。
5907010365,科健藥局,高雄市鳳山區八德路２４６－５號１樓,120.3568,22.63853,(07)7777868,羅氏家用新冠病毒抗原自我檢測套組,78,2022/04/29 14:51:02,下午3:30開始換購
5907010427,好郝藥局鳳林店,高雄市鳳山區誠智里鳳林路２９０號,120.3779,22.62216,(07)7869188,羅氏家用新冠病毒抗原自我檢測套組,77,2022/04/29 14:51:02,健保快篩周一到周日下午三點開始現場排隊 ，售完為止
5907010927,元元鳳山藥局,高雄市鳳山區一甲里五甲二路３４８之１號１樓,120.3377,22.59955,(07)7529595,羅氏家用新冠病毒抗原自我檢測套組,78,2022/04/29 14:51:02,15:00開始發快篩，一至五最晚銷售時間至晚上六點。星期六銷售至下午五點。星期日公休
5907010945,光田藥局,高雄市鳳山區鎮東里光遠路９５號１樓,120.3656,22.62412,(07)7460773,羅氏家用新冠病毒抗原自我檢測套組,78,2022/04/29 14:51:02,國定假日及周日固定店休
5907011068,新高橋藥局文龍東店,高雄市鳳山區鎮北里文龍東路３１０號,120.3666,22.64074,(07)7353946,羅氏家用新冠病毒抗原自我檢測套組,3,2022/04/29 14:51:02,自2／11日~2／29日，早上10:00開始販售口罩，售完為止。
5907011095,鳳山五甲藥局,高雄市鳳山區正義里五甲二路１３９號１樓,120.3409,22.6014,(07)7269899,羅氏家用新冠病毒抗原自我檢測套組,78,2022/04/29 14:51:02,快篩實名制，每天16:00開始販售，售完為止。
5907011148,大樹國泰藥局,高雄市鳳山區興仁里五甲一路２９２號,120.3539,22.61698,(07)7407234,羅氏家用新冠病毒抗原自我檢測套組,78,2022/04/29 14:51:02,快篩實名制，每天16:00開始販售，售完為止。
5907011175,鳳西藥局,高雄市鳳山區忠義里中山西路２３８號１樓,120.3471,22.62831,(07)7902717,羅氏家用新冠病毒抗原自我檢測套組,78,2022/04/29 14:51:02,快篩實名制，每天16:00開始販售，售完為止。
5907011228,鳳山青年藥局,高雄市鳳山區文德里青年路二段３９９號１樓,120.3513,22.64292,(07)7678383,羅氏家用新冠病毒抗原自我檢測套組,78,2022/04/29 14:51:02,口罩販售時間：14:00 - 16:00
5907011317,凱旋藥局,高雄市鳳山區國隆里新富路３７３號１樓,120.3475,22.61494,(07)7671181,羅氏家用新冠病毒抗原自我檢測套組,78,2022/04/29 14:51:02,快篩實名制，每天16:00開始販售，售完為止。
5907011371,大樹五甲藥局,高雄市鳳山區福祥里五甲三路２４號１－２樓．２６號１－２樓,120.3278,22.59317,(07)8224926,羅氏家用新冠病毒抗原自我檢測套組,78,2022/04/29 14:51:02,快篩實名制，每天16:00開始販售，售完為止。
5907020085,大德藥局,高雄市岡山區大德一路９８號,120.3025,22.79689,(07)6221456,羅氏家用新冠病毒抗原自我檢測套組,78,2022/04/29 14:51:02,快篩實名制，每天16:00開始販售，售完為止。
5907020094,大樹岡山藥局,高雄市岡山區岡山路１３６號,120.2967,22.78913,(07)6219477,羅氏家用新冠病毒抗原自我檢測套組,78,2022/04/29 14:51:02,快篩實名制，每天16:00開始販售，售完為止。
5907030072,旗美藥局,高雄市旗山區東平里延平二路４１號,120.4933,22.882,(07)6629839,羅氏家用新冠病毒抗原自我檢測套組,14,2022/04/29 14:51:02,實名制快篩劑購買時間為下午14:00~20:00
5907030152,旗山藥局,高雄市旗山區中華路２３號,120.4841,22.88027,(07)6621158,羅氏家用新冠病毒抗原自我檢測套組,74,2022/04/29 14:51:02,快篩實名制，每天16:00開始販售，售完為止。
5907050010,新朋友藥師連鎖藥局,高雄市林園區東林東路４４號,120.3971,22.50389,(07)6460588,羅氏家用新冠病毒抗原自我檢測套組,78,2022/04/29 14:51:02,自2／11日~2／29日，營業日19:30~21:30為販賣口罩時間，售完為止
5907050109,林園藥局,高雄市林園區仁愛路１３號１樓,120.3928,22.50418,(07)6425855,羅氏家用新冠病毒抗原自我檢測套組,78,2022/04/29 14:51:02,快篩實名制，每天16:00開始販售，售完為止。
5907060221,淑德健保藥局,高雄市大寮區內坑里淑德新村１號３樓,120.3707,22.58833,(07)7923556,羅氏家用新冠病毒抗原自我檢測套組,44,2022/04/29 14:51:02,無
5907060230,華思中西藥局,高雄市大寮區永芳里進學路１２２號１樓,120.3933,22.60468,(07)7835567,羅氏家用新冠病毒抗原自我檢測套組,78,2022/04/29 14:51:02,星期一~星期六 下午四點販售實名制快篩  星期天店休
5907070012,舒康藥師藥局,高雄市大樹區久堂路１２９號,120.4167,22.65781,(07)6520268,羅氏家用新冠病毒抗原自我檢測套組,2,2022/04/29 14:51:02,14:00~18:00若提前售完，銷售時間提前結束。
5907070030,久堂藥局,高雄市大樹區久堂里久堂路１３６號１樓,120.4178,22.65813,(07)6512800,羅氏家用新冠病毒抗原自我檢測套組,79,2022/04/29 14:51:02,快篩實名制，每天16:00開始販售，售完為止。
5907080189,德昌藥局仁雄店,高雄市仁武區灣內里仁雄路３８、３８－１、３８－２號,120.3506,22.68074,(07)3749166,羅氏家用新冠病毒抗原自我檢測套組,18,2022/04/29 14:51:02,固定週一至週日14:30~16:00開始發放號碼牌並依序販售快篩.售完為止
5907080232,大樹仁武藥局,高雄市仁武區赤山里仁雄路８０－９號,120.3469,22.67811,(07)3744777,羅氏家用新冠病毒抗原自我檢測套組,78,2022/04/29 14:51:02,快篩實名制，每天16:00開始販售，售完為止。
5907080269,興德昌藥局,高雄市仁武區文武里中華路２３２號,120.3516,22.69985,(07)3757005,羅氏家用新冠病毒抗原自我檢測套組,13,2022/04/29 14:51:02,實名制快篩販售時間14:30-16:00
5907080330,文武藥局,高雄市仁武區文武里中華路３５３號,120.3535,22.7011,(07)3733551,羅氏家用新冠病毒抗原自我檢測套組,78,2022/04/29 14:51:02,快篩實名制，每天16:00開始販售，售完為止。
5907090087,安泰專業藥師藥局,高雄市大社區中山路２６７號１樓,120.3492,22.73194,(07)3553715,羅氏家用新冠病毒抗原自我檢測套組,21,2022/04/29 14:51:02,換口罩請自備零錢
5907090167,大樹大社藥局,高雄市大社區中山路３０８號１樓,120.3503,22.73145,(07)3531682,羅氏家用新冠病毒抗原自我檢測套組,78,2022/04/29 14:51:02,快篩實名制，每天16:00開始販售，售完為止。
5907100088,本館藥局,高雄市鳥松區大華里本館路１９０號１樓,120.3361,22.65556,(07)3707655,羅氏家用新冠病毒抗原自我檢測套組,78,2022/04/29 14:51:02,營業時間每日09:00-22:00  實名制快篩販賣時間15:00-20:00
5907110048,和德藥局橋頭店,高雄市橋頭區橋南路１１６－１號,120.3125,22.75441,(07)6113580,羅氏家用新冠病毒抗原自我檢測套組,78,2022/04/29 14:51:02,下午15:00開賣.售完為止
5907140108,德昌藥局阿蓮店,高雄市阿蓮區阿蓮里中正路４５６號,120.3321,22.88075,(07)6318868,羅氏家用新冠病毒抗原自我檢測套組,29,2022/04/29 14:51:02,固定周一至周日14:30-16:00販售快篩，售完為止
5907150202,永昌藥局,高雄市路竹區延平路８１號,120.2579,22.85786,(07)6964321,羅氏家用新冠病毒抗原自我檢測套組,36,2022/04/29 14:51:02,周一至周六上午10開始依序登錄販售口罩，售完為止。
5907150239,固德藥局,高雄市路竹區金平路３１２號,120.269,22.86954,(07)6978641,羅氏家用新冠病毒抗原自我檢測套組,6,2022/04/29 14:51:02,無
5907150257,大樹大立藥局,高雄市路竹區國昌路５１號,120.26,22.85409,(07)6961663,羅氏家用新冠病毒抗原自我檢測套組,78,2022/04/29 14:51:02,快篩實名制，每天16:00開始販售，售完為止。
5907160039,華安藥局,高雄市湖內區中山路一段４５１－１９號,120.2459,22.88472,(07)6938208,羅氏家用新冠病毒抗原自我檢測套組,78,2022/04/29 14:51:02,營業日15:00-21:00為販賣實名制快篩時間，售完為止
5907160093,保生藥局,高雄市湖內區葉厝里保生路３４０．３４２號,120.2195,22.90733,(07)6990800,羅氏家用新冠病毒抗原自我檢測套組,78,2022/04/29 14:51:02,快篩實名制，每天16:00開始販售，售完為止。
5907240014,博林健保藥局,高雄市內門區觀亭里中正路１６０巷５１號,120.4539,22.9232,(07)6671883,羅氏家用新冠病毒抗原自我檢測套組,53,2022/04/29 14:51:02,自2／11日~2／29日，營業日07:40~18:00為販賣口罩時間，售完為止
5907280036,七賢藥局,高雄市鹽埕區七賢三路１６２號１樓,120.2829,22.62712,(07)5330616,羅氏家用新冠病毒抗原自我檢測套組,78,2022/04/29 14:51:02,快篩實名制，每天16:00開始販售，售完為止。
5907290238,聯合藥師藥局,高雄市鼓山區中華一路９７０號１樓,120.2919,22.65515,(07)5500558,羅氏家用新冠病毒抗原自我檢測套組,9,2022/04/29 14:51:02,無
5907290309,鼓山藥局,高雄市鼓山區華榮路１０號,120.2973,22.66156,(07)5520017,羅氏家用新冠病毒抗原自我檢測套組,78,2022/04/29 14:51:02,快篩實名制，每天16:00開始販售，售完為止。
5907300168,金元藥局,高雄市左營區重愛路２２０號,120.3156,22.68562,(07)3458378,羅氏家用新冠病毒抗原自我檢測套組,1,2022/04/29 14:51:02,口罩販售時間08:30開始，星期四，星期六營業時間到中午12點，平常日營業時間到晚上9點
5907300239,左野藥局,高雄市左營區崇德路２２２號,120.3052,22.675,(07)3486883,羅氏家用新冠病毒抗原自我檢測套組,78,2022/04/29 14:51:02,營業時間09:00-22:30（實名制快篩試劑販售時間15:00-20:00售完為止!）
5907300319,士凱藥局,高雄市左營區孟子路１７８號,120.3126,22.67387,(07)3430257,羅氏家用新冠病毒抗原自我檢測套組,1,2022/04/29 14:51:02,快篩實名制，每天14:30開始販售，售完為止。
5907300588,明禾藥局,高雄市左營區華夏路１７３２號１樓,120.3204,22.68777,(07)3493734,羅氏家用新冠病毒抗原自我檢測套組,14,2022/04/29 14:51:02,口罩販售時間早上9點開始販售
5907300631,大樹孟子藥局,高雄市左營區孟子路２２６、２２８號,120.3112,22.67415,(07)3461772,羅氏家用新冠病毒抗原自我檢測套組,78,2022/04/29 14:51:02,快篩實名制，每天16:00開始販售，售完為止。
5907300677,佳寧峰藥局,高雄市左營區部後街２號,120.2886,22.6834,(07)5886408,羅氏家用新冠病毒抗原自我檢測套組,1,2022/04/29 14:51:02,口罩，快篩試劑販賣時段:上午8:30起至售完為止
5907300686,左營自由藥局,高雄市左營區自由二路３５０、３５０－１號,120.3091,22.66599,(07)5589991,羅氏家用新冠病毒抗原自我檢測套組,78,2022/04/29 14:51:02,快篩實名制，每天16:00開始販售，售完為止。
5907300748,翔生藥局合群店,高雄市左營區緯六路２５６號,120.2871,22.6976,(07)5880055,羅氏家用新冠病毒抗原自我檢測套組,2,2022/04/29 14:51:02,實名制快篩販售時間：星期一至星期五，售完為止
5907300926,高鐵藥局,高雄市左營區華夏路１３２２．１３２６號,120.312,22.68587,(07)3452797,羅氏家用新冠病毒抗原自我檢測套組,78,2022/04/29 14:51:02,快篩實名制，每天16:00開始販售，售完為止。
5907300944,左營藥局,高雄市左營區華夏路３２５號,120.2972,22.67167,(07)5501017,羅氏家用新冠病毒抗原自我檢測套組,78,2022/04/29 14:51:02,快篩實名制，每天16:00開始販售，售完為止。
5907300953,翔生藥局,高雄市左營區左營大路５１４號,120.2953,22.68921,(07)5827329,羅氏家用新冠病毒抗原自我檢測套組,1,2022/04/29 14:51:02,無
5907300980,大路藥局,高雄市左營區左營大路５５－２號１樓,120.2877,22.6813,(07)5851001,羅氏家用新冠病毒抗原自我檢測套組,78,2022/04/29 14:51:02,快篩實名制，每天16:00開始販售，售完為止。
5907301012,新高橋藥局華夏店,高雄市左營區華夏路１１１０號,120.3085,22.68343,(07)3410915,羅氏家用新冠病毒抗原自我檢測套組,22,2022/04/29 14:51:02,無
5907310020,德民藥局,高雄市楠梓區德民路９１１號,120.2897,22.72085,(07)3630805,羅氏家用新冠病毒抗原自我檢測套組,4,2022/04/29 14:51:02,營業日星期一至星期六上午11:00~16:00銷售快篩實名制.售完為止，週日公休
5907310262,大樹楠梓藥局,高雄市楠梓區軍校路９０８號,120.2919,22.71246,(07)3632322,羅氏家用新冠病毒抗原自我檢測套組,78,2022/04/29 14:51:02,快篩實名制，每天16:00開始販售，售完為止。
5907310388,宸實藥局,高雄市楠梓區後昌路４７巷２３－１號,120.3129,22.71975,(07)3642142,羅氏家用新冠病毒抗原自我檢測套組,21,2022/04/29 14:51:02,4／29號碼牌已發放完畢!謝謝合作!!每日8:30開始發放號碼牌（當日有效），一次限領一張，當日20:00前皆可購買。
5907310404,藍田藥局,高雄市楠梓區藍田路１號,120.2953,22.72643,(07)3601236,羅氏家用新冠病毒抗原自我檢測套組,78,2022/04/29 14:51:02,快篩實名制，每天16:00開始販售，售完為止。
5907310431,興楠丁丁藥局,高雄市楠梓區興楠路２６２號１樓,120.3329,22.7301,(07)3559668,羅氏家用新冠病毒抗原自我檢測套組,11,2022/04/29 14:51:02,無
5907320295,新高橋藥局澄清店,高雄市三民區澄和路２號１樓,120.3461,22.64438,(07)3815186,羅氏家用新冠病毒抗原自我檢測套組,7,2022/04/29 14:51:02,下午1:30開始販售口罩
5907320302,新高橋藥局明誠店,高雄市三民區明誠一路４９２號,120.3226,22.66046,(07)3107072,羅氏家用新冠病毒抗原自我檢測套組,14,2022/04/29 14:51:02,早上10:00開始販售口罩
5907320428,東京藥局,高雄市三民區建工路６８５號,120.3173,22.6478,(07)3874567,羅氏家用新冠病毒抗原自我檢測套組,76,2022/04/29 14:51:02,實名制快篩販售時間: 每日15:00-晚上20:00
5907320580,丸之內藥局,高雄市三民區十全二路３２１、３２３號,120.2923,22.64601,(07)3156688,羅氏家用新冠病毒抗原自我檢測套組,2,2022/04/29 14:51:02,無
5907320740,忠仁藥局,高雄市三民區中都街３５號１樓,120.2867,22.63955,(07)3125305,羅氏家用新冠病毒抗原自我檢測套組,69,2022/04/29 14:51:02,無
5907320768,心樂保健藥局,高雄市三民區光裕路７８號１樓,120.3331,22.63789,(07)3855377,羅氏家用新冠病毒抗原自我檢測套組,20,2022/04/29 14:51:02,星期一到星期四上午8:30-12:00，下午15:00-18:00（口罩售完為止）. 星期五下午14:00-17:00，18:00-20:30（售完為止）
5907320848,仕康健保藥妝藥局,高雄市三民區建興路２２２號,120.325,22.6447,(07)3845050,羅氏家用新冠病毒抗原自我檢測套組,78,2022/04/29 14:51:02,下午3點販售，現場排隊
5907320866,意朋建興藥局,高雄市三民區建興路２２５號１樓,120.3251,22.64418,(07)3929507,羅氏家用新冠病毒抗原自我檢測套組,1,2022/04/29 14:51:02,口罩領取時間:W1~W日（AM1100~換完為止）
5907320893,大樹天祥藥局,高雄市三民區天祥一路１６７號,120.3191,22.66737,(07)3429902,羅氏家用新冠病毒抗原自我檢測套組,78,2022/04/29 14:51:02,快篩實名制，每天16:00開始販售，售完為止。
5907320900,大昌藥局,高雄市三民區大昌二路３９７號,120.3317,22.64915,(07)3961396,羅氏家用新冠病毒抗原自我檢測套組,78,2022/04/29 14:51:02,快篩實名制，每天16:00開始販售，售完為止。
5907320946,熊安心藥局,高雄市三民區陽明路４０８號,120.3429,22.64609,(07)3815212,羅氏家用新冠病毒抗原自我檢測套組,25,2022/04/29 14:51:02,週一 ~ 週六 AM8:00-PM10:00，快篩分兩梯次販售，14:00有63份，19:00有15份
5907321032,三民明誠藥局,高雄市三民區明誠一路５００號１－２Ｆ及５０２號,120.3223,22.66046,(07)3493137,羅氏家用新冠病毒抗原自我檢測套組,12,2022/04/29 14:51:02,營業時間早上9點至晚上10點
5907321069,桂林活力藥局九如店,高雄市三民區懷安街１１２號１樓,120.3176,22.64095,(07)3981009,羅氏家用新冠病毒抗原自我檢測套組,78,2022/04/29 14:51:02,無
5907321103,自由藥局,高雄市三民區自由一路７８號,120.3089,22.64422,(07)3223113,羅氏家用新冠病毒抗原自我檢測套組,78,2022/04/29 14:51:02,快篩實名制，每天16:00開始販售，售完為止。
5907321167,高杏健保藥局,高雄市三民區義華路４３２號,120.3325,22.6437,(07)3920588,羅氏家用新冠病毒抗原自我檢測套組,9,2022/04/29 14:51:02,無
5907330148,康園藥局,高雄市新興區六合一路５３－１２號,120.3089,22.63241,(07)2372069,羅氏家用新冠病毒抗原自我檢測套組,67,2022/04/29 14:51:02,快篩領取限下午15:30~20:00，星期日早上10點營業至晚上10點
5907330200,新興復興藥局,高雄市新興區復興一路７６號１樓,120.3085,22.63312,(07)2352550,羅氏家用新冠病毒抗原自我檢測套組,78,2022/04/29 14:51:02,快篩實名制，每天16:00開始販售，售完為止。
5907350113,英祥藥局,高雄市苓雅區英祥街１９號,120.3257,22.61678,(07)7522786,羅氏家用新冠病毒抗原自我檢測套組,24,2022/04/29 14:51:02,無
5907350220,仁愛藥師藥局,高雄市苓雅區中正一路２３０號,120.3296,22.62921,(07)7222300,羅氏家用新冠病毒抗原自我檢測套組,1,2022/04/29 14:51:02,無
5907350506,大樹苓雅藥局,高雄市苓雅區中華四路１５３號,120.3001,22.61783,(07)5353111,羅氏家用新冠病毒抗原自我檢測套組,78,2022/04/29 14:51:02,快篩實名制，每天16:00開始販售，售完為止。
5907350551,大樹武廟藥局,高雄市苓雅區武廟路４３、４５號１樓,120.3314,22.63005,(07)7222268,羅氏家用新冠病毒抗原自我檢測套組,78,2022/04/29 14:51:02,快篩實名制，每天16:00開始販售，售完為止。
5907350631,三多藥局,高雄市苓雅區三多二路２９２號１樓,120.3173,22.61838,(07)3365889,羅氏家用新冠病毒抗原自我檢測套組,78,2022/04/29 14:51:02,快篩實名制，每天16:00開始販售，售完為止。
5907350659,北京藥局林泉店,高雄市苓雅區林泉里３鄰林泉街３５號１樓,120.3192,22.62323,(07)7263030,羅氏家用新冠病毒抗原自我檢測套組,156,2022/04/29 14:51:02,無
5907360226,順康健保藥局,高雄市前鎮區一心二路６７號,120.3099,22.61142,(07)5364438,羅氏家用新冠病毒抗原自我檢測套組,1,2022/04/29 14:51:02,防疫家用快篩販賣時間，每天早上9點開始，售完為止。
5907360324,有承中西藥局,高雄市前鎮區德昌路２５７號１樓,120.3155,22.5849,(07)8120880,羅氏家用新冠病毒抗原自我檢測套組,1,2022/04/29 14:51:02,政府實名制快篩販售 09:00開始
5907360360,親親藥局,高雄市前鎮區天山路１０巷６號,120.3151,22.60991,(07)3391078,羅氏家用新冠病毒抗原自我檢測套組,1,2022/04/29 14:51:02,無
5907360459,聯合藥局,高雄市前鎮區一心一路２８１號１樓,120.3141,22.60955,(07)3391535,羅氏家用新冠病毒抗原自我檢測套組,1,2022/04/29 14:51:02,下午1:40分開賣快篩
5907360520,大樹瑞福藥局,高雄市前鎮區瑞隆路１７０號１樓、２樓,120.3357,22.60598,(07)7271170,羅氏家用新冠病毒抗原自我檢測套組,77,2022/04/29 14:51:02,快篩實名制，每天16:00開始販售，售完為止。
5907360548,芳鄰藥局,高雄市前鎮區中華五路９９３號１樓,120.3059,22.60262,(07)5361134,羅氏家用新冠病毒抗原自我檢測套組,78,2022/04/29 14:51:02,快篩實名制販售時間：週一～週五下午３點～５點，週六早上８點～１０點，週日不販售
5907360584,聖名健保藥局,高雄市前鎮區復興三路２４６號１樓,120.312,22.61558,(07)3319431,羅氏家用新冠病毒抗原自我檢測套組,1,2022/04/29 14:51:02,無
5907360646,眾安堂藥局,高雄市前鎮區班超路１７號１樓,120.3261,22.59924,(07)8219881,羅氏家用新冠病毒抗原自我檢測套組,7,2022/04/29 14:51:02,周一到周五早上9:20發號碼牌，10:00開始購買快篩，週六週日沒有配送
5907360655,民權丁丁藥局,高雄市前鎮區民權二路３４５號１－３樓,120.3128,22.61005,(07)9650177,羅氏家用新冠病毒抗原自我檢測套組,1,2022/04/29 14:51:02,無
5907360664,忠純藥局,高雄市前鎮區中華五路１００９號１樓,120.3056,22.60341,(07)3366886,羅氏家用新冠病毒抗原自我檢測套組,78,2022/04/29 14:51:02,快篩實名制，每天16:00開始販售，售完為止。
5907360673,前鎮大樹藥局,高雄市前鎮區瑞隆路４７２號１樓,120.3291,22.60547,(07)7137171,羅氏家用新冠病毒抗原自我檢測套組,78,2022/04/29 14:51:02,快篩實名制，每天16:00開始販售，售完為止。
5907380184,桂林活力藥師藥局孔鳳店,高雄市小港區孔鳳路５６１號１樓,120.3586,22.58393,(07)7912331,羅氏家用新冠病毒抗原自我檢測套組,17,2022/04/29 14:51:02,無
5907380264,大樹孔鳳藥局,高雄市小港區孔鳳路５１９、５２１號,120.3587,22.5828,(07)7918521,羅氏家用新冠病毒抗原自我檢測套組,78,2022/04/29 14:51:02,快篩實名制，每天16:00開始販售，售完為止。
5907380424,大樹小港藥局,高雄市小港區康莊路７５號１樓,120.3559,22.56853,(07)8068328,羅氏家用新冠病毒抗原自我檢測套組,78,2022/04/29 14:51:02,快篩實名制，每天16:00開始販售，售完為止。
5911011325,永好藥局,基隆市中正區北寧路３１５號１樓,121.7951,25.13981,(02)24697639,羅氏家用新冠病毒抗原自我檢測套組,43,2022/04/29 14:51:02,無
5911011521,禎宸藥局,基隆市中正區中正路１７５號１樓,121.7605,25.14233,(02)24620366,羅氏家用新冠病毒抗原自我檢測套組,78,2022/04/29 14:51:02,無
5911011594,禾新藥局,基隆市中正區新豐街２０５巷７號,121.7895,25.138,(02)24698940,羅氏家用新冠病毒抗原自我檢測套組,78,2022/04/29 14:51:02,快篩實名制販售時間:下午3點開始
5911011610,躍獅大藥局,基隆市中正區義二路３５號,121.7453,25.1312,(02)24286960,羅氏家用新冠病毒抗原自我檢測套組,156,2022/04/29 14:51:02,營業時間11時-20時假日公休
5911011638,中正藥局,基隆市中正區新豐街３８５號１、２樓,121.7856,25.13537,(02)24690660,羅氏家用新冠病毒抗原自我檢測套組,78,2022/04/29 14:51:02,快篩實名制，每天16:00開始販售，售完為止。
5911030035,陸記藥局,基隆市暖暖區源遠路２４１號,121.7543,25.09882,(02)24576712,羅氏家用新冠病毒抗原自我檢測套組,6,2022/04/29 14:51:02,每日下午兩點販售快篩試劑
5911031238,碇內東亞藥師藥局,基隆市暖暖區源遠路３１９號１樓,121.7574,25.09941,(02)24590033,羅氏家用新冠病毒抗原自我檢測套組,78,2022/04/29 14:51:02,無
5911041332,光華藥局,基隆市仁愛區成功一路１２９號１樓,121.7364,25.12786,(02)24338703,羅氏家用新冠病毒抗原自我檢測套組,75,2022/04/29 14:51:02,快篩試劑販賣下午六點發號碼牌完立刻販售
5911041403,佑昌藥局,基隆市仁愛區南榮路１７號,121.7423,25.12697,(02)24293309,羅氏家用新冠病毒抗原自我檢測套組,1,2022/04/29 14:51:02,無
5911041618,永樂藥局,基隆市仁愛區忠二路２２號,121.7401,25.13013,(02)24214878,羅氏家用新冠病毒抗原自我檢測套組,3,2022/04/29 14:51:02,無
5911041690,佑聖藥局,基隆市仁愛區仁二路１８８號,121.7451,25.12864,(02)24201762,羅氏家用新冠病毒抗原自我檢測套組,1,2022/04/29 14:51:02,即日起口罩販售時間由下午兩點開始，周日公休
5911041949,捷登藥局,基隆市仁愛區孝三路９２號１樓,121.7399,25.1309,(02)24237888,羅氏家用新冠病毒抗原自我檢測套組,14,2022/04/29 14:51:02,國定假日有提供藥事調劑服務
5911041958,百福仁愛專業藥局,基隆市仁愛區仁四路５０號１樓,121.7413,25.12829,(02)24266699,羅氏家用新冠病毒抗原自我檢測套組,79,2022/04/29 14:51:02,4／30起，早上8:00販售快篩
5911050162,錦泰藥局,基隆市中山區中山二路４３號,121.7405,25.13786,(02)24228523,羅氏家用新冠病毒抗原自我檢測套組,78,2022/04/29 14:51:02,快篩販賣時間星期一至五晚上7點，星期六，星期日休息
5911051543,復興藥局,基隆市中山區復興路１２８、１３０、１３２、１３４號１、２樓,121.7262,25.1446,(02)24362566,羅氏家用新冠病毒抗原自我檢測套組,78,2022/04/29 14:51:02,快篩實名制，每天16:00開始販售，售完為止。
5911061272,立登藥局,基隆市安樂區麥金路１９７號１樓,121.7216,25.12079,(02)24334477,羅氏家用新冠病毒抗原自我檢測套組,78,2022/04/29 14:51:02,藥局快篩劑代售15:00開始販售 現場排隊
5911071536,小不點健保藥局,基隆市信義區深溪路１２６號１樓,121.7827,25.13375,(02)24683985,羅氏家用新冠病毒抗原自我檢測套組,78,2022/04/29 14:51:02,無
5911071590,基隆藥局,基隆市信義區東信路１６６、１６８號１、２樓,121.7646,25.12821,(02)24680955,羅氏家用新冠病毒抗原自我檢測套組,78,2022/04/29 14:51:02,快篩實名制，每天16:00開始販售，售完為止。
5912012979,哈佛藥局,新竹市東區北大路７２－１號,120.971,24.81178,(03)5326777,羅氏家用新冠病毒抗原自我檢測套組,66,2022/04/29 14:51:02,快篩販售時間：平日14:50
5912013494,田美藥局,新竹市東區田美三街３５之１號１樓,120.9767,24.81572,(03)5350233,羅氏家用新冠病毒抗原自我檢測套組,78,2022/04/29 14:51:02,快篩實名制，每天16:00開始販售，售完為止。
5912013672,關東藥局,新竹市東區光復路１段３３２、３３４號１至２樓,121.0187,24.78289,(03)5777077,羅氏家用新冠病毒抗原自我檢測套組,78,2022/04/29 14:51:02,快篩實名制，每天16:00開始販售，售完為止。
5912042422,幼能健保藥局,新竹市北區竹光路１０８號１樓,120.9592,24.8133,(03)5339750,羅氏家用新冠病毒抗原自我檢測套組,78,2022/04/29 14:51:02,快篩實際販售時間 下午3點
5912042664,永沛藥局,新竹市北區湳雅街２０９號,120.9741,24.82093,(03)5328563,羅氏家用新冠病毒抗原自我檢測套組,78,2022/04/29 14:51:02,快篩販售時間：15~17  備註:星期天休息
5912042940,新竹北門藥局,新竹市北區中正路３６０、３６２號１樓,120.9629,24.81414,(03)5333234,羅氏家用新冠病毒抗原自我檢測套組,78,2022/04/29 14:51:02,無
5912042968,大樹新竹藥局,新竹市北區西大路５４０、５４２號１、２樓,120.9619,24.80676,(03)5250388,羅氏家用新冠病毒抗原自我檢測套組,78,2022/04/29 14:51:02,快篩實名制，每天16:00開始販售，售完為止。
5912051430,三姓藥局,新竹市香山區中華路四段５７６號１、２樓,120.9297,24.78886,(03)5385886,羅氏家用新冠病毒抗原自我檢測套組,78,2022/04/29 14:51:02,快篩實名制，每天16:00開始販售，售完為止。
5917011847,郭藥局,臺中市中區平等街一二四號,120.682,24.1426,(04)22200005,羅氏家用新冠病毒抗原自我檢測套組,16,2022/04/29 14:51:02,無
5917020211,何藥局,臺中市東區精武路１８０號１樓,120.691,24.14765,(04)23605435,羅氏家用新冠病毒抗原自我檢測套組,5,2022/04/29 14:51:02,快篩早上8:50開始發號碼牌，早上9:00開始販售，售完為止。
5917021656,仁康中西藥局,臺中市東區振興路４３９號１樓,120.7055,24.13032,(04)22151232,羅氏家用新冠病毒抗原自我檢測套組,5,2022/04/29 14:51:02,周一至周六，早上8:30發放號碼牌並開始販售.（販售至中午12:00止）
5917030646,華隆藥局,臺中市西區樂群街６之２號,120.6735,24.14025,(04)22243785,羅氏家用新冠病毒抗原自我檢測套組,1,2022/04/29 14:51:02,販售口罩時間為週一至週日早上09:30開始，售完為止。
5917030995,麗新健保大藥局,臺中市西區向上路一段１６２號,120.6612,24.1469,(04)23017100,羅氏家用新冠病毒抗原自我檢測套組,74,2022/04/29 14:51:02,週一至週日下午15:00至受完為止
5917032800,壹藥局,臺中市西區美村路１段７７５號１樓,120.6618,24.13306,(04)23721998,羅氏家用新冠病毒抗原自我檢測套組,11,2022/04/29 14:51:02,營業時間固定每日早上8點30分到晚上10點30分星期一到星期日都可以領口罩
5917040393,鴻儀大藥局,臺中市南區樹義里大慶街二段３－４號,120.6528,24.11405,(04)22611769,羅氏家用新冠病毒抗原自我檢測套組,1,2022/04/29 14:51:02,周一到周六下午3:00-5:00販賣防疫口罩，周日休息
5917040464,陳信安藥局,臺中市南區永興里高工路３４９號,120.6665,24.11425,(04)22619560,羅氏家用新冠病毒抗原自我檢測套組,19,2022/04/29 14:51:02,星期一至六販售到晚上10點，星期日休息
5917052713,展弘藥局,臺中市北區漢口路４段３８０號,120.6841,24.16684,(04)22307388,羅氏家用新冠病毒抗原自我檢測套組,1,2022/04/29 14:51:02,實名制快篩每天8:30開始
5917052928,盈佑藥局,臺中市北區進化路６３９號１樓,120.6941,24.16091,(04)22376737,羅氏家用新冠病毒抗原自我檢測套組,7,2022/04/29 14:51:02,週一至週五上午9點到下午9點賣口罩 下午12~15點休息週六下午晚上都休息
5917053550,嘉樂藥局,臺中市北區西屯路一段３５１－７號,120.6658,24.15956,(04)23263967,羅氏家用新冠病毒抗原自我檢測套組,1,2022/04/29 14:51:02,星期一~五8.30~12.30，14.00~21.30，星期六8.30-12.30
5917053649,博森藥局,臺中市北區健行路４９３號,120.6778,24.15905,(04)22068589,羅氏家用新冠病毒抗原自我檢測套組,4,2022/04/29 14:51:02,固定周一到周六，下午2:00到下午4:00以現場排隊方式販售防疫家用快篩。
5917070677,康得美專業藥局,臺中市南屯區忠勇路１２之２６號,120.6119,24.13555,(04)23801185,羅氏家用新冠病毒抗原自我檢測套組,1,2022/04/29 14:51:02,星期一至星期五09:00-22:00 星期六10:00-22:00
5917072644,全成藥局,臺中市南屯區大墩６街２２３號,120.6464,24.14254,(04)24712897,羅氏家用新冠病毒抗原自我檢測套組,78,2022/04/29 14:51:02,實名制快篩每日15:00開始販售-售完為止（庫存以現場為主）
5917080379,大元藥局,臺中市北屯區北屯里昌平路一段２３號,120.6937,24.16657,(04)22357722,羅氏家用新冠病毒抗原自我檢測套組,78,2022/04/29 14:51:02,周一~周六每天18:00至20:00販售快篩劑， ，星期日公休
5917080888,大華藥局,臺中市北屯區熱河路２段１０９號１樓,120.6873,24.17054,(04)22331721,羅氏家用新冠病毒抗原自我檢測套組,60,2022/04/29 14:51:02,周一至周五1830-2030販售快篩，周六1400-1600販售快篩。周六晚上及周日全天休診。
5917082300,蔡宗耀中西藥局,臺中市北屯區平德里河北路２段６１號,120.6831,24.16994,(04)22341880,羅氏家用新冠病毒抗原自我檢測套組,1,2022/04/29 14:51:02,早上9點30分至下午12點30分，下午3點至8點發口罩，有發號碼牌。
5917083076,瑞生藥局,臺中市北屯區大連路３段１２６號１樓,120.6948,24.17444,(04)22416759,羅氏家用新冠病毒抗原自我檢測套組,4,2022/04/29 14:51:02,每月固定禮拜天休息，每天早上8點30分準備開始領取口罩；每天早上8:30~晚上10:00，星期日休息
5921010205,文成藥局,臺南市東區大學里東寧路４３號之１,120.2212,22.99217,(06)2340860,羅氏家用新冠病毒抗原自我檢測套組,2,2022/04/29 14:51:02,早上10:30至晚上10點     中午2點至3點休息
5921012085,台安藥局,臺南市東區大同路一段１６３號,120.2113,22.98503,(06)2150011,羅氏家用新冠病毒抗原自我檢測套組,67,2022/04/29 14:51:02,快篩下午四點開始銷售
5921012530,早安藥師藥局,臺南市東區裕學路１１２號,120.2358,22.98502,(06)3350535,羅氏家用新冠病毒抗原自我檢測套組,1,2022/04/29 14:51:02,營業時間:8:30~23:30   快篩試劑發放時間 : 星期一到日14:00開始售完為止
5921013206,和德藥局,臺南市東區崇德路４９７號,120.2272,22.97435,(06)2882789,羅氏家用新冠病毒抗原自我檢測套組,78,2022/04/29 14:51:02,實名制口罩販售中，不限卡數
5921040749,玖大藥局,臺南市北區勝利路３８３號,120.2187,23.00397,(06)2752048,羅氏家用新冠病毒抗原自我檢測套組,2,2022/04/29 14:51:02,星期一~六13:00~15:00
5921061720,康悅健藥師藥局,臺南市安南區安和路５段１４９-２號,120.2179,23.0659,(06)3556382,羅氏家用新冠病毒抗原自我檢測套組,2,2022/04/29 14:51:02,星期一-日0800-2300-售完
5922010361,壽生堂藥局,嘉義市東區府路里延平街２８０號,120.4502,23.47683,(05)2225058,羅氏家用新冠病毒抗原自我檢測套組,37,2022/04/29 14:51:02,周一至周日上午09:00起，至20:00或售鑿為止。
5922012856,民族弘安藥局,嘉義市東區朝陽里民族路１６５號,120.4571,23.47653,(05)2240101,羅氏家用新冠病毒抗原自我檢測套組,2,2022/04/29 14:51:02,周一至周六08:00開始依序販售快篩，至售完為止.周日停賣
5922013102,後庄藥局,嘉義市東區吳鳳南路６４９號,120.4594,23.45511,(05)2391233,羅氏家用新冠病毒抗原自我檢測套組,78,2022/04/29 14:51:02,快篩實名制，每天16:00開始販售，售完為止。
5922013111,富善藥局,嘉義市東區新生路２３４號,120.4609,23.48419,(05)2759559,羅氏家用新冠病毒抗原自我檢測套組,10,2022/04/29 14:51:02,無
5922013193,民權藥局,嘉義市東區民權路１５５號１樓、１５７號１樓,120.4604,23.48374,(05)2775322,羅氏家用新冠病毒抗原自我檢測套組,78,2022/04/29 14:51:02,快篩實名制，每天16:00開始販售，售完為止。
5922020509,全德藥局,嘉義市西區福民里興業西路２８９號,120.4392,23.46776,(05)2854263,羅氏家用新冠病毒抗原自我檢測套組,54,2022/04/29 14:51:02,營業時間請電話洽詢，口罩販售：19點~21點
5922020796,佑安藥局,嘉義市西區民權路４２３號１樓,120.4469,23.48185,(05)2278298,羅氏家用新冠病毒抗原自我檢測套組,1,2022/04/29 14:51:02,早上9點排隊預備 視現場情況調整販售
5922021006,竹圍藥局,嘉義市西區友愛路２７０、２７２號,120.4339,23.4837,(05)2811233,羅氏家用新冠病毒抗原自我檢測套組,78,2022/04/29 14:51:02,快篩實名制，每天16:00開始販售，售完為止。
5922028596,一安藥局,嘉義市西區福民里興業西路３１１號,120.4387,23.4677,(05)2859275,羅氏家用新冠病毒抗原自我檢測套組,5,2022/04/29 14:51:02,周一至周日早上9點至晚上10點半依發放號碼排依序售完
5931010011,埔墘藥局,新北市板橋區中山路２段２２７號,121.477,25.01741,(02)29646705,羅氏家用新冠病毒抗原自我檢測套組,37,2022/04/29 14:51:02,實名制快篩每天14:30發放號碼牌
5931010315,優良藥局,新北市板橋區莊敬路９３號,121.4727,25.02628,(02)22550251,羅氏家用新冠病毒抗原自我檢測套組,1,2022/04/29 14:51:02,無
5931010342,宏達大藥局,新北市板橋區莒光路１７號,121.47,25.02478,(02)22572345,羅氏家用新冠病毒抗原自我檢測套組,78,2022/04/29 14:51:02,快篩 晚上20:00開始販售! 不要打電話來 問題這麼多就到現場 也不給你問
5931010397,正成藥師藥局,新北市板橋區三民路２段１５４巷７號,121.4787,25.01515,(02)29512760,羅氏家用新冠病毒抗原自我檢測套組,78,2022/04/29 14:51:02,無
5931011045,進發大藥局,新北市板橋區民治街１０１號,121.479,25.0315,(02)22528361,羅氏家用新冠病毒抗原自我檢測套組,64,2022/04/29 14:51:02,快篩17:30 販售謝謝
5931011161,全國藥局,新北市板橋區四川路１段２３１號,121.4601,25.00297,(02)29511212,羅氏家用新冠病毒抗原自我檢測套組,1,2022/04/29 14:51:02,健保口罩發放時間:星期一到星期六早上9:00~晚上10:00歡迎大家來領喔!
5931012051,全曜藥局,新北市板橋區民權路２６０巷６２號,121.4603,25.01495,(02)29682681,羅氏家用新冠病毒抗原自我檢測套組,75,2022/04/29 14:51:02,實聯快篩 19:30開始販賣 （星期日休）
5931013478,富盛藥局,新北市板橋區四維路２９１巷４弄２４號１樓,121.4622,25.02879,(02)22596016,羅氏家用新冠病毒抗原自我檢測套組,1,2022/04/29 14:51:02,每天下午3-6點準時販賣防疫口罩.售完為止
5931013781,佳和藥局,新北市板橋區文化路１段３８７巷５號１樓,121.4667,25.02193,(02)22589598,羅氏家用新冠病毒抗原自我檢測套組,35,2022/04/29 14:51:02,8:30-12:00／15:00-18:00／19:00-22:00
5931014439,旭全藥局,新北市板橋區金門街３３１號,121.4294,24.98582,(02)26860526,羅氏家用新冠病毒抗原自我檢測套組,4,2022/04/29 14:51:02,星期1~6上午9:30~10:30 星期天上午9:30~下午5:00
5931014555,廣益藥局,新北市板橋區自由路２１號,121.4654,25.02296,(02)22545726,羅氏家用新冠病毒抗原自我檢測套組,78,2022/04/29 14:51:02,禮拜二至禮拜日9:00開始領口罩，禮拜一發口罩休息 很抱歉
5931015301,利安中西藥局,新北市板橋區板新路１４３號,121.4702,25.01544,(02)29644745,羅氏家用新冠病毒抗原自我檢測套組,78,2022/04/29 14:51:02,快篩每日下午三點開賣
5931015605,僑中藥師藥局,新北市板橋區僑中１街１０２巷５弄１５號１樓,121.4439,25.01262,(02)29692547,羅氏家用新冠病毒抗原自我檢測套組,78,2022/04/29 14:51:02,無
5931015749,品品藥局,新北市板橋區中山路２段４０２號〈１樓〉,121.4827,25.02073,(02)29647917,羅氏家用新冠病毒抗原自我檢測套組,78,2022/04/29 14:51:02,星期六9:30-15:30.連假上班9:30-15:30（半天）快篩每日下午4點發.
5931015874,家碩藥局,新北市板橋區金門街３００號,121.4289,24.98539,(02)26755715,羅氏家用新冠病毒抗原自我檢測套組,1,2022/04/29 14:51:02,口罩9點發號碼牌和收健保卡.下午3點憑號碼牌領口罩和健保卡.星期日不發口罩
5931015981,立安中西藥局,新北市板橋區後埔街８３號１樓,121.4607,25.00523,(02)29582241,羅氏家用新冠病毒抗原自我檢測套組,25,2022/04/29 14:51:02,無
5931016577,廣泰藥師藥局,新北市板橋區館前西路１５０號１樓,121.4556,25.00843,(02)89698381,羅氏家用新冠病毒抗原自我檢測套組,78,2022/04/29 14:51:02,無
5931016611,民川藥局,新北市板橋區四川路１段９７號１樓,121.4598,25.00544,(02)29520090,羅氏家用新冠病毒抗原自我檢測套組,40,2022/04/29 14:51:02,星期一~星期六（早上9:00販售快篩38份下午3:00販售40份）
5931016808,正安健保藥局,新北市板橋區民族路２２４號（１樓）,121.4687,25.00733,(02)29526813,羅氏家用新冠病毒抗原自我檢測套組,78,2022/04/29 14:51:02,17時依現場順序開始販售快篩
5931017010,醫安藥局,新北市板橋區南雅南路１段１１號１樓及２樓,121.4565,25.00706,(02)29692588,羅氏家用新冠病毒抗原自我檢測套組,4,2022/04/29 14:51:02,無
5931017047,永欣藥師藥局,新北市板橋區龍興街４６號１樓,121.4433,25.00094,(02)29687120,羅氏家用新冠病毒抗原自我檢測套組,75,2022/04/29 14:51:02,無
5931017056,迦佰麗藥局,新北市板橋區南雅南路２段１１－２４號（１樓）,121.454,25.00184,(02)29648498,羅氏家用新冠病毒抗原自我檢測套組,73,2022/04/29 14:51:02,營業時間10:00-22:30 實名制快篩每日15:00開賣（星期日休息）
5931017289,板橋大樹藥局,新北市板橋區忠孝路２８號（１樓）,121.4603,25.00176,(02)29555551,羅氏家用新冠病毒抗原自我檢測套組,78,2022/04/29 14:51:02,快篩實名制，每天16:00開始販售，售完為止。
5931017369,軒源藥局,新北市板橋區信義路１６９號（１樓）,121.4589,24.99216,(02)29583995,羅氏家用新冠病毒抗原自我檢測套組,1,2022/04/29 14:51:02,周六晚與周日整天為休息時間。
5931017403,光澤醫美藥局,新北市板橋區四川路１段２１號（１樓）,121.4595,25.00689,(02)29551215,羅氏家用新冠病毒抗原自我檢測套組,65,2022/04/29 14:51:02,無
5931017494,佑全板橋四川藥局,新北市板橋區四川路１段４７１號１樓,121.4573,24.99744,(02)29559598,羅氏家用新冠病毒抗原自我檢測套組,70,2022/04/29 14:51:02,快篩販售時間：周一到周五1500開始，週六日公休，現場排隊
5931017618,新埔健保藥局,新北市板橋區自由路２號１樓,121.4654,25.02222,(02)22558878,羅氏家用新冠病毒抗原自我檢測套組,41,2022/04/29 14:51:02,無
5931017636,福澤藥局,新北市板橋區南雅南路１段８５號（１樓）,121.4556,25.00543,(02)29690013,羅氏家用新冠病毒抗原自我檢測套組,32,2022/04/29 14:51:02,口罩代售9:00-23:00
5931017654,葆康藥局,新北市板橋區四川路２段２４５巷３號（１樓）,121.4507,24.99346,(02)89678373,羅氏家用新冠病毒抗原自我檢測套組,81,2022/04/29 14:51:02,無
5931017752,泓泰藥局,新北市板橋區館前西路１４０號２樓,121.4563,25.0081,(02)29686559,羅氏家用新冠病毒抗原自我檢測套組,2,2022/04/29 14:51:02,無
5931017770,光環藥局,新北市板橋區光環路２段１６號１樓,121.4822,25.01476,(02)89520920,羅氏家用新冠病毒抗原自我檢測套組,4,2022/04/29 14:51:02,無
5931017789,明翠藥局,新北市板橋區四維路１４６、１４８號１、２樓,121.4651,25.02555,(02)22550201,羅氏家用新冠病毒抗原自我檢測套組,78,2022/04/29 14:51:02,快篩實名制，每天16:00開始販售，售完為止。
5931017805,利安藥師藥局,新北市板橋區南雅西路２段１１７號１樓、１１９號１樓,121.4524,25.01085,(02)29666951,羅氏家用新冠病毒抗原自我檢測套組,78,2022/04/29 14:51:02,快篩每日下午三點販售
5931017832,躍獅莒光藥局,新北市板橋區莒光路５８號１樓,121.4709,25.02421,(02)22556743,羅氏家用新冠病毒抗原自我檢測套組,78,2022/04/29 14:51:02,無
5931017841,莊敬健康人生藥局,新北市板橋區莊敬路８７號１樓,121.4728,25.02645,(02)22570028,羅氏家用新冠病毒抗原自我檢測套組,49,2022/04/29 14:51:02,實名快篩下午2:30發放號碼牌及販售
5931017912,社後藥局,新北市板橋區大仁街３９號（１樓）,121.4551,25.01661,(02)29665662,羅氏家用新冠病毒抗原自我檢測套組,78,2022/04/29 14:51:02,快篩實名制，每天16:00開始販售，售完為止。
5931017985,松柏藥局,新北市板橋區松柏街９４號（１樓）,121.4767,25.03065,(02)82585223,羅氏家用新冠病毒抗原自我檢測套組,78,2022/04/29 14:51:02,快篩實名制，每天16:00開始販售，售完為止。
5931017994,後埔藥局,新北市板橋區華興街９號（１樓）,121.459,25.00457,(02)89510306,羅氏家用新冠病毒抗原自我檢測套組,5,2022/04/29 14:51:02,（4／29今天已完售）目前暫定為早上0900發放快篩試劑號碼牌每天78份當天領取完畢
5931018026,莊敬藥局,新北市板橋區莊敬路１６３號（１樓）,121.4715,25.02456,(02)22551105,羅氏家用新冠病毒抗原自我檢測套組,78,2022/04/29 14:51:02,快篩實名制，每天16:00開始販售，售完為止。
5931018053,廣福健保藥局,新北市板橋區三民路１段７６號（１樓）,121.4793,25.02207,(02)29544288,羅氏家用新冠病毒抗原自我檢測套組,78,2022/04/29 14:51:02,實名制快篩每日下午16:00開始販售
5931018099,廣品藥局,新北市板橋區漢生西路８２號（１樓）,121.4628,25.01934,(02)22576880,羅氏家用新冠病毒抗原自我檢測套組,78,2022/04/29 14:51:02,無
5931018115,振昌藥局,新北市板橋區溪崑二街１４號１樓,121.4288,24.99175,(02)26862119,羅氏家用新冠病毒抗原自我檢測套組,78,2022/04/29 14:51:02,快篩實名制14:50發放號碼牌，15:00開始販售
5931018142,重慶藥局,新北市板橋區國慶路１２７號（１樓）,121.4608,24.99602,(02)29565586,羅氏家用新冠病毒抗原自我檢測套組,78,2022/04/29 14:51:02,快篩實名制，每天16:00開始販售，售完為止。
5931020848,吳廣隆藥局,新北市三重區長壽西街５－１號,121.498,25.06765,(02)29715020,羅氏家用新冠病毒抗原自我檢測套組,61,2022/04/29 14:51:02,每天下午2點開始販售防疫口罩
5931021023,義中藥局,新北市三重區大同北路１０７號,121.4942,25.06421,(02)29815088,羅氏家用新冠病毒抗原自我檢測套組,64,2022/04/29 14:51:02,無
5931022959,名成藥局,新北市三重區力行路１段１８２號,121.4819,25.0716,(02)29847828,羅氏家用新冠病毒抗原自我檢測套組,25,2022/04/29 14:51:02,快篩實名制，下午2點30開始領
5931023349,迪化藥局,新北市三重區中華路７７號,121.4836,25.06267,(02)29834445,羅氏家用新冠病毒抗原自我檢測套組,1,2022/04/29 14:51:02,無
5931023447,安泰藥局,新北市三重區正義北路３００－３號２樓,121.4953,25.06978,(02)89815379,羅氏家用新冠病毒抗原自我檢測套組,78,2022/04/29 14:51:02,5／2只有早上8:30--12:00營業下午.及晚上休息
5931023581,大重仁藥局,新北市三重區重新路５段５９２號１樓,121.4694,25.04539,(02)29958283,羅氏家用新冠病毒抗原自我檢測套組,78,2022/04/29 14:51:02,無
5931024515,陳藥局,新北市三重區三民街７７號,121.4858,25.06293,(02)29848601,羅氏家用新冠病毒抗原自我檢測套組,78,2022/04/29 14:51:02,實名快篩購買時間周一到五晚上7:30~9:00，週六下午4:00~5:30
5931024551,樂活處方箋藥局,新北市三重區中正北路９９號１樓,121.4897,25.06325,(02)29805182,羅氏家用新冠病毒抗原自我檢測套組,78,2022/04/29 14:51:02,10am-12am賣口罩
5931024588,陽光藥師藥局,新北市三重區三和路２段１８２號１樓,121.4987,25.06886,(02)29788120,羅氏家用新冠病毒抗原自我檢測套組,2,2022/04/29 14:51:02,無
5931024677,博愛藥局,新北市三重區三民街２２０號１樓,121.4803,25.06712,(02)29711606,羅氏家用新冠病毒抗原自我檢測套組,2,2022/04/29 14:51:02,無
5931025174,小林健保藥局,新北市三重區文化北路６１－１號１樓,121.4987,25.0663,(02)29763895,羅氏家用新冠病毒抗原自我檢測套組,37,2022/04/29 14:51:02,上午09:00開始販售防疫口罩，售完為止。
5931025192,榮康藥局,新北市三重區成功路８１號１樓,121.4886,25.05131,(02)29772723,羅氏家用新冠病毒抗原自我檢測套組,78,2022/04/29 14:51:02,無
5931025290,康新藥局,新北市三重區正義北路１８５號２樓,121.4964,25.06783,(02)29865982,羅氏家用新冠病毒抗原自我檢測套組,2,2022/04/29 14:51:02,實名制代售時段：下午2點到4點。請自備零錢，恕不找零。.
5931025567,閎安藥局,新北市三重區重新路２段８５號１樓、２樓,121.4962,25.06181,(02)29881968,羅氏家用新冠病毒抗原自我檢測套組,78,2022/04/29 14:51:02,每日皆執行調劑業務，口罩代售時間每日下午兩點開始至晚間十點
5931025610,大樹三重藥局,新北市三重區正義北路６６號１樓,121.4972,25.06415,(02)29713188,羅氏家用新冠病毒抗原自我檢測套組,77,2022/04/29 14:51:02,口罩販售時間：14:00 - 16:00
5931025692,杏一三重集成藥局,新北市三重區集成路４３號１樓,121.4893,25.05271,(02)29743410,羅氏家用新冠病毒抗原自我檢測套組,16,2022/04/29 14:51:02,每日下午三點販售口罩
5931025807,永福藥局,新北市三重區永福街３號１樓,121.4827,25.07837,(02)22861161,羅氏家用新冠病毒抗原自我檢測套組,58,2022/04/29 14:51:02,無
5931025843,專品先嗇宮藥局,新北市三重區光復路１段４７號１樓,121.4722,25.04874,(02)85124658,羅氏家用新冠病毒抗原自我檢測套組,62,2022/04/29 14:51:02,國定假日有提供藥劑業務
5931025870,宏安藥局,新北市三重區集美街１５８號１樓,121.4898,25.05306,(02)29785866,羅氏家用新冠病毒抗原自我檢測套組,73,2022/04/29 14:51:02,無
5931025914,仁美藥局,新北市三重區慈愛街５１號１、２樓,121.4861,25.07908,(02)22805150,羅氏家用新冠病毒抗原自我檢測套組,78,2022/04/29 14:51:02,快篩實名制，每天16:00開始販售，售完為止。
5931025932,永吉藥局,新北市三重區車路頭街９１號１樓,121.4844,25.07422,(02)22860432,羅氏家用新冠病毒抗原自我檢測套組,78,2022/04/29 14:51:02,快篩實名制，每天16:00開始販售，售完為止。
5931025950,美康三和藥局,新北市三重區三和路４段３２２號１、２樓,121.4841,25.07795,(02)22866858,羅氏家用新冠病毒抗原自我檢測套組,78,2022/04/29 14:51:02,無
5931025969,躍獅欣欣藥局,新北市三重區正義北路２３３號１樓,121.496,25.06915,(02)29816955,羅氏家用新冠病毒抗原自我檢測套組,78,2022/04/29 14:51:02,16:00開始販售實名制快篩，不發號碼牌
5931026000,佑全三重正義藥局,新北市三重區正義北路２０７號１、２樓、２０９號１、２樓,121.4962,25.06846,(02)29815341,羅氏家用新冠病毒抗原自我檢測套組,4,2022/04/29 14:51:02,快篩試劑14:00開賣，13:30排隊，13:50發號碼牌。
5931026064,五華春天生活藥局,新北市三重區五華街７３號１、２樓,121.4925,25.08291,(02)29876838,羅氏家用新冠病毒抗原自我檢測套組,78,2022/04/29 14:51:02,下午2點40發號碼牌，3點發快篩
5931026073,重陽藥局,新北市三重區重陽路４段３６、３８號１樓,121.4913,25.06975,(02)29880456,羅氏家用新冠病毒抗原自我檢測套組,78,2022/04/29 14:51:02,快篩實名制，每天16:00開始販售，售完為止。
5931026082,大有藥局,新北市三重區中正北路２１３號１、２樓及２１５號１、２樓,121.4763,25.07013,(02)29885771,羅氏家用新冠病毒抗原自我檢測套組,78,2022/04/29 14:51:02,快篩實名制，每天16:00開始販售，售完為止。
5931026091,重新藥局,新北市三重區重新路４段１２號１樓,121.4888,25.05775,(02)29742700,羅氏家用新冠病毒抗原自我檢測套組,78,2022/04/29 14:51:02,快篩實名制，每天16:00開始販售，售完為止。
5931032811,華特健康藥局,新北市永和區永貞路３６２號１樓,121.5102,25.00667,(02)29264391,羅氏家用新冠病毒抗原自我檢測套組,7,2022/04/29 14:51:02,無
5931033087,康宏安藥局,新北市永和區保福路２段７８號１樓,121.5106,25.01331,(02)29288118,羅氏家用新冠病毒抗原自我檢測套組,79,2022/04/29 14:51:02,無
5931033194,廣惠藥局,新北市永和區中正路６４９號２樓,121.5152,25.01007,(02)29290675,羅氏家用新冠病毒抗原自我檢測套組,1,2022/04/29 14:51:02,無
5931033201,級立健保藥局,新北市永和區保平路１３９號１樓,121.5102,25.00608,(02)29299995,羅氏家用新冠病毒抗原自我檢測套組,73,2022/04/29 14:51:02,快篩代售時間為下午15:00，週日不銷售
5931033523,永奕藥局,新北市永和區永平路２８６之１號１樓,121.5077,25.01208,(02)22327709,羅氏家用新冠病毒抗原自我檢測套組,2,2022/04/29 14:51:02,無
5931033890,康杏安藥局,新北市永和區保平路９９號１樓,121.5114,25.00686,(02)29298968,羅氏家用新冠病毒抗原自我檢測套組,78,2022/04/29 14:51:02,快篩14:50~14:55發號碼牌15:00開始販售
5931033961,永和大樹藥局,新北市永和區福和路１４３號１、２樓,121.5207,25.00766,(02)29233377,羅氏家用新冠病毒抗原自我檢測套組,78,2022/04/29 14:51:02,快篩實名制，每天16:00開始販售，售完為止。
5931034020,順和藥局,新北市永和區中正路７５號１樓,121.5149,24.99687,(02)86680362,羅氏家用新冠病毒抗原自我檢測套組,68,2022/04/29 14:51:02,無
5931034119,仁愛陽光藥局,新北市永和區仁愛路１４３號１樓,121.5114,25.01293,(02)89213691,羅氏家用新冠病毒抗原自我檢測套組,8,2022/04/29 14:51:02,快篩代售時段14:00，售完為止...
5931034146,亮點藥局,新北市永和區竹林路７１號１樓,121.5186,25.01355,(02)89253895,羅氏家用新冠病毒抗原自我檢測套組,78,2022/04/29 14:51:02,快篩發放時段 下午16:30-18:00
5931040242,天立藥局,新北市中和區莒光路１２２號,121.4724,25.00173,(02)29578831,羅氏家用新冠病毒抗原自我檢測套組,77,2022/04/29 14:51:02,於下午15:00憑健保卡（一人一卡）購買實名制快篩。
5931041061,裕壬藥局,新北市中和區新生街２０６、２０８號１樓,121.4836,24.99644,(02)32349358,羅氏家用新冠病毒抗原自我檢測套組,78,2022/04/29 14:51:02,快篩17:00領
5931043565,一安藥妝藥局,新北市中和區中和路９號１.２樓,121.4998,25.00221,(02)22483778,羅氏家用新冠病毒抗原自我檢測套組,76,2022/04/29 14:51:02,營業時間9:00~22:00
5931043627,銓家藥局,新北市中和區員山路３１９號１-２樓,121.4812,25.0006,(02)22257728,羅氏家用新冠病毒抗原自我檢測套組,78,2022/04/29 14:51:02,實名制快篩 下午3點販售 前15分鐘發號碼牌
5931043761,杏元藥局,新北市中和區員山路１７２號１樓,121.4814,24.99994,(02)22236868,羅氏家用新冠病毒抗原自我檢測套組,4,2022/04/29 14:51:02,快篩1400 發放，現場排隊。
5931043798,永成藥局,新北市中和區景平路１５６號１樓,121.5176,24.99222,(02)29407619,羅氏家用新冠病毒抗原自我檢測套組,78,2022/04/29 14:51:02,實名制快篩，下午三點領取號碼販售
5931043921,良安藥局,新北市中和區連城路４７７巷１號１樓,121.4833,24.99555,(02)22225798,羅氏家用新冠病毒抗原自我檢測套組,156,2022/04/29 14:51:02,週六日不開店
5931044204,康廷安藥局,新北市中和區大勇街１６號１樓,121.5173,24.99277,(02)86683599,羅氏家用新冠病毒抗原自我檢測套組,78,2022/04/29 14:51:02,快篩14:50~14:55發號碼牌.15:00開始販售
5931044375,藥聯藥師藥局,新北市中和區宜安路１４３號１樓,121.5092,24.99858,(02)29481198,羅氏家用新冠病毒抗原自我檢測套組,54,2022/04/29 14:51:02,無
5931044464,健暉藥局,新北市中和區連城路４８７號１樓,121.4829,24.99552,(02)22231437,羅氏家用新冠病毒抗原自我檢測套組,39,2022/04/29 14:51:02,實名快篩 早上10點 39份 ／ 晚上7點 39份 賣完為止
5931044802,皇秦大藥局,新北市中和區中山路３段３９之１號１樓,121.4777,25.00531,(02)22269636,羅氏家用新冠病毒抗原自我檢測套組,78,2022/04/29 14:51:02,快篩代售時間 ：３點開始
5931045041,大誠藥局,新北市中和區民享街８７號１樓,121.4744,25.00162,(02)22258394,羅氏家用新冠病毒抗原自我檢測套組,78,2022/04/29 14:51:02,實名制快篩 每日下午03:30開始販售
5931045130,四維藥局,新北市中和區四維街３７巷２號１樓,121.5124,24.98679,(02)86681345,羅氏家用新冠病毒抗原自我檢測套組,78,2022/04/29 14:51:02,快篩實名制，每天16:00開始販售，售完為止。
5931045309,杏一中和雙和藥局,新北市中和區圓通路２９５之３號１樓,121.4946,24.99191,(02)22436116,羅氏家用新冠病毒抗原自我檢測套組,78,2022/04/29 14:51:02,無
5931045425,千樂台安藥局,新北市中和區安樂路１０１之２號１、２樓及１０１之３號１、２樓,121.5134,24.99526,(02)29406029,羅氏家用新冠病毒抗原自我檢測套組,60,2022/04/29 14:51:02,無
5931045443,台昕藥局,新北市中和區復興路２５５號（１樓）,121.5032,24.9902,(02)22406080,羅氏家用新冠病毒抗原自我檢測套組,78,2022/04/29 14:51:02,無
5931045498,好意藥局,新北市中和區景新街４６７巷３號１樓,121.5136,24.98825,(02)89416598,羅氏家用新冠病毒抗原自我檢測套組,57,2022/04/29 14:51:02,無
5931051558,信龍大藥局,新北市新店區安康路２段５６號,121.515,24.96385,(02)22115533,羅氏家用新冠病毒抗原自我檢測套組,78,2022/04/29 14:51:02,無
5931052215,三民藥局,新北市新店區三民路７８號１樓－１,121.5348,24.97257,(02)89146301,羅氏家用新冠病毒抗原自我檢測套組,2,2022/04/29 14:51:02,無
5931052313,欣康藥局,新北市新店區中正路２９３號１樓,121.5372,24.97449,(02)89113189,羅氏家用新冠病毒抗原自我檢測套組,5,2022/04/29 14:51:02,快篩試劑，下午一點販售
5931052608,佑成藥局,新北市新店區民權路１０１號１樓,121.537,24.98281,(02)86673537,羅氏家用新冠病毒抗原自我檢測套組,78,2022/04/29 14:51:02,無
5931052724,合康大藥局,新北市新店區中正路２６３－２號１樓,121.5384,24.97367,(02)29109888,羅氏家用新冠病毒抗原自我檢測套組,2,2022/04/29 14:51:02,上午 8:30 至 晚上 10:30
5931052751,新康藥局,新北市新店區北新路１段１９５號１樓、２樓,121.5402,24.9648,(02)29178179,羅氏家用新冠病毒抗原自我檢測套組,30,2022/04/29 14:51:02,無
5931052920,碧潭大藥局,新北市新店區碧潭路４１號１樓,121.5342,24.95642,(02)22112271,羅氏家用新冠病毒抗原自我檢測套組,78,2022/04/29 14:51:02,快篩販售時間:下午3點起發放號碼牌，現場開始販售
5931053070,美康中正藥局,新北市新店區中正路２１５號１、２樓,121.5397,24.97284,(02)29112669,羅氏家用新冠病毒抗原自我檢測套組,10,2022/04/29 14:51:02,快篩 1430-2200 唷~
5931053132,康宜庭碧潭藥局,新北市新店區北宜路１段４１號１樓,121.5384,24.95726,(02)29186266,羅氏家用新冠病毒抗原自我檢測套組,3,2022/04/29 14:51:02,無
5931053203,巧新藥局,新北市新店區北宜路１段８４號１樓,121.5386,24.9556,(02)29183565,羅氏家用新冠病毒抗原自我檢測套組,60,2022/04/29 14:51:02,15:00開放領取快篩
5931053310,安和藥局,新北市新店區安和路３段１３７號１樓,121.517,24.9853,(02)86685309,羅氏家用新冠病毒抗原自我檢測套組,2,2022/04/29 14:51:02,111年春節連假期間1／31-2／4不營業
5931053365,十二願藥局,新北市新店區中正路６８２號１樓,121.5341,24.98998,(02)22181899,羅氏家用新冠病毒抗原自我檢測套組,3,2022/04/29 14:51:02,無
5931053383,大豐藥局,新北市新店區北新路３段５３號之１（１樓）,121.5417,24.9807,(02)89113196,羅氏家用新冠病毒抗原自我檢測套組,8,2022/04/29 14:51:02,無
5931060619,蘇藥局,新北市新莊區中平路６巷３７號,121.446,25.04284,(02)29917818,羅氏家用新冠病毒抗原自我檢測套組,76,2022/04/29 14:51:02,販售口罩時間  固定周1~周6 下午4點發放號碼牌並依序販售口罩  售完為止  6點以前未領取口罩 號碼牌作廢
5931060824,禮安藥師藥局,新北市新莊區自立街１０９號１樓,121.4555,25.0455,(02)29942891,羅氏家用新冠病毒抗原自我檢測套組,55,2022/04/29 14:51:02,無
5931067136,蒲陽藥局,新北市新莊區中港路５１４號,121.4518,25.05187,(02)29930069,羅氏家用新冠病毒抗原自我檢測套組,2,2022/04/29 14:51:02,無
5931067216,鍵豐藥局,新北市新莊區中和街１５８號１樓,121.4474,25.04878,(02)29917452,羅氏家用新冠病毒抗原自我檢測套組,39,2022/04/29 14:51:02,無
5931068464,健安藥局,新北市新莊區光和里民安西路２０９號１樓,121.4261,25.0147,(02)22043765,羅氏家用新冠病毒抗原自我檢測套組,2,2022/04/29 14:51:02,無
5931068819,東京大藥局,新北市新莊區民安路１７６號１樓,121.4251,25.02392,(02)22063806,羅氏家用新冠病毒抗原自我檢測套組,80,2022/04/29 14:51:02,口罩代售時間為9:30開始現場排隊販售
5931068991,新莊健業藥局,新北市新莊區昌平街３７號１樓至２樓,121.4547,25.05221,(02)22798808,羅氏家用新冠病毒抗原自我檢測套組,3,2022/04/29 14:51:02,快篩實名制下午三點開始販售
5931069372,羽豐藥局,新北市新莊區新莊路３８２號１樓,121.4491,25.03355,(02)22029812,羅氏家用新冠病毒抗原自我檢測套組,156,2022/04/29 14:51:02,不用過卡的醫療口罩整天有，過健保卡口罩限每早9:30至11:40
5931069425,國安藥局,新北市新莊區中和街１５５巷６號１樓,121.4472,25.04979,(02)29938003,羅氏家用新冠病毒抗原自我檢測套組,27,2022/04/29 14:51:02,無
5931069498,新杏藥局,新北市新莊區新泰路９９號１樓,121.449,25.03497,(02)22011012,羅氏家用新冠病毒抗原自我檢測套組,78,2022/04/29 14:51:02,固定週一至週日15:00開始發放號碼牌並依序販售口罩，售完為止。
5931069505,陽光連鎖藥局,新北市新莊區中信街４０號１樓,121.4498,25.05089,(02)22774300,羅氏家用新冠病毒抗原自我檢測套組,49,2022/04/29 14:51:02,周一到週六下午兩點半至六點販賣口罩
5931069765,健業藥妝藥局,新北市新莊區中和街１３０號１樓,121.4475,25.04809,(02)22796279,羅氏家用新冠病毒抗原自我檢測套組,78,2022/04/29 14:51:02,口罩販售資訊:下午3點~11點販售
5931069792,宏泰藥局,新北市新莊區自信街３７號１樓,121.4543,25.04863,(02)29964649,羅氏家用新冠病毒抗原自我檢測套組,37,2022/04/29 14:51:02,無
593106A039,大仁藥局,新北市新莊區公園一路３２號１樓,121.4435,25.03531,(02)22776023,羅氏家用新冠病毒抗原自我檢測套組,78,2022/04/29 14:51:02,口罩販售時間:週一至週五（14:00~16:00）週六、週日（公休）。5／1，5／2公休。
593106A093,環球藥局,新北市新莊區中港路４３６號１、２樓,121.452,25.05105,(02)29901934,羅氏家用新冠病毒抗原自我檢測套組,78,2022/04/29 14:51:02,營業時間8-23，全年無休
593106A388,元大藥局,新北市新莊區富國路２０４號１、２樓,121.4249,25.02427,(02)22020082,羅氏家用新冠病毒抗原自我檢測套組,1,2022/04/29 14:51:02,無
593106A566,一心春天藥局,新北市新莊區中和街１３號１樓、地下室,121.4481,25.04342,(02)89929482,羅氏家用新冠病毒抗原自我檢測套組,70,2022/04/29 14:51:02,每日下午3:00開始販售實名制快篩（14:40發號碼牌）
593106A600,全鎵藥局,新北市新莊區建中街２２號１樓,121.4493,25.03766,(02)22761550,羅氏家用新冠病毒抗原自我檢測套組,78,2022/04/29 14:51:02,無
593106A637,薇妮藥妝藥局,新北市新莊區民安路９９號１樓,121.4245,25.02524,(02)82010817,羅氏家用新冠病毒抗原自我檢測套組,11,2022/04/29 14:51:02,早上09:00發號碼牌，憑號碼牌限當日領取
593106A726,良和健保藥局,新北市新莊區龍安路４９號１樓,121.4158,25.02151,(02)29048157,羅氏家用新冠病毒抗原自我檢測套組,78,2022/04/29 14:51:02,口罩：早上9點發號碼牌，星期六休息不代售口罩
593106A824,家禾藥局,新北市新莊區立信五街６號１樓,121.4445,25.05148,(02)29972121,羅氏家用新冠病毒抗原自我檢測套組,39,2022/04/29 14:51:02,無
593106A931,建安藥局,新北市新莊區建安街１１７號、１１９號１樓,121.4262,25.02406,(02)22051969,羅氏家用新冠病毒抗原自我檢測套組,78,2022/04/29 14:51:02,快篩實名制，每天16:00開始販售，售完為止。
593106A977,丹鳳藥局,新北市新莊區中正路７４５、７４７號（１樓）,121.4227,25.0288,(02)29065755,羅氏家用新冠病毒抗原自我檢測套組,78,2022/04/29 14:51:02,快篩實名制，每天16:00開始販售，售完為止。
593106A995,美德心藥局,新北市新莊區中平路３６７號１樓,121.4446,25.05226,(02)29989025,羅氏家用新冠病毒抗原自我檢測套組,7,2022/04/29 14:51:02,無
593106B027,樂福藥局,新北市新莊區幸福路４８號１樓、幸福路６４巷２弄１６號１樓,121.4577,25.04953,(02)29923388,羅氏家用新冠病毒抗原自我檢測套組,61,2022/04/29 14:51:02,快篩每日上午11點發放號碼牌 下午2:30開始依號碼牌時間領取下午有庫存因為號碼牌沒來拿
593106B036,家嘉藥局,新北市新莊區自立街１０３號（１樓）,121.4553,25.04549,(02)89926488,羅氏家用新冠病毒抗原自我檢測套組,22,2022/04/29 14:51:02,無
593106B072,小林健保藥局,新北市新莊區昌明街３８之１號１樓,121.4565,25.05237,(02)29911764,羅氏家用新冠病毒抗原自我檢測套組,78,2022/04/29 14:51:02,無
593106B107,大樹新莊藥局,新北市新莊區新泰路５９號１樓、２樓,121.4494,25.03405,(02)22010566,羅氏家用新冠病毒抗原自我檢測套組,78,2022/04/29 14:51:02,快篩實名制，每天16:00開始販售，售完為止。
593106B189,美康頭前藥局,新北市新莊區化成路３７３之５號１樓,121.4412,25.03785,(02)85219638,羅氏家用新冠病毒抗原自我檢測套組,38,2022/04/29 14:51:02,無
593106B205,藥師佛藥局,新北市新莊區中正路８８１之４號１樓,121.4175,25.02544,(02)29016625,羅氏家用新冠病毒抗原自我檢測套組,78,2022/04/29 14:51:02,快篩晚上七點開賣78盒!中午快篩已售完！不用再打來問了！
593106B241,善美藥局,新北市新莊區公園路８９號１樓,121.4546,25.04041,(02)29960979,羅氏家用新冠病毒抗原自我檢測套組,1,2022/04/29 14:51:02,無
593106B296,廣元藥局,新北市新莊區雙鳳路２號（１樓）,121.4175,25.02688,(02)29044948,羅氏家用新冠病毒抗原自我檢測套組,19,2022/04/29 14:51:02,無
593106B321,大樹幸福藥局,新北市新莊區幸福路６７２號１樓,121.4509,25.0493,(02)29981066,羅氏家用新冠病毒抗原自我檢測套組,78,2022/04/29 14:51:02,快篩實名制，每天16:00開始販售，售完為止。
593106B330,和昌藥局,新北市新莊區中安街１５號１樓,121.4531,25.04585,(02)29900669,羅氏家用新冠病毒抗原自我檢測套組,156,2022/04/29 14:51:02,無
593106B349,騰康藥局,新北市新莊區富國路１８４號１樓,121.4245,25.02446,(02)26793069,羅氏家用新冠病毒抗原自我檢測套組,7,2022/04/29 14:51:02,無
5931070062,鴻真藥局,新北市樹林區保安街１段２０巷６號,121.4277,24.99363,(02)26828977,羅氏家用新冠病毒抗原自我檢測套組,1,2022/04/29 14:51:02,無
5931070419,暉民西藥局,新北市樹林區千歲街３６號,121.4257,24.99661,(02)26835868,羅氏家用新冠病毒抗原自我檢測套組,12,2022/04/29 14:51:02,週一至週六早上08:00開始發號碼牌.13:00販賣實名制快篩.售完即貼公告告知.
5931071658,大慶藥局,新北市樹林區鎮前街４２－１號,121.4258,24.99271,(02)26759212,羅氏家用新冠病毒抗原自我檢測套組,78,2022/04/29 14:51:02,無
5931071916,立欣藥局,新北市樹林區三福街１６６號,121.4047,25.01619,(02)26764728,羅氏家用新冠病毒抗原自我檢測套組,23,2022/04/29 14:51:02,口罩代售時間 每日下午14:30 號碼牌發放時間14:20 現場排隊
5931071970,保康藥局,新北市樹林區保安街１段３６４號,121.4176,24.99856,(02)86875503,羅氏家用新冠病毒抗原自我檢測套組,76,2022/04/29 14:51:02,無
5931072217,樹林健業藥局,新北市樹林區東華街８９號１樓,121.4159,24.98048,(02)86851736,羅氏家用新冠病毒抗原自我檢測套組,78,2022/04/29 14:51:02,無
5931072422,三樹食在好健康藥局,新北市樹林區學成路６００號１樓,121.3818,24.94584,(02)26807101,羅氏家用新冠病毒抗原自我檢測套組,78,2022/04/29 14:51:02,無
5931072431,樹林大樹藥局,新北市樹林區育英街５４號１－２樓,121.4213,24.98928,(02)26815488,羅氏家用新冠病毒抗原自我檢測套組,78,2022/04/29 14:51:02,快篩實名制，每天16:00開始販售，售完為止。
5931072520,世淇健保藥局,新北市樹林區復興路５０號１樓,121.4221,24.99391,(02)26842255,羅氏家用新冠病毒抗原自我檢測套組,2,2022/04/29 14:51:02,無
5931072575,永賀藥局,新北市樹林區中山路１段１２７號１樓,121.4227,24.99003,(02)26815801,羅氏家用新冠病毒抗原自我檢測套組,1,2022/04/29 14:51:02,無
5931081289,唯新示範藥局,新北市鶯歌區建國路１６１號１樓,121.3503,24.95345,(02)86775363,羅氏家用新冠病毒抗原自我檢測套組,76,2022/04/29 14:51:02,實名制快篩購買時段下午2:50-4:00
5931081332,祐兒藥局,新北市鶯歌區南鶯里建國路１７１號１樓,121.35,24.9534,(02)86781907,羅氏家用新冠病毒抗原自我檢測套組,1,2022/04/29 14:51:02,無
5931081378,鶯歌宏達藥局,新北市鶯歌區國慶街１３８號１樓,121.3508,24.95347,(02)26709693,羅氏家用新冠病毒抗原自我檢測套組,78,2022/04/29 14:51:02,口罩發放時間下午2-4點，人力不足其他時段沒辦法供應
5931081396,祐康藥局,新北市鶯歌區建國路３６號,121.356,24.95596,(02)26771223,羅氏家用新冠病毒抗原自我檢測套組,156,2022/04/29 14:51:02,快篩代售時段:星期一&四 上午8:30~9:30；星期二三五六 下午3:00~4:00；星期日公休。
5931081403,純安大藥局,新北市鶯歌區國慶街１７９號１樓,121.3514,24.9527,(02)26791791,羅氏家用新冠病毒抗原自我檢測套組,78,2022/04/29 14:51:02,快篩代售時間:20:00販售。星期日不銷售
5931081458,食在好健康藥局,新北市鶯歌區國慶街１６５號１樓,121.3512,24.95312,(02)26702559,羅氏家用新冠病毒抗原自我檢測套組,110,2022/04/29 14:51:02,實名制快篩販賣時間週一到週四19:00~20:00
5931081510,鶯歌藥局,新北市鶯歌區鶯桃路２段１１號１樓,121.3258,24.97205,(02)86778778,羅氏家用新冠病毒抗原自我檢測套組,78,2022/04/29 14:51:02,口罩販售時間：14:00 - 16:00
5931081547,信義健保藥局,新北市鶯歌區信義街６３號１樓,121.3534,24.95571,(02)86775563,羅氏家用新冠病毒抗原自我檢測套組,78,2022/04/29 14:51:02,無
5931091623,兆康藥局,新北市三峽區中華路２２號１樓,121.3742,24.93265,(02)26717875,羅氏家用新冠病毒抗原自我檢測套組,40,2022/04/29 14:51:02,無
5931091865,大新藥局,新北市三峽區大義路２５９號１樓,121.3774,24.94638,(02)86713204,羅氏家用新冠病毒抗原自我檢測套組,78,2022/04/29 14:51:02,實名制快篩 下午2:50發號碼牌  下午3；00販售 售完為止
5931091892,三峽藥局,新北市三峽區介壽路１段２７號１樓,121.3757,24.93321,(02)26738868,羅氏家用新冠病毒抗原自我檢測套組,78,2022/04/29 14:51:02,快篩實名制，每天16:00開始販售，售完為止。
5931092111,立雅藥局,新北市三峽區文化路８４號（１樓）,121.3719,24.93627,(02)26712601,羅氏家用新冠病毒抗原自我檢測套組,1,2022/04/29 14:51:02,無
5931092200,金美藥局,新北市三峽區大同路２３８號１樓,121.3663,24.92573,(02)86715859,羅氏家用新冠病毒抗原自我檢測套組,156,2022/04/29 14:51:02,無
5931092219,北大藥局,新北市三峽區大義路９號１樓,121.3788,24.94372,(02)26738535,羅氏家用新冠病毒抗原自我檢測套組,39,2022/04/29 14:51:02,快篩發放時段下午1點-2點 晚上9:30-11:00
5931100047,松和大藥局,新北市淡水區英專路９２號,121.4459,25.17167,(02)26203698,羅氏家用新冠病毒抗原自我檢測套組,2,2022/04/29 14:51:02,口罩代售時間自12:00  無發放號碼牌
5931100154,尚運藥局,新北市淡水區學府路５１巷１弄２０號,121.4473,25.16892,(02)26225149,羅氏家用新冠病毒抗原自我檢測套組,98,2022/04/29 14:51:02,無
5931101633,吉利安健保藥師藥局,新北市淡水區中山北路１段１００號１樓,121.4426,25.17639,(02)26295693,羅氏家用新冠病毒抗原自我檢測套組,18,2022/04/29 14:51:02,無
5931101919,優德仕藥局,新北市淡水區新市一路３段１０３號,121.4464,25.18314,(02)26236573,羅氏家用新冠病毒抗原自我檢測套組,78,2022/04/29 14:51:02,口罩代售時間自11:00~22:00
5931101955,伯宇藥局,新北市淡水區新春街１０３號－８,121.4401,25.1823,(02)26236006,羅氏家用新冠病毒抗原自我檢測套組,17,2022/04/29 14:51:02,實名制快篩14:30開始販售
5931102103,四季寶健保藥局,新北市淡水區新市一路３段１１７－１號（含夾層）,121.4468,25.18314,(02)26283199,羅氏家用新冠病毒抗原自我檢測套組,78,2022/04/29 14:51:02,無
5931102229,貝比爾藥局,新北市淡水區中山北路１段１７１號１樓,121.4435,25.17787,(02)26261577,羅氏家用新冠病毒抗原自我檢測套組,78,2022/04/29 14:51:02,無
5931102372,日揚藥局,新北市淡水區民族路３０巷５號,121.4612,25.13623,(02)26242059,羅氏家用新冠病毒抗原自我檢測套組,1,2022/04/29 14:51:02,無
5931102407,躍獅淡水長照藥局,新北市淡水區學府路７７號１樓,121.4484,25.17003,(02)26295603,羅氏家用新冠病毒抗原自我檢測套組,78,2022/04/29 14:51:02,無
5931102434,西雅圖聯合藥局,新北市淡水區新市一路３段１０１巷１６弄２０號１樓,121.4471,25.18403,(02)26200910,羅氏家用新冠病毒抗原自我檢測套組,74,2022/04/29 14:51:02,快篩試劑販售時間:於下午2點30分依排隊順序發號碼牌、下午3點販售。
5931102452,池慶藥局,新北市淡水區中山北路２段５號１樓,121.4443,25.18344,(02)26238852,羅氏家用新冠病毒抗原自我檢測套組,78,2022/04/29 14:51:02,快篩販售14:50到16:00
5931102461,淡水藥局,新北市淡水區中山路１２７號（１、２樓）,121.4414,25.17107,(02)86313663,羅氏家用新冠病毒抗原自我檢測套組,78,2022/04/29 14:51:02,快篩實名制，每天16:00開始販售，售完為止。
5931102489,水源藥局,新北市淡水區水源街１段１３３號１樓,121.447,25.172,(02)26295233,羅氏家用新冠病毒抗原自我檢測套組,78,2022/04/29 14:51:02,快篩實名制，每天16:00開始販售，售完為止。
5931110034,麒豐藥局,新北市汐止區樟樹一路１３５巷２號,121.6421,25.0656,(02)26434737,羅氏家用新冠病毒抗原自我檢測套組,78,2022/04/29 14:51:02,實名制口罩銷售時間9:30~21:00
5931112047,吉安康健保藥師藥局,新北市汐止區宜興街１１號１樓,121.6213,25.0416,(02)26405881,羅氏家用新冠病毒抗原自我檢測套組,78,2022/04/29 14:51:02,營業時間以現場公告為主
5931112083,裕和藥局,新北市汐止區宜興街４號１樓,121.6211,25.04126,(02)26609119,羅氏家用新冠病毒抗原自我檢測套組,76,2022/04/29 14:51:02,早上9.30-晚上9.00領實名制口罩時間
5931112136,汐芷藥局,新北市汐止區福德一路２５５號,121.6335,25.06447,(02)26924087,羅氏家用新冠病毒抗原自我檢測套組,28,2022/04/29 14:51:02,無
5931112234,安泰藥局,新北市汐止區連興街１１４號１樓,121.6537,25.06284,(02)26488486,羅氏家用新冠病毒抗原自我檢測套組,76,2022/04/29 14:51:02,實名制快篩每天下午5點開始作業，現場排隊不發號碼牌
5931112270,汐心藥局,新北市汐止區福德一路１５０號,121.6366,25.06687,(02)86932859,羅氏家用新冠病毒抗原自我檢測套組,1,2022/04/29 14:51:02,實名制快篩9:00開始販售，現場排隊
5931112690,國升藥局,新北市汐止區建成路５９巷１號１樓,121.6618,25.0732,(02)26419459,羅氏家用新冠病毒抗原自我檢測套組,78,2022/04/29 14:51:02,無
5931113071,蒲公英藥局,新北市汐止區連興街１２６號（１樓）,121.6538,25.06188,(02)26907770,羅氏家用新冠病毒抗原自我檢測套組,78,2022/04/29 14:51:02,實名制快篩銷售時間:下午17:00-19:00（無發放號碼牌）
5931113115,躍獅大同藥局,新北市汐止區新興路７號１樓,121.6565,25.06493,(02)26418399,羅氏家用新冠病毒抗原自我檢測套組,78,2022/04/29 14:51:02,每日15:30發放號碼牌販售實名制快篩
5931113133,祐欣藥局,新北市汐止區中興路２４０號１樓,121.6296,25.06805,(02)26950778,羅氏家用新冠病毒抗原自我檢測套組,1,2022/04/29 14:51:02,實名制快篩-每日早上9點開始發放號碼牌，發完78張號碼即=售完!! 請不要看帳面庫存!!
5931113160,社后藥局,新北市汐止區康寧街４２４號１樓,121.6307,25.06801,(02)26956321,羅氏家用新冠病毒抗原自我檢測套組,78,2022/04/29 14:51:02,快篩實名制，每天16:00開始販售，售完為止。
5931113188,汐止藥局,新北市汐止區福德二路７０號１樓,121.6331,25.06651,(02)86932587,羅氏家用新冠病毒抗原自我檢測套組,78,2022/04/29 14:51:02,無
5931121279,大埔藥局,新北市瑞芳區大埔路１２８－３號１樓,121.762,25.10079,(02)24587020,羅氏家用新冠病毒抗原自我檢測套組,9,2022/04/29 14:51:02,無
5931121466,瑞芳藥局,新北市瑞芳區明燈路３段５９之１及５９之２號,121.8057,25.10812,(02)24966588,羅氏家用新冠病毒抗原自我檢測套組,78,2022/04/29 14:51:02,快篩實名制，每天16:00開始販售，售完為止。
5931130205,瑞益藥局,新北市土城區廣明街６３巷４號,121.4546,24.99356,(02)89668598,羅氏家用新冠病毒抗原自我檢測套組,1,2022/04/29 14:51:02,9:30開始賣快篩
5931131908,璨鴻藥局,新北市土城區延和路１９１號,121.4692,24.99035,(02)82622588,羅氏家用新冠病毒抗原自我檢測套組,78,2022/04/29 14:51:02,無
5931132245,萬昌健保藥局,新北市土城區中央路４段１６０號,121.417,24.95827,(02)22678057,羅氏家用新冠病毒抗原自我檢測套組,73,2022/04/29 14:51:02,3月2日起周一至周五15:00發號碼牌及販賣口罩  周六 10:00直接販售
5931132263,立新藥局,新北市土城區光明街５號１樓,121.4421,24.97475,(02)82626111,羅氏家用新冠病毒抗原自我檢測套組,78,2022/04/29 14:51:02,無
5931132343,誠安藥局,新北市土城區中央路４段３６號１樓,121.4207,24.96088,(02)22677737,羅氏家用新冠病毒抗原自我檢測套組,76,2022/04/29 14:51:02,執業時段請電洽藥局
5931132950,美康藥妝藥局,新北市土城區延吉街２５４號１樓,121.4664,24.98465,(02)22616868,羅氏家用新冠病毒抗原自我檢測套組,77,2022/04/29 14:51:02,無
5931133019,學府松藥局,新北市土城區學府路一段３８號１、２樓,121.458,24.98854,(02)82628665,羅氏家用新冠病毒抗原自我檢測套組,30,2022/04/29 14:51:02,實名制快篩:每日14:30-17:00販售，4／30-5／2未被配送快篩，暫停販售3日。
5931133064,城康藥局,新北市土城區中央路２段２號１、２樓,121.4429,24.98091,(02)22628171,羅氏家用新冠病毒抗原自我檢測套組,78,2022/04/29 14:51:02,無
5931133126,成康藥局,新北市土城區學府路１段１８８號１樓,121.4532,24.98614,(02)22706596,羅氏家用新冠病毒抗原自我檢測套組,2,2022/04/29 14:51:02,春節期間看診時段請電洽
5931133331,城安大藥局,新北市土城區金城路３段４０號,121.4656,24.98639,(02)22646561,羅氏家用新冠病毒抗原自我檢測套組,41,2022/04/29 14:51:02,無
5931133500,菩提藥局,新北市土城區延和路１１４號１樓,121.4673,24.98988,(02)22624866,羅氏家用新冠病毒抗原自我檢測套組,78,2022/04/29 14:51:02,無
5931133546,宏林保健藥局,新北市土城區裕民路１３４號（１樓）,121.4515,24.98622,(02)82615919,羅氏家用新冠病毒抗原自我檢測套組,2,2022/04/29 14:51:02,無
5931133591,土城人藥局,新北市土城區中央路２段２１３巷２號１樓,121.4413,24.97392,(02)22705068,羅氏家用新冠病毒抗原自我檢測套組,78,2022/04/29 14:51:02,無
5931133644,貓頭鷹藥妝藥局,新北市土城區中央路３段８８、９０號１樓,121.4361,24.96702,(02)22695659,羅氏家用新冠病毒抗原自我檢測套組,7,2022/04/29 14:51:02,無
5931133662,中央藥局,新北市土城區中央路２段８４、８６號（１樓）,121.4423,24.97885,(02)22630345,羅氏家用新冠病毒抗原自我檢測套組,78,2022/04/29 14:51:02,快篩實名制，每天16:00開始販售，售完為止。
5931133671,升立藥局,新北市土城區明德路２段１９５號１樓,121.4471,24.98333,(02)22605158,羅氏家用新冠病毒抗原自我檢測套組,37,2022/04/29 14:51:02,無
5931133680,土城金城藥局,新北市土城區裕民路２８０號１、２樓,121.4554,24.982,(02)22631616,羅氏家用新冠病毒抗原自我檢測套組,78,2022/04/29 14:51:02,快篩實名制，每天16:00開始販售，售完為止。
5931141726,松展多利日式連鎖藥粧藥局,新北市蘆洲區民族路１６１號,121.4793,25.08817,(02)22882586,羅氏家用新冠病毒抗原自我檢測套組,18,2022/04/29 14:51:02,防疫物資每日下午02:00開始販售
5931141860,北聯藥局,新北市蘆洲區民族路４５６號１樓,121.4722,25.09197,(02)82866873,羅氏家用新冠病毒抗原自我檢測套組,34,2022/04/29 14:51:02,無
5931142296,蓁美健康藥局,新北市蘆洲區九芎街９０巷２１號,121.4647,25.08116,(02)22827527,羅氏家用新冠病毒抗原自我檢測套組,4,2022/04/29 14:51:02,上午10點至晚上10點銷售口罩
5931142778,芯聯藥局,新北市蘆洲區民族路２１０號,121.4798,25.08763,(02)82866803,羅氏家用新冠病毒抗原自我檢測套組,12,2022/04/29 14:51:02,無
5931142858,愛佳健保藥局,新北市蘆洲區長榮路７５號１樓,121.462,25.08364,(02)22825835,羅氏家用新冠病毒抗原自我檢測套組,78,2022/04/29 14:51:02,每日上午08:00開始販售實名制口罩（防疫口罩），售完為止。
5931143257,德康藥局,新北市蘆洲區長榮路１３２號１樓,121.4616,25.08454,(02)82851022,羅氏家用新冠病毒抗原自我檢測套組,2,2022/04/29 14:51:02,無
5931143275,集賢藥局,新北市蘆洲區信義路２２２巷６１號１、２樓,121.4813,25.08535,(02)22882400,羅氏家用新冠病毒抗原自我檢測套組,78,2022/04/29 14:51:02,快篩實名制，每天16:00開始販售，售完為止。
5931143284,宥安藥局,新北市蘆洲區長榮路３８１號２樓,121.4592,25.08947,(02)22823556,羅氏家用新冠病毒抗原自我檢測套組,29,2022/04/29 14:51:02,無
5931143319,大樹長榮藥局,新北市蘆洲區長榮路６１、６１－１號１樓,121.4624,25.0833,(02)28480567,羅氏家用新冠病毒抗原自我檢測套組,78,2022/04/29 14:51:02,快篩實名制，每天16:00開始販售，售完為止。
5931151302,宏安藥局,新北市五股區成泰路２段１３６號,121.4382,25.08369,(02)22915932,羅氏家用新冠病毒抗原自我檢測套組,78,2022/04/29 14:51:02,口罩販售時間:每日08:15~23:00售完為止 星期日如果前一日還有庫存，當日照常販售
5931151713,五股藥局,新北市五股區成泰路１段２３５之２號（１樓）,121.4363,25.07968,(02)22951150,羅氏家用新冠病毒抗原自我檢測套組,78,2022/04/29 14:51:02,快篩實名制，每天16:00開始販售，售完為止。
5931161460,紅葉藥局,新北市泰山區楓江路８號２樓,121.4335,25.06244,(02)22960328,羅氏家用新冠病毒抗原自我檢測套組,1,2022/04/29 14:51:02,無
5931161513,苗園健保特約藥局,新北市泰山區仁愛路９２號１樓,121.4331,25.05534,(02)22970736,羅氏家用新冠病毒抗原自我檢測套組,5,2022/04/29 14:51:02,每日下午兩點開始販售，每日限量70組，另8組供給醫護警消第一線人員及居家隔離之緊急狀況使用
5931161620,華特藥局,新北市泰山區明志路１段２６０號１樓,121.4321,25.06052,(02)29095662,羅氏家用新冠病毒抗原自我檢測套組,78,2022/04/29 14:51:02,實名制晚上7:00開始販售 每日限60組，另18組供給確診居家個案緊急使用
5931171251,喜樂藥師藥局,新北市林口區麗林里公園路１５號１樓,121.3665,25.06762,(02)26005566,羅氏家用新冠病毒抗原自我檢測套組,1,2022/04/29 14:51:02,快篩實名制，每天14:00開始販售，售完為止
5931171340,家欣藥師藥局,新北市林口區文化二路１段５６７號１樓,121.3748,25.0777,(02)26025368,羅氏家用新冠病毒抗原自我檢測套組,78,2022/04/29 14:51:02,無
5931171411,康旭藥局,新北市林口區麗園一街６巷９號１樓－３,121.3751,25.07145,(02)26007808,羅氏家用新冠病毒抗原自我檢測套組,31,2022/04/29 14:51:02,口罩販賣時間：星期一到星期六08:00-17:30，售完為止。（星期日暫停販售）
5931171671,欣穎藥局,新北市林口區文化二路１段５３５號１樓,121.3843,25.0829,(02)26069786,羅氏家用新冠病毒抗原自我檢測套組,75,2022/04/29 14:51:02,實名制快篩:下午3點-5點。只收紙鈔。周日公休
5931171680,一家好藥局,新北市林口區中山路５００號,121.3794,25.08303,(02)26028270,羅氏家用新冠病毒抗原自我檢測套組,78,2022/04/29 14:51:02,無
5931171706,榮新藥局,新北市林口區忠孝路３８３號１樓,121.3695,25.0713,(02)26089789,羅氏家用新冠病毒抗原自我檢測套組,78,2022/04/29 14:51:02,快篩發放時間  14:50發放號碼牌下午15:00開賣（直至賣完）
5931171724,林康藥局,新北市林口區文化二路１段２２２號１樓,121.3695,25.07226,(02)26088869,羅氏家用新冠病毒抗原自我檢測套組,1,2022/04/29 14:51:02,無
5931171813,力行藥局,新北市林口區文化３路１段４２３、４２５號１、２樓,121.3653,25.07438,(02)26080711,羅氏家用新冠病毒抗原自我檢測套組,78,2022/04/29 14:51:02,快篩實名制，每天16:00開始販售，售完為止。
5931171822,榮昌藥局,新北市林口區仁愛路１段４１０號１樓,121.3867,25.07683,(02)26011312,羅氏家用新冠病毒抗原自我檢測套組,78,2022/04/29 14:51:02,實名制快篩15:00開賣唷！
5931171868,林口藥局,新北市林口區文化三路２段６９號１樓,121.374,25.08006,(02)26001899,羅氏家用新冠病毒抗原自我檢測套組,17,2022/04/29 14:51:02,快篩販售時間：下午02:40發號碼牌，03:00開始販售
5931171886,林口辰安藥局,新北市林口區文化三路１段１９１巷５號１樓,121.3619,25.07016,(02)26099151,羅氏家用新冠病毒抗原自我檢測套組,78,2022/04/29 14:51:02,快篩1600開始販售，現場排隊領取
5931171895,奇異果三井藥局,新北市林口區文化三路１段２４１號１樓,121.3632,25.07147,(02)26068650,羅氏家用新冠病毒抗原自我檢測套組,16,2022/04/29 14:51:02,無
5931190514,碇康藥局,新北市石碇區潭邊里石崁２４－１號,121.658,24.99424,(02)26634229,羅氏家用新冠病毒抗原自我檢測套組,79,2022/04/29 14:51:02,無
5931211045,三芝藥師藥局,新北市三芝區中正路１段４３號１樓,121.5032,25.25816,(02)86353982,羅氏家用新冠病毒抗原自我檢測套組,156,2022/04/29 14:51:02,無
5931231181,八里藥師藥局,新北市八里區中山路２段２２６號１樓,121.4052,25.15151,(02)26101212,羅氏家用新冠病毒抗原自我檢測套組,1,2022/04/29 14:51:02,無
5931250015,松南藥局,新北市雙溪區中華路２９號,121.8658,25.03728,(02)24931085,羅氏家用新冠病毒抗原自我檢測套組,158,2022/04/29 14:51:02,週一至週五營業至晚上21點.週六至20點週日至12點
5931250042,信芳藥局,新北市雙溪區中華路５０號,121.866,25.03761,(02)24931301,羅氏家用新冠病毒抗原自我檢測套組,156,2022/04/29 14:51:02,無
5931270026,仁又堂藥局,新北市金山區信義路１７號,121.6373,25.22091,(02)24982468,羅氏家用新冠病毒抗原自我檢測套組,156,2022/04/29 14:51:02,無
5931270044,金宏仁藥局,新北市金山區中山路１９０巷２號,121.6382,25.22174,(02)24982402,羅氏家用新冠病毒抗原自我檢測套組,156,2022/04/29 14:51:02,無
5931280013,萬里藥局,新北市萬里區瑪鍊路９０號,121.6837,25.18504,(02)24922235,羅氏家用新冠病毒抗原自我檢測套組,234,2022/04/29 14:51:02,無
5931281074,北海岸藥局,新北市萬里區瑪鍊路９８號,121.6906,25.17868,(02)24922022,羅氏家用新冠病毒抗原自我檢測套組,156,2022/04/29 14:51:02,6／25.26.27早上8:00-12:00拿藥，下午休診
5932011058,富仕康藥局,桃園市桃園區中華路１１８號地下１樓,121.3082,24.99023,(03)3391318,羅氏家用新冠病毒抗原自我檢測套組,78,2022/04/29 14:51:02,口罩販賣時段：週一至週日19:30起
5932011585,北醫藥局,桃園市桃園區中正路８５４號,121.3011,25.01082,(03)3575806,羅氏家用新冠病毒抗原自我檢測套組,2,2022/04/29 14:51:02,口罩販賣時段：週一~週六 9:00~10:00
5932012573,悅藥坊人文藥局,桃園市桃園區桃智路６號,121.2948,24.96505,(03)3761688,羅氏家用新冠病毒抗原自我檢測套組,78,2022/04/29 14:51:02,口罩販賣時段：（一）~（六）17:00-19:00；（日）不販售
5932012671,美德藥師藥局,桃園市桃園區中正路２３０號,121.3104,24.99586,(03)3354160,羅氏家用新冠病毒抗原自我檢測套組,3,2022/04/29 14:51:02,快篩販售時間早上10:00-12:00
5932012813,桃園大興藥局,桃園市桃園區大興西路二段７６巷３號,121.2984,25.01183,(03)3013222,羅氏家用新冠病毒抗原自我檢測套組,78,2022/04/29 14:51:02,快篩實名制，每天16:00開始販售，售完為止。
5932013338,合豐藥局,桃園市桃園區中山東路８２號,121.3176,24.99664,(03)3394007,羅氏家用新冠病毒抗原自我檢測套組,70,2022/04/29 14:51:02,口罩販售時間：週一至週日
5932013392,桃園中正藥局,桃園市桃園區中正路３７３號,121.3079,24.99955,(03)3381600,羅氏家用新冠病毒抗原自我檢測套組,78,2022/04/29 14:51:02,快篩實名制，每天16:00開始販售，售完為止。
5932013687,桃園春日藥局,桃園市桃園區春日路８７８號,121.3096,25.01561,(03)3580101,羅氏家用新冠病毒抗原自我檢測套組,78,2022/04/29 14:51:02,快篩實名制，每天16:00開始販售，售完為止。
5932013721,桃園民光藥局,桃園市桃園區中正路５６９號,121.3049,25.0041,(03)3364888,羅氏家用新冠病毒抗原自我檢測套組,78,2022/04/29 14:51:02,快篩實名制，每天16:00開始販售，售完為止。
5932013749,桃園寶山藥局,桃園市桃園區寶山街７２號,121.3175,25.01291,(03)3250562,羅氏家用新冠病毒抗原自我檢測套組,78,2022/04/29 14:51:02,快篩實名制，每天16:00開始販售，售完為止。
5932013918,益壽藥局,桃園市桃園區中山路８２８、８３０、８３２、８３４、８３６號,121.2902,24.99093,(03)3693100,羅氏家用新冠病毒抗原自我檢測套組,79,2022/04/29 14:51:02,快篩實名制，每天16:00開始販售，售完為止。
5932013990,福澤大業藥局,桃園市桃園區大業路１段４２２號１樓,121.3118,25.01473,(03)3563865,羅氏家用新冠病毒抗原自我檢測套組,78,2022/04/29 14:51:02,家用快篩販賣時段15:30至售完為止
5932014004,同德辰安藥局,桃園市桃園區同德十街２５號,121.294,25.01835,(03)3012028,羅氏家用新冠病毒抗原自我檢測套組,78,2022/04/29 14:51:02,實名制快篩試劑於下午4點開始販售，現場排隊，沒有發放號碼牌。
5932014031,大廟藥局,桃園市桃園區中山路１５８號１樓,121.3091,24.99342,(03)3337006,羅氏家用新冠病毒抗原自我檢測套組,77,2022/04/29 14:51:02,無
5932014059,桃園南平藥局,桃園市桃園區南平路３０２－１號１樓,121.2989,25.01855,(03)3165222,羅氏家用新冠病毒抗原自我檢測套組,78,2022/04/29 14:51:02,快篩實名制，每天16:00開始販售，售完為止。
5932014157,愛兒康藥局,桃園市桃園區龍安街１４７號１樓,121.2794,24.99127,(03)3789142,羅氏家用新冠病毒抗原自我檢測套組,58,2022/04/29 14:51:02,營業時間AM:900-PM23:00
5932014166,華康中西藥局,桃園市桃園區中埔六街３號１號,121.2964,25.01549,(03)3166920,羅氏家用新冠病毒抗原自我檢測套組,71,2022/04/29 14:51:02,營業時間:週一~周六:9:00-21:30。週日10:00-18:30 （實名制快篩14:40發號碼牌／15:00開始販售）
5932014273,藝文藥局,桃園市桃園區大興西路１段１６５號,121.3049,25.01414,(03)3261789,羅氏家用新冠病毒抗原自我檢測套組,78,2022/04/29 14:51:02,快篩實名制，每天16:00開始販售，售完為止。
5932014291,躍獅民生藥局,桃園市桃園區民生路２２８號１樓,121.313,24.99472,(03)3362359,羅氏家用新冠病毒抗原自我檢測套組,10,2022/04/29 14:51:02,下午1點開始販售，會發號碼牌 （今日已發完）
5932014326,闔新藥局,桃園市桃園區中正路５７６號１樓,121.3054,25.00388,(03)3317279,羅氏家用新冠病毒抗原自我檢測套組,38,2022/04/29 14:51:02,營業時間:9:00-21:00，實名制快篩領取時間14:30開始，現場排隊
5932014371,杏一桃園敏盛藥局,桃園市桃園區經國路１１８號,121.3065,25.01545,(03)3254973,羅氏家用新冠病毒抗原自我檢測套組,2,2022/04/29 14:51:02,快篩實名制開賣時間請依門市公告，營業時間:上午:10:00-12:00，下午:13:00-17:00，晚上:18:00-19:00
5932014406,悅藥坊敦陽藥局,桃園市桃園區力行路３８５巷１７號,121.2976,24.99813,(03)3367068,羅氏家用新冠病毒抗原自我檢測套組,78,2022/04/29 14:51:02,實名制快篩:周一~周六:17:00 週日:無發放
5932014415,多多藥局,桃園市桃園區南平路１８３號１樓,121.3022,25.01946,(03)3162133,羅氏家用新冠病毒抗原自我檢測套組,78,2022/04/29 14:51:02,實名制快篩販售時段[下午3:00~3:30]
5932014424,桃園中山藥局,桃園市桃園區中山路７０７號,121.2914,24.99079,(03)2207168,羅氏家用新冠病毒抗原自我檢測套組,78,2022/04/29 14:51:02,快篩實名制，每天16:00開始販售，售完為止。
5932014442,新光藥局,桃園市桃園區大有路１７２號,121.3209,25.00752,(03)3310133,羅氏家用新冠病毒抗原自我檢測套組,1,2022/04/29 14:51:02,營業時間:10:00-22:00
