醫事機構代碼,醫事機構名稱,醫事機構地址,經度,緯度,醫事機構電話,廠牌項目,快篩試劑截至目前結餘存貨數量,來源資料時間,備註
2331260016,新北市貢寮區衛生所,新北市貢寮區朝陽街７０巷１０號、新北市貢寮區仁愛路１２８號,121.9095,25.02258,(02)24901431,羅氏家用新冠病毒抗原自我檢測套組,234,2022/04/28 22:48:03,星期一至星期日上午8點購買防疫口罩，售完為止.
2331290014,新北市烏來區衛生所,新北市烏來區新烏路５段１０９號,121.548,24.87197,(02)26617200,羅氏家用新冠病毒抗原自我檢測套組,248,2022/04/28 22:48:03,無
2333120015,新竹縣峨眉鄉衛生所,新竹縣峨眉鄉峨眉村峨眉街２鄰５號,121.0214,24.68842,(03)5800314,羅氏家用新冠病毒抗原自我檢測套組,234,2022/04/28 22:48:03,本所星期三下午中醫門診，4月8日（五）下午眼科，販賣口罩上午12時至13時止，國定及例假日不賣口罩
2333140017,新竹縣五峰鄉衛生所,新竹縣五峰鄉大隘村六鄰９９號,121.1194,24.63184,(03)5851005,羅氏家用新冠病毒抗原自我檢測套組,234,2022/04/28 22:48:03,無
2334110013,宜蘭縣大同鄉衛生所,宜蘭縣大同鄉崙埤村朝陽４０號,121.6088,24.67785,(03)9801175,羅氏家用新冠病毒抗原自我檢測套組,25,2022/04/28 22:48:03,防疫口罩販賣時間本所（週一到週六）8:20-10:20  衛生室販賣時間為星期一、二、四、五下午，詳細事項請至本所網站查詢.
2335110017,苗栗縣南庄鄉衛生所,苗栗縣南庄鄉東村大同路１７號,121,24.59733,(037)822024,羅氏家用新冠病毒抗原自我檢測套組,234,2022/04/28 22:48:03,口罩販賣時段:週一至週五上午8:00~下午5:00
2335150011,苗栗縣造橋鄉衛生所,苗栗縣造橋鄉造橋村１４鄰８－２號,120.8643,24.63672,(037)542755,羅氏家用新冠病毒抗原自我檢測套組,234,2022/04/28 22:48:03,口罩販賣時段：08:30-售完（含假日）
2335170013,苗栗縣獅潭鄉衛生所,苗栗縣獅潭鄉新店村１３０之６號,120.9201,24.53961,(037)931309,羅氏家用新冠病毒抗原自我檢測套組,234,2022/04/28 22:48:03,口罩販賣時段：08:30-16:00
2335180019,苗栗縣泰安鄉衛生所,苗栗縣泰安鄉清安村２鄰７２號,120.9083,24.44722,(037)941054,羅氏家用新冠病毒抗原自我檢測套組,234,2022/04/28 22:48:03,口罩販賣時段：星期一~五：8:30~15：00。
2336210034,臺中市和平區梨山衛生所,臺中市和平區中正路１２號１樓、６８號１樓,121.2592,24.25678,(04)25989540,羅氏家用新冠病毒抗原自我檢測套組,274,2022/04/28 22:48:03,提供24小時急診待診服務，111年4月28日起，快篩試劑販售時段為周一至周五0900-12:00，六日及國定假日為0900-1100
2338070010,南投縣鹿谷鄉衛生所,南投縣鹿谷鄉中正路二段２０號,120.7542,23.74488,(049)2752002,羅氏家用新冠病毒抗原自我檢測套組,234,2022/04/28 22:48:03,快篩試劑販售時間 上班日（星期一至星期五）14:00~16:00
2338120015,南投縣信義鄉衛生所,南投縣信義鄉明德村玉山路４５號,120.8547,23.69653,(049)2791148,羅氏家用新冠病毒抗原自我檢測套組,234,2022/04/28 22:48:03,快篩試劑販售時間星期一至星期五上午09：00-11：00，現場排隊發售，國定假日不販賣。
2340170016,嘉義縣大埔鄉衛生所,嘉義縣大埔鄉大埔村５３－１號,120.5928,23.29397,(05)2521214,羅氏家用新冠病毒抗原自我檢測套組,234,2022/04/28 22:48:03,無
2341250013,臺南市南化區衛生所,臺南市南化區南化里２２６－１號,120.4793,23.0444,(06)5771139,羅氏家用新冠病毒抗原自我檢測套組,246,2022/04/28 22:48:03,家用快篩週一~週五 （9:30-11:30）
2342130010,高雄市田寮區衛生所,高雄市田寮區南安里崗北路３２號,120.3594,22.87301,(07)6361504,羅氏家用新冠病毒抗原自我檢測套組,51,2022/04/28 22:48:03,巡迴醫療:每星期一、四下午及每月第一個有上班的星期三下午巡迴醫療
2342250017,高雄市茂林區衛生所,高雄市茂林區茂林里茂林巷８－４號,120.6641,22.88641,(07)6801046,羅氏家用新冠病毒抗原自我檢測套組,307,2022/04/28 22:48:03,夜間急診，請先撥電話07-6801046
2342260013,高雄市桃源區衛生所,高雄市桃源區桃源里南進巷１８８－１號,120.7642,23.15845,(07)6861126,羅氏家用新冠病毒抗原自我檢測套組,262,2022/04/28 22:48:03,IDS提供24小時服務
2342270019,高雄市那瑪夏區衛生所,高雄市那瑪夏區瑪雅里６鄰平和巷２５２號,120.7024,23.24708,(07)6701142,羅氏家用新冠病毒抗原自我檢測套組,296,2022/04/28 22:48:03,春節期間正常門診
2343270013,屏東縣霧台鄉衛生所,屏東縣霧台鄉霧台村神山巷６８號,120.7261,22.74989,(08)7902232,羅氏家用新冠病毒抗原自我檢測套組,290,2022/04/28 22:48:03,無
2343290015,屏東縣泰武鄉衛生所,屏東縣泰武鄉佳平村１７９號,120.6327,22.59212,(08)7832059,羅氏家用新冠病毒抗原自我檢測套組,265,2022/04/28 22:48:03,4／2-4／5門診照常
2343300016,屏東縣來義鄉衛生所,屏東縣來義鄉古樓村中正路９０號,120.632,22.52584,(08)7850103,羅氏家用新冠病毒抗原自我檢測套組,242,2022/04/28 22:48:03,無
2343320018,屏東縣獅子鄉衛生所,屏東縣獅子鄉楓林村楓林二巷３１號,120.7057,22.18402,(08)8771324,羅氏家用新冠病毒抗原自我檢測套組,234,2022/04/28 22:48:03,特休日：每年農曆除夕、初一
2343330014,屏東縣牡丹鄉衛生所,屏東縣牡丹鄉石門村１９號,120.7469,22.10105,(08)8831013,羅氏家用新冠病毒抗原自我檢測套組,234,2022/04/28 22:48:03,無
2344011036,澎湖縣馬公市第三衛生所,澎湖縣馬公市西文里１１８之２號,119.5836,23.56813,(06)9211723,羅氏家用新冠病毒抗原自我檢測套組,234,2022/04/28 22:48:03,本所口罩販售以離島（虎井、桶盤）為主，時間星期一至星期五08:30-17:00售完為止，星期六、日國定假日09:00-12:00。
2344030013,澎湖縣白沙鄉衛生所,澎湖縣白沙鄉赤崁村３５９號,119.5982,23.66669,(06)9931044,羅氏家用新冠病毒抗原自我檢測套組,239,2022/04/28 22:48:03,星期日上午門診看診（每月最後一個星期日休診）； 星期五上午巡迴醫療
2344030022,澎湖縣白沙鄉鳥嶼衛生所,澎湖縣白沙鄉鳥嶼村漁港新村３號,119.6599,23.66008,(06)9916092,羅氏家用新冠病毒抗原自我檢測套組,259,2022/04/28 22:48:03,非上班時間提供急診服務
2344030031,澎湖縣白沙鄉吉貝衛生所,澎湖縣白沙鄉吉貝村８－１３號,119.6138,23.74056,(06)9911430,羅氏家用新冠病毒抗原自我檢測套組,287,2022/04/28 22:48:03,無
2344050015,澎湖縣望安鄉衛生所,澎湖縣望安鄉西安村３６－７號,119.4972,23.36161,(06)9991036,羅氏家用新冠病毒抗原自我檢測套組,234,2022/04/28 22:48:03,夜間急診。口罩、快篩試劑販售時間為:每日08:00-12:00、13:30-17:30售完為止，如有餘數為離島未售出（東嶼坪、花嶼衛生室）。
2344050024,澎湖縣望安鄉將軍衛生所,澎湖縣望安鄉將軍村１２鄰將軍澳１之３號,119.5216,23.3615,(06)9902066,羅氏家用新冠病毒抗原自我檢測套組,289,2022/04/28 22:48:03,24小時急診
2345080017,花蓮縣豐濱鄉衛生所,花蓮縣豐濱鄉豐濱村光豐路３９號,121.5215,23.60195,(03)8791156,羅氏家用新冠病毒抗原自我檢測套組,174,2022/04/28 22:48:03,*本院口罩每天販售，時間自上午8點至晚上9點  *本院週一至週五上下午皆有門診，星期六隔週提供門診，及24小時急診。
2345130012,花蓮縣卓溪鄉衛生所,花蓮縣卓溪鄉卓溪村中正路６５號,121.3033,23.33294,(03)8882592,羅氏家用新冠病毒抗原自我檢測套組,3,2022/04/28 22:48:03,販賣口罩服務時段每周一至周五早上8點45分至11點45分，星期一至星期四安排巡迴醫療點販售（售完即結束）
2346050013,台東縣大武鄉衛生所,臺東縣大武鄉大武村復興路２－２號,120.9078,22.36414,(089)791143,羅氏家用新冠病毒抗原自我檢測套組,236,2022/04/28 22:48:03,24小時急診服務
2346070015,臺東縣東河鄉衛生所,臺東縣東河鄉東河村南東河路１０鄰３００號,121.3031,22.96846,(089)896289,羅氏家用新冠病毒抗原自我檢測套組,234,2022/04/28 22:48:03,口罩販售時間:◆平日早上08時30分~11時30分販售，售完為止。
2346140012,台東縣達仁鄉衛生所,臺東縣達仁鄉安朔村復興路１２２號,120.8836,22.29488,(089)702209,羅氏家用新冠病毒抗原自我檢測套組,243,2022/04/28 22:48:03,12／31 元旦連假
2346150018,台東縣金峰鄉衛生所,臺東縣金峰鄉賓茂村１鄰１４號,120.9606,22.53248,(089)772201,羅氏家用新冠病毒抗原自我檢測套組,249,2022/04/28 22:48:03,代售口罩時間:星期一至星期五為上午8:00-12:00，下午1:30-5:30
2346160014,台東縣蘭嶼鄉衛生所,臺東縣蘭嶼鄉紅頭村３６號,121.5546,22.02493,(089)732575,羅氏家用新冠病毒抗原自我檢測套組,234,2022/04/28 22:48:03,販售口罩時間 星期一至星期五 8:00~12:00 13:30~17:30
2391020010,連江縣北竿鄉衛生所,連江縣北竿鄉塘岐村２８１－６號,119.9991,26.22617,(083)655592,羅氏家用新冠病毒抗原自我檢測套組,247,2022/04/28 22:48:03,防疫口罩每日08:30-10:00於北竿衛生所購買。
2391030016,連江縣莒光鄉西莒衛生所,連江縣莒光鄉青帆村１４－１號,119.9331,25.97157,(083)689122,羅氏家用新冠病毒抗原自我檢測套組,290,2022/04/28 22:48:03,防疫口罩星期一至五09:00-17:00、（六）09:00-12:00現場購買
2391030026,連江縣莒光鄉東莒衛生所,連江縣莒光鄉大坪村３０－１號,119.9731,25.96113,(083)689038,羅氏家用新冠病毒抗原自我檢測套組,284,2022/04/28 22:48:03,防疫口罩星期一至星期日上午10:00-12:00收取健保卡，下午3:30至本所領取口罩。
2391040012,連江縣東引鄉衛生所,連江縣東引鄉中柳村１２３號,120.4904,26.36701,(083)677206,羅氏家用新冠病毒抗原自我檢測套組,245,2022/04/28 22:48:03,防疫口罩每日10:00-12:00現場購買
5901020563,施寶藥局,臺北市大安區安東街５０－５號１樓,121.5426,25.04277,(02)27114175,羅氏家用新冠病毒抗原自我檢測套組,22,2022/04/28 22:48:03,週一至週五早上11點到下午8點.周六周日及公訂例假日公休
5901020634,新廣生藥局,臺北市大安區仁愛路４段３４號,121.5467,25.03762,(02)27071221,羅氏家用新冠病毒抗原自我檢測套組,1,2022/04/28 22:48:03,固定周日公休
5901090154,柯藥局,臺北市大同區重慶北路３段３３５巷６號,121.5144,25.07452,(02)25948515,羅氏家用新冠病毒抗原自我檢測套組,16,2022/04/28 22:48:03,無
5901101509,永直藥局,臺北市中山區北安路５９５巷２弄６號,121.5483,25.08192,(02)85098059,羅氏家用新冠病毒抗原自我檢測套組,7,2022/04/28 22:48:03,無
5901103236,誠意中西藥局,臺北市中山區林森北路６１３號,121.5258,25.06647,(02)25950951,羅氏家用新冠病毒抗原自我檢測套組,1,2022/04/28 22:48:03,無
5901113385,躍獅康成藥局,臺北市內湖區成功路４段６１巷１１號,121.5928,25.0814,(02)87922031,羅氏家用新冠病毒抗原自我檢測套組,1,2022/04/28 22:48:03,每日早上10:00及下午3:00，每時段各100份大人口罩，50份兒童口罩，排隊人多時會發號碼牌。
5901152640,仁大藥局,臺北市士林區社子街１３號１樓,121.5083,25.08769,(02)88113793,羅氏家用新冠病毒抗原自我檢測套組,43,2022/04/28 22:48:03,快篩試劑販售時間:週一至週六上午8:30-12:00
5901163296,天禧大藥局,臺北市北投區實踐街３５號,121.5087,25.11521,(02)28213558,羅氏家用新冠病毒抗原自我檢測套組,1,2022/04/28 22:48:03,實名制快篩下午1:30現場販售
5901163581,陳藥師藥局,臺北市北投區光明路２巷１３－２號（實際使用：１樓）,121.4997,25.13132,(02)28921971,羅氏家用新冠病毒抗原自我檢測套組,1,2022/04/28 22:48:03,無
5901170915,杏仁藥局,臺北市信義區大道路１３５號,121.5834,25.03901,(02)27262541,羅氏家用新冠病毒抗原自我檢測套組,2,2022/04/28 22:48:03,春節期間看診時段請電洽
5901173603,松德盛康藥局,臺北市信義區松德路４０號,121.5767,25.03896,(02)87891622,羅氏家用新冠病毒抗原自我檢測套組,3,2022/04/28 22:48:03,今日號碼牌已發放完畢，請依號碼牌於今日晚上21:00前購買
5901174057,詠晴中西藥局,臺北市信義區松山路４８４之４號（１樓含夾層）,121.5778,25.0389,(02)27266890,羅氏家用新冠病毒抗原自我檢測套組,2,2022/04/28 22:48:03,實名制快篩 - 09:10領號碼牌.當天取貨即可.避免群聚風險
5901174075,信義盛康藥局,臺北市信義區永吉路２８６號（１樓）,121.5744,25.04538,(02)23460521,羅氏家用新冠病毒抗原自我檢測套組,5,2022/04/28 22:48:03,無
5901190668,聯慶大藥局,臺北市萬華區萬大路３０６號１樓,121.5003,25.02495,(02)23039850,羅氏家用新冠病毒抗原自我檢測套組,2,2022/04/28 22:48:03,無
5901203268,躍獅木柵藥局,臺北市文山區指南路１段２８號,121.5695,24.98756,(02)86617752,羅氏家用新冠病毒抗原自我檢測套組,7,2022/04/28 22:48:03,無
5901203482,健康家藥局,臺北市文山區興隆路２段１３３號１樓,121.5481,25.00011,(02)29330858,羅氏家用新冠病毒抗原自我檢測套組,1,2022/04/28 22:48:03,無
5902032530,杏光藥局,高雄市左營區果峰街４７巷１號１樓,120.2869,22.6703,(07)5837060,羅氏家用新冠病毒抗原自我檢測套組,7,2022/04/28 22:48:03,上午營業時間為9 :00~12:00；晚上營業至21:30
5902050798,友泰藥局,高雄市三民區中和街１６９號,120.2868,22.6388,(07)3125236,羅氏家用新冠病毒抗原自我檢測套組,30,2022/04/28 22:48:03,無
5902056754,大家藥局,高雄市三民區鼎中路２２９號１樓,120.3191,22.66421,(07)3107632,羅氏家用新冠病毒抗原自我檢測套組,1,2022/04/28 22:48:03,營業日08:30-12:00，15:30-21:00為販賣口罩時間.售完為止
5903030012,康好藥局,臺中市大甲區三民路１３２－２號,120.622,24.34851,(04)26802149,羅氏家用新冠病毒抗原自我檢測套組,78,2022/04/28 22:48:03,每天早上8-12點.下午14:30至售完為止.星期四不銷售. 星期日只銷售前日剩餘口罩
5903220196,日安藥局,臺中市中區臺灣大道一段３３０號１樓,120.6801,24.1422,(04)22234246,羅氏家用新冠病毒抗原自我檢測套組,78,2022/04/28 22:48:03,無
5903271031,美十樂中科藥局,臺中市西屯區西屯路三段１６６－６５號１樓,120.6129,24.19035,(04)24610219,羅氏家用新冠病毒抗原自我檢測套組,78,2022/04/28 22:48:03,固定周一至周日10:00開始販售口罩
5903280914,豐樹藥局,臺中市南屯區黎明路一段６３號１樓,120.6258,24.11362,(04)24792098,羅氏家用新冠病毒抗原自我檢測套組,4,2022/04/28 22:48:03,販售快篩時間 早上9:00～10：00   晚上8：00~9:00
5903290830,齊方藥局,臺中市北屯區四平路３９號,120.6708,24.17885,(04)22912192,羅氏家用新冠病毒抗原自我檢測套組,1,2022/04/28 22:48:03,剩餘數量1是早上當機還未更正不用再打電話感謝您。快篩9點開賣。
5905100035,華恩藥局,臺南市後壁區菁寮里５１號１樓,120.3356,23.37883,(06)6623491,羅氏家用新冠病毒抗原自我檢測套組,234,2022/04/28 22:48:03,星期一到六上午8:00-12:00，下午2:30-7:30，星期日8:00-12:00；口罩發售時間自08:30-11:30，下午2:30-07:00
5905100062,美尚藥局後壁店,臺南市後壁區後壁里１６８－８號,120.364,23.36509,(06)6871138,羅氏家用新冠病毒抗原自我檢測套組,155,2022/04/28 22:48:03,星期天早上視狀況營
5905340262,瑞城藥局,臺南市中西區赤嵌里忠義路二段１７６號１樓,120.2043,22.99649,(06)2215810,羅氏家用新冠病毒抗原自我檢測套組,78,2022/04/28 22:48:03,無
5905350311,美康藥局,臺南市北區公園路３７５－５號,120.2102,23.00597,(06)2810311,羅氏家用新冠病毒抗原自我檢測套組,3,2022/04/28 22:48:03,快篩實名制販賣時間上午9:00~11:00
5905370180,安南啄木鳥藥局,臺南市安南區安和路一段１０７號,120.2143,23.02826,(06)2821265,羅氏家用新冠病毒抗原自我檢測套組,3,2022/04/28 22:48:03,口罩代售時間自早上9:30---售完為止
5907060221,淑德健保藥局,高雄市大寮區內坑里淑德新村１號３樓,120.3707,22.58833,(07)7923556,羅氏家用新冠病毒抗原自我檢測套組,40,2022/04/28 22:48:03,無
5907070030,久堂藥局,高雄市大樹區久堂里久堂路１３６號１樓,120.4178,22.65813,(07)6512800,羅氏家用新冠病毒抗原自我檢測套組,1,2022/04/28 22:48:03,快篩實名制，每天16:00開始販售，售完為止。
5907240014,博林健保藥局,高雄市內門區觀亭里中正路１６０巷５１號,120.4539,22.9232,(07)6671883,羅氏家用新冠病毒抗原自我檢測套組,23,2022/04/28 22:48:03,自2／11日~2／29日，營業日07:40~18:00為販賣口罩時間，售完為止
5907300211,勁好健保藥局,高雄市左營區果峰街１２巷２６號１樓,120.2881,22.67178,(07)5855767,羅氏家用新冠病毒抗原自我檢測套組,1,2022/04/28 22:48:03,無
5907300882,得孚社區藥局,高雄市左營區重立路５３３號１樓,120.3098,22.67955,(07)3410121,羅氏家用新冠病毒抗原自我檢測套組,57,2022/04/28 22:48:03,營業日上午09:30-11:30為販賣口罩時間.售完為止
5907300908,明自丁丁藥局,高雄市左營區自由二路１５２號１樓,120.3089,22.66223,(07)5568902,羅氏家用新冠病毒抗原自我檢測套組,2,2022/04/28 22:48:03,無
5907301012,新高橋藥局華夏店,高雄市左營區華夏路１１１０號,120.3085,22.68343,(07)3410915,羅氏家用新冠病毒抗原自我檢測套組,3,2022/04/28 22:48:03,無
5907320768,心樂保健藥局,高雄市三民區光裕路７８號１樓,120.3331,22.63789,(07)3855377,羅氏家用新冠病毒抗原自我檢測套組,3,2022/04/28 22:48:03,星期一到星期四上午8:30-12:00，下午15:00-18:00（口罩售完為止）. 星期五下午14:00-17:00，18:00-20:30（售完為止）
5907321078,振源藥局,高雄市三民區熱河一街３５５號１樓,120.3061,22.64365,(07)3112541,羅氏家用新冠病毒抗原自我檢測套組,11,2022/04/28 22:48:03,營業時間08:30-22:30，六日有營業，全年無休
5907350659,北京藥局林泉店,高雄市苓雅區林泉里３鄰林泉街３５號１樓,120.3192,22.62323,(07)7263030,羅氏家用新冠病毒抗原自我檢測套組,78,2022/04/28 22:48:03,無
5907360191,欣欣藥局,高雄市前鎮區翠亨北路５７９號,120.3129,22.59226,(07)8124862,羅氏家用新冠病毒抗原自我檢測套組,18,2022/04/28 22:48:03,實名制快篩販售:周一到週六上午8點至12點，周日休息。
5907360628,風鈴藥局,高雄市前鎮區管仲路３７號,120.3117,22.60649,(07)5367833,羅氏家用新冠病毒抗原自我檢測套組,4,2022/04/28 22:48:03,販售口罩時間：14:00-16:00（周日公休）
5907380184,桂林活力藥師藥局孔鳳店,高雄市小港區孔鳳路５６１號１樓,120.3586,22.58393,(07)7912331,羅氏家用新冠病毒抗原自我檢測套組,1,2022/04/28 22:48:03,無
5907380353,桂林活力藥師藥局漢民店,高雄市小港區漢民路６９１－１及６９１－２號１樓,120.3614,22.56762,(07)8010636,羅氏家用新冠病毒抗原自我檢測套組,1,2022/04/28 22:48:03,無
5911011610,躍獅大藥局,基隆市中正區義二路３５號,121.7453,25.1312,(02)24286960,羅氏家用新冠病毒抗原自我檢測套組,78,2022/04/28 22:48:03,營業時間11時-20時假日公休
5911041618,永樂藥局,基隆市仁愛區忠二路２２號,121.7401,25.13013,(02)24214878,羅氏家用新冠病毒抗原自我檢測套組,10,2022/04/28 22:48:03,無
5911041958,百福仁愛專業藥局,基隆市仁愛區仁四路５０號１樓,121.7413,25.12829,(02)24266699,羅氏家用新冠病毒抗原自我檢測套組,6,2022/04/28 22:48:03,無
5912042986,仁佑藥局,新竹市北區南寮里西濱路一段５００號１樓,120.9342,24.8422,(03)5363818,羅氏家用新冠病毒抗原自我檢測套組,13,2022/04/28 22:48:03,無
5917062353,典安大藥局,臺中市西屯區西屯路３段１５９－６０號,120.6177,24.18807,(04)24616571,羅氏家用新冠病毒抗原自我檢測套組,1,2022/04/28 22:48:03,每天9:30發100份成人.10份兒童口罩   18:30發100份成人.10份兒童口罩
5917071727,大愛藥局,臺中市南屯區向心南路９６２．９６４號１樓,120.644,24.13718,(04)24733646,羅氏家用新冠病毒抗原自我檢測套組,8,2022/04/28 22:48:03,每日上午08:30直接發放200份，每星期一公休一天!如還有口罩庫存繼續發放
5917080762,順泰大藥局,臺中市北屯區北屯村北屯路１１５號,120.6939,24.165,(04)22341477,羅氏家用新冠病毒抗原自我檢測套組,33,2022/04/28 22:48:03,周三及周日公休，其餘時間每日上午9:00開賣，不需發號碼牌
5922012285,聖安藥局,嘉義市東區仁武里民權路３６５號１樓,120.4506,23.48235,(05)2222941,羅氏家用新冠病毒抗原自我檢測套組,78,2022/04/28 22:48:03,每日8:30開始發放口罩，每週四休息.
5931012051,全曜藥局,新北市板橋區民權路２６０巷６２號,121.4603,25.01495,(02)29682681,羅氏家用新冠病毒抗原自我檢測套組,1,2022/04/28 22:48:03,實聯快篩 19:30開始販賣 （星期日休）
5931014439,旭全藥局,新北市板橋區金門街３３１號,121.4294,24.98582,(02)26860526,羅氏家用新冠病毒抗原自我檢測套組,1,2022/04/28 22:48:03,星期1~6上午9:30~10:30 星期天上午9:30~下午5:00
5931014537,友虹藥師藥局,新北市板橋區國光路１６號,121.457,25.01739,(02)29691181,羅氏家用新冠病毒抗原自我檢測套組,78,2022/04/28 22:48:03,無
5931016540,新海藥局,新北市板橋區新海路１２２號１、２樓,121.4612,25.02292,(02)22500190,羅氏家用新冠病毒抗原自我檢測套組,78,2022/04/28 22:48:03,營業時間:9:00~23:00
5931017396,美康四維藥局,新北市板橋區四維路１２２號１樓,121.4654,25.02499,(02)22506616,羅氏家用新冠病毒抗原自我檢測套組,1,2022/04/28 22:48:03,上午九點開始發 成人200份 兒童20份 發完為止
5931025950,美康三和藥局,新北市三重區三和路４段３２２號１、２樓,121.4841,25.07795,(02)22866858,羅氏家用新冠病毒抗原自我檢測套組,78,2022/04/28 22:48:03,無
5931033523,永奕藥局,新北市永和區永平路２８６之１號１樓,121.5077,25.01208,(02)22327709,羅氏家用新冠病毒抗原自我檢測套組,3,2022/04/28 22:48:03,無
5931043109,育新藥局,新北市中和區中安街４０巷６號,121.5127,25.00305,(02)29283479,羅氏家用新冠病毒抗原自我檢測套組,78,2022/04/28 22:48:03,週一、二、三、五、六早上八點開始販售，售完為止（四、日無販賣）
5931043921,良安藥局,新北市中和區連城路４７７巷１號１樓,121.4833,24.99555,(02)22225798,羅氏家用新冠病毒抗原自我檢測套組,78,2022/04/28 22:48:03,週六日不開店
5931053285,北新212藥局,新北市新店區北新路３段２１２號（２樓）,121.5413,24.98429,(02)29183212,羅氏家用新冠病毒抗原自我檢測套組,72,2022/04/28 22:48:03,無
5931068819,東京大藥局,新北市新莊區民安路１７６號１樓,121.4251,25.02392,(02)22063806,羅氏家用新冠病毒抗原自我檢測套組,2,2022/04/28 22:48:03,口罩代售時間為9:30開始現場排隊販售
5931069372,羽豐藥局,新北市新莊區新莊路３８２號１樓,121.4491,25.03355,(02)22029812,羅氏家用新冠病毒抗原自我檢測套組,78,2022/04/28 22:48:03,不用過卡的醫療口罩整天有，過健保卡口罩限每早9:30至11:40
593106A155,日榮藥局,新北市新莊區龍安路４６１號１樓,121.4248,25.0186,(02)22051523,羅氏家用新冠病毒抗原自我檢測套組,7,2022/04/28 22:48:03,無
593106A511,明仁健保藥局,新北市新莊區民安西路１９５號１樓,121.4261,25.0151,(02)22085175,羅氏家用新冠病毒抗原自我檢測套組,2,2022/04/28 22:48:03,15:00-18:00販售口罩
593106B072,小林健保藥局,新北市新莊區昌明街３８之１號１樓,121.4565,25.05237,(02)29911764,羅氏家用新冠病毒抗原自我檢測套組,1,2022/04/28 22:48:03,無
593106B081,平安藥局,新北市新莊區民安西路６０號２樓,121.4273,25.02037,(02)22082368,羅氏家用新冠病毒抗原自我檢測套組,31,2022/04/28 22:48:03,無
593106B205,藥師佛藥局,新北市新莊區中正路８８１之４號１樓,121.4175,25.02544,(02)29016625,羅氏家用新冠病毒抗原自我檢測套組,78,2022/04/28 22:48:03,無
593106B296,廣元藥局,新北市新莊區雙鳳路２號（１樓）,121.4175,25.02688,(02)29044948,羅氏家用新冠病毒抗原自我檢測套組,1,2022/04/28 22:48:03,無
593106B330,和昌藥局,新北市新莊區中安街１５號１樓,121.4531,25.04585,(02)29900669,羅氏家用新冠病毒抗原自我檢測套組,78,2022/04/28 22:48:03,無
5931081396,祐康藥局,新北市鶯歌區建國路３６號,121.356,24.95596,(02)26771223,羅氏家用新冠病毒抗原自我檢測套組,78,2022/04/28 22:48:03,無
5931081458,食在好健康藥局,新北市鶯歌區國慶街１６５號１樓,121.3512,24.95312,(02)26702559,羅氏家用新冠病毒抗原自我檢測套組,46,2022/04/28 22:48:03,實名制快篩販賣時間週一到週四19:00~20:00
5931081494,康群藥局,新北市鶯歌區建國路２０２號１樓,121.3494,24.95357,(02)26796690,羅氏家用新冠病毒抗原自我檢測套組,78,2022/04/28 22:48:03,*星期五休診不發放口罩，其餘上班日上午九點開始發放*現場排隊
5931092200,金美藥局,新北市三峽區大同路２３８號１樓,121.3663,24.92573,(02)86715859,羅氏家用新冠病毒抗原自我檢測套組,78,2022/04/28 22:48:03,無
5931120049,本平藥局,新北市瑞芳區瑞芳街４５號,121.8076,25.10913,(02)24972167,羅氏家用新冠病毒抗原自我檢測套組,10,2022/04/28 22:48:03,無
5931121279,大埔藥局,新北市瑞芳區大埔路１２８－３號１樓,121.762,25.10079,(02)24587020,羅氏家用新冠病毒抗原自我檢測套組,49,2022/04/28 22:48:03,無
5931132389,凱一藥局,新北市土城區裕民路９２巷２１弄８號１樓,121.4501,24.98629,(02)22707679,羅氏家用新冠病毒抗原自我檢測套組,78,2022/04/28 22:48:03,服務時間10:00~21:00，每週二休息
5931133519,埔銓藥局,新北市土城區裕民路１６４號１、２樓,121.4522,24.98569,(02)22630230,羅氏家用新冠病毒抗原自我檢測套組,1,2022/04/28 22:48:03,營業時間9:00-21:00
5931151302,宏安藥局,新北市五股區成泰路２段１３６號,121.4382,25.08369,(02)22915932,羅氏家用新冠病毒抗原自我檢測套組,1,2022/04/28 22:48:03,口罩販售時間:每日08:15~23:00售完為止 星期日如果前一日還有庫存，當日照常販售
5931190514,碇康藥局,新北市石碇區潭邊里石崁２４－１號,121.658,24.99424,(02)26634229,羅氏家用新冠病毒抗原自我檢測套組,156,2022/04/28 22:48:03,無
5931211045,三芝藥師藥局,新北市三芝區中正路１段４３號１樓,121.5032,25.25816,(02)86353982,羅氏家用新冠病毒抗原自我檢測套組,234,2022/04/28 22:48:03,無
5931250015,松南藥局,新北市雙溪區中華路２９號,121.8658,25.03728,(02)24931085,羅氏家用新冠病毒抗原自我檢測套組,234,2022/04/28 22:48:03,週一至週五營業至晚上21點.週六至20點週日至12點
5931250042,信芳藥局,新北市雙溪區中華路５０號,121.866,25.03761,(02)24931301,羅氏家用新冠病毒抗原自我檢測套組,234,2022/04/28 22:48:03,無
5931270026,仁又堂藥局,新北市金山區信義路１７號,121.6373,25.22091,(02)24982468,羅氏家用新冠病毒抗原自我檢測套組,234,2022/04/28 22:48:03,無
5931270044,金宏仁藥局,新北市金山區中山路１９０巷２號,121.6382,25.22174,(02)24982402,羅氏家用新冠病毒抗原自我檢測套組,234,2022/04/28 22:48:03,無
5931280013,萬里藥局,新北市萬里區瑪鍊路９０號,121.6837,25.18504,(02)24922235,羅氏家用新冠病毒抗原自我檢測套組,234,2022/04/28 22:48:03,無
5931281074,北海岸藥局,新北市萬里區瑪鍊路９８號,121.6906,25.17868,(02)24922022,羅氏家用新冠病毒抗原自我檢測套組,234,2022/04/28 22:48:03,6／25.26.27早上8:00-12:00拿藥，下午休診
5932011147,維格藥局,桃園市桃園區大興西路二段１２９號,121.2974,25.01048,(03)3016639,羅氏家用新冠病毒抗原自我檢測套組,1,2022/04/28 22:48:03,營業時間:8:30-12:00、14:00-22:00
5932011370,家福聯合藥局,桃園市桃園區中山路６２３號,121.2939,24.99093,(03)2289492,羅氏家用新冠病毒抗原自我檢測套組,1,2022/04/28 22:48:03,無
5932013007,南門藥局,桃園市桃園區南華街５３號,121.3083,24.99047,(03)3335395,羅氏家用新冠病毒抗原自我檢測套組,2,2022/04/28 22:48:03,口罩放賣時段：上午09：00起至售完為止
5932013918,益壽藥局,桃園市桃園區中山路８２８、８３０、８３２、８３４、８３６號,121.2902,24.99093,(03)3693100,羅氏家用新冠病毒抗原自我檢測套組,1,2022/04/28 22:48:03,快篩實名制，每天16:00開始販售，售完為止。
5932014031,大廟藥局,桃園市桃園區中山路１５８號１樓,121.3091,24.99342,(03)3337006,羅氏家用新冠病毒抗原自我檢測套組,3,2022/04/28 22:48:03,無
5932014175,東門大藥局,桃園市桃園區春日路７５號,121.3169,24.99305,(03)3378919,羅氏家用新冠病毒抗原自我檢測套組,1,2022/04/28 22:48:03,無
5932014326,闔新藥局,桃園市桃園區中正路５７６號１樓,121.3054,25.00388,(03)3317279,羅氏家用新冠病毒抗原自我檢測套組,1,2022/04/28 22:48:03,營業時間:9:00-21:00
5932014399,澄心藥局,桃園市桃園區桃鶯路３０５號１樓,121.3193,24.98265,(03)3771468,羅氏家用新冠病毒抗原自我檢測套組,3,2022/04/28 22:48:03,營業時間:8:00-22:00
5932014433,樺品藥局,桃園市桃園區中華路４８號１樓,121.3104,24.99093,(03)3476667,羅氏家用新冠病毒抗原自我檢測套組,1,2022/04/28 22:48:03,營業時間:9:30-21:30，取號碼牌購買快篩試劑
5932014442,新光藥局,桃園市桃園區大有路１７２號,121.3209,25.00752,(03)3310133,羅氏家用新冠病毒抗原自我檢測套組,3,2022/04/28 22:48:03,營業時間:10:00-22:00
5932019143,弘光藥師藥局,桃園市桃園區國際路一段１１３５號,121.2891,24.98774,(03)2170167,羅氏家用新冠病毒抗原自我檢測套組,9,2022/04/28 22:48:03,無
5932021090,新生藥師藥局,桃園市中壢區民權路５２號,121.2172,24.95608,(03)4919796,羅氏家用新冠病毒抗原自我檢測套組,8,2022/04/28 22:48:03,口罩販賣時段：08:30
5932021812,慧中健保藥局,桃園市中壢區成章二街１４１號１樓,121.2568,24.98025,(03)4556129,羅氏家用新冠病毒抗原自我檢測套組,4,2022/04/28 22:48:03,無
5932023307,晟康健保藥局,桃園市中壢區永光里環北路４號１樓桃園市中壢區民權路二段３４號,121.225,24.96565,(03)4950218,羅氏家用新冠病毒抗原自我檢測套組,2,2022/04/28 22:48:03,無
5932023647,樂謙藥師藥局,桃園市中壢區龍東路１３４號,121.2522,24.92929,(03)4662775,羅氏家用新冠病毒抗原自我檢測套組,76,2022/04/28 22:48:03,實名快篩每日早上8點發放號碼牌 下午1點取貨
5932024091,大和藥局,桃園市中壢區元化路２段６６號,121.2212,24.9627,(03)4260298,羅氏家用新冠病毒抗原自我檢測套組,2,2022/04/28 22:48:03,無
5932024180,小瓢蟲藥局,桃園市中壢區正大街２５號１樓,121.2047,24.95836,(03)4020967,羅氏家用新冠病毒抗原自我檢測套組,4,2022/04/28 22:48:03,營業時間：上午0830-1200，下午1400-1730，晚上1800-2130
593202A244,澤仁藥局,桃園市中壢區中正路２６３號,121.2193,24.95495,(03)4252254,羅氏家用新冠病毒抗原自我檢測套組,13,2022/04/28 22:48:03,口罩販賣時段：早上8:00-17:00
593202A931,佳佑藥局,桃園市中壢區環中東路二四一號,121.2573,24.96345,(03)4356190,羅氏家用新冠病毒抗原自我檢測套組,2,2022/04/28 22:48:03,口罩販賣時段：09:00以後發號碼牌，售完為止
5932031890,福生藥局,桃園市大溪區民權東路１０３號１樓,121.2919,24.88209,(03)3873533,羅氏家用新冠病毒抗原自我檢測套組,3,2022/04/28 22:48:03,無
5932031907,福澤大溪藥局,桃園市大溪區復興路１０５號１樓,121.2911,24.87917,(03)3884886,羅氏家用新冠病毒抗原自我檢測套組,1,2022/04/28 22:48:03,家用快篩販賣時段15:30至售完為止
5932040308,弘大藥局,桃園市楊梅區大華街十三號,121.1452,24.9076,(03)4751858,羅氏家用新冠病毒抗原自我檢測套組,38,2022/04/28 22:48:03,快篩販售時間：週一至週六 14:00
5932042320,家康藥師藥局,桃園市楊梅區文化街二三二之一號,121.1851,24.91622,(03)4810893,羅氏家用新冠病毒抗原自我檢測套組,3,2022/04/28 22:48:03,快篩販售時間：12:00-13:00
5932050215,九德藥局,桃園市蘆竹區中山路６９號,121.3003,25.05242,(03)3116868,羅氏家用新冠病毒抗原自我檢測套組,9,2022/04/28 22:48:03,口罩販賣時段：AM09:00-PM10:00
5932052826,青新藥師藥局,桃園市蘆竹區南竹路五段２５１之１號,121.2597,25.0247,(03)3134328,羅氏家用新冠病毒抗原自我檢測套組,4,2022/04/28 22:48:03,無
5932052933,天康南崁藥局,桃園市蘆竹區南崁路２４５號,121.2933,25.04894,(03)2122569,羅氏家用新冠病毒抗原自我檢測套組,2,2022/04/28 22:48:03,口罩販賣時段：週一至週日13:00起
5932061003,保和大藥局,桃園市大園區大園里中山北路３６號,121.1972,25.06478,(03)3867448,羅氏家用新冠病毒抗原自我檢測套組,21,2022/04/28 22:48:03,口罩販賣時段：8:00~19:00皆可領取.售完為止
5932076791,誠安生活藥局,桃園市龜山區文化七路７９之２號,121.3635,25.05166,(03)3271997,羅氏家用新冠病毒抗原自我檢測套組,9,2022/04/28 22:48:03,無
5932077538,維康藥局,桃園市龜山區復興一路８８號１樓,121.3683,25.05946,(03)3283880,羅氏家用新冠病毒抗原自我檢測套組,78,2022/04/28 22:48:03,平日上午9點至晚上6點執業
5932077574,樂樂聯合藥局,桃園市龜山區萬壽路１段１０９號１、２樓,121.4091,25.01886,(02)82000560,羅氏家用新冠病毒抗原自我檢測套組,2,2022/04/28 22:48:03,無
5932077618,大山藥局,桃園市龜山區中興路１段１８、２２、２４號１樓,121.3379,24.99376,(03)3191057,羅氏家用新冠病毒抗原自我檢測套組,1,2022/04/28 22:48:03,無
5932083303,吉康生活藥局,桃園市八德區義勇街１２０號,121.3045,24.96354,(03)3768577,羅氏家用新冠病毒抗原自我檢測套組,4,2022/04/28 22:48:03,無
5932083974,晨鴻藥師藥局,桃園市八德區桃鶯路７號１樓,121.3265,24.97179,(03)3764299,羅氏家用新冠病毒抗原自我檢測套組,7,2022/04/28 22:48:03,兒童口罩早上8:30領取號碼牌 一定發完 因為一天只有20個名額 ，請勿再打電話詢問 謝謝
5932099856,佳欣社區藥局,桃園市龍潭區中正路２６２號１樓,121.2173,24.86254,(03)4808717,羅氏家用新冠病毒抗原自我檢測套組,3,2022/04/28 22:48:03,無
5932099954,新資生龍潭中正大藥局,桃園市龍潭區中正路１４０—１號１樓,121.2212,24.85382,(03)3606180,羅氏家用新冠病毒抗原自我檢測套組,1,2022/04/28 22:48:03,全年無休
5932100925,譽達藥局,桃園市平鎮區育達路２４０號１樓,121.2072,24.95155,(03)4922990,羅氏家用新冠病毒抗原自我檢測套組,1,2022/04/28 22:48:03,快篩星期一到六下午三點開始，星期日無配送快篩，現場領取，不提前拿號碼牌
5932101191,譽達文化藥局,桃園市平鎮區文化街８巷２號１樓,121.2027,24.95667,(03)4919660,羅氏家用新冠病毒抗原自我檢測套組,1,2022/04/28 22:48:03,無
5932101217,夢田藥局,桃園市平鎮區東光路１１３號１樓,121.2533,24.91609,(03)4601966,羅氏家用新冠病毒抗原自我檢測套組,6,2022/04/28 22:48:03,無
5932108430,建德藥局,桃園市平鎮區北勢里金陵路１０３號,121.2229,24.94747,(03)4686662,羅氏家用新冠病毒抗原自我檢測套組,45,2022/04/28 22:48:03,國定假日皆休診.口罩販售時段:上午9:30起至售完為止
5932109955,優達藥局,桃園市平鎮區廣明路六六號,121.2139,24.9538,(03)4943488,羅氏家用新冠病毒抗原自我檢測套組,2,2022/04/28 22:48:03,口罩販賣時段:8點成人兒童售完為止
593210A238,美樂蒂藥局,桃園市平鎮區民族路二三七號二樓,121.2091,24.95658,(03)4023131,羅氏家用新冠病毒抗原自我檢測套組,4,2022/04/28 22:48:03,無
5933053621,縣政丁丁藥局,新竹縣竹北市縣政二路５５８號,121.0188,24.8321,(03)5589176,羅氏家用新冠病毒抗原自我檢測套組,78,2022/04/28 22:48:03,9:00-22:00
5933081447,彰懷藥局,新竹縣新豐鄉新興路75號1樓,120.9926,24.86639,(03)5572995,羅氏家用新冠病毒抗原自我檢測套組,78,2022/04/28 22:48:03,星期一至星期五，早上九點現場購買至售完為止；星期六下午四點購買至售完為止；星期日公休
5934011958,栢心藥局,宜蘭縣宜蘭市宜興路１段１１１號,121.7561,24.7514,(03)9357277,羅氏家用新冠病毒抗原自我檢測套組,77,2022/04/28 22:48:03,週一~週六，下午14:30~16:30販售快篩試劑
5934081067,威仁藥局,宜蘭縣冬山鄉冬山路２１９號,121.7907,24.63453,(03)9595351,羅氏家用新冠病毒抗原自我檢測套組,1,2022/04/28 22:48:03,無
5934091125,安心藥局,宜蘭縣五結鄉禮運路３８－１號,121.7768,24.68105,(03)9551670,羅氏家用新冠病毒抗原自我檢測套組,53,2022/04/28 22:48:03,無
5934120014,進昌健保藥局,宜蘭縣南澳鄉蘇花路２段３８３號,121.8039,24.46602,(03)9981011,羅氏家用新冠病毒抗原自我檢測套組,234,2022/04/28 22:48:03,無
5935011738,佳禾藥局,苗栗縣苗栗市青苗里建台街7號,120.821,24.55742,(037)373041,羅氏家用新冠病毒抗原自我檢測套組,78,2022/04/28 22:48:03,口罩7：30開始販賣，販賣時段：營業時間至售完為止
5935042108,好康健保藥局,苗栗縣竹南鎮科專七路２１９號１樓,120.9025,24.70536,(037)680877,羅氏家用新冠病毒抗原自我檢測套組,3,2022/04/28 22:48:03,無
5935071216,萊恩藥局,苗栗縣卓蘭鎮上新里上新7之1號,120.83,24.30719,(04)25899369,羅氏家用新冠病毒抗原自我檢測套組,3,2022/04/28 22:48:03,口罩販賣時段：08:00-售完
5935071252,國良藥局,苗栗縣卓蘭鎮中山路１１１號１樓,120.8259,24.31214,(042)5899578,羅氏家用新冠病毒抗原自我檢測套組,1,2022/04/28 22:48:03,無
5935080055,臺健中西藥局,苗栗縣大湖鄉中正路１９號,120.869,24.42165,(037)990638,羅氏家用新冠病毒抗原自我檢測套組,234,2022/04/28 22:48:03,無
5935081169,景元藥局,苗栗縣大湖鄉中正路９７號,120.8664,24.42265,(037)996465,羅氏家用新冠病毒抗原自我檢測套組,234,2022/04/28 22:48:03,無
5936101893,新信和藥局,臺中市大雅區民興街５０號,120.6482,24.22531,(04)25603058,羅氏家用新冠病毒抗原自我檢測套組,62,2022/04/28 22:48:03,無
5936190416,同安藥局,臺中市太平區新平路三段８７號,120.7202,24.15065,(04)23918391,羅氏家用新冠病毒抗原自我檢測套組,2,2022/04/28 22:48:03,週一至五0900-2100，1300-1600休息、週六0900-1300，週日休息。
5936191851,佑昇藥局,臺中市太平區中平路１６號１樓,120.7207,24.13334,(04)22783697,羅氏家用新冠病毒抗原自我檢測套組,2,2022/04/28 22:48:03,無
593620B138,聯生中西健保藥局,臺中市大里區現岱路１５８巷１１號,120.6919,24.10295,(04)24834058,羅氏家用新冠病毒抗原自我檢測套組,24,2022/04/28 22:48:03,早上八點半領號碼牌下午四點到六點領口罩W6W日早七點
5936211063,八醫健保藥局和平店,臺中市和平區東關路３段１３５號,120.8885,24.17379,(04)25941037,羅氏家用新冠病毒抗原自我檢測套組,150,2022/04/28 22:48:03,4／4 4／5 各公休一天
5937031541,友誼藥局和美店,彰化縣和美鎮和東里仁化路１４７、１４９號,120.4964,24.11017,(04)7550866,羅氏家用新冠病毒抗原自我檢測套組,8,2022/04/28 22:48:03,早上9::00-10:00販賣，六日不發售。
5937041172,九和藥局,彰化縣北斗鎮西德里斗苑路一段２９０號,120.5211,23.87211,(04)8875039,羅氏家用新冠病毒抗原自我檢測套組,78,2022/04/28 22:48:03,無
5937050331,金鴻安大藥局,彰化縣員林市中正路３２３號,120.5733,23.95618,(04)8344210,羅氏家用新冠病毒抗原自我檢測套組,1,2022/04/28 22:48:03,早上7點至晚上10點，民眾可持健保卡買快篩
5937051981,康美藥局,彰化縣員林市南平里南平街２６號,120.5646,23.96301,(04)8395172,羅氏家用新冠病毒抗原自我檢測套組,6,2022/04/28 22:48:03,無
5937052059,華衛藥局,彰化縣員林市惠來里南昌路９６號,120.5719,23.95464,(04)8397503,羅氏家用新冠病毒抗原自我檢測套組,5,2022/04/28 22:48:03,無
5937052264,醫聯藥師藥局,彰化縣員林市三條里員東路二段４１０號１樓,120.5811,23.95898,(04)8360617,羅氏家用新冠病毒抗原自我檢測套組,4,2022/04/28 22:48:03,*固定星期一~日每日早上8:30分，開始販售。（全年無休）
5937052399,裕良藥局大同店,彰化縣員林市大同路二段２０３－１號,120.5746,23.96891,(04)8344612,羅氏家用新冠病毒抗原自我檢測套組,64,2022/04/28 22:48:03,週一至週六下午2點
5937052497,家家藥局,彰化縣員林市惠來街８７號,120.5704,23.95526,(04)8367007,羅氏家用新冠病毒抗原自我檢測套組,39,2022/04/28 22:48:03,無
5937070011,明輝藥局,彰化縣田中鎮東路里新生街８７號,120.5871,23.86112,(04)8740433,羅氏家用新冠病毒抗原自我檢測套組,2,2022/04/28 22:48:03,111年起 營業時間為周一到周六早上8:00開始到晚上9:00
5937181279,佳恩藥局,彰化縣永靖鄉永西村瑚璉路３０２號,120.547,23.92421,(04)8235753,羅氏家用新冠病毒抗原自我檢測套組,2,2022/04/28 22:48:03,週一至週六早上9點販售口罩 週日公休
5937211094,田尾藥局,彰化縣田尾鄉饒平村光復路２段６６９號,120.5313,23.89053,(04)8836725,羅氏家用新冠病毒抗原自我檢測套組,26,2022/04/28 22:48:03,無
5937251105,宏吉藥局,彰化縣竹塘鄉竹塘村仁愛街５０號,120.4271,23.86282,(04)8976709,羅氏家用新冠病毒抗原自我檢測套組,15,2022/04/28 22:48:03,周一到周六，7:50開始販賣防疫口罩（無發放號碼牌）
5938040366,竹山藥局,南投縣竹山鎮中山里竹山路１５０之２號,120.6818,23.7539,(049)2644930,羅氏家用新冠病毒抗原自我檢測套組,1,2022/04/28 22:48:03,處方單調劑，口罩代售
5938041729,早安藥局,南投縣竹山鎮雲林路４１號,120.6834,23.75608,(049)2651032,羅氏家用新冠病毒抗原自我檢測套組,7,2022/04/28 22:48:03,每日早上9:00-晚上9:00販賣口罩（全年無休每月最後六日休息）
5938070097,好康藥局,南投縣鹿谷鄉中正路二段６４號,120.7538,23.7458,(049)2753788,羅氏家用新冠病毒抗原自我檢測套組,234,2022/04/28 22:48:03,無
5938100018,佑全藥局,南投縣國姓鄉中興路１０３號,120.8572,24.04147,(049)2722998,羅氏家用新冠病毒抗原自我檢測套組,150,2022/04/28 22:48:03,每日約8:30發放號碼牌，9:00開始販售
5938100063,興安藥局,南投縣國姓鄉石門村國姓路２７８－１號,120.8568,24.04001,(049)2721133,羅氏家用新冠病毒抗原自我檢測套組,234,2022/04/28 22:48:03,正常8:30開始營業，（若消毒完成提早8:00開始販賣口罩）
5938130016,永康藥局,南投縣仁愛鄉大同村仁和路８４號,121.1324,24.02249,(049)2802730,羅氏家用新冠病毒抗原自我檢測套組,131,2022/04/28 22:48:03,醫療口罩領取星期一到星期五早上九點到十二點
5939032724,虎尾藥局,雲林縣虎尾鎮林森路二段１１７、１１９號,120.4298,23.70595,(05)6336330,羅氏家用新冠病毒抗原自我檢測套組,78,2022/04/28 22:48:03,無
5939051229,祥安藥局,雲林縣土庫鎮東平里馬光路３８－１號,120.357,23.70561,(05)6656610,羅氏家用新冠病毒抗原自我檢測套組,2,2022/04/28 22:48:03,口罩販賣以營業時間為準，上午8:10~12:00，下午2:15~5:50，晚上（星期一.三.五）7:00~9:00.請自備零錢，售完為止.
5939061930,德豐藥局,雲林縣北港鎮公園路１２號,120.303,23.5735,(05)7835338,羅氏家用新冠病毒抗原自我檢測套組,4,2022/04/28 22:48:03,平日中午十二點到兩點休息，下午六點到六點半休息，週日全天休息
5939071276,慈生藥局,雲林縣古坑鄉麻園村平和２２號,120.5203,23.6351,(05)5828222,羅氏家用新冠病毒抗原自我檢測套組,45,2022/04/28 22:48:03,（週一公休） 週三.四.六.日下午3-5點販售實名制快篩
5939131482,麥津藥局,雲林縣麥寮鄉中山路３１３、３１５號,120.2527,23.74947,(05)6932258,羅氏家用新冠病毒抗原自我檢測套組,2,2022/04/28 22:48:03,快篩實名制，每天16:00開始販售，售完為止。
5939151135,三民藥局,雲林縣褒忠鄉三民路１５號,120.3109,23.69352,(05)6975515,羅氏家用新冠病毒抗原自我檢測套組,76,2022/04/28 22:48:03,時間：08:00至完售
5939171093,和平藥局,雲林縣元長鄉下寮村東興路３３號,120.334,23.61849,(05)7862551,羅氏家用新冠病毒抗原自我檢測套組,2,2022/04/28 22:48:03,販賣口罩時間：0800開賣，賣完為止
5939171128,順元藥局,雲林縣元長鄉中山路２５號,120.3132,23.64867,(05)7886555,羅氏家用新冠病毒抗原自我檢測套組,17,2022/04/28 22:48:03,週六、週日上午彈性上班
5939200011,優生藥局,雲林縣水林鄉水林路９９巷２號,120.247,23.57205,(05)7856307,羅氏家用新冠病毒抗原自我檢測套組,2,2022/04/28 22:48:03,販賣口罩時間:如營業時間
5939201158,健安藥局,雲林縣水林鄉松北村蔦松路６９之１號,120.2318,23.51741,(05)7841025,羅氏家用新冠病毒抗原自我檢測套組,78,2022/04/28 22:48:03,販賣口罩時間7:30開始販賣（周一至周日全天供應，售完為止）
5939201345,金花藥局,雲林縣水林鄉水北村水林路２２２號,120.2406,23.57206,(05)7856112,羅氏家用新冠病毒抗原自我檢測套組,32,2022/04/28 22:48:03,無
5940021166,懷恩藥局,嘉義縣布袋鎮太平東路４６５號,120.1676,23.37761,(05)3478211,羅氏家用新冠病毒抗原自我檢測套組,8,2022/04/28 22:48:03,單周六看診
5940051119,宇安藥局,嘉義縣溪口鄉坪頂村溪民路３１號,120.4003,23.60387,(05)2697736,羅氏家用新冠病毒抗原自我檢測套組,5,2022/04/28 22:48:03,8:00-12:00，14:00-19:00，六，8:00-12:00，日不販售口罩
5940120191,大嘉藥局,嘉義縣水上鄉正義路１巷１６號,120.4006,23.43044,(05)2689031,羅氏家用新冠病毒抗原自我檢測套組,3,2022/04/28 22:48:03,08:00~售罄
5941030114,協宏藥局,臺南市白河區竹門里９８之３號,120.4466,23.37697,(06)6852961,羅氏家用新冠病毒抗原自我檢測套組,13,2022/04/28 22:48:03,08／00-2100 口罩販售時間：0900-售完
5941100022,安溪藥局,臺南市後壁區福安里１０２之４８號,120.3536,23.33085,(06)6333381,羅氏家用新冠病毒抗原自我檢測套組,234,2022/04/28 22:48:03,下午3點到5點半藥師可能出門運動買晚餐
5941230052,博愛中西藥局,臺南市玉井區玉田里中正路２３８號,120.464,23.12518,(06)5743036,羅氏家用新冠病毒抗原自我檢測套組,234,2022/04/28 22:48:03,防疫口罩:早上7點 到  售完為止
5941231139,伊立安藥局,臺南市玉井區玉田里中山路１４３號１樓,120.4657,23.12218,(06)5747001,羅氏家用新冠病毒抗原自我檢測套組,236,2022/04/28 22:48:03,防疫口罩購買...8:00開始.售完為止
5942030225,吉本藥局,高雄市旗山區旗南里中洲路４７４－１號,120.465,22.83976,(07)6663226,羅氏家用新冠病毒抗原自我檢測套組,8,2022/04/28 22:48:03,營業日0800~2200，14:00開始發號碼牌14:30起為配售口罩時間.售完為止；周六公休無配售口罩；
5942040089,進安堂藥局,高雄市美濃區忠孝路１段３７２號,120.5261,22.87692,(07)6812741,羅氏家用新冠病毒抗原自我檢測套組,31,2022/04/28 22:48:03,無
5942211122,永昇藥局,高雄市六龜區太平路８５號,120.637,22.99552,(07)6895522,羅氏家用新冠病毒抗原自我檢測套組,282,2022/04/28 22:48:03,每日07:30販賣口罩時間，售完為止
5942220023,維康藥局,高雄市甲仙區西安里中正路２２號,120.5885,23.08291,(07)6752585,羅氏家用新冠病毒抗原自我檢測套組,214,2022/04/28 22:48:03,自2／11日~2／29日，營業日07:00起為販賣口罩時間，售完為止
5942220032,文殊堂藥局,高雄市甲仙區西安里文化路２２號,120.5894,23.08194,(07)6752176,羅氏家用新冠病毒抗原自我檢測套組,264,2022/04/28 22:48:03,自2／11日~2／29日，營業日07:30起為販賣口罩時間，售完為止。
5942240043,光輝藥局,高雄市內門區鄉觀亭里南屏路２３０號,120.4547,22.92305,(07)6671106,羅氏家用新冠病毒抗原自我檢測套組,2,2022/04/28 22:48:03,自3／01日~3／31日，營業日8:30起為販賣口罩時間，售完為止
5943012427,寶慷藥局,屏東縣屏東市中正路三九八號,120.493,22.68328,(08)7350558,羅氏家用新冠病毒抗原自我檢測套組,2,2022/04/28 22:48:03,快篩領取時間下午14:00.售完為止
5943013166,名正生活美藥局,屏東縣屏東市復興南路１段９９號,120.4862,22.65322,(08)7524395,羅氏家用新冠病毒抗原自我檢測套組,1,2022/04/28 22:48:03,營業日AM9:00~PM21:00為販賣口罩時間，售完為止
5943013880,一二藥局,屏東縣屏東市廣東路１０９４號,120.484,22.68769,(08)7324688,羅氏家用新冠病毒抗原自我檢測套組,75,2022/04/28 22:48:03,防疫快篩時間:AM10:30~12:30
5943014341,和平藥局,屏東縣屏東市和平路３５號,120.4785,22.66651,(08)7556696,羅氏家用新冠病毒抗原自我檢測套組,1,2022/04/28 22:48:03,快篩實名制，每天16:00開始販售，售完為止。
5943021604,葉錦霖藥局,屏東縣潮州鎮新榮里中山五巷３－４號,120.5391,22.54882,(08)7885629,羅氏家用新冠病毒抗原自我檢測套組,2,2022/04/28 22:48:03,藥局販售口罩時間，依藥局門口公告時間為主（售完為止）
5943031735,愛樂活藥局,屏東縣東港鎮長春一路１１３－１號,120.4594,22.47111,(08)8312388,羅氏家用新冠病毒抗原自我檢測套組,2,2022/04/28 22:48:03,口罩販賣時間: 週一至週六早上8點30分至晚上10點30分
5943125198,李藥局,屏東縣萬巒鄉褒忠路１１４號,120.5693,22.57332,(08)7810625,羅氏家用新冠病毒抗原自我檢測套組,234,2022/04/28 22:48:03,週一至週日販賣快篩。
5943125205,萬巒健保藥局,屏東縣萬巒鄉褒忠路７７號,120.5705,22.57219,(08)7815919,羅氏家用新冠病毒抗原自我檢測套組,234,2022/04/28 22:48:03,自2／11日~2／29日，營業日09:00發號碼牌，14:30~21:00為販賣口罩時間，售完為止。
5943181089,佳恩藥局,屏東縣崁頂鄉興農路４８號,120.5102,22.5132,(08)8635908,羅氏家用新冠病毒抗原自我檢測套組,1,2022/04/28 22:48:03,早上8點~10點販賣口罩  星期日3點~4點販賣口罩
5943221131,美美藥局,屏東縣琉球鄉中山路７５之３號,120.3794,22.34968,(08)8612191,羅氏家用新冠病毒抗原自我檢測套組,234,2022/04/28 22:48:03,營業日早上7:40開始販售，售完為止，星期日不販售口罩
5945021086,安康鳳林藥局,花蓮縣鳳林鎮仁愛街１０號１樓,121.4503,23.74937,(03)8762227,羅氏家用新冠病毒抗原自我檢測套組,1,2022/04/28 22:48:03,無
5945051575,宜康藥局,花蓮縣吉安鄉中華路二段１３４號,121.585,23.97395,(03)8512980,羅氏家用新冠病毒抗原自我檢測套組,1,2022/04/28 22:48:03,5／2（一）全天休診
5945051619,仁愛藥局,花蓮縣吉安鄉慶豐村中山路三段２８０號,121.5712,23.97783,(03)8511635,羅氏家用新冠病毒抗原自我檢測套組,78,2022/04/28 22:48:03,無
5946061128,三杏藥局,臺東縣太麻里鄉太麻里街２６３號,121.0054,22.61024,(089)783373,羅氏家用新冠病毒抗原自我檢測套組,234,2022/04/28 22:48:03,無
5946080552,伯安健康藥局,臺東縣長濱鄉長濱村１０鄰長濱路１０５號,121.4515,23.31496,(089)832519,羅氏家用新冠病毒抗原自我檢測套組,235,2022/04/28 22:48:03,無
5946101118,伯安藥局,臺東縣池上鄉新生路１１６號,121.2187,23.12315,(089)863585,羅氏家用新冠病毒抗原自我檢測套組,30,2022/04/28 22:48:03,早0800-1200，午1400-1800，晚1800-2000
5990010695,百泰藥局,金門縣金城鎮西海路１段１號,118.2864,24.41566,(082)312832,羅氏家用新冠病毒抗原自我檢測套組,2,2022/04/28 22:48:03,快篩實名制，每天16:00開始販售，售完為止。
