醫事機構代碼,醫事機構名稱,醫事機構地址,經度,緯度,醫事機構電話,廠牌項目,快篩試劑截至目前結餘存貨數量,來源資料時間,備註
2340170016,嘉義縣大埔鄉衛生所,嘉義縣大埔鄉大埔村５３－１號,120.5928,23.29397,(05)2521214,羅氏家用新冠病毒抗原自我檢測套組,47,2022/05/11 19:55:02,無
2342270019,高雄市那瑪夏區衛生所,高雄市那瑪夏區瑪雅里６鄰平和巷２５２號,120.7024,23.24708,(07)6701142,羅氏家用新冠病毒抗原自我檢測套組,1,2022/05/11 19:55:02,春節期間正常門診
2344011036,澎湖縣馬公市第三衛生所,澎湖縣馬公市西文里１１８之２號,119.5836,23.56813,(06)9211723,羅氏家用新冠病毒抗原自我檢測套組,27,2022/05/11 19:55:02,本所快篩試劑只提供離島衛生室（虎井、桶盤）販售，時間週一至週五08:30-17:00售完為止，星期六、日國定假日09:00-12:00。
2344030022,澎湖縣白沙鄉鳥嶼衛生所,澎湖縣白沙鄉鳥嶼村漁港新村３號,119.6599,23.66008,(06)9916092,羅氏家用新冠病毒抗原自我檢測套組,139,2022/05/11 19:55:02,非上班時間提供急診服務
2344030031,澎湖縣白沙鄉吉貝衛生所,澎湖縣白沙鄉吉貝村８－１３號,119.6138,23.74056,(06)9911430,羅氏家用新冠病毒抗原自我檢測套組,226,2022/05/11 19:55:02,無
2344050015,澎湖縣望安鄉衛生所,澎湖縣望安鄉西安村３６－７號,119.4972,23.36161,(06)9991036,羅氏家用新冠病毒抗原自我檢測套組,17,2022/05/11 19:55:02,夜間急診。快篩試劑販售時間為:每日08:00-12:00、13:30-17:30售完為止，如有餘數為離島未售出（東嶼坪、花嶼）。
2344050024,澎湖縣望安鄉將軍衛生所,澎湖縣望安鄉將軍村１２鄰將軍澳１之３號,119.5216,23.3615,(06)9902066,羅氏家用新冠病毒抗原自我檢測套組,21,2022/05/11 19:55:02,24小時急診
2346160014,台東縣蘭嶼鄉衛生所,臺東縣蘭嶼鄉紅頭村３６號,121.5546,22.02493,(089)732575,羅氏家用新冠病毒抗原自我檢測套組,22,2022/05/11 19:55:02,販售口罩時間 星期一至星期五 8:00~12:00 13:30~17:30
2391020010,連江縣北竿鄉衛生所,連江縣北竿鄉塘岐村２８１－６號,119.9991,26.22617,(083)655592,羅氏家用新冠病毒抗原自我檢測套組,19,2022/05/11 19:55:02,新冠快篩試劑販售於週一至周六每日上午08:30-12:00開放購買。
2391030016,連江縣莒光鄉西莒衛生所,連江縣莒光鄉青帆村１４－１號,119.9331,25.97157,(083)689122,羅氏家用新冠病毒抗原自我檢測套組,207,2022/05/11 19:55:02,防疫口罩星期一至五09:00-17:00、（六）09:00-12:00現場購買
2391030026,連江縣莒光鄉東莒衛生所,連江縣莒光鄉大坪村３０－１號,119.9731,25.96113,(083)689038,羅氏家用新冠病毒抗原自我檢測套組,434,2022/05/11 19:55:02,防疫口罩星期一至星期日上午10:00-12:00收取健保卡，下午3:30至本所領取口罩。
5901012570,予志藥局,臺北市松山區富錦街５２１號,121.5649,25.06119,(02)27623522,羅氏家用新冠病毒抗原自我檢測套組,1,2022/05/11 19:55:02,實名制快篩星期一到三下午2點、星期四到六晚上8點、星期日停售
5901012598,婕登藥局,臺北市松山區八德路４段６９９號,121.5766,25.05021,(02)27482893,羅氏家用新冠病毒抗原自我檢測套組,11,2022/05/11 19:55:02,今天快篩已經發送完畢（電腦庫存不準）
5901013095,康采藥局,臺北市松山區南京東路５段２９１巷１７－２號,121.5663,25.05236,(02)27670271,羅氏家用新冠病毒抗原自我檢測套組,13,2022/05/11 19:55:02,（已完售，庫存不準）快篩試劑每日16點販售，週日沒有販售
5901013693,民生盛康藥局,臺北市松山區民生東路５段２０４號１樓,121.5648,25.05826,(02)27460758,羅氏家用新冠病毒抗原自我檢測套組,51,2022/05/11 19:55:02,【每日70分】星期一~六9:00發號碼牌，11:00~20:00拿號碼牌回來領取，每人限1張號碼牌，逾時不候
5901020385,延吉大藥局,臺北市大安區延吉街１５３號１樓,121.5548,25.04066,(02)27819227,羅氏家用新冠病毒抗原自我檢測套組,41,2022/05/11 19:55:02,無
5901024098,杏一瑞安藥局,臺北市大安區瑞安街２０８巷１１弄１號,121.5406,25.02866,(02)27096710,羅氏家用新冠病毒抗原自我檢測套組,78,2022/05/11 19:55:02,3點發快篩，前5分鐘發牌
5901024918,康祥藥局,臺北市大安區忠孝東路４段２１６巷２１號,121.5531,25.04025,(02)27817891,羅氏家用新冠病毒抗原自我檢測套組,2,2022/05/11 19:55:02,星期天11:00-19:00
5901100422,滿順藥局,臺北市中山區伊通街５４號１樓,121.5347,25.05145,(02)25075283,羅氏家用新冠病毒抗原自我檢測套組,1,2022/05/11 19:55:02,快篩服務時間 AM 8:30 起 售完為止
5901101509,永直藥局,臺北市中山區北安路５９５巷２弄６號,121.5483,25.08192,(02)85098059,羅氏家用新冠病毒抗原自我檢測套組,159,2022/05/11 19:55:02,周一至周六早上8點發號碼牌，下午2點到晚上8點販售（拿號碼牌來買），周日不販售
5901101929,樂活苑藥局,臺北市中山區北安路５４６號１樓,121.548,25.08014,(02)25323296,羅氏家用新冠病毒抗原自我檢測套組,12,2022/05/11 19:55:02,實名制快篩代售時間為18:00~19:00.現場排隊，不發號碼牌.
5901102444,啟美藥師藥局,臺北市中山區錦州街２８２號,121.5352,25.06024,(02)25178032,羅氏家用新冠病毒抗原自我檢測套組,78,2022/05/11 19:55:02,快篩 販售時間 20點開賣到21點，星期六日公休
5901102686,富宥康藥局,臺北市中山區北安路６０８巷５弄２２號,121.5496,25.08263,(02)25325277,羅氏家用新冠病毒抗原自我檢測套組,34,2022/05/11 19:55:02,無
5901102971,保德明水藥局,臺北市中山區北安路６０８巷４弄１號,121.5493,25.08191,(02)85097769,羅氏家用新冠病毒抗原自我檢測套組,2,2022/05/11 19:55:02,快篩實名制5／1（日）~5／3（二）晚上七點開賣，不提早發號碼牌，以現場排隊為主
5901103629,十二願藥局,臺北市中山區林森北路３０９號,121.5256,25.05588,(02)25311223,羅氏家用新冠病毒抗原自我檢測套組,72,2022/05/11 19:55:02,快篩晚上8點開始發放.營業時間下午1點至凌晨3點
5901112100,盧狄聯合藥局,臺北市內湖區康寧路３段１８９巷５７號,121.6129,25.07133,(02)26308897,羅氏家用新冠病毒抗原自我檢測套組,23,2022/05/11 19:55:02,營業時間08:00~22:00，週六上半天   **快篩實名制販售辦法公告在fb及門口**
5901112879,壹零捌藥局,臺北市內湖區成功路４段３４４號,121.5996,25.08488,(02)27910061,羅氏家用新冠病毒抗原自我檢測套組,25,2022/05/11 19:55:02,快篩晚上7:30開始販售（星期一至星期六）
5901113018,桔子藥局,臺北市內湖區內湖路２段３３３號,121.5917,25.08319,(02)27930052,羅氏家用新冠病毒抗原自我檢測套組,78,2022/05/11 19:55:02,早0900-1200，午1400-1700，晚1900-2100
5901121841,泓安藥局,臺北市南港區興華路７５號,121.6061,25.05517,(02)27861083,羅氏家用新冠病毒抗原自我檢測套組,1,2022/05/11 19:55:02,星期一至星期日早上10:00開賣快篩試劑
5901152079,資生堂藥局,臺北市士林區承德路４段４０巷１７號１Ｆ,121.522,25.08107,(02)28857588,羅氏家用新冠病毒抗原自我檢測套組,78,2022/05/11 19:55:02,今日快篩已售完
5901152659,和樹藥局,臺北市士林區後港街４５巷１號１樓,121.5228,25.08444,(02)28821188,羅氏家用新冠病毒抗原自我檢測套組,78,2022/05/11 19:55:02,週日公休，周一早上9:30
5901154091,社正藥局,臺北市士林區社正路１２號１樓,121.5093,25.08854,(02)28118704,羅氏家用新冠病毒抗原自我檢測套組,4,2022/05/11 19:55:02,無
5901154135,誠泰中西藥局,臺北市士林區永平街１３號１樓,121.5051,25.08996,(02)88112352,羅氏家用新冠病毒抗原自我檢測套組,6,2022/05/11 19:55:02,周一到周六晚上7:00開始販賣，   周日上午10:00開賣到下午1:00
5901163536,天富大藥局,臺北市北投區石牌路２段１７１號（實際使用：１樓）,121.518,25.11848,(02)28225812,羅氏家用新冠病毒抗原自我檢測套組,1,2022/05/11 19:55:02,週一至週六下午2-3點直接販售；週日暫停販售
5901163545,天康大藥局,臺北市北投區中央南路１段５７號,121.5014,25.13192,(02)28914265,羅氏家用新冠病毒抗原自我檢測套組,1,2022/05/11 19:55:02,實名制快篩下午1:30現場販售
5901170139,福華藥局,臺北市信義區吳興街２８１巷３號１樓,121.5643,25.02656,(02)27208527,羅氏家用新冠病毒抗原自我檢測套組,1,2022/05/11 19:55:02,現階段下午1:30配合政府發售快篩試劑
5901170648,立信藥局,臺北市信義區松山路４０３號,121.578,25.04144,(02)27687754,羅氏家用新冠病毒抗原自我檢測套組,5,2022/05/11 19:55:02,快篩試劑販賣時間:晚上七點至九點
5901172580,文興藥局,臺北市信義區福德街２４５號,121.5859,25.03874,(02)27590989,羅氏家用新冠病毒抗原自我檢測套組,57,2022/05/11 19:55:02,無
5901173818,博亞藥局,臺北市信義區莊敬路４６２號,121.5677,25.02672,(02)27580506,羅氏家用新冠病毒抗原自我檢測套組,39,2022/05/11 19:55:02,平日早上8:30、晚上8:00；假日早上8:30，發放號碼牌，持號碼牌購買!
5901174011,寶春藥局,臺北市信義區虎林街１１９之１９號１樓,121.5771,25.04112,(02)27566501,羅氏家用新冠病毒抗原自我檢測套組,6,2022/05/11 19:55:02,實名制快篩每日19:00現場排隊販售
5901180368,古亭藥局,臺北市中正區汀州路３段１１７號,121.5301,25.01667,(02)23683618,羅氏家用新冠病毒抗原自我檢測套組,3,2022/05/11 19:55:02,實名制  快篩  預計每晚7:30 排隊人數額滿 就開賣    星期六早上休息 星期日休息
5901183387,丞良藥局,臺北市中正區南昌路１段７８號地下１樓,121.5173,25.03099,(02)33938868,羅氏家用新冠病毒抗原自我檢測套組,13,2022/05/11 19:55:02,週一~週五 晚上9:00~9:30現場領取，若排隊人潮過多會提早開賣
5901184213,71恩典藥局,臺北市中正區信義路２段７１號,121.5264,25.03466,(02)23223371,羅氏家用新冠病毒抗原自我檢測套組,2,2022/05/11 19:55:02,快篩販售：◆週一到週五19:00 ◆週六17:00，十分鐘前發號碼牌。拜託不要打電話詢問，超累!!
5901184553,珍忻藥局,臺北市中正區南昌路１段６５號,121.5174,25.03107,(02)23965115,羅氏家用新冠病毒抗原自我檢測套組,1,2022/05/11 19:55:02,健保快篩發放:13:20及18:20分兩梯次發號碼牌
5901190668,聯慶大藥局,臺北市萬華區萬大路３０６號１樓,121.5003,25.02495,(02)23039850,羅氏家用新冠病毒抗原自我檢測套組,31,2022/05/11 19:55:02,無
5901193221,正盛藥局,臺北市萬華區中華路２段４３４－１號,121.5064,25.02708,(02)23050386,羅氏家用新冠病毒抗原自我檢測套組,38,2022/05/11 19:55:02,【5／9自費快篩+血氧機到貨!!】1.一~六20點，周日不賣 2.排隊人潮多，建議7點左右提前候位 3.詳情看公告或板橋正康臉書
5901200105,建興藥局,臺北市文山區木柵路２段８１號１樓,121.561,24.98889,(02)29399993,羅氏家用新冠病毒抗原自我檢測套組,7,2022/05/11 19:55:02,星期一至星期日早上8時30分現場販售實名制快篩試劑
5902032530,杏光藥局,高雄市左營區果峰街４７巷１號１樓,120.2869,22.6703,(07)5837060,羅氏家用新冠病毒抗原自我檢測套組,2,2022/05/11 19:55:02,上午營業時間為9 :00~12:00；晚上營業至21:30
5903150028,全成烏日藥局,臺中市烏日區溪南路１段７７６號,120.6427,24.07423,(04)23352656,羅氏家用新冠病毒抗原自我檢測套組,1,2022/05/11 19:55:02,實名制快篩晚上7:00發放，售完為止
5903170048,龍井新庄藥局,臺中市龍井區遊園南路１７９號１樓,120.5843,24.18216,(04)26322169,羅氏家用新冠病毒抗原自我檢測套組,78,2022/05/11 19:55:02,於5／9號開始，實名制快篩星期一到星期六晚上8點準時開賣，現場排隊購買.
5903250658,田園藥局,臺中市南區學府路１６０號１樓,120.6742,24.12909,(04)22220605,羅氏家用新冠病毒抗原自我檢測套組,1,2022/05/11 19:55:02,每週三公休。每天13:30 開始販售，一人限一卡，依到貨數量販售
5903260707,新藥林藥局,臺中市北區健行路４４５－５號１樓,120.6803,24.15896,(04)22053458,羅氏家用新冠病毒抗原自我檢測套組,77,2022/05/11 19:55:02,.快篩:星期一~星期五 下午3點開始，星期六下午一點，星期三.日公休，現場排隊
5903260798,光恒藥局,臺中市北區五權路２６１號１樓,120.6767,24.15097,(04)22068638,羅氏家用新冠病毒抗原自我檢測套組,32,2022/05/11 19:55:02,無
5903270865,尚禾藥局,臺中市西屯區青海路一段６５號,120.6548,24.16438,(04)23147688,羅氏家用新冠病毒抗原自我檢測套組,39,2022/05/11 19:55:02,實名制快篩發放：時段一中午12:30~14:00。時段二20：30~22：30。時段一若未發完，餘量將遞延至時段二發放。周日停售。
5903271031,美十樂中科藥局,臺中市西屯區西屯路三段１６６－６５號１樓,120.6129,24.19035,(04)24610219,羅氏家用新冠病毒抗原自我檢測套組,468,2022/05/11 19:55:02,醫事人員卡片損壞，暫時無法販賣快篩
5903290778,博宇藥局,臺中市北屯區北屯路３８５之１號,120.6979,24.17193,(04)22341479,羅氏家用新冠病毒抗原自我檢測套組,19,2022/05/11 19:55:02,快篩試劑10:00現場販售、售完為止。
5905050058,佳里啄木鳥藥局,臺南市佳里區延平路７６號１樓,120.1795,23.15507,(06)7236396,羅氏家用新冠病毒抗原自我檢測套組,1,2022/05/11 19:55:02,下午2點-售完為止（若當天配送延誤，時間另行公布）
5905140039,安安藥局隆田店,臺南市官田區中山路一段１５號１樓,120.3186,23.1927,(06)5795705,羅氏家用新冠病毒抗原自我檢測套組,2,2022/05/11 19:55:02,全日口罩販賣
5905320466,佑全中華藥局,臺南市東區中華東路三段２１５號,120.2253,22.97603,(06)2906386,羅氏家用新冠病毒抗原自我檢測套組,1,2022/05/11 19:55:02,星期一-六08:00-21:00
5907080250,仁同藥局,高雄市仁武區八卦里永仁街７０６號１樓,120.3313,22.69072,(07)3736142,羅氏家用新冠病毒抗原自我檢測套組,2,2022/05/11 19:55:02,可購買快篩試劑時間每日早上7:30到8:30
5907160093,保生藥局,高雄市湖內區葉厝里保生路３４０．３４２號,120.2195,22.90733,(07)6990800,羅氏家用新冠病毒抗原自我檢測套組,1,2022/05/11 19:55:02,快篩實名制，每天16:00開始販售，售完為止。
5917072724,百芳大藥局,臺中市南屯區向上路二段４２１號,120.6377,24.1469,(04)23818307,羅氏家用新冠病毒抗原自我檢測套組,23,2022/05/11 19:55:02,晚上7:00開始販賣快篩，不發號碼牌。
5921040301,永生藥局,臺南市北區六甲里公園路４８１號,120.2079,23.00898,(06)2813681,羅氏家用新冠病毒抗原自我檢測套組,4,2022/05/11 19:55:02,已全數售完／即日至15日暫停販售
5921051582,丞功藥局,臺南市中西區成功路３１號,120.2095,22.99747,(06)2287641,羅氏家用新冠病毒抗原自我檢測套組,1,2022/05/11 19:55:02,星期一-六08:00-售完
5922013111,富善藥局,嘉義市東區新生路２３４號,120.4609,23.48419,(05)2759559,羅氏家用新冠病毒抗原自我檢測套組,2,2022/05/11 19:55:02,5／13、14休假，實名制快篩早上9:30-12:00 號碼牌領取
5922020509,全德藥局,嘉義市西區福民里興業西路２８９號,120.4392,23.46776,(05)2854263,羅氏家用新冠病毒抗原自我檢測套組,36,2022/05/11 19:55:02,快篩 販售時間：19 :30~20:30星期日停售
5931010235,友祥藥局,新北市板橋區裕民街１０７號,121.4599,25.02773,(02)22544666,羅氏家用新冠病毒抗原自我檢測套組,1,2022/05/11 19:55:02,無
5931010342,宏達大藥局,新北市板橋區莒光路１７號,121.47,25.02478,(02)22572345,羅氏家用新冠病毒抗原自我檢測套組,7,2022/05/11 19:55:02,快篩 晚上20:00開始販售! 不要打電話來 問題這麼多就到現場 也不給你問
5931015687,正康健保藥局,新北市板橋區大觀路２段６５號１樓,121.4467,25.00246,(02)22756681,羅氏家用新冠病毒抗原自我檢測套組,3,2022/05/11 19:55:02,下午13:30依現場順序開始販售快篩，快篩配送絮亂庫存不準!!
5931016611,民川藥局,新北市板橋區四川路１段９７號１樓,121.4598,25.00544,(02)29520090,羅氏家用新冠病毒抗原自我檢測套組,1,2022/05/11 19:55:02,星期一~星期六（快篩上午9:00販售38份下午3:00販售40份）
5931017752,泓泰藥局,新北市板橋區館前西路１４０號２樓,121.4563,25.0081,(02)29686559,羅氏家用新冠病毒抗原自我檢測套組,7,2022/05/11 19:55:02,無
5931017869,躍獅國慶藥局,新北市板橋區國慶路１７９號（１樓）,121.4626,24.99636,(02)29641548,羅氏家用新冠病毒抗原自我檢測套組,78,2022/05/11 19:55:02,快篩實名制，每天14:00開始販售，售完為止
5931017994,後埔藥局,新北市板橋區華興街９號（１樓）,121.459,25.00457,(02)89510306,羅氏家用新冠病毒抗原自我檢測套組,1,2022/05/11 19:55:02,5／10 下午2點發放號碼牌*確保作業流暢請自備500元*每天 78 份晚上10 點以前領取完畢（過卡時間差異剩餘數量僅供參考）
5931018099,廣品藥局,新北市板橋區漢生西路８２號（１樓）,121.4628,25.01934,(02)22576880,羅氏家用新冠病毒抗原自我檢測套組,1,2022/05/11 19:55:02,實名制快篩 周一~周五下午16；00發放 週六.日 早上09；30發放 請勿打電話詢問 感謝配合
5931023349,迪化藥局,新北市三重區中華路７７號,121.4836,25.06267,(02)29834445,羅氏家用新冠病毒抗原自我檢測套組,2,2022/05/11 19:55:02,實名制快篩每日早上九點發牌號／週日食藥署暫停供應快篩
5931023447,安泰藥局,新北市三重區正義北路３００－３號２樓,121.4953,25.06978,(02)89815379,羅氏家用新冠病毒抗原自我檢測套組,99,2022/05/11 19:55:02,5／2只有早上8:30--12:00營業下午.及晚上休息
5931025398,昌誠藥局,新北市三重區三和路４段１６１號１樓,121.4835,25.0785,(02)22876338,羅氏家用新冠病毒抗原自我檢測套組,5,2022/05/11 19:55:02,5／2 （休診）
5931043921,良安藥局,新北市中和區連城路４７７巷１號１樓,121.4833,24.99555,(02)22225798,羅氏家用新冠病毒抗原自我檢測套組,78,2022/05/11 19:55:02,週六日不開店，實名制快篩，晚上9:00開始販售
5931060342,十安藥局,新北市新莊區中港路３１６號,121.4524,25.04544,(02)29922859,羅氏家用新冠病毒抗原自我檢測套組,3,2022/05/11 19:55:02,自111／04／01起不再販賣實名制口罩
5931060557,一安藥局,新北市新莊區立德里新泰路２６８號,121.446,25.04029,(02)29941618,羅氏家用新冠病毒抗原自我檢測套組,1,2022/05/11 19:55:02,實名制快篩發放時間為15:00  其他詳情請上FB查詢
593106A600,全鎵藥局,新北市新莊區建中街２２號１樓,121.4493,25.03766,(02)22761550,羅氏家用新冠病毒抗原自我檢測套組,9,2022/05/11 19:55:02,16:00快篩開賣
593106B036,家嘉藥局,新北市新莊區自立街１０３號（１樓）,121.4553,25.04549,(02)89926488,羅氏家用新冠病毒抗原自我檢測套組,27,2022/05/11 19:55:02,今天號碼牌都已發放完畢
593106B232,新康健保藥局,新北市新莊區自立街１７２號１樓,121.4557,25.04537,(02)29962558,羅氏家用新冠病毒抗原自我檢測套組,2,2022/05/11 19:55:02,早上9點發號碼牌，下午2-4點帶號碼牌來領快篩（逾時不候）
5931070080,耀鴻藥局,新北市樹林區中山路３段７６號,121.3936,24.97239,(02)26808989,羅氏家用新冠病毒抗原自我檢測套組,78,2022/05/11 19:55:02,每天都有發放口罩
5931081305,佑家藥局,新北市鶯歌區中正三路１５１號１樓,121.3367,24.94007,(02)26798282,羅氏家用新冠病毒抗原自我檢測套組,2,2022/05/11 19:55:02,星期一至六，下午1:30發號碼牌   每日提供8份給醫護警消等緊急使用
5931081547,信義健保藥局,新北市鶯歌區信義街６３號１樓,121.3534,24.95571,(02)86775563,羅氏家用新冠病毒抗原自我檢測套組,30,2022/05/11 19:55:02,發放時間以現場公告為主
5931092111,立雅藥局,新北市三峽區文化路８４號（１樓）,121.3719,24.93627,(02)26712601,羅氏家用新冠病毒抗原自我檢測套組,2,2022/05/11 19:55:02,無
5931101464,伯聯藥局,新北市淡水區清水街９－１０號１樓,121.4444,25.17023,(02)26255847,羅氏家用新冠病毒抗原自我檢測套組,1,2022/05/11 19:55:02,快篩實名制星期一到六08:00開賣（如有到貨），星期日無販售
5931112645,健成藥局,新北市汐止區新興路２０號１樓,121.6564,25.06456,(02)26428989,羅氏家用新冠病毒抗原自我檢測套組,14,2022/05/11 19:55:02,無
5931113204,富康活力忠孝藥局,新北市汐止區忠孝東路２７９號１樓,121.6638,25.06854,(02)26422666,羅氏家用新冠病毒抗原自我檢測套組,1,2022/05/11 19:55:02,無
5931120049,本平藥局,新北市瑞芳區瑞芳街４５號,121.8076,25.10913,(02)24972167,羅氏家用新冠病毒抗原自我檢測套組,2,2022/05/11 19:55:02,無
5931132165,佳佳藥局,新北市土城區中央路２段２２３－９號２樓,121.4407,24.97319,(02)82614558,羅氏家用新冠病毒抗原自我檢測套組,18,2022/05/11 19:55:02,5／3起實名制快篩販售時間為19:30，採現場排隊（特殊情形例外）
5931132343,誠安藥局,新北市土城區中央路４段３６號１樓,121.4207,24.96088,(02)22677737,羅氏家用新冠病毒抗原自我檢測套組,118,2022/05/11 19:55:02,快篩代售時段：平日晚上8點，售完為止
5931133331,城安大藥局,新北市土城區金城路３段４０號,121.4656,24.98639,(02)22646561,羅氏家用新冠病毒抗原自我檢測套組,108,2022/05/11 19:55:02,快篩代售時間晚上8:30
5931133617,芮櫟頂埔大藥局,新北市土城區中央路４段３０號１樓,121.4208,24.96094,(02)22677888,羅氏家用新冠病毒抗原自我檢測套組,78,2022/05/11 19:55:02,無
5931171788,泰臨中西藥局,新北市林口區忠孝１路５號（１樓）,121.362,25.07287,(02)26087538,羅氏家用新冠病毒抗原自我檢測套組,73,2022/05/11 19:55:02,週日公休，快篩20:00販售，醫護10份優先。
5931250042,信芳藥局,新北市雙溪區中華路５０號,121.866,25.03761,(02)24931301,羅氏家用新冠病毒抗原自我檢測套組,2,2022/05/11 19:55:02,無
5932011370,家福聯合藥局,桃園市桃園區中山路６２３號,121.2939,24.99093,(03)2289492,羅氏家用新冠病毒抗原自我檢測套組,10,2022/05/11 19:55:02,0503人數已滿，1點發快篩
5932011870,永祥大藥局,桃園市桃園區永安路５２８號,121.2986,25.00181,(03)3337161,羅氏家用新冠病毒抗原自我檢測套組,2,2022/05/11 19:55:02,口罩販賣時段：週一至週六早上9點
5932014111,鴻發藥師藥局,桃園市桃園區大有路５４３號,121.3171,25.0149,(03)3582468,羅氏家用新冠病毒抗原自我檢測套組,78,2022/05/11 19:55:02,實聯快篩:早上09:30發放號碼牌，限當日下午2~4點憑牌購買，逾時不候請見諒
5932018593,品一藥局,桃園市桃園區建新街７６號,121.3118,24.98261,(03)3638510,羅氏家用新冠病毒抗原自我檢測套組,1,2022/05/11 19:55:02,快篩販賣時間：週一至週五早上9：30；週六下午1：00（星期天休息），會發號碼牌（今天已發完）
5932023889,華勛藥局,桃園市中壢區華勛街１１２、１１４號,121.2597,24.95065,(03)4161881,羅氏家用新冠病毒抗原自我檢測套組,2,2022/05/11 19:55:02,快篩實名制，每天16:00開始販售，售完為止。
5932024108,佳愷藥局,桃園市中壢區中北路４７號,121.2368,24.95614,(03)4664735,羅氏家用新冠病毒抗原自我檢測套組,14,2022/05/11 19:55:02,視配貨狀況禮拜三、禮拜五、禮拜六早上9點至11點販售。若未到貨則無法開賣，有任何疑問請致電聯繫許藥師0933-595-819
5932042679,得康美藥局,桃園市楊梅區環南路１２８號１樓,121.1466,24.90164,(03)4788128,羅氏家用新冠病毒抗原自我檢測套組,2,2022/05/11 19:55:02,快篩領取規則~中午:12:00-12:30發號碼牌 ／下午時段發快篩A:14:00-15:00 B:20:00-21:00
5932052737,知博藥師藥局,桃園市蘆竹區營盤里中山路１６０號,121.2977,25.05702,(03)2221886,羅氏家用新冠病毒抗原自我檢測套組,3,2022/05/11 19:55:02,快篩販賣時段：暫定週一至週五16:00-17:00 週六.日不發放.以現場公告時間為主
5932052979,南崁藥局,桃園市蘆竹區中正路２５１、２５３、２５５號,121.2921,25.04695,(03)3522022,羅氏家用新冠病毒抗原自我檢測套組,157,2022/05/11 19:55:02,快篩實名制，每天16:00開始販售，售完為止。
5932071009,德佑藥局,桃園市龜山區大崗里新興街２９３號,121.3558,25.04531,(03)3283556,羅氏家用新冠病毒抗原自我檢測套組,19,2022/05/11 19:55:02,快篩試劑販賣時段為每日晚上07:30開始（星期日暫停販售）
5932076791,誠安生活藥局,桃園市龜山區文化七路７９之２號,121.3635,25.05166,(03)3271997,羅氏家用新冠病毒抗原自我檢測套組,200,2022/05/11 19:55:02,即日起停止販售快篩
5932076844,帕米爾藥局,桃園市龜山區萬壽路二段９９１號,121.3369,24.99464,(03)3295522,羅氏家用新冠病毒抗原自我檢測套組,7,2022/05/11 19:55:02,星期一~六家用快篩試劑販賣時段：19:00~20:30。不發號碼牌，請直接排隊購買。
5932077270,明昌藥局,桃園市龜山區中興里萬壽路二段１１９１－６號,121.3318,24.99291,(03)3501205,羅氏家用新冠病毒抗原自我檢測套組,1,2022/05/11 19:55:02,無
5932077510,左外野藥局,桃園市龜山區文光街６號１樓,121.3802,25.05471,(03)3271503,羅氏家用新冠病毒抗原自我檢測套組,80,2022/05/11 19:55:02,快篩販售:晚上19:30至20:30（週五公休）*不發號碼牌 請直接排隊購買
5932077529,泰麟大藥局,桃園市龜山區自強西路２３８號１樓,121.3325,24.99625,(03)2133728,羅氏家用新冠病毒抗原自我檢測套組,7,2022/05/11 19:55:02,無
5932083974,晨鴻藥師藥局,桃園市八德區桃鶯路７號１樓,121.3265,24.97179,(03)3764299,羅氏家用新冠病毒抗原自我檢測套組,11,2022/05/11 19:55:02,快篩為早上8:30跟晚上6:00領取號碼牌，星期六早上一次發78份，快篩地圖數量參考就好，請勿再打電話詢問 謝謝
5932084828,阿爾富山藥局,桃園市八德區桃鶯路４號１樓,121.3261,24.97167,(03)3763350,羅氏家用新冠病毒抗原自我檢測套組,3,2022/05/11 19:55:02,本藥局實名制快篩於每日晚間7點以實際到貨數量發放，唯保留可視現場排隊人數額滿情況.酌情提前發號碼牌並受理購買!
5933011196,高平堂藥局,新竹縣關西鎮正義路66號,121.1762,24.79269,(03)5872263,羅氏家用新冠病毒抗原自我檢測套組,1,2022/05/11 19:55:02,相關公告 請搜尋FB【高平堂藥局】
5935021261,永信藥師藥局,苗栗縣苑裡鎮和平路７２－１號,120.6549,24.44096,(037)857069,羅氏家用新冠病毒抗原自我檢測套組,78,2022/05/11 19:55:02,無
5935040328,明志藥局,苗栗縣竹南鎮照南里博愛街４號,120.8797,24.68677,(037)472341,羅氏家用新冠病毒抗原自我檢測套組,1,2022/05/11 19:55:02,快篩賣時間:早上6:30~22:00。週六，周日照常。
5935080055,臺健中西藥局,苗栗縣大湖鄉中正路１９號,120.869,24.42165,(037)990638,羅氏家用新冠病毒抗原自我檢測套組,14,2022/05/11 19:55:02,實名快篩劑下午19:30販售!星期六（10:00）販售.日停售
5936150332,真安大藥局,臺中市烏日區興祥街３號,120.6389,24.10483,(04)23360401,羅氏家用新冠病毒抗原自我檢測套組,78,2022/05/11 19:55:02,快篩周一到周六 下午1:30販售
5936150341,原全成藥局,臺中市烏日區中山路一段３８７號１樓,120.6388,24.10773,(04)23361818,羅氏家用新冠病毒抗原自我檢測套組,1,2022/05/11 19:55:02,每日＜下午４點＞!!＜下午４點＞!!＜下午４點＞!!開始發號碼牌販售，售完為止！！
5936171386,國際大藥局,臺中市龍井區藝術街６號,120.5954,24.18751,(04)26522118,羅氏家用新冠病毒抗原自我檢測套組,1,2022/05/11 19:55:02,無
593620B138,聯生中西健保藥局,臺中市大里區現岱路１５８巷１１號,120.6919,24.10295,(04)24834058,羅氏家用新冠病毒抗原自我檢測套組,2,2022/05/11 19:55:02,早上八點半領號碼牌下午四點到六點領口罩W6W日早七點
5937052264,醫聯藥師藥局,彰化縣員林市三條里員東路二段４１０號１樓,120.5811,23.95898,(04)8360617,羅氏家用新冠病毒抗原自我檢測套組,5,2022/05/11 19:55:02,無
5937101146,伸港藥局,彰化縣伸港鄉新港村信義路１３５號,120.4859,24.14825,(04)7992663,羅氏家用新冠病毒抗原自我檢測套組,78,2022/05/11 19:55:02,週一到週五實名制快篩販售時間為『晚上八點』。六日實名制快篩販售時間為『下午兩 點』，感謝您。
5937181279,佳恩藥局,彰化縣永靖鄉永西村瑚璉路３０２號,120.547,23.92421,(04)8235753,羅氏家用新冠病毒抗原自我檢測套組,1,2022/05/11 19:55:02,快篩實名制 :電話預約制，當日早上9點開始預約（已額滿）
5938041729,早安藥局,南投縣竹山鎮雲林路４１號,120.6834,23.75608,(049)2651032,羅氏家用新冠病毒抗原自我檢測套組,1,2022/05/11 19:55:02,實名制快篩試劑早上10點開始販售
5939051238,天愛藥局,雲林縣土庫鎮中山路８０號,120.3903,23.6749,(05)6629923,羅氏家用新冠病毒抗原自我檢測套組,67,2022/05/11 19:55:02,無
5939131400,正鴻健保藥局,雲林縣麥寮鄉表福路３５號,120.255,23.74769,(05)6938786,羅氏家用新冠病毒抗原自我檢測套組,3,2022/05/11 19:55:02,周一至周五早上八點到晚上八點，星期六早上八點到下午四點
5940021157,康富藥師藥局,嘉義縣布袋鎮博愛二街２２號,120.1676,23.37901,(05)3470511,羅氏家用新冠病毒抗原自我檢測套組,1,2022/05/11 19:55:02,快篩：星期一至六下午5點前 星期日10點 前 現場排隊額滿發售 售完為止
5941270163,太子藥局,臺南市仁德區太子里太子路３３８號,120.2577,22.99146,(06)2729906,羅氏家用新冠病毒抗原自我檢測套組,1,2022/05/11 19:55:02,5／9快篩.已售完.
5942060161,信元藥師藥局,高雄市大寮區鳳林三路３２９號,120.3979,22.6013,(07)7836313,羅氏家用新冠病毒抗原自我檢測套組,1,2022/05/11 19:55:02,政府實名制快篩販售時間要參考政府是否配貨，可來電詢問
5942100071,皇佳藥局,高雄市鳥松區仁美里高碼二路１２號,120.3893,22.65769,(07)7312918,羅氏家用新冠病毒抗原自我檢測套組,78,2022/05/11 19:55:02,來電詢問前請先看:實名制快篩，晚上八點開始販售，19:30開放現場排隊，不發號碼牌，自備500元不找零，售完為止
5943050169,新萬安藥局,屏東縣萬丹鄉萬安村萬丹路一段１１３號,120.4894,22.58628,(08)7772035,羅氏家用新冠病毒抗原自我檢測套組,1,2022/05/11 19:55:02,實名制快篩領取號碼牌早上9點
5945021040,人和藥局,花蓮縣鳳林鎮中正路２００號,121.45,23.74899,(03)8762712,羅氏家用新冠病毒抗原自我檢測套組,1,2022/05/11 19:55:02,無
5946080552,伯安健康藥局,臺東縣長濱鄉長濱村１０鄰長濱路１０５號,121.4515,23.31496,(089)832519,羅氏家用新冠病毒抗原自我檢測套組,27,2022/05/11 19:55:02,無
5946101118,伯安藥局,臺東縣池上鄉新生路１１６號,121.2187,23.12315,(089)863585,羅氏家用新冠病毒抗原自我檢測套組,14,2022/05/11 19:55:02,早0800-1200，午1400-1800，晚1800-2000
