醫事機構代碼,醫事機構名稱,醫事機構地址,經度,緯度,醫事機構電話,廠牌項目,快篩試劑截至目前結餘存貨數量,來源資料時間,備註
2331260016,新北市貢寮區衛生所,新北市貢寮區朝陽街７０巷１０號、新北市貢寮區仁愛路１２８號,121.9095,25.02258,(02)24901431,羅氏家用新冠病毒抗原自我檢測套組,78,2022/05/07 14:01:02,快篩試劑販售時間為周一至周五早上9點開始販售，每日販售一箱，數量有限售完為止。
2333140017,新竹縣五峰鄉衛生所,新竹縣五峰鄉大隘村六鄰９９號,121.1194,24.63184,(03)5851005,羅氏家用新冠病毒抗原自我檢測套組,13,2022/05/07 14:01:02,無
2335110017,苗栗縣南庄鄉衛生所,苗栗縣南庄鄉東村大同路１７號,121,24.59733,(037)822024,羅氏家用新冠病毒抗原自我檢測套組,78,2022/05/07 14:01:02,口罩販賣時段:週一至週五上午8:00~下午5:00
2340170016,嘉義縣大埔鄉衛生所,嘉義縣大埔鄉大埔村５３－１號,120.5928,23.29397,(05)2521214,羅氏家用新冠病毒抗原自我檢測套組,78,2022/05/07 14:01:02,無
2340180012,嘉義縣阿里山鄉衛生所,嘉義縣阿里山鄉樂野村３鄰９７－２號,120.7019,23.4666,(05)2561573,羅氏家用新冠病毒抗原自我檢測套組,8,2022/05/07 14:01:02,無
2341120010,臺南市下營區衛生所,臺南市下營區營前里中山路二段１３７號,120.2624,23.23154,(06)6892149,羅氏家用新冠病毒抗原自我檢測套組,44,2022/05/07 14:01:02,家用快篩試劑販賣時間為每周一至週五 下午4點到五點，欲購買民眾請攜帶健保卡及自備零錢購買。
2341240017,臺南市楠西區衛生所,臺南市楠西區楠西里中正路２２６號,120.4859,23.17477,(06)5751006,羅氏家用新冠病毒抗原自我檢測套組,77,2022/05/07 14:01:02,無
2341260019,臺南市左鎮區衛生所,臺南市左鎮區中正里１７２之１５號,120.4099,23.05631,(06)5731114,羅氏家用新冠病毒抗原自我檢測套組,18,2022/05/07 14:01:02,無
2342130010,高雄市田寮區衛生所,高雄市田寮區南安里崗北路３２號,120.3594,22.87301,(07)6361504,羅氏家用新冠病毒抗原自我檢測套組,77,2022/05/07 14:01:02,巡迴醫療:每星期一、四下午及每月第一個有上班的星期三下午巡迴醫療
2342250017,高雄市茂林區衛生所,高雄市茂林區茂林里茂林巷８－４號,120.6641,22.88641,(07)6801046,羅氏家用新冠病毒抗原自我檢測套組,60,2022/05/07 14:01:02,夜間急診，請先撥電話07-6801046
2342260013,高雄市桃源區衛生所,高雄市桃源區桃源里南進巷１８８－１號,120.7642,23.15845,(07)6861126,羅氏家用新冠病毒抗原自我檢測套組,152,2022/05/07 14:01:02,IDS提供24小時服務
2342270019,高雄市那瑪夏區衛生所,高雄市那瑪夏區瑪雅里６鄰平和巷２５２號,120.7024,23.24708,(07)6701142,羅氏家用新冠病毒抗原自我檢測套組,162,2022/05/07 14:01:02,春節期間正常門診
2343250011,屏東縣枋山鄉衛生所,屏東縣枋山鄉枋山村枋山路９８號,120.6527,22.26464,(08)8761150,羅氏家用新冠病毒抗原自我檢測套組,30,2022/05/07 14:01:02,快篩試劑販售時間8點至10點，售完為止
2344011036,澎湖縣馬公市第三衛生所,澎湖縣馬公市西文里１１８之２號,119.5836,23.56813,(06)9211723,羅氏家用新冠病毒抗原自我檢測套組,78,2022/05/07 14:01:02,本所快篩試劑只提供離島衛生室（虎井、桶盤）販售，時間週一至週五08:30-17:00售完為止，星期六、日國定假日09:00-12:00。
2344030022,澎湖縣白沙鄉鳥嶼衛生所,澎湖縣白沙鄉鳥嶼村漁港新村３號,119.6599,23.66008,(06)9916092,羅氏家用新冠病毒抗原自我檢測套組,83,2022/05/07 14:01:02,非上班時間提供急診服務
2344030031,澎湖縣白沙鄉吉貝衛生所,澎湖縣白沙鄉吉貝村８－１３號,119.6138,23.74056,(06)9911430,羅氏家用新冠病毒抗原自我檢測套組,174,2022/05/07 14:01:02,無
2344050015,澎湖縣望安鄉衛生所,澎湖縣望安鄉西安村３６－７號,119.4972,23.36161,(06)9991036,羅氏家用新冠病毒抗原自我檢測套組,143,2022/05/07 14:01:02,夜間急診。口罩、快篩試劑販售時間為:每日08:00-12:00、13:30-17:30售完為止，如有餘數為離島未售出（東嶼坪、花嶼）。
2344050024,澎湖縣望安鄉將軍衛生所,澎湖縣望安鄉將軍村１２鄰將軍澳１之３號,119.5216,23.3615,(06)9902066,羅氏家用新冠病毒抗原自我檢測套組,198,2022/05/07 14:01:02,24小時急診
2344060011,澎湖縣七美鄉衛生所,澎湖縣七美鄉中和村埔內５４號,119.431,23.2041,(06)9971005,羅氏家用新冠病毒抗原自我檢測套組,79,2022/05/07 14:01:02,無
2345080017,衛生福利部花蓮醫院豐濱原住民分院,花蓮縣豐濱鄉豐濱村光豐路４１號,121.5215,23.60195,(03)8358141,羅氏家用新冠病毒抗原自我檢測套組,78,2022/05/07 14:01:02,*本院口罩每天販售，時間自上午8點至晚上9點  *本院週一至週五上下午皆有門診，星期六隔週提供門診，及24小時急診。
2345100014,花蓮縣富里鄉衛生所,花蓮縣富里鄉富里村中山路２０３號,121.2491,23.17847,(03)8831029,羅氏家用新冠病毒抗原自我檢測套組,156,2022/05/07 14:01:02,*內科:每週二下午東里玉蓮寺巡診 **牙科:每週二至卓溪醫療站***口罩販賣時間8:30起至11:00止
2345110010,花蓮縣秀林鄉衛生所,花蓮縣秀林鄉秀林村１２鄰秀林路８８號,121.6334,24.1269,(03)8612122,羅氏家用新冠病毒抗原自我檢測套組,78,2022/05/07 14:01:02,口罩代售時間上班日上午8:10至12時止（口罩限量故售完為止）
2345120016,花蓮縣萬榮鄉衛生所,花蓮縣萬榮鄉萬榮村１鄰１６號,121.4092,23.71558,(03)8751651,羅氏家用新冠病毒抗原自我檢測套組,104,2022/05/07 14:01:02,快篩試劑代售時間：週一至週五下午2點至下午4點，販售為止。
2345130012,花蓮縣卓溪鄉衛生所,花蓮縣卓溪鄉卓溪村中正路６５號,121.3033,23.33294,(03)8882592,羅氏家用新冠病毒抗原自我檢測套組,156,2022/05/07 14:01:02,快篩試劑代售時間：週一至週五上午8：30-11：00（售完即結束）
2346150018,台東縣金峰鄉衛生所,臺東縣金峰鄉賓茂村１鄰１４號,120.9606,22.53248,(089)772201,羅氏家用新冠病毒抗原自我檢測套組,78,2022/05/07 14:01:02,快篩試劑販售時間為星期一至星期五，早上8:30~12:00；下午1:30~5:00
2346160014,台東縣蘭嶼鄉衛生所,臺東縣蘭嶼鄉紅頭村３６號,121.5546,22.02493,(089)732575,羅氏家用新冠病毒抗原自我檢測套組,78,2022/05/07 14:01:02,販售口罩時間 星期一至星期五 8:00~12:00 13:30~17:30
2390050032,金門縣烈嶼鄉衛生所,金門縣烈嶼鄉西口村西方６－５號,118.2395,24.43519,(082)362078,羅氏家用新冠病毒抗原自我檢測套組,12,2022/05/07 14:01:02,快篩試劑販售時間:周一至周五下午1點至3點
2391020010,連江縣北竿鄉衛生所,連江縣北竿鄉塘岐村２８１－６號,119.9991,26.22617,(083)655592,羅氏家用新冠病毒抗原自我檢測套組,11,2022/05/07 14:01:02,新冠快篩試劑販售於週一至周六每日上午08:30-12:00開放購買。
2391030016,連江縣莒光鄉西莒衛生所,連江縣莒光鄉青帆村１４－１號,119.9331,25.97157,(083)689122,羅氏家用新冠病毒抗原自我檢測套組,306,2022/05/07 14:01:02,防疫口罩星期一至五09:00-17:00、（六）09:00-12:00現場購買
2391030026,連江縣莒光鄉東莒衛生所,連江縣莒光鄉大坪村３０－１號,119.9731,25.96113,(083)689038,羅氏家用新冠病毒抗原自我檢測套組,434,2022/05/07 14:01:02,防疫口罩星期一至星期日上午10:00-12:00收取健保卡，下午3:30至本所領取口罩。
5901012203,博荃藥局,臺北市松山區敦化北路４巷５１號,121.5447,25.05006,(02)27316736,羅氏家用新冠病毒抗原自我檢測套組,74,2022/05/07 14:01:02,快篩銷售時間為下午2點憑健保卡開始取號碼牌購買，星期日及連續假期公休 !
5901012598,婕登藥局,臺北市松山區八德路４段６９９號,121.5766,25.05021,(02)27482893,羅氏家用新冠病毒抗原自我檢測套組,6,2022/05/07 14:01:02,今天快篩已經發送完畢（電腦庫存不準）
5901013095,康采藥局,臺北市松山區南京東路５段２９１巷１７－２號,121.5663,25.05236,(02)27670271,羅氏家用新冠病毒抗原自我檢測套組,18,2022/05/07 14:01:02,（已完售，庫存不準）快篩試劑每日16點販售，週日沒有販售
5901013442,松山八德藥局,臺北市松山區八德路２段４００號,121.5466,25.04804,(02)27782773,羅氏家用新冠病毒抗原自我檢測套組,78,2022/05/07 14:01:02,快篩實名制，每天16:00開始販售，售完為止。
5901013693,民生盛康藥局,臺北市松山區民生東路５段２０４號１樓,121.5648,25.05826,(02)27460758,羅氏家用新冠病毒抗原自我檢測套組,124,2022/05/07 14:01:02,【每日70分】每日早上9:00發號碼牌，14:00~20:00拿號碼牌回來領取，每人限1張號碼牌，逾時不候
5901013719,大樹松山藥局,臺北市松山區民生東路５段１０７號１樓,121.5601,25.05878,(02)27562226,羅氏家用新冠病毒抗原自我檢測套組,78,2022/05/07 14:01:02,快篩實名制，每天16:00開始販售，售完為止。
5901013746,富景藥局,臺北市松山區三民路１４５號１樓,121.5631,25.06078,(02)27455666,羅氏家用新冠病毒抗原自我檢測套組,5,2022/05/07 14:01:02,無
5901020376,靜園藥局,臺北市大安區和平東路２段１１８巷５７之１號,121.5429,25.02254,(02)27336390,羅氏家用新冠病毒抗原自我檢測套組,65,2022/05/07 14:01:02,無
5901020554,師大藥局,臺北市大安區師大路９９號１樓,121.5285,25.02271,(02)23623479,羅氏家用新冠病毒抗原自我檢測套組,78,2022/05/07 14:01:02,實名制快篩試劑開賣時間下午2:30現場排隊
5901022898,永康藥局,臺北市大安區麗水街６之２號,121.529,25.03289,(02)23279362,羅氏家用新冠病毒抗原自我檢測套組,71,2022/05/07 14:01:02,下午2點開賣快篩，  請自行排隊沒有發號碼牌
5901023331,佑安藥局,臺北市大安區延吉街２３３巷９號,121.5561,25.03708,(02)27069339,羅氏家用新冠病毒抗原自我檢測套組,51,2022/05/07 14:01:02,營業時間為下午兩點開始，週六暫定賣快篩，人數不多時會取消
5901023653,信安健康藥局,臺北市大安區仁愛路４段１２２巷５８號,121.5501,25.03392,(02)27084858,羅氏家用新冠病毒抗原自我檢測套組,75,2022/05/07 14:01:02,快篩實聯制每天下午2:00開始 （沒有發號碼牌）
5901024007,古亭健康人生藥局,臺北市大安區羅斯福路２段８３號,121.5237,25.02572,(02)23660895,羅氏家用新冠病毒抗原自我檢測套組,78,2022/05/07 14:01:02,快篩僅販售14:00-16:00。營業時間9:30-21:55。
5901024669,百岳藥局,臺北市大安區和平東路２段３１１巷１１號,121.5452,25.02514,(02)27551037,羅氏家用新冠病毒抗原自我檢測套組,78,2022/05/07 14:01:02,快篩試劑販售時間:周一至周五10:30~12:00止
5901024767,杏一樂業藥局,臺北市大安區樂業街１６２號,121.5535,25.01958,(02)27383194,羅氏家用新冠病毒抗原自我檢測套組,78,2022/05/07 14:01:02,快篩下午三點現場直接販售（不發號碼牌）
5901024838,昶青藥局,臺北市大安區濟南路３段２２之１號,121.5346,25.04008,(02)27515678,羅氏家用新冠病毒抗原自我檢測套組,3,2022/05/07 14:01:02,每天下午13:00販售快篩實名制
5901024918,康祥藥局,臺北市大安區忠孝東路４段２１６巷２１號,121.5531,25.04025,(02)27817891,羅氏家用新冠病毒抗原自我檢測套組,79,2022/05/07 14:01:02,星期天11:00-19:00
5901025022,躍獅敦和藥局,臺北市大安區和平東路３段１０號,121.547,25.02453,(02)23785767,羅氏家用新冠病毒抗原自我檢測套組,73,2022/05/07 14:01:02,無
5901025059,博醫仁愛藥局,臺北市大安區仁愛路４段８巷２號１樓,121.5443,25.0375,(02)27019107,羅氏家用新冠病毒抗原自我檢測套組,17,2022/05/07 14:01:02,每天11:30發號碼牌，12:00~15:00憑號碼牌與健保卡購買實名制快篩
5901091884,躍獅雙蓮藥局,臺北市大同區涼州街４號,121.5147,25.06078,(02)25537551,羅氏家用新冠病毒抗原自我檢測套組,30,2022/05/07 14:01:02,實名制快篩：平日週一～五 下午３點開賣 （六、日停售）
5901092103,新聖安藥局,臺北市大同區昌吉街１３０號,121.5143,25.06584,(02)25977877,羅氏家用新冠病毒抗原自我檢測套組,8,2022/05/07 14:01:02,每日下午2點開賣 （前10分鐘發號碼牌）
5901092112,酒泉春天藥局,臺北市大同區酒泉街９４號、９４號２樓,121.5146,25.07193,(02)25977932,羅氏家用新冠病毒抗原自我檢測套組,78,2022/05/07 14:01:02,無
5901092130,大同民生藥局,臺北市大同區民生西路１２８號１樓、２樓及１３０號１樓、２樓,121.5191,25.05734,(02)25558886,羅氏家用新冠病毒抗原自我檢測套組,78,2022/05/07 14:01:02,快篩實名制，每天16:00開始販售，售完為止。
5901100155,大信藥局,臺北市中山區林森北路１５９巷６號,121.5255,25.0517,(02)25719080,羅氏家用新冠病毒抗原自我檢測套組,76,2022/05/07 14:01:02,無
5901100333,明美藥局,臺北市中山區長春路６９號,121.5266,25.05502,(02)25365419,羅氏家用新冠病毒抗原自我檢測套組,68,2022/05/07 14:01:02,口罩周一至周五，16:30-18:30販售
5901100440,優豐藥局,臺北市中山區民生東路１段３２號,121.5242,25.05794,(02)25602565,羅氏家用新冠病毒抗原自我檢測套組,78,2022/05/07 14:01:02,下午3點現場作業不分發號碼牌
5901101321,文德藥局,臺北市中山區龍江路３５６巷１９號１樓,121.5401,25.06607,(02)25181178,羅氏家用新冠病毒抗原自我檢測套組,67,2022/05/07 14:01:02,無
5901101509,永直藥局,臺北市中山區北安路５９５巷２弄６號,121.5483,25.08192,(02)85098059,羅氏家用新冠病毒抗原自我檢測套組,232,2022/05/07 14:01:02,今日號碼牌（5／7）沒有了，周一至周六早上8點發號碼牌，下午2點到晚上8點販售（拿號碼牌來買）
5901102444,啟美藥師藥局,臺北市中山區錦州街２８２號,121.5352,25.06024,(02)25178032,羅氏家用新冠病毒抗原自我檢測套組,78,2022/05/07 14:01:02,快篩 販售時間 20點開賣到21點，星期六日公休
5901102597,德惠藥局,臺北市中山區德惠街１２２號,121.53,25.06652,(02)25971131,羅氏家用新冠病毒抗原自我檢測套組,78,2022/05/07 14:01:02,每日下午3點30分開始販售快篩實名制
5901102686,富宥康藥局,臺北市中山區北安路６０８巷５弄２２號,121.5496,25.08263,(02)25325277,羅氏家用新冠病毒抗原自我檢測套組,2,2022/05/07 14:01:02,無
5901103192,昶青林森藥局,臺北市中山區林森北路１１９巷５２號,121.5269,25.05018,(02)25639939,羅氏家用新冠病毒抗原自我檢測套組,42,2022/05/07 14:01:02,口罩代售平日10:30-20:00，例假日13:30-18:00 售完為止
5901103629,十二願藥局,臺北市中山區林森北路３０９號,121.5256,25.05588,(02)25311223,羅氏家用新冠病毒抗原自我檢測套組,66,2022/05/07 14:01:02,快篩晚上8點開始發放.營業時間下午1點至凌晨3點
5901103656,大樹龍江藥局,臺北市中山區龍江路２４２號,121.5406,25.05889,(02)25035666,羅氏家用新冠病毒抗原自我檢測套組,78,2022/05/07 14:01:02,快篩實名制，每天16:00開始販售，售完為止。
5901103745,吉林藥局,臺北市中山區吉林路３７１號（１樓）,121.5305,25.06511,(02)25865990,羅氏家用新冠病毒抗原自我檢測套組,78,2022/05/07 14:01:02,快篩實名制，每天16:00開始販售，售完為止。
5901110446,清白藥局,臺北市內湖區東湖路１０８號,121.6157,25.06828,(02)26305743,羅氏家用新冠病毒抗原自我檢測套組,75,2022/05/07 14:01:02,無
5901110624,宏光藥局,臺北市內湖區成功路２段２２１號１樓,121.5909,25.06738,(02)27919068,羅氏家用新冠病毒抗原自我檢測套組,5,2022/05/07 14:01:02,快篩實名制13:30開始販售（現場排隊不發號碼牌售完為止）
5901111890,安康藥局,臺北市內湖區安康路４８２號,121.6158,25.06785,(02)26327675,羅氏家用新冠病毒抗原自我檢測套組,3,2022/05/07 14:01:02,無
5901112682,富康東湖藥局,臺北市內湖區東湖路１１９巷４９弄１６號,121.617,25.06988,(02)26323222,羅氏家用新冠病毒抗原自我檢測套組,46,2022/05/07 14:01:02,視快篩實際到貨時間販售；LINE社群搜尋「富康藥局東湖店」會有第一線消息
5901112977,瑞光藥局,臺北市內湖區瑞光路２１２號,121.5763,25.07525,(02)87513365,羅氏家用新冠病毒抗原自我檢測套組,76,2022/05/07 14:01:02,實名制快篩每日PM14:00開賣
5901112995,昇龍藥局,臺北市內湖區東湖路１５１號,121.6174,25.0681,(02)26316783,羅氏家用新冠病毒抗原自我檢測套組,2,2022/05/07 14:01:02,營業時間為早上8點到晚上10點；實名制快篩於每日下午一點前領取，​但若排隊人數已超過數量，將視情況提早發放。
5901113018,桔子藥局,臺北市內湖區內湖路２段３３３號,121.5917,25.08319,(02)27930052,羅氏家用新冠病毒抗原自我檢測套組,78,2022/05/07 14:01:02,早0900-1200，午1400-1700，晚1900-2100
5901113198,傑昇藥局,臺北市內湖區內湖路２段２２７號,121.589,25.0818,(02)27925957,羅氏家用新冠病毒抗原自我檢測套組,66,2022/05/07 14:01:02,快篩代售時間:星期一~星期六 下午02:00
5901113385,躍獅康成藥局,臺北市內湖區成功路４段６１巷１１號,121.5928,25.0814,(02)87922031,羅氏家用新冠病毒抗原自我檢測套組,67,2022/05/07 14:01:02,如有收到政府配送，實名制快篩13:40發號碼牌，14:00開賣。實名制口罩已無販售。
5901113438,晶龍藥局,臺北市內湖區成功路４段２１８號,121.5961,25.08456,(02)27956255,羅氏家用新冠病毒抗原自我檢測套組,73,2022/05/07 14:01:02,快篩試劑販售時間:星期一~六下午2:30 售完為止
5901113456,佑全內湖康寧藥局,臺北市內湖區康寧路３段３９號、３９號２樓、４１號、４３號,121.6078,25.07264,(02)26346578,羅氏家用新冠病毒抗原自我檢測套組,69,2022/05/07 14:01:02,實名制快篩14:00販售 13:50發號碼牌
5901113652,加一藥師藥局,臺北市內湖區星雲街２４號１樓,121.5908,25.07804,(02)87912653,羅氏家用新冠病毒抗原自我檢測套組,181,2022/05/07 14:01:02,無
5901113661,內湖藥局,臺北市內湖區康寧路１段１１６號１樓,121.5934,25.07948,(02)27940545,羅氏家用新冠病毒抗原自我檢測套組,78,2022/05/07 14:01:02,快篩實名制，每天16:00開始販售，售完為止。
5901113723,杏一港墘藥局,臺北市內湖區港墘路８３號（１樓）,121.5781,25.08078,(02)87978746,羅氏家用新冠病毒抗原自我檢測套組,78,2022/05/07 14:01:02,無
5901122080,成福大藥局,臺北市南港區成福路８號,121.5859,25.04578,(02)27859221,羅氏家用新冠病毒抗原自我檢測套組,76,2022/05/07 14:01:02,無
5901150271,建芳藥局,臺北市士林區德行東路１４８號,121.5296,25.10804,(02)28357172,羅氏家用新冠病毒抗原自我檢測套組,7,2022/05/07 14:01:02,無
5901150548,田倉藥局,臺北市士林區士東路１２４號,121.5302,25.11219,(02)88662188,羅氏家用新冠病毒抗原自我檢測套組,78,2022/05/07 14:01:02,每日19:00（傍晚7點）開始販售.
5901150593,安寧藥局,臺北市士林區劍潭路９１號,121.5199,25.08285,(02)28803319,羅氏家用新冠病毒抗原自我檢測套組,78,2022/05/07 14:01:02,領藥星期1.3.5為 9:00~12:00.及16:00~20:00*星期2.4.6.--上午
5901152453,家赫藥局,臺北市士林區忠義街８０號１樓,121.5317,25.10614,(02)28346453,羅氏家用新冠病毒抗原自我檢測套組,78,2022/05/07 14:01:02,每日下午2:40開始發號碼牌販售實名制快篩
5901152471,得安藥局,臺北市士林區文林路１４０號,121.5267,25.08878,(02)28836336,羅氏家用新冠病毒抗原自我檢測套組,78,2022/05/07 14:01:02,星期三五六下午3:30---10:00   星期二 四日下午5:00--10:00
5901153263,健揚藥局,臺北市士林區延平北路５段２５１號,121.5097,25.08483,(02)28163698,羅氏家用新冠病毒抗原自我檢測套組,2,2022/05/07 14:01:02,每日下午13:30開始販售
5901153272,光榮藥局,臺北市士林區社中街１１８號,121.5103,25.0899,(02)28136060,羅氏家用新冠病毒抗原自我檢測套組,78,2022/05/07 14:01:02,實名制快篩販售時間~下午兩點半（14:30）開始販售~另外若當日未收到快篩無法販售會公告，謝謝大家~
5901153496,躍獅忠誠藥局,臺北市士林區忠義街７０號,121.5314,25.10594,(02)28387948,羅氏家用新冠病毒抗原自我檢測套組,77,2022/05/07 14:01:02,快篩下午兩點販售，現場排隊沒有發號碼牌（週日販售視到貨情況決定）
5901153567,華齡春天生活藥局,臺北市士林區華齡街３６、３８號,121.5195,25.08359,(02)28882156,羅氏家用新冠病毒抗原自我檢測套組,78,2022/05/07 14:01:02,快篩代售時間周一至周日15:00現場排隊購買售完為止（物流配送不及則例外，以門市公告為主）
5901153941,士東藥局,臺北市士林區士東路９１巷３號,121.5291,25.11256,(02)28760588,羅氏家用新冠病毒抗原自我檢測套組,78,2022/05/07 14:01:02,快篩實名制，每天16:00開始販售，售完為止。
5901154000,文昌大藥局,臺北市士林區文昌路７２號１樓,121.5213,25.09634,(02)28376196,羅氏家用新冠病毒抗原自我檢測套組,60,2022/05/07 14:01:02,1.周一至周日下午15:00販售實名制快篩，請自備零錢 2.每日提供18份，讓醫護警消憑證購買，請pm14:30前來
5901154082,德行盛康藥局,臺北市士林區德行東路２０６之１號１樓,121.532,25.1089,(02)28348756,羅氏家用新冠病毒抗原自我檢測套組,61,2022/05/07 14:01:02,無
5901154108,藥本家藥局,臺北市士林區中山北路７段１４巷２６號１樓,121.5328,25.11884,(02)28766682,羅氏家用新冠病毒抗原自我檢測套組,12,2022/05/07 14:01:02,無
5901160197,川秀藥局,臺北市北投區石牌路２段９９巷９號１樓,121.5166,25.11792,(02)28270702,羅氏家用新冠病毒抗原自我檢測套組,74,2022/05/07 14:01:02,每日14:00開賣
5901160222,新祥藥局,臺北市北投區知行路２０８號－１,121.4668,25.11935,(02)28582551,羅氏家用新冠病毒抗原自我檢測套組,23,2022/05/07 14:01:02,實名制快篩下午1:30分發放號碼牌，隨後依照號碼牌發售，周日休息
5901160428,九福藥局,臺北市北投區公館路２３６號,121.5081,25.12612,(02)28953009,羅氏家用新冠病毒抗原自我檢測套組,3,2022/05/07 14:01:02,★週日店休未營業. 快篩下午1點發號碼牌
5901160517,弘安藥局,臺北市北投區懷德街３３號１樓,121.5193,25.11219,(02)28206390,羅氏家用新冠病毒抗原自我檢測套組,21,2022/05/07 14:01:02,快篩每日下午2:00開賣，現場購買售完為止
5901160802,美康藥局,臺北市北投區明德路９０號１樓,121.5196,25.1094,(02)28281176,羅氏家用新冠病毒抗原自我檢測套組,35,2022/05/07 14:01:02,營業時間:10:30~22:00；13:30開始販售快篩
5901161890,良興藥局,臺北市北投區中和街２８６號,121.5004,25.14047,(02)28933360,羅氏家用新冠病毒抗原自我檢測套組,55,2022/05/07 14:01:02,18點30分點開始營業
5901161934,康揚藥局,臺北市北投區中和街３２２號,121.4998,25.14108,(02)28946520,羅氏家用新冠病毒抗原自我檢測套組,78,2022/05/07 14:01:02,（ 實名制快篩發放時間: 14:00~16:00）5／3貨尚未配送，視當日情況而定。
5901162477,長宜藥局,臺北市北投區自強街１１２號,121.5155,25.11074,(02)28216605,羅氏家用新冠病毒抗原自我檢測套組,78,2022/05/07 14:01:02,實名制快篩試劑發放時間:14:00~售完為止，會依政府配送狀況調整
5901163250,關渡松藥局,臺北市北投區知行路２４７號,121.4671,25.12074,(02)28584824,羅氏家用新冠病毒抗原自我檢測套組,78,2022/05/07 14:01:02,（更新囉!!）5／7午2點開賣    郵局可配送時間：週一至週五正常配送週六13：00-17：00配送周日店休。
5901163269,佳祈健保藥局,臺北市北投區明德路１４４號,121.5208,25.11047,(02)28232535,羅氏家用新冠病毒抗原自我檢測套組,8,2022/05/07 14:01:02,無
5901163296,天禧大藥局,臺北市北投區實踐街３５號,121.5087,25.11521,(02)28213558,羅氏家用新冠病毒抗原自我檢測套組,1,2022/05/07 14:01:02,實名制快篩下午1:30現場販售
5901163394,致遠春天藥局,臺北市北投區致遠一路１段１３２號１、２樓,121.5149,25.11051,(02)28253258,羅氏家用新冠病毒抗原自我檢測套組,78,2022/05/07 14:01:02,15:30開始發放號碼牌15:30開始販售口罩
5901163527,理得藥局,臺北市北投區石牌路１段１５０號,121.5131,25.11426,(02)28289680,羅氏家用新冠病毒抗原自我檢測套組,67,2022/05/07 14:01:02,每日13:30發放號碼牌 14:00開賣，售完為止。
5901163545,天康大藥局,臺北市北投區中央南路１段５７號,121.5014,25.13192,(02)28914265,羅氏家用新冠病毒抗原自我檢測套組,24,2022/05/07 14:01:02,實名制快篩下午1:30現場販售
5901163554,良哲藥局,臺北市北投區明德路１５７－４號（實際使用：１樓）,121.5209,25.11129,(02)28285516,羅氏家用新冠病毒抗原自我檢測套組,2,2022/05/07 14:01:02,實名制快篩販售時間：早上 9:00~9:30／下午 2:30~3:00（週六人力不足不販售／週日休息）
5901163563,躍獅光明藥局,臺北市北投區光明路５１號、５３號（實際使用：１樓）,121.4998,25.13286,(02)28915993,羅氏家用新冠病毒抗原自我檢測套組,12,2022/05/07 14:01:02,1.早上9:30發號碼牌2.等快篩到貨才開始賣3.有號碼牌者請在晚上8點前領取，逾期作廢4.今日5／7號碼牌已發放完畢
5901163572,永欣中西藥局,臺北市北投區中和街５０１號,121.4947,25.1452,(02)28910307,羅氏家用新冠病毒抗原自我檢測套組,1,2022/05/07 14:01:02,週一至週六 早上9:30發號碼牌 10點販售 周日公休（庫存不準 號碼牌發完即售完）謝謝
5901163616,江南育仁大藥局,臺北市北投區育仁路５５號１樓,121.4981,25.13361,(02)28981850,羅氏家用新冠病毒抗原自我檢測套組,77,2022/05/07 14:01:02,下午2點販售實名制快篩，假日視政府配發情況調整
5901163643,致遠盛康藥局,臺北市北投區致遠二路１４１號１樓,121.5128,25.1173,(02)28263580,羅氏家用新冠病毒抗原自我檢測套組,74,2022/05/07 14:01:02,快篩試劑下午2點開始發放號碼牌
5901170059,必欣藥局,臺北市信義區松仁路２６４號,121.5696,25.02425,(02)27225060,羅氏家用新冠病毒抗原自我檢測套組,39,2022/05/07 14:01:02,實名制快篩販售時間：星期一至星期六下午13：30開始
5901170915,杏仁藥局,臺北市信義區大道路１３５號,121.5834,25.03901,(02)27262541,羅氏家用新冠病毒抗原自我檢測套組,24,2022/05/07 14:01:02,實名制快篩:週一至週五下午3點販售，週六週日無販售
5901172820,安心藥局,臺北市信義區永吉路３０巷１４８弄４之１號,121.5685,25.04266,(02)27474992,羅氏家用新冠病毒抗原自我檢測套組,53,2022/05/07 14:01:02,快篩代售時間14:00起現場排隊
5901172924,躍獅松仁藥局,臺北市信義區松仁路２３３號（實際營業地址：１樓）,121.5688,25.02617,(02)27238626,羅氏家用新冠病毒抗原自我檢測套組,14,2022/05/07 14:01:02,快篩販售時段:下午13:30開始售完至晚上19:00前
5901173238,正和藥局,臺北市信義區吳興街２２５巷６號,121.5634,25.02782,(02)23455186,羅氏家用新冠病毒抗原自我檢測套組,60,2022/05/07 14:01:02,下午2點半發放快篩，週日無發放
5901173407,康怡健保藥局,臺北市信義區吳興街４６７巷２弄１２號,121.5695,25.02381,(02)27206193,羅氏家用新冠病毒抗原自我檢測套組,2,2022/05/07 14:01:02,快篩早上9點開賣，賣完為止
5901173587,新興健保藥局,臺北市信義區永吉路３０巷１１３號,121.5689,25.04324,(02)27494892,羅氏家用新冠病毒抗原自我檢測套組,67,2022/05/07 14:01:02,快篩試劑下午二點開始販售
5901173694,洪暘藥局,臺北市信義區富陽街８６號,121.5564,25.02127,(02)27337099,羅氏家用新冠病毒抗原自我檢測套組,74,2022/05/07 14:01:02,下午2點開始販售，限一人持一張健保卡。
5901173710,專品光復藥局,臺北市信義區光復南路４６７之１號,121.5577,25.03384,(02)27586682,羅氏家用新冠病毒抗原自我檢測套組,75,2022/05/07 14:01:02,禮拜一到六下午三點販售口罩
5901173738,尚頤中西藥局,臺北市信義區虎林街１４５號,121.5767,25.03959,(02)27253818,羅氏家用新冠病毒抗原自我檢測套組,70,2022/05/07 14:01:02,無
5901173925,杏一光復藥局,臺北市信義區光復南路４４９之１號,121.5578,25.03488,(02)87804626,羅氏家用新冠病毒抗原自我檢測套組,78,2022/05/07 14:01:02,快篩實名制視每日貨況下午三點開始販售
5901173943,躍獅興雅藥局,臺北市信義區松德路１２８號,121.5745,25.03734,(02)87808429,羅氏家用新冠病毒抗原自我檢測套組,156,2022/05/07 14:01:02,14:00發號碼牌且同步開賣快篩，販賣至15:00或售完為止，週日無販售。
5901174084,市政藥局,臺北市信義區忠孝東路５段１６９號１樓、１７１號１樓,121.5688,25.0412,(02)27560050,羅氏家用新冠病毒抗原自我檢測套組,78,2022/05/07 14:01:02,快篩實名制，每天16:00開始販售，售完為止。
5901180322,南昌大藥局,臺北市中正區南昌路１段８６號１樓,121.5174,25.03086,(02)23510322,羅氏家用新冠病毒抗原自我檢測套組,2,2022/05/07 14:01:02,早上10點發號碼牌，下午2點前來購買，逾期作廢。
5901183645,大愛生活藥局,臺北市中正區汀州路２段２３２號,121.5243,25.02189,(02)23661155,羅氏家用新冠病毒抗原自我檢測套組,31,2022/05/07 14:01:02,下午14:30開始發放快篩（不發號碼牌直接買）~~不要太早開始排隊啊啊啊啊
5901183985,正康藥局,臺北市中正區漢口街１段２２號,121.5142,25.04507,(02)23712831,羅氏家用新冠病毒抗原自我檢測套組,2,2022/05/07 14:01:02,快篩13:30發號碼牌，14:00發放快篩
5901184080,活力健康藥妝藥局,臺北市中正區中華路２段３１５巷１號,121.5062,25.02795,(02)23392625,羅氏家用新冠病毒抗原自我檢測套組,12,2022/05/07 14:01:02,快篩14:00-15:00， 建議提早排隊
5901184106,信康藥局,臺北市中正區南昌路１段１４３號,121.5186,25.02953,(02)23961979,羅氏家用新冠病毒抗原自我檢測套組,50,2022/05/07 14:01:02,14:00開始販售實名制快篩
5901184179,保德中華藥局,臺北市中正區中華路２段１５９號,121.5042,25.03101,(02)23027720,羅氏家用新冠病毒抗原自我檢測套組,78,2022/05/07 14:01:02,快篩下午三點開始發號碼牌及販售，限當日購買
5901184553,珍忻藥局,臺北市中正區南昌路１段６５號,121.5174,25.03107,(02)23965115,羅氏家用新冠病毒抗原自我檢測套組,8,2022/05/07 14:01:02,健保快篩發放:13:20及18:20分兩梯次發號碼牌
5901184633,躍獅東門藥局,臺北市中正區金山南路１段１０８之１號（１樓）,121.5273,25.03538,(02)23920339,羅氏家用新冠病毒抗原自我檢測套組,101,2022/05/07 14:01:02,5／6銷售時間已結束。5／7下午兩點開始販售，不提早發放號碼牌
5901190426,皇祥藥局,臺北市萬華區萬青街１６５號１樓,121.5016,25.02279,(02)23375676,羅氏家用新冠病毒抗原自我檢測套組,58,2022/05/07 14:01:02,無
5901190668,聯慶大藥局,臺北市萬華區萬大路３０６號１樓,121.5003,25.02495,(02)23039850,羅氏家用新冠病毒抗原自我檢測套組,12,2022/05/07 14:01:02,無
5901192180,康之友藥局,臺北市萬華區青年路２０號,121.5055,25.02592,(02)23011598,羅氏家用新冠病毒抗原自我檢測套組,65,2022/05/07 14:01:02,下午兩點發號碼牌
5901192546,躍獅西園藥局,臺北市萬華區西園路２段２６０號,121.4946,25.02784,(02)23094063,羅氏家用新冠病毒抗原自我檢測套組,77,2022/05/07 14:01:02,快篩販售時段：下午2點至售完為止（政府正常配貨的情況下，現場排隊）
5901193150,日森人文藥局,臺北市萬華區和平西路３段１４９號,121.4988,25.03543,(02)23082100,羅氏家用新冠病毒抗原自我檢測套組,2,2022/05/07 14:01:02,快篩依政府每日到貨時間， 會立即公告粉絲頁販售時間規則
5901193221,正盛藥局,臺北市萬華區中華路２段４３４－１號,121.5064,25.02708,(02)23050386,羅氏家用新冠病毒抗原自我檢測套組,68,2022/05/07 14:01:02,1.快篩一~六20點，周日不賣 2.目前排隊人潮多，建議7點左右提前候位 3.詳情請看門口公告或板橋正康總店臉書
5901193230,啟仁藥局,臺北市萬華區環河南路２段１７７號,121.492,25.03259,(02)23362771,羅氏家用新冠病毒抗原自我檢測套組,51,2022/05/07 14:01:02,六日沒配送就停售（有配就有），一般時間下午2點開始發號碼牌， 發完為止
5901193365,企鵝藥局,臺北市萬華區西昌街１７５號（１樓）,121.5007,25.03886,(02)23884691,羅氏家用新冠病毒抗原自我檢測套組,78,2022/05/07 14:01:02,公費快篩試劑，下午2點發號碼牌
5901200490,永明大藥局,臺北市文山區興隆路１段２９７號１樓,121.5449,24.99875,(02)29314428,羅氏家用新冠病毒抗原自我檢測套組,78,2022/05/07 14:01:02,下午2點50發放號碼牌3點販售，4點前未領取視同放棄，限1人1號碼牌1份，周日未販售。
5901201568,康宜庭生活藥局,臺北市文山區興隆路４段６４號,121.5613,24.98514,(02)29385363,羅氏家用新冠病毒抗原自我檢測套組,83,2022/05/07 14:01:02,實名快篩14:00開賣 現場排隊
5901201835,巧康藥局,臺北市文山區木新路３段２６２、２６４號,121.5585,24.98132,(02)29372061,羅氏家用新冠病毒抗原自我檢測套組,71,2022/05/07 14:01:02,每日下午2點發放號碼牌，2點15進行快篩販售。請勿離場，離場視同放棄。
5901202047,華君藥局,臺北市文山區興隆路２段６０號,121.5478,24.99955,(02)29319510,羅氏家用新冠病毒抗原自我檢測套組,2,2022/05/07 14:01:02,每天12:00開始販售快篩
5901202627,杏隆藥局,臺北市文山區羅斯福路５段２６１號,121.5395,25.00115,(02)29313151,羅氏家用新冠病毒抗原自我檢測套組,156,2022/05/07 14:01:02,快篩實名制採預約登記，至5／14已登記額滿。
5901202654,康宜庭萬隆藥局,臺北市文山區羅斯福路５段２０２號,121.5384,25.00322,(02)29348662,羅氏家用新冠病毒抗原自我檢測套組,77,2022/05/07 14:01:02,實名快篩中午才到貨   每日下午14:00準時開賣（建議13:00來排隊）
5901202681,振大藥局,臺北市文山區永安街２２巷１６號,121.5697,24.98683,(02)29393385,羅氏家用新冠病毒抗原自我檢測套組,63,2022/05/07 14:01:02,無
5901202841,欣安景美藥局,臺北市文山區景文街７７號,121.5414,24.99126,(02)29316008,羅氏家用新冠病毒抗原自我檢測套組,46,2022/05/07 14:01:02,今日快篩劑PM:14:00販賣售完為止
5901202949,萬隆大藥局,臺北市文山區羅斯福路５段２１８巷１５號,121.538,25.00203,(02)29334580,羅氏家用新冠病毒抗原自我檢測套組,83,2022/05/07 14:01:02,9：00~23：00
5901202958,杏一萬安藥局,臺北市文山區萬安街１５號,121.5706,25.00139,(02)22302126,羅氏家用新冠病毒抗原自我檢測套組,64,2022/05/07 14:01:02,營業時間0900-2200
5901203044,木新健康人生藥局,臺北市文山區木新路３段２０３號,121.5598,24.9814,(02)86611465,羅氏家用新冠病毒抗原自我檢測套組,77,2022/05/07 14:01:02,10:00~21:00；13:45發號碼牌，14點發放快篩
5901203062,大樹文山藥局,臺北市文山區興隆路３段１３號（１、２、３樓）,121.555,25.00088,(02)29342226,羅氏家用新冠病毒抗原自我檢測套組,78,2022/05/07 14:01:02,快篩實名制，每天16:00開始販售，售完為止。
5901203124,福興藥局,臺北市文山區福興路５６號,121.5505,25.00345,(02)89313868,羅氏家用新冠病毒抗原自我檢測套組,35,2022/05/07 14:01:02,領快篩時間:周一到周六，下午2點開放購買快篩，1人1卡1份
5901203419,康宜庭興隆藥局,臺北市文山區興隆路３段２００號１樓,121.559,24.99779,(02)22304866,羅氏家用新冠病毒抗原自我檢測套組,78,2022/05/07 14:01:02,無
5901203428,康宜庭景文藥局,臺北市文山區景文街９７號１樓,121.5413,24.99093,(02)29302801,羅氏家用新冠病毒抗原自我檢測套組,78,2022/05/07 14:01:02,營業時間為08:30-22:30；14:00開始發放快篩實名制號碼牌並立即販售，謝謝您的配合
5901203446,景華盛康藥局,臺北市文山區景華街６９號１樓,121.545,24.99524,(02)29310188,羅氏家用新冠病毒抗原自我檢測套組,78,2022/05/07 14:01:02,快篩販售時間:下午3點開賣，現場發送號碼牌
5901203482,健康家藥局,臺北市文山區興隆路２段１３３號１樓,121.5481,25.00011,(02)29330858,羅氏家用新冠病毒抗原自我檢測套組,1,2022/05/07 14:01:02,實名制快篩下午一點開始販售，5／1店休
5902032530,杏光藥局,高雄市左營區果峰街４７巷１號１樓,120.2869,22.6703,(07)5837060,羅氏家用新冠病毒抗原自我檢測套組,42,2022/05/07 14:01:02,上午營業時間為9 :00~12:00；晚上營業至21:30
5902042661,元春中西藥師藥局,高雄市楠梓區後昌路８３７巷３７號,120.294,22.71109,(07)3605656,羅氏家用新冠病毒抗原自我檢測套組,78,2022/05/07 14:01:02,周一~周六下午16:00開始為快篩領取時間.星期日早上10點開始售完為止
5902050565,澄和藥局,高雄市三民區澄和路６６號,120.3445,22.64474,(07)3923111,羅氏家用新冠病毒抗原自我檢測套組,65,2022/05/07 14:01:02,快篩試劑- 販售時間自下午14:00起至售完為止
5902050636,嘉益藥局,高雄市三民區重慶街３０號,120.302,22.64223,(07)3110157,羅氏家用新冠病毒抗原自我檢測套組,59,2022/05/07 14:01:02,快篩實名制下午15：00開始販售.
5902050903,皇安藥局,高雄市三民區九如一路４６１號,120.3296,22.63865,(07)3866779,羅氏家用新冠病毒抗原自我檢測套組,8,2022/05/07 14:01:02,營業日0900可先領取號碼牌，上午9:00-12:00及下午3:00~10:.00為販賣快篩時間，售完為止
5902056638,柏仁藥局,高雄市三民區覺民路５０４號,120.3317,22.64092,(07)3976016,羅氏家用新冠病毒抗原自我檢測套組,59,2022/05/07 14:01:02,實名制快篩下午3點開賣，現場排隊，售完為止
5902060025,連作藥局,高雄市新興區大同一路２０３－１號,120.3003,22.62856,(07)2154716,羅氏家用新冠病毒抗原自我檢測套組,60,2022/05/07 14:01:02,快篩試紙領用時間為每日下午2點
5902061540,長青藥局,高雄市新興區六合路１１４號,120.3159,22.63223,(07)2223969,羅氏家用新冠病毒抗原自我檢測套組,62,2022/05/07 14:01:02,快篩下午2點
5902090032,全國大藥局,高雄市前鎮區三多二路４０３號１樓,120.3166,22.61777,(07)3346525,羅氏家用新冠病毒抗原自我檢測套組,3,2022/05/07 14:01:02,快篩實名制下午13:30開始..賣完為止
5902090827,博平藥局,高雄市前鎮區草衙二路３７７號,120.3224,22.57808,(07)8311814,羅氏家用新冠病毒抗原自我檢測套組,61,2022/05/07 14:01:02,下午2點開始販售快篩.售完為止
5903010261,豐原西勢藥局,臺中市豐原區西勢路２００號１樓,120.7067,24.24379,(04)25262330,羅氏家用新冠病毒抗原自我檢測套組,53,2022/05/07 14:01:02,今日快篩下午2:00開賣，1:50發號碼牌，因疫情無法店內排隊，不便之處敬請見諒。
5903010501,佑全豐原圓環東藥局,臺中市豐原區圓環東路５４８、５５０、５５２、５５４號１樓,120.7275,24.24948,(04)25246069,羅氏家用新冠病毒抗原自我檢測套組,77,2022/05/07 14:01:02,營業時間9:00-21:00，今日實名制1:50發號碼牌2:00開賣，售完為止
5903010547,佑全豐原中正藥局,臺中市豐原區中正路２２３、２２５號１、２樓,120.7175,24.25179,(04)25152886,羅氏家用新冠病毒抗原自我檢測套組,77,2022/05/07 14:01:02,實名制快篩販售時間:下午2點開始（13:50發號碼牌）
5903010556,升禾和大藥局,臺中市豐原區育英路２６號１樓,120.7163,24.24346,(04)25293099,羅氏家用新冠病毒抗原自我檢測套組,78,2022/05/07 14:01:02,快篩試劑1800領取.採現場排隊.售完為止
5903010583,林居藥局,臺中市豐原區源豐路１１４號１樓,120.7173,24.25367,(04)25159168,羅氏家用新冠病毒抗原自我檢測套組,73,2022/05/07 14:01:02,快篩依當天物流送貨時間， 會在 FB林居藥局 公告販售時間， 謝謝
5903020034,國良豐藥局,臺中市東勢區豐勢路２１號１樓,120.8318,24.24779,(04)25885778,羅氏家用新冠病毒抗原自我檢測套組,51,2022/05/07 14:01:02,快篩試劑下午2:00開始
5903040107,佑全清水中山三藥局,臺中市清水區中山路２４、２６、２８號１樓,120.572,24.26043,(04)26224469,羅氏家用新冠病毒抗原自我檢測套組,22,2022/05/07 14:01:02,5／7實名制快篩發放時間下午2:00，1:50發放號碼牌。5／8（日）更改發放時間為早上9:30開始，9:20發放號碼牌，敬請注意。
5903050103,北勢進騰藥局,臺中市沙鹿區北勢東路５０９之７號１樓,120.576,24.22526,(04)26330893,羅氏家用新冠病毒抗原自我檢測套組,78,2022/05/07 14:01:02,營業時間12:00-22:00，每日12:00販售實名制快篩
5903050210,富康沙鹿藥局,臺中市沙鹿區沙田路１４２號１樓,120.5595,24.23613,(04)26633399,羅氏家用新冠病毒抗原自我檢測套組,67,2022/05/07 14:01:02,*5／7下午兩點販售防疫快篩。5／9開始回復早上八點販售防疫快篩（全年無休）*固定周一到周六
5903060010,大芳藥局,臺中市梧棲區中央路１段９０７號,120.5381,24.24742,(04)26561755,羅氏家用新冠病毒抗原自我檢測套組,70,2022/05/07 14:01:02,快篩試劑.下午兩點開始販售 排隊人數足夠即提早販售.（附設戒菸門診）
5903060092,佑全梧棲文化藥局,臺中市梧棲區文化路二段１５０號１樓,120.531,24.25526,(04)26566433,羅氏家用新冠病毒抗原自我檢測套組,78,2022/05/07 14:01:02,實名制快篩，下午1:50發號碼牌，14:00開始販售
5903070025,得安藥局,臺中市后里區四村路７８號,120.7129,24.30469,(04)25585333,羅氏家用新冠病毒抗原自我檢測套組,155,2022/05/07 14:01:02,快篩販賣時間 14:00~15:00（售完為止）
5903070052,后里宏安藥局,臺中市后里區福音路２８號１樓,120.7134,24.30512,(04)25581036,羅氏家用新冠病毒抗原自我檢測套組,61,2022/05/07 14:01:02,固定週一至五早上10點快篩發放周六下午2:30，週日休息。
5903080094,灃洲大藥局,臺中市神岡區豐洲路４６６－３號１樓,120.7045,24.26179,(04)25150169,羅氏家用新冠病毒抗原自我檢測套組,76,2022/05/07 14:01:02,星期日公休，實名制快篩販售時間為每日下午兩點
5903080138,佑全神岡中山藥局,臺中市神岡區中山路５４９、５４９之１、５４９之２號１樓,120.6842,24.24638,(04)25634677,羅氏家用新冠病毒抗原自我檢測套組,75,2022/05/07 14:01:02,5／7下午1點50分發號碼牌2點開賣
5903090072,元康健保藥局,臺中市潭子區圓通南路１９６號１樓,120.7043,24.20725,(04)25353893,羅氏家用新冠病毒抗原自我檢測套組,78,2022/05/07 14:01:02,下午3點現場分號碼後  依序賣口罩
5903090143,佳福藥局,臺中市潭子區中山路１段４３－１號,120.7023,24.19138,(04)25332982,羅氏家用新冠病毒抗原自我檢測套組,78,2022/05/07 14:01:02,每日中午12:00至下午3:00休息，星期六公休，營業日上午8:00快篩試劑開賣
5903090429,佑全潭子中山藥局,臺中市潭子區中山路一段９之１號,120.7023,24.18847,(04)25356140,羅氏家用新冠病毒抗原自我檢測套組,74,2022/05/07 14:01:02,營業時間:09:00-21:00／健保實聯制購買時間:14:00開始販售，13:50開始發號碼牌，售完為止。
5903100055,大詮藥師藥局,臺中市大雅區民生路３段４３２號,120.6655,24.23441,(04)25682767,羅氏家用新冠病毒抗原自我檢測套組,70,2022/05/07 14:01:02,實名制快篩，5／5起改下午2點賣。平時營業時間；週一到週五11:30至22:00，週六晚上9點打烊，周日固定公休。
5903100135,大雅安德藥局,臺中市大雅區中清東路２２９號１樓,120.6469,24.22459,(04)25604133,羅氏家用新冠病毒抗原自我檢測套組,71,2022/05/07 14:01:02,5／7（六）。實名制快篩13:30領取號碼牌，14:00販賣，不找零，每張卡隔一個月買一次，限每人一卡一份
5903100180,杏一大雅中清藥局,臺中市大雅區中清路四段３１、３３、３５號１樓,120.6448,24.22615,(04)25601791,羅氏家用新冠病毒抗原自我檢測套組,80,2022/05/07 14:01:02,週一~週六14:00販售（13:50發號碼牌）每人每卡限定1份500元!週日無販售!
5903100206,民生藥局,臺中市大雅區民生路一段２２１號１樓,120.6512,24.22789,(04)25662229,羅氏家用新冠病毒抗原自我檢測套組,78,2022/05/07 14:01:02,快篩實名制，每天16:00開始販售，售完為止。
5903100215,佑全大雅雅環藥局,臺中市大雅區雅環路二段８８號１樓,120.653,24.22634,(04)25605942,羅氏家用新冠病毒抗原自我檢測套組,65,2022/05/07 14:01:02,營業時間:09:00~21:00；實名制快篩於每日13:50發放號碼牌，14:00開始販售。
5903150144,佑全台中烏日藥局,臺中市烏日區中山路一段３５４號１樓,120.6386,24.10816,(04)23367756,羅氏家用新冠病毒抗原自我檢測套組,77,2022/05/07 14:01:02,實名制快篩販售時間：依據物流配送到貨時間滾動式調整， 造成不便， 請見諒！
5903150153,溪南藥局,臺中市烏日區溪南路一段５６５號１樓,120.6431,24.07523,(04)23353666,羅氏家用新冠病毒抗原自我檢測套組,78,2022/05/07 14:01:02,快篩實名制，每天16:00開始販售，售完為止。
5903150180,九德藥局,臺中市烏日區中山路一段４３８、４４０號１樓,120.6365,24.10748,(04)23385456,羅氏家用新冠病毒抗原自我檢測套組,78,2022/05/07 14:01:02,快篩實名制，每天16:00開始販售，售完為止。
5903180142,峰正藥局,臺中市霧峰區中正路８３０號１樓,120.6987,24.06244,(04)23303353,羅氏家用新冠病毒抗原自我檢測套組,78,2022/05/07 14:01:02,快篩實名制，每天16:00開始販售，售完為止。
5903190228,中山德侑藥局,臺中市太平區中山路３段２之２號１樓,120.7222,24.14942,(04)23920682,羅氏家用新冠病毒抗原自我檢測套組,38,2022/05/07 14:01:02,每日下午13:30開始販售，但遇特殊情況快篩販售時間會調整
5903190362,太平中山藥局,臺中市太平區中山路４段１１號,120.7139,24.14931,(04)23959200,羅氏家用新冠病毒抗原自我檢測套組,78,2022/05/07 14:01:02,快篩實名制，每天16:00開始販售，售完為止。
5903190497,太平惠民藥師藥局,臺中市太平區東平路３６８號１樓,120.7267,24.13433,(04)22768799,羅氏家用新冠病毒抗原自我檢測套組,78,2022/05/07 14:01:02,實名制快篩:每日下午2點開賣，一人一卡，請自備500元，不找零
5903190700,佑全太平藥局,臺中市太平區樹德路１２１號１樓,120.712,24.15444,(04)23910016,羅氏家用新冠病毒抗原自我檢測套組,76,2022/05/07 14:01:02,配貨不穩定.快篩販售時間請留意佑全太平樹德粉絲專頁
5903200229,信元藥局,臺中市大里區益民路２段３７２號１樓,120.684,24.11545,(04)24876051,羅氏家用新冠病毒抗原自我檢測套組,53,2022/05/07 14:01:02,下午5點發號碼牌並依序販賣
5903200443,佳霖藥局,臺中市大里區塗城路９６４號１樓,120.6933,24.09081,(04)24960895,羅氏家用新冠病毒抗原自我檢測套組,75,2022/05/07 14:01:02,健保卡快篩:（周日和周三停賣）.請備好健保卡和500元整.下午3點半開賣.現場排隊／售完為止
5903200514,大明永欣藥局,臺中市大里區大明路５３９號１樓、５４１號１樓,120.6735,24.11478,(04)24068864,羅氏家用新冠病毒抗原自我檢測套組,78,2022/05/07 14:01:02,實名制快篩每天下午2點開始發號碼牌
5903200541,大里康媞藥局,臺中市大里區塗城路４９４號,120.7024,24.08867,(04)24966627,羅氏家用新冠病毒抗原自我檢測套組,75,2022/05/07 14:01:02,快篩下午兩點開始
5903200621,德芳東榮藥局,臺中市大里區東榮路８號,120.6893,24.1102,(04)24863898,羅氏家用新冠病毒抗原自我檢測套組,81,2022/05/07 14:01:02,快篩販售時間：下午3點~6點，現場排隊，完售即停
5903200658,德芳成功藥局,臺中市大里區成功路５３５－３號１樓,120.7033,24.0913,(04)24920298,羅氏家用新冠病毒抗原自我檢測套組,21,2022/05/07 14:01:02,快篩販售時間:下午3點~6點
5903200685,塗城藥局,臺中市大里區中興路一段１８７、１８９、１９１號１樓,120.6933,24.09008,(04)24967234,羅氏家用新冠病毒抗原自我檢測套組,78,2022/05/07 14:01:02,快篩實名制，每天16:00開始販售，售完為止。
5903200701,大益藥局,臺中市大里區益民路二段３３５號１、２樓,120.6837,24.11311,(04)24811551,羅氏家用新冠病毒抗原自我檢測套組,78,2022/05/07 14:01:02,快篩實名制，每天16:00開始販售，售完為止。
5903200738,杏一大里國光藥局,臺中市大里區國光路二段４１１號１樓,120.6796,24.10921,(04)24071492,羅氏家用新冠病毒抗原自我檢測套組,78,2022/05/07 14:01:02,周一至周六16:00~19:00，周日及補假日人力不足不販售
5903200756,佑全大里大明藥局,臺中市大里區大明路３６０、３６２號,120.6787,24.11511,(04)24818633,羅氏家用新冠病毒抗原自我檢測套組,78,2022/05/07 14:01:02,實名制快篩，開賣時間:下午14:00，售完為止
5903220150,老順安大藥局,臺中市中區中華路二段６３號、６５號１樓,120.6794,24.14801,(04)22016306,羅氏家用新冠病毒抗原自我檢測套組,42,2022/05/07 14:01:02,實名制快篩銷售時間:周一至周六下午兩點至三點
5903220178,佑全台中中華藥局,臺中市中區中華路一段１６２號１樓,120.6779,24.14605,(04)22291556,羅氏家用新冠病毒抗原自我檢測套組,77,2022/05/07 14:01:02,下午01:40開始發放號碼牌!! 售完為止!! 一人一卡一盒
5903240205,捷登藥局,臺中市西區公益路１０６號,120.6613,24.15105,(04)23191929,羅氏家用新冠病毒抗原自我檢測套組,74,2022/05/07 14:01:02,實名制快篩 每日下午 2:00 準時開賣，售完為止 .
5903240429,神農藥局,臺中市西區公益路１９０之１號１樓,120.6567,24.15103,(04)23103335,羅氏家用新冠病毒抗原自我檢測套組,15,2022/05/07 14:01:02,下午13:30開始販賣快篩試劑，售完為止
5903240447,大樹五權藥局,臺中市西區五權路９７－１號１樓,120.6717,24.14626,(04)22022910,羅氏家用新冠病毒抗原自我檢測套組,79,2022/05/07 14:01:02,快篩實名制，每天16:00開始販售，售完為止。
5903240465,德恩藥師藥局,臺中市西區精誠路２５２號１樓,120.6549,24.14949,(04)23102358,羅氏家用新冠病毒抗原自我檢測套組,44,2022/05/07 14:01:02,下午2:00開賣。若延後送貨，會再另外公告開賣時間。
5903240474,佑全台中向上藥局,臺中市西區向上路一段３８６、３８８號１樓,120.6559,24.14688,(04)23204732,羅氏家用新冠病毒抗原自我檢測套組,75,2022/05/07 14:01:02,因政府配貨時間不一，依照門市現場公告時間為主
5903260270,冠安藥局,臺中市北區進化路５１０、５１２號,120.6946,24.16047,(04)22335770,羅氏家用新冠病毒抗原自我檢測套組,42,2022/05/07 14:01:02,快篩 13:30 開賣--5／4日後 14：00開賣
5903260341,台中漢口藥局,臺中市北區漢口路３段１８３號,120.6711,24.16703,(04)22936166,羅氏家用新冠病毒抗原自我檢測套組,74,2022/05/07 14:01:02,實名制快篩販售時間：下午2點
5903260476,康媞藥局,臺中市北區北平路二段１２８號１樓,120.6774,24.17124,(04)22925388,羅氏家用新冠病毒抗原自我檢測套組,77,2022/05/07 14:01:02,無
5903260958,健康達人藥局,臺中市北區北平路２段５６號１樓,120.6735,24.17153,(04)22994866,羅氏家用新冠病毒抗原自我檢測套組,75,2022/05/07 14:01:02,快篩實名制，每天中午2:00開始販售，售完為止。
5903261017,多倫多藥局,臺中市北區太原路二段１１號１樓,120.6753,24.16558,(04)22980210,羅氏家用新冠病毒抗原自我檢測套組,5,2022/05/07 14:01:02,無
5903270865,尚禾藥局,臺中市西屯區青海路一段６５號,120.6548,24.16438,(04)23147688,羅氏家用新冠病毒抗原自我檢測套組,39,2022/05/07 14:01:02,實名制快篩發放：時段一中午12:30~14:00。時段二20：30~22：30。時段一若未發完，餘量將遞延至時段二發放。周日停售。
5903270883,祥和大藥局,臺中市西屯區青海路二段２４０－９號,120.6418,24.17323,(04)27000122,羅氏家用新冠病毒抗原自我檢測套組,14,2022/05/07 14:01:02,快篩販售時間：每日下午5點至夜間10點。
5903270927,河南小林健保藥局,臺中市西屯區河南路二段２９８號１樓,120.6485,24.17477,(04)24512830,羅氏家用新冠病毒抗原自我檢測套組,2,2022/05/07 14:01:02,固定每日早上8點發放口罩號碼牌，下午4點半開始販售。
5903271022,西屯藥局,臺中市西屯區西屯路三段１５０－４５號１樓,120.621,24.18716,(04)24621822,羅氏家用新冠病毒抗原自我檢測套組,78,2022/05/07 14:01:02,快篩實名制，每天16:00開始販售，售完為止。
5903271031,美十樂中科藥局,臺中市西屯區西屯路三段１６６－６５號１樓,120.6129,24.19035,(04)24610219,羅氏家用新冠病毒抗原自我檢測套組,468,2022/05/07 14:01:02,醫事人員卡片損壞，暫時無法販賣快篩
5903271246,柏醫藥局,臺中市西屯區上安路５６號１樓,120.6412,24.17052,(04)24526391,羅氏家用新冠病毒抗原自我檢測套組,78,2022/05/07 14:01:02,因應到貨時間不定，統一晚上7點開放78組（5／7已到貨 11:37）
5903271291,西屯長安藥局,臺中市西屯區成都路３６８號１樓,120.6641,24.17322,(04)22981221,羅氏家用新冠病毒抗原自我檢測套組,78,2022/05/07 14:01:02,快篩實名制，每天16:00開始販售，售完為止。
5903280576,佑全黎明藥局,臺中市南屯區黎明路２段２６６號,120.6359,24.14816,(04)23805560,羅氏家用新冠病毒抗原自我檢測套組,74,2022/05/07 14:01:02,實名制快篩販售時間下午兩點
5903280585,康得藥局,臺中市南屯區向上路三段４５號,120.6354,24.14623,(04)23820981,羅氏家用新冠病毒抗原自我檢測套組,78,2022/05/07 14:01:02,5／7（六）下午3點開始販售實名制快篩試劑.5／8（日）下午3點開始販售實名制快篩試劑
5903280898,佑全台中忠勇藥局,臺中市南屯區忠勇路５１－８號１樓,120.614,24.14376,(04)23803282,羅氏家用新冠病毒抗原自我檢測套組,77,2022/05/07 14:01:02,實名制快篩發放號碼牌13:50  販售14:00（限量78份）
5903290607,敦化小林健保藥局,臺中市北屯區敦化路１段６６８號,120.6643,24.18593,(04)24261881,羅氏家用新冠病毒抗原自我檢測套組,2,2022/05/07 14:01:02,每日早上8:00領號碼牌，16:30再回藥局領口罩（全年無休）
5903290661,康博中西健保藥局,臺中市北屯區后庄一街７號１樓,120.6644,24.1865,(04)24252468,羅氏家用新冠病毒抗原自我檢測套組,1,2022/05/07 14:01:02,快篩下午01:00發售53份；晚上06:00銷售25份.週六.日及假日下午06:30開始依配送滾動調整
5903290803,英全藥局,臺中市北屯區北平路三段３４號,120.6803,24.17105,(04)22345179,羅氏家用新冠病毒抗原自我檢測套組,63,2022/05/07 14:01:02,營業時間早上8點到晚上11點  快篩購買時間下午14點
5903290849,新盛藥局,臺中市北屯區松竹路二段１５７號１樓,120.6959,24.18312,(04)22467779,羅氏家用新冠病毒抗原自我檢測套組,65,2022/05/07 14:01:02,下午2:30至8:30賣快篩試劑週一至週六
5903290867,軍功啄木鳥藥局,臺中市北屯區軍功路二段１７５號,120.7195,24.17982,(04)22390160,羅氏家用新冠病毒抗原自我檢測套組,74,2022/05/07 14:01:02,每日1520至售完為止
5903290876,北屯軍功藥局,臺中市北屯區軍功路一段７５２號,120.7193,24.17513,(04)24375111,羅氏家用新冠病毒抗原自我檢測套組,78,2022/05/07 14:01:02,快篩實名制，每天16:00開始販售，售完為止。
5903290947,德寶健保藥局,臺中市北屯區熱河路一段７０號１樓,120.687,24.1674,(04)22325511,羅氏家用新冠病毒抗原自我檢測套組,75,2022/05/07 14:01:02,下午二點開始販賣快篩試劑
5903291060,大樹北屯藥局,臺中市北屯區松竹路二段４１１號１樓,120.6895,24.18192,(04)22422262,羅氏家用新冠病毒抗原自我檢測套組,78,2022/05/07 14:01:02,快篩實名制，每天16:00開始販售，售完為止。
5903291131,兩隻老虎藥局,臺中市北屯區崇德路２段１２號１樓,120.6855,24.16869,(04)22364635,羅氏家用新冠病毒抗原自我檢測套組,75,2022/05/07 14:01:02,營業時間早上九點到晚上九點半（快篩下午兩點開賣）
5903291211,愛樂芬兒童藥局,臺中市北屯區松竹路一段９２９號１樓,120.7131,24.18216,(04)24363660,羅氏家用新冠病毒抗原自我檢測套組,78,2022/05/07 14:01:02,因配送時間不固定，預定下午三點開始販售
5905010250,大樹新營藥局,臺南市新營區民權路７４、７６、７８號１樓,120.3127,23.30615,(06)6328300,羅氏家用新冠病毒抗原自我檢測套組,78,2022/05/07 14:01:02,快篩實名制，每天16:00開始販售，售完為止。
5905030092,大樹白河藥局,臺南市白河區中山路１５３號１樓,120.417,23.35255,(06)6830006,羅氏家用新冠病毒抗原自我檢測套組,78,2022/05/07 14:01:02,快篩實名制，每天16:00開始販售，售完為止。
5905040123,麻豆啄木鳥藥局,臺南市麻豆區興國路５６－２２號１樓,120.2471,23.17712,(06)5714786,羅氏家用新冠病毒抗原自我檢測套組,33,2022/05/07 14:01:02,每日下午兩點開始販售至售完為止
5905040141,大樹麻豆藥局,臺南市麻豆區中山路４８、５０號１樓,120.2469,23.18382,(06)5716556,羅氏家用新冠病毒抗原自我檢測套組,78,2022/05/07 14:01:02,快篩實名制，每天16:00開始販售，售完為止。
5905050165,德昌藥局佳里店,臺南市佳里區光復路２３３號,120.1746,23.16095,(06)7232388,羅氏家用新冠病毒抗原自我檢測套組,77,2022/05/07 14:01:02,固定周一至周六14:30開始販售口罩，售完為止
5905050209,大樹佳里藥局,臺南市佳里區延平路２３７號１樓,120.1783,23.1599,(06)7231323,羅氏家用新冠病毒抗原自我檢測套組,78,2022/05/07 14:01:02,快篩實名制，每天16:00開始販售，售完為止。
5905060198,大樹新化藥局,臺南市新化區中正路５３１號１樓,120.3072,23.03764,(06)5901331,羅氏家用新冠病毒抗原自我檢測套組,78,2022/05/07 14:01:02,快篩實名制，每天16:00開始販售，售完為止。
5905070050,晶德昌藥局,臺南市善化區文光里中山路８５號,120.3034,23.13298,(06)5856141,羅氏家用新冠病毒抗原自我檢測套組,70,2022/05/07 14:01:02,14:30-16:00.依號碼牌售完為止
5905070112,健登藥局,臺南市善化區大成路２１２號１樓,120.3004,23.13021,(06)5831133,羅氏家用新冠病毒抗原自我檢測套組,73,2022/05/07 14:01:02,快篩實名制販售 : 週一~六 下午兩點開始 週日不販售
5905070121,大樹善化藥局,臺南市善化區民權路５４、５６、５８號１樓,120.3034,23.1322,(06)5830550,羅氏家用新冠病毒抗原自我檢測套組,78,2022/05/07 14:01:02,快篩實名制，每天16:00開始販售，售完為止。
5905070158,南科健登藥局,臺南市善化區龍目井路４１３號１樓,120.3058,23.10922,(06)5836266,羅氏家用新冠病毒抗原自我檢測套組,78,2022/05/07 14:01:02,快篩實名制販售 : 週一~六 下午兩點開始 週日不販售
5905080065,生祥大藥局學甲店,臺南市學甲區仁得里華宗路３６９號１樓,120.1821,23.23223,(06)7838462,羅氏家用新冠病毒抗原自我檢測套組,41,2022/05/07 14:01:02,實名制快篩暫停發號碼牌，週一~週五下午1:00開賣~售完。週六下午2:00開賣~售完。
5905140039,安安藥局隆田店,臺南市官田區中山路一段１５號１樓,120.3186,23.1927,(06)5795705,羅氏家用新冠病毒抗原自我檢測套組,1,2022/05/07 14:01:02,全日口罩販賣
5905200085,大樹新市藥局,臺南市新市區中正路４９、５１號１樓,120.2916,23.07223,(06)5892552,羅氏家用新冠病毒抗原自我檢測套組,78,2022/05/07 14:01:02,快篩實名制，每天16:00開始販售，售完為止。
5905270176,大樹仁德藥局,臺南市仁德區中正路二段１１５２號１樓,120.2519,22.97062,(06)2797466,羅氏家用新冠病毒抗原自我檢測套組,78,2022/05/07 14:01:02,快篩實名制，每天16:00開始販售，售完為止。
5905280163,歸仁丁丁藥局,臺南市歸仁區中山路三段７３號１樓,120.2861,22.96753,(06)2300767,羅氏家用新冠病毒抗原自我檢測套組,65,2022/05/07 14:01:02,快篩實名制「每天早上9點發放號碼牌」開始販售，如未到貨可關注丁丁藥局歸仁店FB，到貨通知（憑號碼牌購買）
5905310755,德昌藥局永康店,臺南市永康區中華路４６２號,120.2327,23.01082,(06)3020628,羅氏家用新冠病毒抗原自我檢測套組,78,2022/05/07 14:01:02,快篩販售時間：星期一~星期日14:30~16:00
5905310817,永大啄木鳥藥局,臺南市永康區永大路二段３９７號１樓,120.2632,23.01227,(06)2071575,羅氏家用新冠病毒抗原自我檢測套組,78,2022/05/07 14:01:02,快篩販售星期一~星期日15:00~售完（當天配送若延誤，時間另行公佈）
5905311074,中華長億藥局,臺南市永康區中華路７３４、７３６號１樓,120.2288,23.0167,(06)3022322,羅氏家用新冠病毒抗原自我檢測套組,78,2022/05/07 14:01:02,快篩實名制，每天16:00開始販售，售完為止。
5905311145,慈惠中西藥局,臺南市永康區北興里北興路３５８號１樓,120.2709,23.01289,(06)2050956,羅氏家用新冠病毒抗原自我檢測套組,65,2022/05/07 14:01:02,快篩實名制：週一至週日14:00開始販售（以實際到貨時間為主）
5905320466,佑全中華藥局,臺南市東區中華東路三段２１５號,120.2253,22.97603,(06)2906386,羅氏家用新冠病毒抗原自我檢測套組,76,2022/05/07 14:01:02,星期一-六08:00-21:00
5905320797,大樹自由藥局,臺南市東區自由路三段３８２號１樓,120.2373,22.98241,(06)2890800,羅氏家用新冠病毒抗原自我檢測套組,78,2022/05/07 14:01:02,快篩實名制，每天16:00開始販售，售完為止。
5905320804,大樹大同藥局,臺南市東區大同路二段２２７、２２９號１樓,120.2143,22.97567,(06)2158700,羅氏家用新冠病毒抗原自我檢測套組,78,2022/05/07 14:01:02,快篩實名制，每天16:00開始販售，售完為止。
5905320840,信霖藥局,臺南市東區崇明路１２３號１樓,120.2179,22.97946,(06)3364699,羅氏家用新冠病毒抗原自我檢測套組,58,2022/05/07 14:01:02,週日公休 快篩販售時間為下午兩點
5905320939,東門啄木鳥藥局,臺南市東區東門路三段２４１號１樓,120.2358,22.97662,(06)2884569,羅氏家用新冠病毒抗原自我檢測套組,49,2022/05/07 14:01:02,貨運可能延遲以現場公告或來電詢問為準
5905320948,崇明台安藥局,臺南市東區崇明路３０４號１樓,120.2198,22.97762,(06)2900350,羅氏家用新冠病毒抗原自我檢測套組,57,2022/05/07 14:01:02,快篩下午2點開始販售
5905320975,萬錠藥局,臺南市東區崇成里崇德路６１９號１樓,120.2277,22.97181,(06)2679299,羅氏家用新冠病毒抗原自我檢測套組,75,2022/05/07 14:01:02,實名制快篩販售時段：第一梯次下午14：00、第二梯次晚上19：00（皆提前15分鐘發放牌子，當日配貨數量售完為止。）
5905330024,聖安健保藥局,臺南市南區健康路二段１７３號１樓,120.193,22.98142,(06)2916898,羅氏家用新冠病毒抗原自我檢測套組,4,2022/05/07 14:01:02,因人手不足，快篩販售時間滾動式調整，造成不便還請見諒!週日店休!
5905330337,千薏台安藥局,臺南市南區金華路二段２號１樓,120.1912,22.97556,(06)2638265,羅氏家用新冠病毒抗原自我檢測套組,42,2022/05/07 14:01:02,快篩試劑每天下午兩點開始銷售
5905340173,賜安大藥局,臺南市中西區光賢里武聖路９號,120.1932,23.00517,(06)3589600,羅氏家用新冠病毒抗原自我檢測套組,77,2022/05/07 14:01:02,快篩 代售時段 星期一-六 下午2點~6點
5905340235,人人藥局,臺南市中西區和緯路５段１９７號１樓,120.1845,23.00393,(06)3583668,羅氏家用新冠病毒抗原自我檢測套組,77,2022/05/07 14:01:02,快篩，每日下午兩點開始過卡販售。
5905350259,樂森藥局,臺南市北區和緯路二段３３６號１樓,120.2048,23.01259,(06)2511338,羅氏家用新冠病毒抗原自我檢測套組,78,2022/05/07 14:01:02,九天玄女唯一指定領取時間為每日下午兩點
5905370224,上振藥局,臺南市安南區安中路三段４３號１樓,120.1828,23.04721,(06)2551061,羅氏家用新冠病毒抗原自我檢測套組,68,2022/05/07 14:01:02,星期一~星期六 14:00~售完
5905370304,大樹安南藥局,臺南市安南區安和路四段５５７號１樓,120.2185,23.06181,(06)3563370,羅氏家用新冠病毒抗原自我檢測套組,78,2022/05/07 14:01:02,快篩實名制，每天16:00開始販售，售完為止。
5905380300,新高橋藥局台南永華店,臺南市安平區華平路２７９號１樓,120.1748,22.99031,(06)2992362,羅氏家用新冠病毒抗原自我檢測套組,2,2022/05/07 14:01:02,無
5907010141,維安社區藥局,高雄市鳳山區國富路２５-１號,120.3497,22.61517,(07)7630980,羅氏家用新冠病毒抗原自我檢測套組,67,2022/05/07 14:01:02,代售口罩及快篩試劑開始時間為下午2點.現場排隊，售完為止
5907010187,人人好藥局,高雄市鳳山區五甲三路１０巷７號１樓,120.3278,22.59336,(07)8151566,羅氏家用新冠病毒抗原自我檢測套組,77,2022/05/07 14:01:02,上午0830-1330下午1530-2100， 自2／11-2／29口罩販售周一三四五日，時間:9:00-12:00售完為止
5907010427,好郝藥局鳳林店,高雄市鳳山區誠智里鳳林路２９０號,120.3779,22.62216,(07)7869188,羅氏家用新冠病毒抗原自我檢測套組,78,2022/05/07 14:01:02,健保快篩周一到周六（周日不販售）下午三點開始現場販售，售完為止
5907011086,閤康藥局,高雄市鳳山區忠義里中山西路３７６－７號１樓,120.3412,22.62897,(07)7197787,羅氏家用新冠病毒抗原自我檢測套組,73,2022/05/07 14:01:02,5／5-5／7快篩販售時間 下午2點開始.售完為止!
5907011095,鳳山五甲藥局,高雄市鳳山區正義里五甲二路１３９號１樓,120.3409,22.6014,(07)7269899,羅氏家用新冠病毒抗原自我檢測套組,78,2022/05/07 14:01:02,快篩實名制，每天16:00開始販售，售完為止。
5907011148,大樹國泰藥局,高雄市鳳山區興仁里五甲一路２９２號,120.3539,22.61698,(07)7407234,羅氏家用新冠病毒抗原自我檢測套組,78,2022/05/07 14:01:02,快篩實名制，每天16:00開始販售，售完為止。
5907011291,桂林活力藥師藥局鳳山店,高雄市鳳山區中正里瑞興路４８８號１樓,120.3719,22.63089,(07)7012827,羅氏家用新冠病毒抗原自我檢測套組,20,2022/05/07 14:01:02,早上9點發放號碼牌，發完號碼牌即售完
5907011317,凱旋藥局,高雄市鳳山區國隆里新富路３７３號１樓,120.3475,22.61494,(07)7671181,羅氏家用新冠病毒抗原自我檢測套組,78,2022/05/07 14:01:02,快篩實名制，每天16:00開始販售，售完為止。
5907011362,佑全鳳山藥局,高雄市鳳山區文德里青年路二段４６３號１－２樓,120.3498,22.64513,(07)7801568,羅氏家用新冠病毒抗原自我檢測套組,74,2022/05/07 14:01:02,實名制快篩14:00~18:00
5907011371,大樹五甲藥局,高雄市鳳山區福祥里五甲三路２４號１－２樓．２６號１－２樓,120.3278,22.59317,(07)8224926,羅氏家用新冠病毒抗原自我檢測套組,78,2022/05/07 14:01:02,快篩實名制，每天16:00開始販售，售完為止。
5907020085,大德藥局,高雄市岡山區大德一路９８號,120.3025,22.79689,(07)6221456,羅氏家用新冠病毒抗原自我檢測套組,78,2022/05/07 14:01:02,快篩實名制，每天16:00開始販售，售完為止。
5907020094,大樹岡山藥局,高雄市岡山區岡山路１３６號,120.2967,22.78913,(07)6219477,羅氏家用新冠病毒抗原自我檢測套組,78,2022/05/07 14:01:02,快篩實名制，每天16:00開始販售，售完為止。
5907030072,旗美藥局,高雄市旗山區東平里延平二路４１號,120.4933,22.882,(07)6629839,羅氏家用新冠病毒抗原自我檢測套組,74,2022/05/07 14:01:02,實名制快篩劑購買時間為下午14:00~20:00，星期日店休無配送快篩，請至鄰近藥局購買
5907030152,旗山藥局,高雄市旗山區中華路２３號,120.4841,22.88027,(07)6621158,羅氏家用新冠病毒抗原自我檢測套組,78,2022/05/07 14:01:02,快篩實名制，每天16:00開始販售，售完為止。
5907050092,林園啄木鳥藥局,高雄市林園區鳳林路二段８０３號１樓,120.3957,22.5135,(07)6414772,羅氏家用新冠病毒抗原自我檢測套組,58,2022/05/07 14:01:02,快篩實名制領取時間 下午2點
5907050109,林園藥局,高雄市林園區仁愛路１３號１樓,120.3928,22.50418,(07)6425855,羅氏家用新冠病毒抗原自我檢測套組,78,2022/05/07 14:01:02,快篩實名制，每天16:00開始販售，售完為止。
5907070012,舒康藥師藥局,高雄市大樹區久堂路１２９號,120.4167,22.65781,(07)6520268,羅氏家用新冠病毒抗原自我檢測套組,52,2022/05/07 14:01:02,14:00~18:00若提前售完，銷售時間提前結束。
5907080189,德昌藥局仁雄店,高雄市仁武區灣內里仁雄路３８、３８－１、３８－２號,120.3506,22.68074,(07)3749166,羅氏家用新冠病毒抗原自我檢測套組,70,2022/05/07 14:01:02,固定週一至週日14:30~16:00開始發放號碼牌並依序販售快篩.售完為止
5907080269,興德昌藥局,高雄市仁武區文武里中華路２３２號,120.3516,22.69985,(07)3757005,羅氏家用新冠病毒抗原自我檢測套組,75,2022/05/07 14:01:02,固定週一至週日14:30~16:00開始發放號碼牌並依序販售快篩.售完為止
5907080303,群邦藥局,高雄市仁武區八德東路１８０號１樓,120.3422,22.68538,(07)3745985,羅氏家用新冠病毒抗原自我檢測套組,69,2022/05/07 14:01:02,每日下午2:00開始販售公費快篩（售完為止），星期日藥局早上8:30-9:30賣公費快篩
5907080330,文武藥局,高雄市仁武區文武里中華路３５３號,120.3535,22.7011,(07)3733551,羅氏家用新冠病毒抗原自我檢測套組,78,2022/05/07 14:01:02,快篩實名制，每天16:00開始販售，售完為止。
5907090087,安泰專業藥師藥局,高雄市大社區中山路２６７號１樓,120.3492,22.73194,(07)3553715,羅氏家用新冠病毒抗原自我檢測套組,78,2022/05/07 14:01:02,快篩每日14:20發號碼牌，14:30準時發放 請準備現金500元 不找錢
5907090167,大樹大社藥局,高雄市大社區中山路３０８號１樓,120.3503,22.73145,(07)3531682,羅氏家用新冠病毒抗原自我檢測套組,78,2022/05/07 14:01:02,快篩實名制，每天16:00開始販售，售完為止。
5907150220,天德藥局路竹店,高雄市路竹區忠孝路２６－２、２６－３號１樓,120.2601,22.86059,(07)6975656,羅氏家用新冠病毒抗原自我檢測套組,78,2022/05/07 14:01:02,下午三點發放快篩
5907150257,大樹大立藥局,高雄市路竹區國昌路５１號,120.26,22.85409,(07)6961663,羅氏家用新冠病毒抗原自我檢測套組,78,2022/05/07 14:01:02,快篩實名制，每天16:00開始販售，售完為止。
5907160093,保生藥局,高雄市湖內區葉厝里保生路３４０．３４２號,120.2195,22.90733,(07)6990800,羅氏家用新冠病毒抗原自我檢測套組,79,2022/05/07 14:01:02,快篩實名制，每天16:00開始販售，售完為止。
5907280036,七賢藥局,高雄市鹽埕區七賢三路１６２號１樓,120.2829,22.62712,(07)5330616,羅氏家用新冠病毒抗原自我檢測套組,78,2022/05/07 14:01:02,快篩實名制，每天16:00開始販售，售完為止。
5907300042,育安健保藥局,高雄市左營區富國路３３９號１樓,120.3071,22.66643,(07)5508862,羅氏家用新冠病毒抗原自我檢測套組,61,2022/05/07 14:01:02,如果有來貨？快篩實名制下午2:00開始販售，售完為止。自備現金500元，無刷卡無刷卡無刷卡。周日公休
5907300631,大樹孟子藥局,高雄市左營區孟子路２２６、２２８號,120.3112,22.67415,(07)3461772,羅氏家用新冠病毒抗原自我檢測套組,78,2022/05/07 14:01:02,快篩實名制，每天16:00開始販售，售完為止。
5907300711,富元聯合健康藥局,高雄市左營區博愛三路３７號,120.3038,22.67145,(07)3488585,羅氏家用新冠病毒抗原自我檢測套組,78,2022/05/07 14:01:02,快篩於下午兩點販售
5907300926,高鐵藥局,高雄市左營區華夏路１３２２．１３２６號,120.312,22.68587,(07)3452797,羅氏家用新冠病毒抗原自我檢測套組,78,2022/05/07 14:01:02,快篩實名制，每天16:00開始販售，售完為止。
5907300980,大路藥局,高雄市左營區左營大路５５－２號１樓,120.2877,22.6813,(07)5851001,羅氏家用新冠病毒抗原自我檢測套組,78,2022/05/07 14:01:02,快篩實名制，每天16:00開始販售，售完為止。
5907310262,大樹楠梓藥局,高雄市楠梓區軍校路９０８號,120.2919,22.71246,(07)3632322,羅氏家用新冠病毒抗原自我檢測套組,78,2022/05/07 14:01:02,快篩實名制，每天16:00開始販售，售完為止。
5907310342,楠梓久億藥局,高雄市楠梓區德祥路２２１號,120.3075,22.72657,(07)3657099,羅氏家用新冠病毒抗原自我檢測套組,70,2022/05/07 14:01:02,每日78份實名制快篩販售時間2:00PM-4:30PM，提早售完即截止。
5907310379,德昌藥局,高雄市楠梓區德賢路２１５號,120.3053,22.72632,(07)3619998,羅氏家用新冠病毒抗原自我檢測套組,75,2022/05/07 14:01:02,實名制快篩販售時間：周一至週日，14:30至16:00，售完為止。
5907310404,藍田藥局,高雄市楠梓區藍田路１號,120.2953,22.72643,(07)3601236,羅氏家用新冠病毒抗原自我檢測套組,78,2022/05/07 14:01:02,快篩實名制，每天16:00開始販售，售完為止。
5907320428,東京藥局,高雄市三民區建工路６８５號,120.3173,22.6478,(07)3874567,羅氏家用新冠病毒抗原自我檢測套組,69,2022/05/07 14:01:02,實名制快篩販售時間: 每日15:00-晚上20:00
5907320697,鄰好藥師藥局,高雄市三民區褒揚街２８７號,120.3398,22.64097,(07)3909589,羅氏家用新冠病毒抗原自我檢測套組,75,2022/05/07 14:01:02,購買實名制快篩時間下午14:00-16:00，各類防疫用品販售中
5907320848,仕康健保藥妝藥局,高雄市三民區建興路２２２號,120.325,22.6447,(07)3845050,羅氏家用新冠病毒抗原自我檢測套組,78,2022/05/07 14:01:02,下午3點販售，現場排隊
5907320893,大樹天祥藥局,高雄市三民區天祥一路１６７號,120.3191,22.66737,(07)3429902,羅氏家用新冠病毒抗原自我檢測套組,78,2022/05/07 14:01:02,快篩實名制，每天16:00開始販售，售完為止。
5907320919,心寬福藥局,高雄市三民區大順二路７１８號一樓,120.3193,22.65359,(07)3832366,羅氏家用新冠病毒抗原自我檢測套組,54,2022/05/07 14:01:02,快篩販售因人力有限，週一、四上午9:00其餘下午2:00，週日公休。
5907320946,熊安心藥局,高雄市三民區陽明路４０８號,120.3429,22.64609,(07)3815212,羅氏家用新冠病毒抗原自我檢測套組,107,2022/05/07 14:01:02,週一 ~ 週六快篩 14:00 販售
5907320982,康圓藥局,高雄市三民區大豐二路３５９．３６１號１樓,120.3343,22.6468,(07)3909978,羅氏家用新冠病毒抗原自我檢測套組,77,2022/05/07 14:01:02,快篩試劑下午2點開賣
5907321032,三民明誠藥局,高雄市三民區明誠一路５００號１－２Ｆ及５０２號,120.3223,22.66046,(07)3493137,羅氏家用新冠病毒抗原自我檢測套組,77,2022/05/07 14:01:02,快篩試劑下午2:00販售
5907321041,鼎安健保藥局,高雄市三民區鼎中路４１８號１樓,120.3199,22.66719,(07)3509939,羅氏家用新冠病毒抗原自我檢測套組,77,2022/05/07 14:01:02,無
5907321069,桂林活力藥局九如店,高雄市三民區懷安街１１２號１樓,120.3176,22.64095,(07)3981009,羅氏家用新冠病毒抗原自我檢測套組,78,2022/05/07 14:01:02,每天15:30發號碼牌，於18:00前兌換完畢，逾期棄權，剩餘則繼續發放
5907321078,振源藥局,高雄市三民區熱河一街３５５號１樓,120.3061,22.64365,(07)3112541,羅氏家用新冠病毒抗原自我檢測套組,11,2022/05/07 14:01:02,4／30起15:00開始販售快篩，六日皆有營業
5907321103,自由藥局,高雄市三民區自由一路７８號,120.3089,22.64422,(07)3223113,羅氏家用新冠病毒抗原自我檢測套組,78,2022/05/07 14:01:02,快篩實名制，每天16:00開始販售，售完為止。
5907321121,九如順天藥局,高雄市三民區大連街９巷１８號,120.3045,22.64073,(07)3220706,羅氏家用新冠病毒抗原自我檢測套組,3,2022/05/07 14:01:02,實名制快篩為下午1點-6點開放領取，領完為止
5907321167,高杏健保藥局,高雄市三民區義華路４３２號,120.3325,22.6437,(07)3920588,羅氏家用新冠病毒抗原自我檢測套組,24,2022/05/07 14:01:02,無
5907350266,人和藥局,高雄市苓雅區正義路１８０－６號,120.3402,22.63182,(07)7490883,羅氏家用新冠病毒抗原自我檢測套組,77,2022/05/07 14:01:02,實名制快篩販售時間週一到周六下午 14:00
5907350346,武廟幸福藥局,高雄市苓雅區武廟路３５號,120.3316,22.62999,(07)7170085,羅氏家用新冠病毒抗原自我檢測套組,8,2022/05/07 14:01:02,1: 自111／5／1起：快篩販售時間為13:40開始。2: 販售方式依現場公告為主，售完為止。
5907350499,鑫美健保特約藥局,高雄市苓雅區光華一路１４８－５８號１樓,120.3158,22.62389,(07)7715088,羅氏家用新冠病毒抗原自我檢測套組,78,2022/05/07 14:01:02,14:00開賣實名制快篩，馨田診所配合公費快篩，慢箋免費領藥，防疫物資特賣
5907350506,大樹苓雅藥局,高雄市苓雅區中華四路１５３號,120.3001,22.61783,(07)5353111,羅氏家用新冠病毒抗原自我檢測套組,78,2022/05/07 14:01:02,快篩實名制，每天16:00開始販售，售完為止。
5907350551,大樹武廟藥局,高雄市苓雅區武廟路４３、４５號１樓,120.3314,22.63005,(07)7222268,羅氏家用新冠病毒抗原自我檢測套組,78,2022/05/07 14:01:02,快篩實名制，每天16:00開始販售，售完為止。
5907350597,武廟台安藥局,高雄市苓雅區武廟路１３３－１號,120.3266,22.63106,(07)7228893,羅氏家用新冠病毒抗原自我檢測套組,1,2022/05/07 14:01:02,實名制快篩販售時間：（一）~（六） 9:00~17:00
5907350631,三多藥局,高雄市苓雅區三多二路２９２號１樓,120.3173,22.61838,(07)3365889,羅氏家用新冠病毒抗原自我檢測套組,78,2022/05/07 14:01:02,快篩實名制，每天16:00開始販售，售完為止。
5907360379,金服安藥局,高雄市前鎮區鎮興路１９１號,120.3115,22.59249,(07)8150061,羅氏家用新冠病毒抗原自我檢測套組,41,2022/05/07 14:01:02,每日下午2-4點販賣快篩試劑
5907360413,益源藥局,高雄市前鎮區草衙二路４１８號,120.3226,22.57903,(07)8412120,羅氏家用新冠病毒抗原自我檢測套組,47,2022/05/07 14:01:02,無
5907360431,佛公健保藥局,高雄市前鎮區后平路２０２號１樓,120.3205,22.57371,(07)8317755,羅氏家用新冠病毒抗原自我檢測套組,8,2022/05/07 14:01:02,實名制快篩原則上13:30販售，實際時間依到貨時間滾動式調整，售完為止。
5907360520,大樹瑞福藥局,高雄市前鎮區瑞隆路１７０號１樓、２樓,120.3357,22.60598,(07)7271170,羅氏家用新冠病毒抗原自我檢測套組,78,2022/05/07 14:01:02,快篩實名制，每天16:00開始販售，售完為止。
5907360664,忠純藥局,高雄市前鎮區中華五路１００９號１樓,120.3056,22.60341,(07)3366886,羅氏家用新冠病毒抗原自我檢測套組,78,2022/05/07 14:01:02,快篩實名制，每天16:00開始販售，售完為止。
5907360673,前鎮大樹藥局,高雄市前鎮區瑞隆路４７２號１樓,120.3291,22.60547,(07)7137171,羅氏家用新冠病毒抗原自我檢測套組,78,2022/05/07 14:01:02,快篩實名制，每天16:00開始販售，售完為止。
5907380255,安安藥師藥局,高雄市小港區孔鳳路５６５號１樓,120.3586,22.58393,(07)7915933,羅氏家用新冠病毒抗原自我檢測套組,49,2022/05/07 14:01:02,快篩實名制周一至周六下午14:00開始販售，售完為止
5907380264,大樹孔鳳藥局,高雄市小港區孔鳳路５１９、５２１號,120.3587,22.5828,(07)7918521,羅氏家用新冠病毒抗原自我檢測套組,78,2022/05/07 14:01:02,快篩實名制，每天16:00開始販售，售完為止。
5907380424,大樹小港藥局,高雄市小港區康莊路７５號１樓,120.3559,22.56853,(07)8068328,羅氏家用新冠病毒抗原自我檢測套組,78,2022/05/07 14:01:02,快篩實名制，每天16:00開始販售，售完為止。
5911010015,喬寶藥局,基隆市中正區義二路６６號１樓,121.7461,25.13187,(02)24202827,羅氏家用新冠病毒抗原自我檢測套組,78,2022/05/07 14:01:02,下午2點開賣
5911011325,永好藥局,基隆市中正區北寧路３１５號１樓,121.7951,25.13981,(02)24697639,羅氏家用新冠病毒抗原自我檢測套組,78,2022/05/07 14:01:02,快篩星期一*三*五是單號 二*四雙號 下午14:30販售 星期六星期日休息
5911011334,海大藥局,基隆市中正區新豐街２５５號１樓,121.7879,25.13621,(02)24699222,羅氏家用新冠病毒抗原自我檢測套組,78,2022/05/07 14:01:02,平日：8：30~12：00，15：00~21：30；星期日：~12：00
5911011478,天康新豐藥局,基隆市中正區新豐街２５１巷４弄９號１樓,121.7885,25.13594,(02)24695168,羅氏家用新冠病毒抗原自我檢測套組,71,2022/05/07 14:01:02,無
5911011638,中正藥局,基隆市中正區新豐街３８５號１、２樓,121.7856,25.13537,(02)24690660,羅氏家用新冠病毒抗原自我檢測套組,78,2022/05/07 14:01:02,快篩實名制，每天16:00開始販售，售完為止。
5911021438,正心藥局,基隆市七堵區南興路１０號１樓,121.7149,25.09755,(02)24563378,羅氏家用新冠病毒抗原自我檢測套組,78,2022/05/07 14:01:02,每日限量78盒， 星期一~六下午13:30發號碼牌，14:00開始販賣，星期日上午9:00發號碼牌，9:30開始販賣，12:00停止領取
5911030035,陸記藥局,基隆市暖暖區源遠路２４１號,121.7543,25.09882,(02)24576712,羅氏家用新冠病毒抗原自我檢測套組,75,2022/05/07 14:01:02,每日下午兩點販售快篩試劑
5911031096,東方藥局,基隆市暖暖區暖暖街１５３號１樓,121.7367,25.10013,(02)24574171,羅氏家用新冠病毒抗原自我檢測套組,37,2022/05/07 14:01:02,下午2點販售
5911040228,大田大藥局,基隆市仁愛區仁二路５號,121.7507,25.12744,(02)24258762,羅氏家用新冠病毒抗原自我檢測套組,74,2022/05/07 14:01:02,下午2:00發號碼牌並販售
5911041403,佑昌藥局,基隆市仁愛區南榮路１７號,121.7423,25.12697,(02)24293309,羅氏家用新冠病毒抗原自我檢測套組,2,2022/05/07 14:01:02,無
5911051409,順豐藥局,基隆市中山區中華路４號,121.7388,25.14545,(02)24369176,羅氏家用新冠病毒抗原自我檢測套組,75,2022/05/07 14:01:02,家用快篩每日下午2點起隨到隨領售完為止。
5911051543,復興藥局,基隆市中山區復興路１２８、１３０、１３２、１３４號１、２樓,121.7262,25.1446,(02)24362566,羅氏家用新冠病毒抗原自我檢測套組,78,2022/05/07 14:01:02,快篩實名制，每天16:00開始販售，售完為止。
5911060015,福泰藥局,基隆市安樂區麥金路４３３號,121.7194,25.12511,(02)24311631,羅氏家用新冠病毒抗原自我檢測套組,78,2022/05/07 14:01:02,下午2點發號碼牌  3點領快篩試劑
5911061370,佑全基隆麥金藥局,基隆市安樂區麥金路２０１號地下１樓之１,121.7211,25.12158,(02)24347816,羅氏家用新冠病毒抗原自我檢測套組,77,2022/05/07 14:01:02,實名制快篩下午兩點開買，營業時間09:00-21:00
5911071572,元登藥局,基隆市信義區深溪路１４９號,121.7826,25.13475,(02)24663826,羅氏家用新冠病毒抗原自我檢測套組,47,2022/05/07 14:01:02,無
5911071590,基隆藥局,基隆市信義區東信路１６６、１６８號１、２樓,121.7646,25.12821,(02)24680955,羅氏家用新冠病毒抗原自我檢測套組,78,2022/05/07 14:01:02,快篩實名制，每天16:00開始販售，售完為止。
5911071607,家安藥師藥局,基隆市信義區信二路２５７、２５９號１樓,121.7478,25.1301,(02)24223917,羅氏家用新冠病毒抗原自我檢測套組,67,2022/05/07 14:01:02,星期一 ~ 星期六14:00開始銷售。
5912012120,仁美藥局,新竹市東區振興里振興路５２號,120.9625,24.79493,(03)5625398,羅氏家用新冠病毒抗原自我檢測套組,78,2022/05/07 14:01:02,週一~週六晚上六點販售（週日店休）不發號碼牌!請不要問我要幾點排隊，我不是九天玄女!盡量不打電話，感恩!!
5912012988,杏康健保特約藥局,新竹市東區光復路一段５２５巷２３號１樓,121.0135,24.78384,(03)5772966,羅氏家用新冠病毒抗原自我檢測套組,22,2022/05/07 14:01:02,週一至五09:00-21:00 （週六公休） 週日09:00-18:00
5912013494,田美藥局,新竹市東區田美三街３５之１號１樓,120.9767,24.81572,(03)5350233,羅氏家用新冠病毒抗原自我檢測套組,78,2022/05/07 14:01:02,快篩實名制，每天16:00開始販售，售完為止。
5912013592,康妍藥局,新竹市東區西大路１２６號１樓,120.9703,24.79667,(03)5622476,羅氏家用新冠病毒抗原自我檢測套組,72,2022/05/07 14:01:02,無
5912013672,關東藥局,新竹市東區光復路１段３３２、３３４號１至２樓,121.0187,24.78289,(03)5777077,羅氏家用新冠病毒抗原自我檢測套組,78,2022/05/07 14:01:02,快篩實名制，每天16:00開始販售，售完為止。
5912013681,仁春藥局,新竹市東區慈濟路２５２號１樓,121.0153,24.79245,(03)6686718,羅氏家用新冠病毒抗原自我檢測套組,78,2022/05/07 14:01:02,5／7 實名制快篩 於16:00開始販售
5912013707,信安藥師藥局,新竹市東區南大路８４２號１樓,120.9669,24.78819,(03)5623101,羅氏家用新冠病毒抗原自我檢測套組,77,2022/05/07 14:01:02,下午2點開賣快篩試劑  週日無販售實名制快篩
5912040197,芳鄰藥局,新竹市北區光田里水田街１５７號,120.969,24.8166,(03)5314948,羅氏家用新冠病毒抗原自我檢測套組,63,2022/05/07 14:01:02,實名制快篩有收到貨就 15:00開始賣 售完為止 週一到周六營業時間08:-22:00  週日09:00-18:00
5912040222,保健藥局,新竹市北區中山路１５３號１樓,120.9635,24.80324,(03)5242088,羅氏家用新冠病毒抗原自我檢測套組,75,2022/05/07 14:01:02,快篩販賣時段：下午2:00現場排隊至售完為止。
5912042098,欣欣藥局,新竹市北區西大路736巷1號,120.9591,24.81011,(03)5351205,羅氏家用新冠病毒抗原自我檢測套組,78,2022/05/07 14:01:02,快篩代售周一~周六下午3點開始販售，售完為止  藥局營業時間上午8:00-12:00 ；下午15:00-18:00 ；晚上18:30-21:30
5912042664,永沛藥局,新竹市北區湳雅街２０９號,120.9741,24.82093,(03)5328563,羅氏家用新冠病毒抗原自我檢測套組,78,2022/05/07 14:01:02,快篩  05／08周日08:30開賣  周一~周六 15:00開賣 現場排隊 請別再打電話來問  PS:請自帶一張500鈔票，不收其他面額
5912042897,立新藥師藥局,新竹市北區延平路一段２４５號１樓,120.9532,24.80494,(03)5228968,羅氏家用新冠病毒抗原自我檢測套組,78,2022/05/07 14:01:02,周一~周六PM2:00販售快篩。周日不販售。ps.請自備500元，不找錢
5912042968,大樹新竹藥局,新竹市北區西大路５４０、５４２號１、２樓,120.9619,24.80676,(03)5250388,羅氏家用新冠病毒抗原自我檢測套組,78,2022/05/07 14:01:02,快篩實名制，每天16:00開始販售，售完為止。
5912051350,高晟藥師藥局,新竹市香山區大庄路59號,120.9279,24.78964,(03)5306645,羅氏家用新冠病毒抗原自我檢測套組,78,2022/05/07 14:01:02,下午2點銷售快篩
5917011934,一安堂藥局,臺中市中區臺灣大道一段２０號１樓,120.6847,24.13819,(04)22259616,羅氏家用新冠病毒抗原自我檢測套組,75,2022/05/07 14:01:02,14:00開始領取實名制快篩劑
5917011945,正三吉藥局,臺中市中區臺灣大道一段９５號,120.6831,24.13911,(04)22207700,羅氏家用新冠病毒抗原自我檢測套組,78,2022/05/07 14:01:02,快篩販售時間 14:00~17:00
5917020337,福生藥局,臺中市東區福仁街138號,120.6898,24.1444,(04)22119106,羅氏家用新冠病毒抗原自我檢測套組,12,2022/05/07 14:01:02,星期一~六.下午1:30開始販售實名制快篩.售完為止
5917030271,國良藥局,臺中市西區西屯路１段２２０號,120.6707,24.15344,(04)22018772,羅氏家用新冠病毒抗原自我檢測套組,75,2022/05/07 14:01:02,快篩試劑，下午2點開始販售，售完為止。星期日照常販售。
5917030280,德星藥局,臺中市西區忠明里美村路一段９６號,120.6615,24.1521,(04)23212293,羅氏家用新冠病毒抗原自我檢測套組,61,2022/05/07 14:01:02,5／7周六快篩14:00開始販售.營業時間10:00~20:00週六13:30~20:00營業，上午休息，週日休息
5917030995,麗新健保大藥局,臺中市西區向上路一段１６２號,120.6612,24.1469,(04)23017100,羅氏家用新冠病毒抗原自我檢測套組,77,2022/05/07 14:01:02,週一至週日下午15:00至售完為止
5917032800,壹藥局,臺中市西區美村路１段７７５號１樓,120.6618,24.13306,(04)23721998,羅氏家用新冠病毒抗原自我檢測套組,66,2022/05/07 14:01:02,星期一到星期日每天下午二點開始販售快篩試劑售完為止謝謝
5917040464,陳信安藥局,臺中市南區永興里高工路３４９號,120.6665,24.11425,(04)22619560,羅氏家用新冠病毒抗原自我檢測套組,71,2022/05/07 14:01:02,實名制快篩 周一至六14:00開賣，庫存依現場為準，周日依政府配送調整
5917041836,健康人生藥局,臺中市南區美村南路１３１號,120.6666,24.11725,(04)22633936,羅氏家用新冠病毒抗原自我檢測套組,77,2022/05/07 14:01:02,實名制快篩 14:00開賣!     因政府配貨時間不一，若貨運有延後配送，依照門市現場公告時間為主!
5917053649,博森藥局,臺中市北區健行路４９３號,120.6778,24.15905,(04)22068589,羅氏家用新冠病毒抗原自我檢測套組,71,2022/05/07 14:01:02,固定週一到週六，下午2:00到下午4:00以現場排隊方式販售防疫家用快篩。
5917053756,中心旗艦藥局,臺中市北區五權路４０４號,120.6821,24.15288,(04)22068113,羅氏家用新冠病毒抗原自我檢測套組,78,2022/05/07 14:01:02,每日下午2:00開始賣快篩（實名制）.周一至周日都有營業
5917061150,裕和藥局,臺中市西屯區大墩路９５１號１Ｆ,120.652,24.15929,(04)23252629,羅氏家用新冠病毒抗原自我檢測套組,44,2022/05/07 14:01:02,實名制快篩W1-W6 14:00開始販售，星期天早上9:00開始販售。
5917062988,廣安大藥局,臺中市西屯區青海路一段一Ｏ一、一Ｏ三號,120.6536,24.16485,(04)23118572,羅氏家用新冠病毒抗原自我檢測套組,75,2022/05/07 14:01:02,週一~日10AM販售口罩售完為止，無發放號碼牌.
5917063065,達康藥局,臺中市西屯區中工三路１３９號,120.6186,24.17779,(04)23586332,羅氏家用新冠病毒抗原自我檢測套組,67,2022/05/07 14:01:02,週一~周日下午2點販售快篩售完為止，無發放號碼牌.
5917063725,永旭大藥局,臺中市西屯區逢甲路９２號１樓,120.6439,24.17883,(04)27087952,羅氏家用新冠病毒抗原自我檢測套組,1,2022/05/07 14:01:02,5／6起實名快篩，星期一到五早上10點開始，星期六日中午12點開始排隊販售。
5917070382,得安藥局,臺中市南屯區溝墘里大墩路５９６號,120.6495,24.15136,(04)23234168,羅氏家用新冠病毒抗原自我檢測套組,72,2022/05/07 14:01:02,下午2:00開始現場購買快篩試劑，售完為止。
5917070462,長映藥局,臺中市南屯區黎明路二段４３２號１樓,120.6355,24.15166,(04)22510951,羅氏家用新冠病毒抗原自我檢測套組,72,2022/05/07 14:01:02,實名制快篩每日下午2點開賣，售完為止（庫存以現場為主）
5917071727,大愛藥局,臺中市南屯區向心南路９６２．９６４號１樓,120.644,24.13718,(04)24733646,羅氏家用新冠病毒抗原自我檢測套組,7,2022/05/07 14:01:02,快篩販售請依現場公告為主
5917080119,李藥局,臺中市北屯區和順路３９８號,120.7227,24.17664,(04)22390950,羅氏家用新冠病毒抗原自我檢測套組,5,2022/05/07 14:01:02,快篩下午一點半販售，滾動調整時間，請見諒
5917080619,永佳藥局,臺中市北屯區昌平路１段１０５－５號１樓,120.6904,24.17362,(04)22438886,羅氏家用新冠病毒抗原自我檢測套組,76,2022/05/07 14:01:02,5／7快篩下午2點販售
5921010223,王藥局,臺南市東區小東里小東路１９０－１號,120.2276,22.99976,(06)2378697,羅氏家用新冠病毒抗原自我檢測套組,68,2022/05/07 14:01:02,週一 至 週日，下午 2:00 ~ 晚上9:00 （ 需健保卡 ）
5921012334,家庭藥局,臺南市東區崇文里生產路３６９─３號,120.2278,22.96502,(06)2607298,羅氏家用新冠病毒抗原自我檢測套組,24,2022/05/07 14:01:02,快篩於星期一~星期六下午2:00開始~售完為止
5921012530,早安藥師藥局,臺南市東區裕學路１１２號,120.2358,22.98502,(06)3350535,羅氏家用新冠病毒抗原自我檢測套組,68,2022/05/07 14:01:02,營業時間:8:30~23:30   快篩試劑發放時間 : 星期一到日14:00開始售完為止
5921040301,永生藥局,臺南市北區六甲里公園路４８１號,120.2079,23.00898,(06)2813681,羅氏家用新冠病毒抗原自我檢測套組,59,2022/05/07 14:01:02,每日販賣快篩劑下午2時起至售完為止／星期日休息
5921040623,惠光藥局,臺南市北區文亢里文賢路２３６號,120.1938,23.0042,(06)2586316,羅氏家用新冠病毒抗原自我檢測套組,78,2022/05/07 14:01:02,快篩販售:5／7下午4:00開始，星期日公休
5921071226,康活藥局,臺南市安平區健康三街１８６號,120.1686,22.98883,(06)2936483,羅氏家用新冠病毒抗原自我檢測套組,4,2022/05/07 14:01:02,快篩晚上18:00開賣.
5921071244,全家藥局,臺南市安平區華平路１７０號,120.1749,22.98882,(06)2939000,羅氏家用新冠病毒抗原自我檢測套組,75,2022/05/07 14:01:02,下午2:30 開賣快篩  到貨時間不確定 數量依現場為主  請準備剛好金額 謝謝  星期日不營業
5922012383,振安藥局,嘉義市東區王田里林森東路３００號１樓,120.464,23.48889,(05)2756541,羅氏家用新冠病毒抗原自我檢測套組,41,2022/05/07 14:01:02,實名制快篩:周一至周日14:00開始販售，售完為止
5922012945,大明藥局,嘉義市東區大雅路二段６８２號,120.4663,23.47719,(05)2760958,羅氏家用新冠病毒抗原自我檢測套組,2,2022/05/07 14:01:02,5／7號碼牌已發完畢（星期一至六：11點發號碼牌12-14點開始販售）
5922013068,佑全嘉義吳鳳南藥局,嘉義市東區吳鳳南路５８５、５８７號,120.459,23.45639,(05)2399311,羅氏家用新冠病毒抗原自我檢測套組,62,2022/05/07 14:01:02,領取快篩14:00
5922013102,後庄藥局,嘉義市東區吳鳳南路６４９號,120.4594,23.45511,(05)2391233,羅氏家用新冠病毒抗原自我檢測套組,78,2022/05/07 14:01:02,快篩實名制，每天16:00開始販售，售完為止。
5922013111,富善藥局,嘉義市東區新生路２３４號,120.4609,23.48419,(05)2759559,羅氏家用新冠病毒抗原自我檢測套組,30,2022/05/07 14:01:02,5／13、14休假，實名制快篩早上9:10-12:00下午3:10-5:00
5922013166,忠孝啄木鳥藥局,嘉義市東區忠孝北街１８５號,120.444,23.51618,(05)2204948,羅氏家用新冠病毒抗原自我檢測套組,76,2022/05/07 14:01:02,有收到配量即每日下午2:00販售
5922013184,軍輝啄木鳥藥局,嘉義市東區軍輝路２２２號,120.4588,23.455,(05)2395963,羅氏家用新冠病毒抗原自我檢測套組,78,2022/05/07 14:01:02,週一~日下午4:00開始
5922013193,民權藥局,嘉義市東區民權路１５５號１樓、１５７號１樓,120.4604,23.48374,(05)2775322,羅氏家用新冠病毒抗原自我檢測套組,78,2022/05/07 14:01:02,快篩實名制，每天16:00開始販售，售完為止。
5922020563,信康藥局,嘉義市西區翠岱里仁愛路２２６號,120.443,23.46984,(05)2161680,羅氏家用新冠病毒抗原自我檢測套組,56,2022/05/07 14:01:02,快篩星期一至星期五早上10:00開賣 星期六下午14:00開賣
5922020652,四維啄木鳥藥局,嘉義市西區德安路１６０號,120.4284,23.48403,(05)2810598,羅氏家用新冠病毒抗原自我檢測套組,70,2022/05/07 14:01:02,口罩：每天8:15，現場排隊
5922020821,明興藥局,嘉義市西區仁愛路２４７號１樓,120.4425,23.47149,(05)2365938,羅氏家用新冠病毒抗原自我檢測套組,67,2022/05/07 14:01:02,快篩 周一至周六下午2點開賣  週日無
5922020858,大統藥局,嘉義市西區慶安里北興街１３６號,120.4421,23.48389,(05)2330230,羅氏家用新冠病毒抗原自我檢測套組,3,2022/05/07 14:01:02,5月7日預約登記已滿.有預約的民眾請於上午9:00點後領取
5922028596,一安藥局,嘉義市西區福民里興業西路３１１號,120.4387,23.4677,(05)2859275,羅氏家用新冠病毒抗原自我檢測套組,71,2022/05/07 14:01:02,周一至周日早上9點至晚上10點半依發放號碼排依序售完
592202A518,徠的安藥師藥局,嘉義市西區保安里世賢路１段６鄰５４９號,120.4306,23.48982,(05)2318532,羅氏家用新冠病毒抗原自我檢測套組,3,2022/05/07 14:01:02,無
5931010397,正成藥師藥局,新北市板橋區三民路２段１５４巷７號,121.4787,25.01515,(02)29512760,羅氏家用新冠病毒抗原自我檢測套組,15,2022/05/07 14:01:02,無
5931010459,欣民藥局,新北市板橋區雙十路３段３９號,121.4706,25.03168,(02)22545938,羅氏家用新冠病毒抗原自我檢測套組,68,2022/05/07 14:01:02,快篩星期一到六下午兩點發放（前提政府有配送）
5931011161,全國藥局,新北市板橋區四川路１段２３１號,121.4601,25.00297,(02)29511212,羅氏家用新冠病毒抗原自我檢測套組,78,2022/05/07 14:01:02,健保快篩發放時間:星期一到星期六下午2點發放號碼牌~歡迎大家來領喔!
5931011447,日生大藥局,新北市板橋區中正路１巷１６弄１６號,121.4551,25.01209,(02)29675261,羅氏家用新冠病毒抗原自我檢測套組,46,2022/05/07 14:01:02,快篩試劑販售時間:週一至週六14:00-20:30  售完為止，周日休假
5931013478,富盛藥局,新北市板橋區四維路２９１巷４弄２４號１樓,121.4622,25.02879,(02)22596016,羅氏家用新冠病毒抗原自我檢測套組,9,2022/05/07 14:01:02,快篩試劑.下午2點販售.預防群聚 滾動式調整時間.請勿打電話詢問.謝謝
5931015687,正康健保藥局,新北市板橋區大觀路２段６５號１樓,121.4467,25.00246,(02)22756681,羅氏家用新冠病毒抗原自我檢測套組,78,2022/05/07 14:01:02,下午13:30依現場順序開始販售快篩，快篩配送絮亂庫存不準!!
5931016433,利安社區藥局,新北市板橋區德興街３７巷１４號（１樓）,121.4538,24.99382,(02)89671551,羅氏家用新冠病毒抗原自我檢測套組,75,2022/05/07 14:01:02,無
5931016586,賜安藥局,新北市板橋區信義路６０號１樓,121.4571,24.99373,(02)29617483,羅氏家用新冠病毒抗原自我檢測套組,72,2022/05/07 14:01:02,4／28快篩每日配送到達公告於LINE@及FB粉絲專頁後開始銷售 售完為止 星期日公休
5931016611,民川藥局,新北市板橋區四川路１段９７號１樓,121.4598,25.00544,(02)29520090,羅氏家用新冠病毒抗原自我檢測套組,40,2022/05/07 14:01:02,星期一~星期六（快篩上午9:00販售38份下午3:00販售40份）
5931016808,正安健保藥局,新北市板橋區民族路２２４號（１樓）,121.4687,25.00733,(02)29526813,羅氏家用新冠病毒抗原自我檢測套組,78,2022/05/07 14:01:02,17時依現場順序開始販售.週六12點.電腦配送庫存不準..以現場數量為準
5931017092,康橋藥局,新北市板橋區文化路１段２７３號,121.4646,25.01848,(02)22532560,羅氏家用新冠病毒抗原自我檢測套組,73,2022/05/07 14:01:02,快篩試劑 每天下午2點販售 不發號碼牌 售完為止 周日公休
5931017289,板橋大樹藥局,新北市板橋區忠孝路２８號（１樓）,121.4603,25.00176,(02)29555551,羅氏家用新冠病毒抗原自我檢測套組,78,2022/05/07 14:01:02,快篩實名制，每天16:00開始販售，售完為止。
5931017618,新埔健保藥局,新北市板橋區自由路２號１樓,121.4654,25.02222,(02)22558878,羅氏家用新冠病毒抗原自我檢測套組,39,2022/05/07 14:01:02,無
5931017636,福澤藥局,新北市板橋區南雅南路１段８５號（１樓）,121.4556,25.00543,(02)29690013,羅氏家用新冠病毒抗原自我檢測套組,78,2022/05/07 14:01:02,口罩代售9:00-23:00
5931017645,松立藥局,新北市板橋區四川路２段９９之１０號（１樓）,121.4521,24.99448,(02)89670100,羅氏家用新冠病毒抗原自我檢測套組,16,2022/05/07 14:01:02,無
5931017663,盛生藥局,新北市板橋區合宜路９９號（１樓）,121.4479,24.9984,(02)89697299,羅氏家用新冠病毒抗原自我檢測套組,77,2022/05/07 14:01:02,政府快篩下午1:50發放號碼牌.下午2:00準時銷售..假日視政府配量（銷售時間相同）
5931017770,光環藥局,新北市板橋區光環路２段１６號１樓,121.4822,25.01476,(02)89520920,羅氏家用新冠病毒抗原自我檢測套組,67,2022/05/07 14:01:02,無
5931017789,明翠藥局,新北市板橋區四維路１４６、１４８號１、２樓,121.4651,25.02555,(02)22550201,羅氏家用新冠病毒抗原自我檢測套組,78,2022/05/07 14:01:02,快篩實名制，每天16:00開始販售，售完為止。
5931017832,躍獅莒光藥局,新北市板橋區莒光路５８號１樓,121.4709,25.02421,(02)22556743,羅氏家用新冠病毒抗原自我檢測套組,78,2022/05/07 14:01:02,5／7下午2:50發號碼牌（78份），請勿打電話詢問。
5931017869,躍獅國慶藥局,新北市板橋區國慶路１７９號（１樓）,121.4626,24.99636,(02)29641548,羅氏家用新冠病毒抗原自我檢測套組,234,2022/05/07 14:01:02,快篩實名制，每天14:00開始販售，售完為止
5931017912,社後藥局,新北市板橋區大仁街３９號（１樓）,121.4551,25.01661,(02)29665662,羅氏家用新冠病毒抗原自我檢測套組,78,2022/05/07 14:01:02,快篩實名制，每天16:00開始販售，售完為止。
5931017985,松柏藥局,新北市板橋區松柏街９４號（１樓）,121.4767,25.03065,(02)82585223,羅氏家用新冠病毒抗原自我檢測套組,78,2022/05/07 14:01:02,快篩實名制，每天16:00開始販售，售完為止。
5931017994,後埔藥局,新北市板橋區華興街９號（１樓）,121.459,25.00457,(02)89510306,羅氏家用新冠病毒抗原自我檢測套組,78,2022/05/07 14:01:02,5／7 下午2點發放號碼牌*確保作業流暢請自備500元*每天 78 份晚上10 點以前領取完畢（過卡時間差異剩餘數量僅供參考）
5931018026,莊敬藥局,新北市板橋區莊敬路１６３號（１樓）,121.4715,25.02456,(02)22551105,羅氏家用新冠病毒抗原自我檢測套組,78,2022/05/07 14:01:02,快篩實名制，每天16:00開始販售，售完為止。
5931018106,力安藥局,新北市板橋區莒光路１９６巷８號（１樓）,121.4738,25.02255,(02)22503349,羅氏家用新冠病毒抗原自我檢測套組,32,2022/05/07 14:01:02,快篩實名制，早上9點依現場順序開始販售快篩，售完為止。
5931018124,大楓藥師藥局,新北市板橋區懷仁街８４號（１樓）,121.4774,25.01819,(02)29560576,羅氏家用新冠病毒抗原自我檢測套組,4,2022/05/07 14:01:02,快篩販售時間  下午13:30開始，售完為止。
5931018142,重慶藥局,新北市板橋區國慶路１２７號（１樓）,121.4608,24.99602,(02)29565586,羅氏家用新冠病毒抗原自我檢測套組,78,2022/05/07 14:01:02,快篩實名制，每天16:00開始販售，售完為止。
5931020848,吳廣隆藥局,新北市三重區長壽西街５－１號,121.498,25.06765,(02)29715020,羅氏家用新冠病毒抗原自我檢測套組,58,2022/05/07 14:01:02,每天下午2點開始販售防疫口罩
5931021532,龍門藥局,新北市三重區龍門路１８９號,121.4996,25.07322,(02)29756141,羅氏家用新冠病毒抗原自我檢測套組,156,2022/05/07 14:01:02,實名制快篩販售時間~星期一至星期六下午3點
5931022959,名成藥局,新北市三重區力行路１段１８２號,121.4819,25.0716,(02)29847828,羅氏家用新冠病毒抗原自我檢測套組,23,2022/05/07 14:01:02,快篩實名制，星期1--6下午2點30開始領，5月1日星期日，九點開始領
5931024426,甜心健康生活藥局,新北市三重區福祉里集美街４５號１樓,121.488,25.05542,(02)29762223,羅氏家用新冠病毒抗原自我檢測套組,59,2022/05/07 14:01:02,無
5931024677,博愛藥局,新北市三重區三民街２２０號１樓,121.4803,25.06712,(02)29711606,羅氏家用新冠病毒抗原自我檢測套組,72,2022/05/07 14:01:02,快篩實名制，如有貨都將於下午2點開始發放，不接受電話只能現場排隊領取，謝謝
5931024944,康希藥局,新北市三重區三和路２段８３號１樓,121.4999,25.0682,(02)89728298,羅氏家用新冠病毒抗原自我檢測套組,76,2022/05/07 14:01:02,每日下午2點依序販賣政府快篩試劑 不發號碼牌
5931024971,欽勝藥局,新北市三重區重陽路４段６號２樓,121.4906,25.06894,(02)29857389,羅氏家用新冠病毒抗原自我檢測套組,78,2022/05/07 14:01:02,販售快篩需現場排隊，無預約無號碼牌，販售時間依到貨時間為主。
5931025263,鴻泰健保藥局,新北市三重區重新路１段９５號１樓,121.5009,25.06343,(02)29769055,羅氏家用新冠病毒抗原自我檢測套組,78,2022/05/07 14:01:02,每月第一個周日固定公休，防疫快篩下午兩點販售，現場排隊購買不預留
5931025290,康新藥局,新北市三重區正義北路１８５號２樓,121.4964,25.06783,(02)29865982,羅氏家用新冠病毒抗原自我檢測套組,78,2022/05/07 14:01:02,實名制代售時段：下午2點到4點。請自備零錢，恕不找零。.
5931025398,昌誠藥局,新北市三重區三和路４段１６１號１樓,121.4835,25.0785,(02)22876338,羅氏家用新冠病毒抗原自我檢測套組,5,2022/05/07 14:01:02,5／2 （休診）
5931025521,徐匯藥局,新北市三重區仁愛街７５５號１樓,121.4809,25.07996,(02)28572234,羅氏家用新冠病毒抗原自我檢測套組,59,2022/05/07 14:01:02,實名快篩星期一~六，下午2:30開賣，1人限1卡
5931025567,閎安藥局,新北市三重區重新路２段８５號１樓、２樓,121.4962,25.06181,(02)29881968,羅氏家用新冠病毒抗原自我檢測套組,79,2022/05/07 14:01:02,每日皆執行調劑業務，快篩代售時間每日下午三點發號碼牌並領取
5931025610,大樹三重藥局,新北市三重區正義北路６６號１樓,121.4972,25.06415,(02)29713188,羅氏家用新冠病毒抗原自我檢測套組,78,2022/05/07 14:01:02,快篩實名制，每天16:00開始販售，售完為止。
5931025914,仁美藥局,新北市三重區慈愛街５１號１、２樓,121.4861,25.07908,(02)22805150,羅氏家用新冠病毒抗原自我檢測套組,78,2022/05/07 14:01:02,快篩實名制，每天16:00開始販售，售完為止。
5931025932,永吉藥局,新北市三重區車路頭街９１號１樓,121.4844,25.07422,(02)22860432,羅氏家用新冠病毒抗原自我檢測套組,78,2022/05/07 14:01:02,快篩實名制，每天16:00開始販售，售完為止。
5931025987,忠孝德榮藥局,新北市三重區忠孝路２段９７號１樓,121.4842,25.07005,(02)29800297,羅氏家用新冠病毒抗原自我檢測套組,78,2022/05/07 14:01:02,現場排隊不發號碼牌*實名制快篩* 週一至週日晚間19:00開始代售. 週六&周日中午12:00開始營業
5931026000,佑全三重正義藥局,新北市三重區正義北路２０７號１、２樓、２０９號１、２樓,121.4962,25.06846,(02)29815341,羅氏家用新冠病毒抗原自我檢測套組,76,2022/05/07 14:01:02,快篩試劑14:00開賣，13:30排隊，13:50發號碼牌。
5931026064,五華春天生活藥局,新北市三重區五華街７３號１、２樓,121.4925,25.08291,(02)29876838,羅氏家用新冠病毒抗原自我檢測套組,1,2022/05/07 14:01:02,快篩代售時間：週一至週日15：00，現場排隊購買，售完為止。（物流配送不及則例外，以門市公告為主）
5931026073,重陽藥局,新北市三重區重陽路４段３６、３８號１樓,121.4913,25.06975,(02)29880456,羅氏家用新冠病毒抗原自我檢測套組,78,2022/05/07 14:01:02,快篩實名制，每天16:00開始販售，售完為止。
5931026082,大有藥局,新北市三重區中正北路２１３號１、２樓及２１５號１、２樓,121.4763,25.07013,(02)29885771,羅氏家用新冠病毒抗原自我檢測套組,78,2022/05/07 14:01:02,快篩實名制，每天16:00開始販售，售完為止。
5931026091,重新藥局,新北市三重區重新路４段１２號１樓,121.4888,25.05775,(02)29742700,羅氏家用新冠病毒抗原自我檢測套組,78,2022/05/07 14:01:02,快篩實名制，每天16:00開始販售，售完為止。
5931030264,永達大藥局,新北市永和區大新街２號,121.5145,25.00853,(02)29213326,羅氏家用新冠病毒抗原自我檢測套組,35,2022/05/07 14:01:02,無
5931030568,仲景藥局,新北市永和區竹林路２１３巷１號,121.521,25.00893,(02)89281687,羅氏家用新冠病毒抗原自我檢測套組,26,2022/05/07 14:01:02,實名制快篩每日總量78份，下午2點現場排隊過卡，1人1卡每月限領1次，不發號碼牌；營業時間9:30-10:30
5931032133,宸安藥局,新北市永和區得和路３８５號１樓,121.5251,24.99943,(02)22328274,羅氏家用新冠病毒抗原自我檢測套組,62,2022/05/07 14:01:02,星期一至六 實名制快篩  PM2:00-3；00； 星期日公休
5931032811,華特健康藥局,新北市永和區永貞路３６２號１樓,121.5102,25.00667,(02)29264391,羅氏家用新冠病毒抗原自我檢測套組,7,2022/05/07 14:01:02,快篩販賣時間13:00-15:00
5931033032,弘光藥局,新北市永和區竹林路中興里６６巷１９號１樓,121.5201,25.01396,(02)29282000,羅氏家用新冠病毒抗原自我檢測套組,6,2022/05/07 14:01:02,早上9點至晚上10點 口罩代售號碼牌自1400開始發放
5931033103,皇家藥師藥局,新北市永和區中正路７２０號１樓,121.5158,25.01017,(02)89216867,羅氏家用新冠病毒抗原自我檢測套組,78,2022/05/07 14:01:02,無
5931033201,級立健保藥局,新北市永和區保平路１３９號１樓,121.5102,25.00608,(02)29299995,羅氏家用新冠病毒抗原自我檢測套組,78,2022/05/07 14:01:02,快篩代售時間為下午15:00，週日不銷售
5931033541,大欣安藥局,新北市永和區得和路３７０號１樓,121.5244,24.99928,(02)29450808,羅氏家用新冠病毒抗原自我檢測套組,78,2022/05/07 14:01:02,5／3起快篩試劑PAM14:00開始發號碼牌跟販售
5931033578,悅美保健藥局,新北市永和區保生路２２巷２１號１樓,121.5073,25.00839,(02)22323515,羅氏家用新冠病毒抗原自我檢測套組,5,2022/05/07 14:01:02,周一至周六 上午11點到晚上10點（周六下午一點開始）（四）快篩完售（五）下午1:30售
5931033774,台化藥局,新北市永和區勵行街１１９號１樓,121.5175,25.01202,(02)22318585,羅氏家用新冠病毒抗原自我檢測套組,79,2022/05/07 14:01:02,無
5931033863,欣安大藥局,新北市永和區福和路２２１號１樓,121.5189,25.00749,(02)22326685,羅氏家用新冠病毒抗原自我檢測套組,12,2022/05/07 14:01:02,快篩試劑pm13:30發號碼牌暨銷售，售完為止。
5931033961,永和大樹藥局,新北市永和區福和路１４３號１、２樓,121.5207,25.00766,(02)29233377,羅氏家用新冠病毒抗原自我檢測套組,78,2022/05/07 14:01:02,快篩實名制，每天16:00開始販售，售完為止。
5931034146,亮點藥局,新北市永和區竹林路７１號１樓,121.5186,25.01355,(02)89253895,羅氏家用新冠病毒抗原自我檢測套組,100,2022/05/07 14:01:02,快篩發放時段 下午16:30-18:00
5931040297,信隆大藥局,新北市中和區安樂路６號１至２樓,121.5118,24.99168,(02)29426196,羅氏家用新冠病毒抗原自我檢測套組,1,2022/05/07 14:01:02,無
5931043565,一安藥妝藥局,新北市中和區中和路９號１.２樓,121.4998,25.00221,(02)22483778,羅氏家用新冠病毒抗原自我檢測套組,78,2022/05/07 14:01:02,下午3點開始發號碼牌販售快篩
5931043636,雙合藥局,新北市中和區中正路２９１號１樓,121.4941,24.99375,(02)22476607,羅氏家用新冠病毒抗原自我檢測套組,2,2022/05/07 14:01:02,無
5931043761,杏元藥局,新北市中和區員山路１７２號１樓,121.4814,24.99994,(02)22236868,羅氏家用新冠病毒抗原自我檢測套組,61,2022/05/07 14:01:02,快篩1400 發放，現場排隊。
5931043798,永成藥局,新北市中和區景平路１５６號１樓,121.5176,24.99222,(02)29407619,羅氏家用新冠病毒抗原自我檢測套組,78,2022/05/07 14:01:02,實名制快篩，下午三點領取號碼並開始販售（每日78份）
5931043921,良安藥局,新北市中和區連城路４７７巷１號１樓,121.4833,24.99555,(02)22225798,羅氏家用新冠病毒抗原自我檢測套組,8,2022/05/07 14:01:02,週六日不開店，實名制快篩，晚上9:00開始販售
5931043976,詠邑藥局,新北市中和區南華路４３號１樓,121.5038,24.99671,(02)22445630,羅氏家用新冠病毒抗原自我檢測套組,75,2022/05/07 14:01:02,無
5931044679,以法蓮藥局,新北市中和區中興街１５４號１樓,121.4998,24.99183,(02)22438983,羅氏家用新冠病毒抗原自我檢測套組,78,2022/05/07 14:01:02,實名制快篩下午3點開始過卡販售，不發號碼牌直接排隊，每人限持一卡（任何異動依現場公告為準）
5931044955,安騏生活藥局,新北市中和區南華路１５號１樓,121.5024,24.99567,(02)22445130,羅氏家用新冠病毒抗原自我檢測套組,52,2022/05/07 14:01:02,快篩周一至周六下午2點直接販售
5931045032,朝安藥局,新北市中和區復興路２６２號１樓,121.5035,24.99038,(02)31511269,羅氏家用新冠病毒抗原自我檢測套組,63,2022/05/07 14:01:02,實名制快篩下午2點過卡販售，每人限持一卡，不發號碼牌。（任何異動依現場公告為準）
5931045130,四維藥局,新北市中和區四維街３７巷２號１樓,121.5124,24.98679,(02)86681345,羅氏家用新冠病毒抗原自我檢測套組,78,2022/05/07 14:01:02,快篩實名制，每天16:00開始販售，售完為止。
5931045345,芳碩藥局,新北市中和區連城路４７巷２號１樓,121.4982,25.00162,(02)82458816,羅氏家用新冠病毒抗原自我檢測套組,75,2022/05/07 14:01:02,販售時間星期一~星期六下午14:00-21:00 （星期日休息）
5931045416,信毅藥局,新北市中和區捷運路５６號１樓,121.5081,24.99078,(02)29423663,羅氏家用新冠病毒抗原自我檢測套組,9,2022/05/07 14:01:02,無
5931045505,順儷民享藥局,新北市中和區民享街５３號１樓,121.4742,25.00265,(02)22222825,羅氏家用新冠病毒抗原自我檢測套組,75,2022/05/07 14:01:02,無
5931050211,耀生中西藥局,新北市新店區文化路２１巷６號,121.5432,24.97978,(02)29118598,羅氏家用新冠病毒抗原自我檢測套組,76,2022/05/07 14:01:02,下午2點開賣快篩，星期日休息
5931052091,康宜庭大坪林藥局,新北市新店區北新路３段１２７號１樓,121.5412,24.9826,(02)89116029,羅氏家用新冠病毒抗原自我檢測套組,76,2022/05/07 14:01:02,實名制快篩14:00發放號碼牌同步販售，每人限持1卡購買1份，請備妥零鈔
5931052215,三民藥局,新北市新店區三民路７８號１樓－１,121.5348,24.97257,(02)89146301,羅氏家用新冠病毒抗原自我檢測套組,76,2022/05/07 14:01:02,實名制快篩試劑下午2點開始現場販售並同步發號碼牌周日休息
5931052484,大河藥局,新北市新店區三民路１４０號１樓,121.5351,24.97502,(02)29140910,羅氏家用新冠病毒抗原自我檢測套組,67,2022/05/07 14:01:02,週一至週六下午2點開始發購實名制快篩試劑。限1人1卡購買1份。5／8週日不發購。
5931052724,合康大藥局,新北市新店區中正路２６３－２號１樓,121.5384,24.97367,(02)29109888,羅氏家用新冠病毒抗原自我檢測套組,70,2022/05/07 14:01:02,快篩14:00開始（有事先發號碼牌）網上還有數量是拿到號碼牌還沒來領的，拜託別再問了
5931053034,康宜庭市公所藥局,新北市新店區北新路１段２８５號１樓,121.541,24.96707,(02)29151709,羅氏家用新冠病毒抗原自我檢測套組,71,2022/05/07 14:01:02,實名制快篩下午兩點開賣
5931053132,康宜庭碧潭藥局,新北市新店區北宜路１段４１號１樓,121.5384,24.95726,(02)29186266,羅氏家用新冠病毒抗原自我檢測套組,65,2022/05/07 14:01:02,14:00 發放號碼牌，同步販售
5931053178,長照藥局,新北市新店區如意街１６號１樓,121.4944,24.94838,(02)22153325,羅氏家用新冠病毒抗原自我檢測套組,57,2022/05/07 14:01:02,請注意5／7快篩下午2:00開賣 雙號 （一人一卡）自備500 現場排隊（請勿再來電詢問囉!）
5931053196,康心藥局,新北市新店區北新路３段１０４號１樓,121.5419,24.9812,(02)86655858,羅氏家用新冠病毒抗原自我檢測套組,78,2022/05/07 14:01:02,快篩販售：周一~週六，15:00開始（若遇物流延遲則順延），以現場排隊為主
5931053329,康宜庭民權藥局,新北市新店區民權路４８－２號１樓,121.5396,24.98307,(02)86655371,羅氏家用新冠病毒抗原自我檢測套組,8,2022/05/07 14:01:02,實名快篩星期一~六14:00開賣現場排隊
5931053347,健詮藥局,新北市新店區建國路１１９號１樓,121.5398,24.97777,(02)29116312,羅氏家用新冠病毒抗原自我檢測套組,21,2022/05/07 14:01:02,11點發號碼牌，12點半-3點過卡買快篩。最新消息會公佈在臉書「健詮藥局」
5931053365,十二願藥局,新北市新店區中正路６８２號１樓,121.5341,24.98998,(02)22181899,羅氏家用新冠病毒抗原自我檢測套組,76,2022/05/07 14:01:02,公費快篩每日下午2點販售~ 公費快篩每日下午2點販售
5931053383,大豐藥局,新北市新店區北新路３段５３號之１（１樓）,121.5417,24.9807,(02)89113196,羅氏家用新冠病毒抗原自我檢測套組,46,2022/05/07 14:01:02,每日下午2點發號碼牌同步販售實名制快篩試劑 請自備500元
5931060342,十安藥局,新北市新莊區中港路３１６號,121.4524,25.04544,(02)29922859,羅氏家用新冠病毒抗原自我檢測套組,3,2022/05/07 14:01:02,自111／04／01起不再販賣實名制口罩
5931060646,王藥局,新北市新莊區昌盛街３８號,121.4544,25.04988,(02)29922404,羅氏家用新冠病毒抗原自我檢測套組,45,2022/05/07 14:01:02,下午14時快篩販售!   不發號碼牌 ! 現場售完為止!
5931067403,建嘉藥局,新北市新莊區中誠街４２號１樓,121.4513,25.04812,(02)29925261,羅氏家用新冠病毒抗原自我檢測套組,78,2022/05/07 14:01:02,無
5931068464,健安藥局,新北市新莊區光和里民安西路２０９號１樓,121.4261,25.0147,(02)22043765,羅氏家用新冠病毒抗原自我檢測套組,148,2022/05/07 14:01:02,無
5931068599,建昌藥局,新北市新莊區福營里中正路５５７號,121.435,25.03254,(02)29015422,羅氏家用新冠病毒抗原自我檢測套組,78,2022/05/07 14:01:02,快篩代售時間:週一至週日14:30現場排隊購買，售完為止。（物流配送不及則例外，以門市公告為主）
5931068819,東京大藥局,新北市新莊區民安路１７６號１樓,121.4251,25.02392,(02)22063806,羅氏家用新冠病毒抗原自我檢測套組,70,2022/05/07 14:01:02,口罩代售時間為9:30開始現場排隊販售
5931068875,旭生藥局,新北市新莊區裕民街４２號１樓,121.4188,25.02498,(02)29021289,羅氏家用新冠病毒抗原自我檢測套組,56,2022/05/07 14:01:02,無
5931069603,中信藥師藥局,新北市新莊區中信街８０號１樓,121.448,25.05311,(02)29969811,羅氏家用新冠病毒抗原自我檢測套組,78,2022/05/07 14:01:02,AM 07:30 開始
593106A388,元大藥局,新北市新莊區富國路２０４號１、２樓,121.4249,25.02427,(02)22020082,羅氏家用新冠病毒抗原自我檢測套組,78,2022/05/07 14:01:02,無
593106A771,新佑康健保藥局,新北市新莊區中華路１段３５號１樓,121.4519,25.03765,(02)29947490,羅氏家用新冠病毒抗原自我檢測套組,51,2022/05/07 14:01:02,無
593106A897,陽光豐年藥局,新北市新莊區豐年街１４號１樓,121.4463,25.03287,(02)22060665,羅氏家用新冠病毒抗原自我檢測套組,86,2022/05/07 14:01:02,無
593106A931,建安藥局,新北市新莊區建安街１１７號、１１９號１樓,121.4262,25.02406,(02)22051969,羅氏家用新冠病毒抗原自我檢測套組,78,2022/05/07 14:01:02,快篩實名制，每天16:00開始販售，售完為止。
593106B036,家嘉藥局,新北市新莊區自立街１０３號（１樓）,121.4553,25.04549,(02)89926488,羅氏家用新冠病毒抗原自我檢測套組,40,2022/05/07 14:01:02,今天號碼牌都已發放完畢
593106B090,依都勇藥局,新北市新莊區自信街６３號（１樓）,121.4554,25.04829,(02)29901516,羅氏家用新冠病毒抗原自我檢測套組,76,2022/05/07 14:01:02,無
593106B152,福原藥局,新北市新莊區中原東路７０號（１樓）,121.4632,25.05461,(02)85216190,羅氏家用新冠病毒抗原自我檢測套組,74,2022/05/07 14:01:02,下午2點發放號碼牌
593106B223,吉田藥局,新北市新莊區西盛街３１３號１樓,121.4281,25.01516,(02)22065185,羅氏家用新冠病毒抗原自我檢測套組,56,2022/05/07 14:01:02,無
593106B232,新康健保藥局,新北市新莊區自立街１７２號１樓,121.4557,25.04537,(02)29962558,羅氏家用新冠病毒抗原自我檢測套組,63,2022/05/07 14:01:02,無
593106B241,善美藥局,新北市新莊區公園路８９號１樓,121.4546,25.04041,(02)29960979,羅氏家用新冠病毒抗原自我檢測套組,3,2022/05/07 14:01:02,無
593106B287,盛弘藥局,新北市新莊區中平路２９５號１樓,121.4447,25.05099,(02)22763336,羅氏家用新冠病毒抗原自我檢測套組,77,2022/05/07 14:01:02,政府快篩於平日下午13:50發放號碼牌，下午14:00準時販售，假日視政府配量（販售時間相同）
593106B303,新莊丁丁藥局,新北市新莊區民安西路２３７號１樓,121.4261,25.01398,(02)22022388,羅氏家用新冠病毒抗原自我檢測套組,73,2022/05/07 14:01:02,無
593106B321,大樹幸福藥局,新北市新莊區幸福路６７２號１樓,121.4509,25.0493,(02)29981066,羅氏家用新冠病毒抗原自我檢測套組,78,2022/05/07 14:01:02,快篩實名制，每天16:00開始販售，售完為止。
5931071881,盛立藥局,新北市樹林區大雅路２８５號１樓,121.3795,24.94735,(02)35018218,羅氏家用新冠病毒抗原自我檢測套組,78,2022/05/07 14:01:02,政府快篩平日下午1:50發號碼牌，下午2:00準時販售，假日視政府配量（販售時間相同）
5931071934,樹新藥局,新北市樹林區樹新路３０－３號１樓,121.4272,24.99462,(02)26821080,羅氏家用新冠病毒抗原自我檢測套組,73,2022/05/07 14:01:02,無
5931072066,琉璃水藥師藥局,新北市樹林區龍興街２１號１樓,121.403,25.01614,(02)26764262,羅氏家用新冠病毒抗原自我檢測套組,16,2022/05/07 14:01:02,無
5931072253,活水藥局,新北市樹林區鎮前街２１號１樓,121.4259,24.99255,(02)26818928,羅氏家用新冠病毒抗原自我檢測套組,77,2022/05/07 14:01:02,無
5931072459,健康人生藥局,新北市樹林區博愛一街２６號１樓,121.4256,24.99091,(02)26814394,羅氏家用新冠病毒抗原自我檢測套組,76,2022/05/07 14:01:02,實名制快篩販售時間下午2點起.售完為止
5931072495,鄰康藥局,新北市樹林區日新街３９號１樓,121.4228,24.99211,(02)26855472,羅氏家用新冠病毒抗原自我檢測套組,72,2022/05/07 14:01:02,實名快篩下午2點開始販售
5931072575,永賀藥局,新北市樹林區中山路１段１２７號１樓,121.4227,24.99003,(02)26815801,羅氏家用新冠病毒抗原自我檢測套組,26,2022/05/07 14:01:02,無
5931080031,林政德西藥局,新北市鶯歌區建國路２５６號１樓,121.3477,24.95354,(02)26781412,羅氏家用新冠病毒抗原自我檢測套組,39,2022/05/07 14:01:02,春節期間看診時段請電洽
5931081234,文瑞藥局,新北市鶯歌區尖山路２９６號,121.3406,24.94437,(02)26780589,羅氏家用新冠病毒抗原自我檢測套組,54,2022/05/07 14:01:02,快篩下午14:00開始販售  假日販售時間前一天公告
5931081305,佑家藥局,新北市鶯歌區中正三路１５１號１樓,121.3367,24.94007,(02)26798282,羅氏家用新冠病毒抗原自我檢測套組,17,2022/05/07 14:01:02,星期一至六，下午1:30發號碼牌   每日提供8份給醫護警消等緊急使用
5931081332,祐兒藥局,新北市鶯歌區南鶯里建國路１７１號１樓,121.35,24.9534,(02)86781907,羅氏家用新冠病毒抗原自我檢測套組,50,2022/05/07 14:01:02,快篩配送時間不一定，關注粉絲團會公告發放時間
5931081378,鶯歌宏達藥局,新北市鶯歌區國慶街１３８號１樓,121.3508,24.95347,(02)26709693,羅氏家用新冠病毒抗原自我檢測套組,77,2022/05/07 14:01:02,下午三點開始販售實名制快篩~不要打電話來問~藥師有其他工作要做
5931081510,鶯歌藥局,新北市鶯歌區鶯桃路２段１１號１樓,121.3258,24.97205,(02)86778778,羅氏家用新冠病毒抗原自我檢測套組,78,2022/05/07 14:01:02,快篩實名制，每天16:00開始販售，售完為止。
5931081547,信義健保藥局,新北市鶯歌區信義街６３號１樓,121.3534,24.95571,(02)86775563,羅氏家用新冠病毒抗原自我檢測套組,39,2022/05/07 14:01:02,5／6 早9:30 快篩限量40組發放 下午16:30 限量38組發放
5931091481,盛加藥局,新北市三峽區民生街４９號,121.3755,24.9362,(02)26739797,羅氏家用新冠病毒抗原自我檢測套組,74,2022/05/07 14:01:02,政府快篩平日下午1:50發號碼牌，下午2:00準時販售，假日視政府配量（販售時間相同）
5931091874,盛台藥局,新北市三峽區大學路１０８號１、２樓,121.375,24.9438,(02)26722730,羅氏家用新冠病毒抗原自我檢測套組,75,2022/05/07 14:01:02,政府快篩平日13:50發號碼牌，14:00準時販售。假日視政府配量販售（販售時間相同）。
5931091892,三峽藥局,新北市三峽區介壽路１段２７號１樓,121.3757,24.93321,(02)26738868,羅氏家用新冠病毒抗原自我檢測套組,79,2022/05/07 14:01:02,快篩實名制，每天16:00開始販售，售完為止。
5931091972,三峽大昌藥局,新北市三峽區民生街５６號１樓,121.3752,24.93635,(02)26711560,羅氏家用新冠病毒抗原自我檢測套組,76,2022/05/07 14:01:02,無
5931092120,進安大藥局,新北市三峽區民生街１７４號（１樓）,121.3713,24.93493,(02)26711125,羅氏家用新冠病毒抗原自我檢測套組,75,2022/05/07 14:01:02,原則下午2點開始販售快篩（實際販售時間，視到貨時間調整）
5931092200,金美藥局,新北市三峽區大同路２３８號１樓,121.3663,24.92573,(02)86715859,羅氏家用新冠病毒抗原自我檢測套組,25,2022/05/07 14:01:02,無
5931100047,松和大藥局,新北市淡水區英專路９２號,121.4459,25.17167,(02)26203698,羅氏家用新冠病毒抗原自我檢測套組,71,2022/05/07 14:01:02,口罩代售:每週一~每週五10:30發放號碼牌
5931100074,邱藥局,新北市淡水區中山路２７號,121.444,25.17006,(02)26214255,羅氏家用新冠病毒抗原自我檢測套組,26,2022/05/07 14:01:02,無
5931100154,尚運藥局,新北市淡水區學府路５１巷１弄２０號,121.4473,25.16892,(02)26225149,羅氏家用新冠病毒抗原自我檢測套組,261,2022/05/07 14:01:02,無
5931102292,佑全淡水淡金藥局,新北市淡水區淡金路５５號、５７號１樓,121.4559,25.16127,(02)26228040,羅氏家用新冠病毒抗原自我檢測套組,78,2022/05/07 14:01:02,實名制快篩每日兩點開賣（售完為止）
5931102434,西雅圖聯合藥局,新北市淡水區新市一路３段１０１巷１６弄２０號１樓,121.4471,25.18403,(02)26200910,羅氏家用新冠病毒抗原自我檢測套組,78,2022/05/07 14:01:02,無
5931102452,池慶藥局,新北市淡水區中山北路２段５號１樓,121.4443,25.18344,(02)26238852,羅氏家用新冠病毒抗原自我檢測套組,78,2022/05/07 14:01:02,快篩販售14:50到16:00
5931110034,麒豐藥局,新北市汐止區樟樹一路１３５巷２號,121.6421,25.0656,(02)26434737,羅氏家用新冠病毒抗原自我檢測套組,36,2022/05/07 14:01:02,實名制口罩銷售時間9:30~21:00
5931111586,品康藥局,新北市汐止區湖前街４７號１樓,121.632,25.07005,(02)26954441,羅氏家用新冠病毒抗原自我檢測套組,77,2022/05/07 14:01:02,下午2點販售實名制快篩
5931111737,廣誠藥師藥局,新北市汐止區建成路２２號１樓,121.6648,25.07268,(02)86916091,羅氏家用新冠病毒抗原自我檢測套組,71,2022/05/07 14:01:02,因應快篩到貨時間不定 請見每日公告
5931112083,裕和藥局,新北市汐止區宜興街４號１樓,121.6211,25.04126,(02)26609119,羅氏家用新冠病毒抗原自我檢測套組,22,2022/05/07 14:01:02,晚上9.00領實名制快篩時間
5931112145,汐止健康人生藥局,新北市汐止區忠孝東路２６９號,121.6633,25.06809,(02)86421820,羅氏家用新冠病毒抗原自我檢測套組,78,2022/05/07 14:01:02,快篩代售時間 14:00~售完為止 ；現場排隊
5931112645,健成藥局,新北市汐止區新興路２０號１樓,121.6564,25.06456,(02)26428989,羅氏家用新冠病毒抗原自我檢測套組,32,2022/05/07 14:01:02,無
5931112976,永康中西綜合藥局,新北市汐止區龍安路１７５號１樓,121.6536,25.06303,(02)86915580,羅氏家用新冠病毒抗原自我檢測套組,11,2022/05/07 14:01:02,快篩實名制週一至週五早上10點銷售 週六日下午2點銷售 可提早排隊不發號碼牌
5931113071,蒲公英藥局,新北市汐止區連興街１２６號（１樓）,121.6538,25.06188,(02)26907770,羅氏家用新冠病毒抗原自我檢測套組,78,2022/05/07 14:01:02,實名制快篩銷售時間:下午17:00-19:00（無發放號碼牌）
5931113142,林美藥局,新北市汐止區康寧街４６５號１樓,121.6318,25.06839,(02)26935696,羅氏家用新冠病毒抗原自我檢測套組,76,2022/05/07 14:01:02,14:00販售實名制快篩，現場排隊 ，無號碼牌。禮拜天公休
5931113160,社后藥局,新北市汐止區康寧街４２４號１樓,121.6307,25.06801,(02)26956321,羅氏家用新冠病毒抗原自我檢測套組,78,2022/05/07 14:01:02,快篩實名制，每天16:00開始販售，售完為止。
5931113188,汐止藥局,新北市汐止區福德二路７０號１樓,121.6331,25.06651,(02)86932587,羅氏家用新冠病毒抗原自我檢測套組,78,2022/05/07 14:01:02,快篩實名制，每天16:00開始販售，售完為止。
5931113197,博昱忠孝藥局,新北市汐止區忠孝東路２７８號（１樓）,121.6637,25.06809,(02)86423838,羅氏家用新冠病毒抗原自我檢測套組,60,2022/05/07 14:01:02,下午兩點開始賣快篩
5931120049,本平藥局,新北市瑞芳區瑞芳街４５號,121.8076,25.10913,(02)24972167,羅氏家用新冠病毒抗原自我檢測套組,2,2022/05/07 14:01:02,無
5931121466,瑞芳藥局,新北市瑞芳區明燈路３段５９之１及５９之２號,121.8057,25.10812,(02)24966588,羅氏家用新冠病毒抗原自我檢測套組,78,2022/05/07 14:01:02,快篩實名制，每天16:00開始販售，售完為止。
5931130152,博惠藥局,新北市土城區中央路１段２４９巷２０號,121.4463,24.98538,(02)22618337,羅氏家用新冠病毒抗原自我檢測套組,54,2022/05/07 14:01:02,14:00開始販售政府快篩，不發號碼牌
5931131579,祥安大藥局,新北市土城區立德路４２－１號,121.4636,24.98727,(02)22629707,羅氏家用新冠病毒抗原自我檢測套組,78,2022/05/07 14:01:02,無
5931132343,誠安藥局,新北市土城區中央路４段３６號１樓,121.4207,24.96088,(02)22677737,羅氏家用新冠病毒抗原自我檢測套組,156,2022/05/07 14:01:02,快篩代售時段：平日晚上8點，售完為止
5931132538,宏奇藥局,新北市土城區延吉街１２６號１樓,121.4695,24.98586,(02)82619585,羅氏家用新冠病毒抗原自我檢測套組,72,2022/05/07 14:01:02,無
5931132807,健業藥局,新北市土城區中央路２段２２３－１０號,121.4407,24.97312,(02)22704798,羅氏家用新冠病毒抗原自我檢測套組,78,2022/05/07 14:01:02,無
5931132950,美康藥妝藥局,新北市土城區延吉街２５４號１樓,121.4664,24.98465,(02)22616868,羅氏家用新冠病毒抗原自我檢測套組,136,2022/05/07 14:01:02,實名制快篩前一天若有到貨，則隔日三點販售
5931133331,城安大藥局,新北市土城區金城路３段４０號,121.4656,24.98639,(02)22646561,羅氏家用新冠病毒抗原自我檢測套組,73,2022/05/07 14:01:02,快篩代售時間晚上8:30
5931133546,宏林保健藥局,新北市土城區裕民路１３４號（１樓）,121.4515,24.98622,(02)82615919,羅氏家用新冠病毒抗原自我檢測套組,64,2022/05/07 14:01:02,無
5931133564,城恩藥局,新北市土城區學成路３４號１樓,121.4527,24.9873,(02)22735808,羅氏家用新冠病毒抗原自我檢測套組,78,2022/05/07 14:01:02,無
5931133662,中央藥局,新北市土城區中央路２段８４、８６號（１樓）,121.4423,24.97885,(02)22630345,羅氏家用新冠病毒抗原自我檢測套組,78,2022/05/07 14:01:02,快篩實名制，每天16:00開始販售，售完為止。
5931133680,土城金城藥局,新北市土城區裕民路２８０號１、２樓,121.4554,24.982,(02)22631616,羅氏家用新冠病毒抗原自我檢測套組,78,2022/05/07 14:01:02,快篩實名制，每天16:00開始販售，售完為止。
5931140121,大政藥局,新北市蘆洲區中山二路７５號１樓,121.4733,25.0819,(02)22811126,羅氏家用新冠病毒抗原自我檢測套組,26,2022/05/07 14:01:02,快篩下午2點開始販售
5931140229,天士藥局,新北市蘆洲區中正路３６號,121.4713,25.08237,(02)22818227,羅氏家用新冠病毒抗原自我檢測套組,16,2022/05/07 14:01:02,目前快篩政府配送不穩定  收到貨後將會盡快開賣
5931141959,長榮大藥局,新北市蘆洲區長榮路５１號,121.4626,25.08307,(02)82863837,羅氏家用新冠病毒抗原自我檢測套組,3,2022/05/07 14:01:02,實名制快篩販售時間，依配送狀況機動調整。
5931142634,華安大藥局,新北市蘆洲區長安街４８號１樓,121.4633,25.07973,(02)22881168,羅氏家用新冠病毒抗原自我檢測套組,59,2022/05/07 14:01:02,無
5931143131,杏一蘆洲長安藥局,新北市蘆洲區長安街１２２號１樓,121.4606,25.08179,(02)82854278,羅氏家用新冠病毒抗原自我檢測套組,71,2022/05/07 14:01:02,快篩周一至周六下午兩點購買
5931143275,集賢藥局,新北市蘆洲區信義路２２２巷６１號１、２樓,121.4813,25.08535,(02)22882400,羅氏家用新冠病毒抗原自我檢測套組,78,2022/05/07 14:01:02,快篩實名制，每天16:00開始販售，售完為止。
5931151302,宏安藥局,新北市五股區成泰路２段１３６號,121.4382,25.08369,(02)22915932,羅氏家用新冠病毒抗原自我檢測套組,77,2022/05/07 14:01:02,口罩販售時間:每日08:15~23:00售完為止 星期日如果前一日還有庫存，當日照常販售
5931151473,百成中西藥師藥局,新北市五股區五福里五福路２０號１樓,121.4343,25.08881,(02)22915531,羅氏家用新冠病毒抗原自我檢測套組,77,2022/05/07 14:01:02,口罩代售時間為09:10-22:00；如有餘額，週日亦有販售
5931151615,陽光健保藥局,新北市五股區五福路５４號１樓,121.4335,25.08973,(02)22922400,羅氏家用新冠病毒抗原自我檢測套組,78,2022/05/07 14:01:02,5／7（六）預計1500開始販售 若現場人數眾多 視情況調整販售時間
5931151713,五股藥局,新北市五股區成泰路１段２３５之２號（１樓）,121.4363,25.07968,(02)22951150,羅氏家用新冠病毒抗原自我檢測套組,78,2022/05/07 14:01:02,快篩實名制，每天16:00開始販售，售完為止。
5931161353,台灣藥局,新北市泰山區明志路１段２８２－２８６號,121.4319,25.06002,(02)22971969,羅氏家用新冠病毒抗原自我檢測套組,70,2022/05/07 14:01:02,下午2:20發號碼牌2:30販售實名制快篩試劑
5931170067,宏宇藥局,新北市林口區中正路２８８號１樓,121.3887,25.07776,(02)26031948,羅氏家用新冠病毒抗原自我檢測套組,222,2022/05/07 14:01:02,實名制快篩販售時間:周一至周六 下午兩點，售完為止
5931171251,喜樂藥師藥局,新北市林口區麗林里公園路１５號１樓,121.3665,25.06762,(02)26005566,羅氏家用新冠病毒抗原自我檢測套組,66,2022/05/07 14:01:02,快篩實名制，每天14:00開始販售，售完為止，週日休息
5931171582,綠園藥局,新北市林口區仁愛路２段１０５號１樓,121.3843,25.07507,(02)86012258,羅氏家用新冠病毒抗原自我檢測套組,2,2022/05/07 14:01:02,上午8:30-12:00、下午2:30-18:00、晚上18:00-21:30
5931171724,林康藥局,新北市林口區文化二路１段２２２號１樓,121.3695,25.07226,(02)26088869,羅氏家用新冠病毒抗原自我檢測套組,76,2022/05/07 14:01:02,快篩於下午2點販售，周日公休
5931171813,力行藥局,新北市林口區文化３路１段４２３、４２５號１、２樓,121.3653,25.07438,(02)26080711,羅氏家用新冠病毒抗原自我檢測套組,82,2022/05/07 14:01:02,快篩實名制，每天16:00開始販售，售完為止。
5931171831,沐霖藥局,新北市林口區文化三路２段２８６號１樓,121.3775,25.08304,(02)26032086,羅氏家用新冠病毒抗原自我檢測套組,78,2022/05/07 14:01:02,5／7（六） 14:30 開始發號碼牌 ~週日公休~
5931171877,杏一林口仁愛藥局,新北市林口區仁愛路２段９１號１樓,121.3846,25.07532,(02)26016453,羅氏家用新冠病毒抗原自我檢測套組,76,2022/05/07 14:01:02,無
5931211045,三芝藥師藥局,新北市三芝區中正路１段４３號１樓,121.5032,25.25816,(02)86353982,羅氏家用新冠病毒抗原自我檢測套組,72,2022/05/07 14:01:02,無
5931231225,小蘋果藥局,新北市八里區中山路１段２２９號,121.411,25.1576,(02)26108206,羅氏家用新冠病毒抗原自我檢測套組,74,2022/05/07 14:01:02,無
5931231323,佑全八里中山藥局,新北市八里區中山路２段２７８號、２８０號１樓,121.405,25.15099,(02)86301613,羅氏家用新冠病毒抗原自我檢測套組,76,2022/05/07 14:01:02,實名制快篩代售時間：週一至週日15:00開始販售，現場排隊購買，售完為止。（物流配送不及則例外，以門市公告為主）
5931250015,松南藥局,新北市雙溪區中華路２９號,121.8658,25.03728,(02)24931085,羅氏家用新冠病毒抗原自我檢測套組,2,2022/05/07 14:01:02,實名制快篩12點半發號碼牌並販售
5932011870,永祥大藥局,桃園市桃園區永安路５２８號,121.2986,25.00181,(03)3337161,羅氏家用新冠病毒抗原自我檢測套組,4,2022/05/07 14:01:02,口罩販賣時段：週一至週六早上9點
5932012457,禾安連鎖藥局,桃園市桃園區中山路２５４號,121.3067,24.99277,(03)3318966,羅氏家用新冠病毒抗原自我檢測套組,1,2022/05/07 14:01:02,快篩販售時間  每日 14:00~16:00  優先保留給醫護及警消人員
5932013392,桃園中正藥局,桃園市桃園區中正路３７３號,121.3079,24.99955,(03)3381600,羅氏家用新冠病毒抗原自我檢測套組,91,2022/05/07 14:01:02,快篩實名制，每天16:00開始販售，售完為止。
5932013436,和康藥局,桃園市桃園區三民路三段５６９號１樓,121.3076,24.98395,(03)3672399,羅氏家用新冠病毒抗原自我檢測套組,61,2022/05/07 14:01:02,下午2點販售實名制快篩
5932013687,桃園春日藥局,桃園市桃園區春日路８７８號,121.3096,25.01561,(03)3580101,羅氏家用新冠病毒抗原自我檢測套組,79,2022/05/07 14:01:02,快篩實名制，每天16:00開始販售，售完為止。
5932013721,桃園民光藥局,桃園市桃園區中正路５６９號,121.3049,25.0041,(03)3364888,羅氏家用新冠病毒抗原自我檢測套組,78,2022/05/07 14:01:02,快篩實名制，每天16:00開始販售，售完為止。
5932013749,桃園寶山藥局,桃園市桃園區寶山街７２號,121.3175,25.01291,(03)3250562,羅氏家用新冠病毒抗原自我檢測套組,78,2022/05/07 14:01:02,快篩實名制，每天16:00開始販售，售完為止。
5932013883,桃園大有藥局,桃園市桃園區大有路５５６號,121.3181,25.01393,(03)3460793,羅氏家用新冠病毒抗原自我檢測套組,58,2022/05/07 14:01:02,快篩星期一到星期日下午1:50發號碼牌；販賣時段：14:00~15:00
5932013918,益壽藥局,桃園市桃園區中山路８２８、８３０、８３２、８３４、８３６號,121.2902,24.99093,(03)3693100,羅氏家用新冠病毒抗原自我檢測套組,78,2022/05/07 14:01:02,快篩實名制，每天16:00開始販售，售完為止。
5932013990,福澤大業藥局,桃園市桃園區大業路１段４２２號１樓,121.3118,25.01473,(03)3563865,羅氏家用新冠病毒抗原自我檢測套組,75,2022/05/07 14:01:02,家用快篩販賣時段15:30至售完為止
5932014004,同德辰安藥局,桃園市桃園區同德十街２５號,121.294,25.01835,(03)3012028,羅氏家用新冠病毒抗原自我檢測套組,78,2022/05/07 14:01:02,實名制快篩試劑於下午4點開始販售，現場排隊，沒有發放號碼牌。
5932014013,力行藥局,桃園市桃園區力行路９８號,121.3027,25.00206,(03)3391368,羅氏家用新冠病毒抗原自我檢測套組,153,2022/05/07 14:01:02,每日14點開賣售78份為止不發號碼牌，若14點前沒來排隊，肯定買不到請別問了現場爆忙，若15點後還有庫存78以上是隔天賣
5932014111,鴻發藥師藥局,桃園市桃園區大有路５４３號,121.3171,25.0149,(03)3582468,羅氏家用新冠病毒抗原自我檢測套組,148,2022/05/07 14:01:02,實聯快篩:早上09:30發放號碼牌，限當日下午2~4點憑牌購買，逾時不候請見諒
5932014184,浤安藥局,桃園市桃園區慈德街１號１樓,121.3019,25.00685,(03)3577665,羅氏家用新冠病毒抗原自我檢測套組,51,2022/05/07 14:01:02,14:00開始發放實名制快篩
5932014273,藝文藥局,桃園市桃園區大興西路１段１６５號,121.3049,25.01414,(03)3261789,羅氏家用新冠病毒抗原自我檢測套組,78,2022/05/07 14:01:02,快篩實名制，每天16:00開始販售，售完為止。
5932014344,豐藝藥局,桃園市桃園區泰昌三街２３號１樓,121.2943,24.98954,(03)2200977,羅氏家用新冠病毒抗原自我檢測套組,78,2022/05/07 14:01:02,實名制快篩下午3點販售，依序排隊購買，售完為止。
5932014424,桃園中山藥局,桃園市桃園區中山路７０７號,121.2914,24.99079,(03)2207168,羅氏家用新冠病毒抗原自我檢測套組,78,2022/05/07 14:01:02,快篩實名制，每天16:00開始販售，售完為止。
5932014460,桃鶯藥局,桃園市桃園區桃鶯路１０２號,121.318,24.98516,(03)3675100,羅氏家用新冠病毒抗原自我檢測套組,78,2022/05/07 14:01:02,快篩實名制，每天16:00開始販售，售完為止。
5932018593,品一藥局,桃園市桃園區建新街７６號,121.3118,24.98261,(03)3638510,羅氏家用新冠病毒抗原自我檢測套組,7,2022/05/07 14:01:02,快篩販賣時間：週一至週五早上9：30；週六下午1：00（星期天休息），會發號碼牌（今天已發完）
5932019581,莘莘藥局,桃園市桃園區莊敬路一段３６８號,121.2957,25.02375,(03)3170681,羅氏家用新冠病毒抗原自我檢測套組,21,2022/05/07 14:01:02,實名制快篩週一至週六 下午2點開始 售完為止
5932019929,元氣藥局,桃園市桃園區民光東路一Ｏ九號,121.3183,25.0079,(03)3332201,羅氏家用新冠病毒抗原自我檢測套組,78,2022/05/07 14:01:02,現場排隊喔!，快篩試劑銷售時間:星期一三四六15:30，星期二五19:00，星期日無，12:00~15:00；18:00~18:30為休息時間
593201A284,康泰藥局,桃園市桃園區大業路一段三二三號,121.3127,25.01136,(03)3588299,羅氏家用新冠病毒抗原自我檢測套組,36,2022/05/07 14:01:02,下午 14:00領號碼牌，16:00前購買，5／9（星期一）起改為8:50開始
593201A695,安祐藥局,桃園市桃園區南平路516之1號,121.2937,25.01633,(03)3166889,羅氏家用新冠病毒抗原自我檢測套組,32,2022/05/07 14:01:02,快篩販賣時間 每日下午 13:45-17:00，現場排隊
5932020548,生富藥師藥局,桃園市中壢區新明里中央西路二段７６號,121.2162,24.95848,(03)4941475,羅氏家用新冠病毒抗原自我檢測套組,62,2022/05/07 14:01:02,快篩劑販賣時段：
5932021036,廣怡藥局,桃園市中壢區華勛街２５６號,121.2603,24.94865,(03)4366885,羅氏家用新冠病毒抗原自我檢測套組,35,2022/05/07 14:01:02,口罩販賣時段：開賣時間周一~周六13:30~17:30 、  周日8:30~11:30
5932021438,全球永美大藥局,桃園市中壢區中山東路二段５３０號１至２樓,121.2454,24.9468,(03)4661839,羅氏家用新冠病毒抗原自我檢測套組,74,2022/05/07 14:01:02,營業時間:9:00-22:00
5932021670,日光健康藥局,桃園市中壢區華祥一街２號１樓,121.2606,24.94827,(03)4383559,羅氏家用新冠病毒抗原自我檢測套組,6,2022/05/07 14:01:02,快篩販賣時段：星期一~星期六下午13:30開始，售完為止
5932022159,躍獅新明藥局,桃園市中壢區新明路６６號１樓,121.215,24.95868,(03)2813361,羅氏家用新冠病毒抗原自我檢測套組,89,2022/05/07 14:01:02,快篩販賣時段：14:00~售完為止，現場排隊 ， 星期天沒有販售快篩
5932022346,宜美大藥局,桃園市中壢區莊敬路７１６號,121.2569,24.96642,(03)4637687,羅氏家用新冠病毒抗原自我檢測套組,75,2022/05/07 14:01:02,無
5932022980,美佑康活力藥局,桃園市中壢區五福里中正路６２７號,121.2108,24.95947,(03)2810018,羅氏家用新冠病毒抗原自我檢測套組,77,2022/05/07 14:01:02,快篩販賣時段：周一到周日每天14:00
5932023325,新資生榮民大藥局,桃園市中壢區興仁里榮民路１０３號,121.2608,24.9682,(03)4636831,羅氏家用新冠病毒抗原自我檢測套組,78,2022/05/07 14:01:02,實名制快篩販賣時段：下午2點起
5932023656,思琁藥師藥局,桃園市中壢區中北路二段４３０號,121.2331,24.95448,(03)4162189,羅氏家用新冠病毒抗原自我檢測套組,1,2022/05/07 14:01:02,週一~週五早上10:30發快篩..週六公休..週日看到貨狀況再另行公告
5932023683,祥合藥局,桃園市中壢區中北路二段４３１號,121.2321,24.95431,(03)2841880,羅氏家用新冠病毒抗原自我檢測套組,9,2022/05/07 14:01:02,口罩販賣時段:16:00
5932023772,佑全中壢中正藥局,桃園市中壢區中正路１０８號１、２樓,121.2229,24.95498,(03)2807899,羅氏家用新冠病毒抗原自我檢測套組,76,2022/05/07 14:01:02,實名制快篩販售時間：下午1400-售完為止
5932023889,華勛藥局,桃園市中壢區華勛街１１２、１１４號,121.2597,24.95065,(03)4161881,羅氏家用新冠病毒抗原自我檢測套組,79,2022/05/07 14:01:02,快篩實名制，每天16:00開始販售，售完為止。
5932023914,內壢忠孝藥局,桃園市中壢區忠孝路３６號,121.2566,24.97338,(03)4636641,羅氏家用新冠病毒抗原自我檢測套組,78,2022/05/07 14:01:02,快篩實名制，每天16:00開始販售，售完為止。
5932023932,龍東藥局,桃園市中壢區龍東路２０５號,121.2523,24.92966,(03)4383088,羅氏家用新冠病毒抗原自我檢測套組,78,2022/05/07 14:01:02,快篩實名制，每天16:00開始販售，售完為止。
5932023996,青瑭藥局,桃園市中壢區民權路４段２７７號１樓,121.2022,25.00625,(03)2875901,羅氏家用新冠病毒抗原自我檢測套組,78,2022/05/07 14:01:02,無
593202A931,佳佑藥局,桃園市中壢區環中東路二四一號,121.2573,24.96345,(03)4356190,羅氏家用新冠病毒抗原自我檢測套組,2,2022/05/07 14:01:02,口罩販賣時段：09:00以後發號碼牌，售完為止
593202B447,榮善堂藥局,桃園市中壢區前龍街九號,121.2535,24.9298,(03)4564946,羅氏家用新冠病毒抗原自我檢測套組,16,2022/05/07 14:01:02,全台第一自助快篩領取系統，快篩販賣星期一至四：晚上七點。星期五至六：下午二點。星期天：早上八點
5932031729,德安堂藥局,桃園市大溪區介壽路８９２號,121.2837,24.90016,(03)3808173,羅氏家用新冠病毒抗原自我檢測套組,78,2022/05/07 14:01:02,快篩實名制，每天16:00開始販售，售完為止。
5932031747,欣康藥局,桃園市大溪區員林路２段３９０－６號,121.2677,24.88412,(03)3076310,羅氏家用新冠病毒抗原自我檢測套組,78,2022/05/07 14:01:02,快篩販賣時段：15:30
5932031881,大溪藥局,桃園市大溪區康莊路１６０號,121.2886,24.8808,(03)3873873,羅氏家用新冠病毒抗原自我檢測套組,78,2022/05/07 14:01:02,快篩實名制，每天16:00開始販售，售完為止。
5932040246,龍泰藥局,桃園市楊梅區民族路五段１４７巷２號,121.1736,24.9586,(03)4901525,羅氏家用新冠病毒抗原自我檢測套組,3,2022/05/07 14:01:02,快篩販售時間:早上7:30領號碼牌下午2點至4點領快篩（當日有效） 六日中午10點至12點領快篩
5932040308,弘大藥局,桃園市楊梅區大華街十三號,121.1452,24.9076,(03)4751858,羅氏家用新冠病毒抗原自我檢測套組,78,2022/05/07 14:01:02,實名制快篩 14:00發放號碼牌後開始販售至16:00為止，禮拜天無販售實名制快篩。
5932043130,宜康美藥局,桃園市楊梅區環東路４５２號,121.1571,24.91005,(03)4883805,羅氏家用新冠病毒抗原自我檢測套組,58,2022/05/07 14:01:02,快篩販賣時段：早上09:30~10:30（20份）下午15:30~16:30（38份）晚上19:30~20:30（20份）
5932043336,楊梅藥局,桃園市楊梅區大成路１４８、１５０號,121.1458,24.91148,(03)4880776,羅氏家用新冠病毒抗原自我檢測套組,78,2022/05/07 14:01:02,快篩實名制，每天16:00開始販售，售完為止。
5932051472,康而美聖安藥師藥局,桃園市蘆竹區南山路一段二之一號,121.2916,25.04879,(03)3228753,羅氏家用新冠病毒抗原自我檢測套組,3,2022/05/07 14:01:02,暫停止販售
5932052004,英登藥局,桃園市蘆竹區南崁路三四四號,121.2913,25.05039,(03)2124606,羅氏家用新冠病毒抗原自我檢測套組,59,2022/05/07 14:01:02,無
5932052077,明安藥局,桃園市蘆竹區南竹路一之六號,121.2934,25.04765,(03)3527087,羅氏家用新冠病毒抗原自我檢測套組,75,2022/05/07 14:01:02,販售時段；周一至周日下午2點
5932052835,悅兒藥局,桃園市蘆竹區忠孝西路１８６號,121.2892,25.04011,(03)3126967,羅氏家用新冠病毒抗原自我檢測套組,78,2022/05/07 14:01:02,快篩販賣時段：週一到週日 14:30 開賣
5932052924,青青藥師藥局,桃園市蘆竹區南山路三段３１３號１樓,121.2861,25.08533,(03)3240338,羅氏家用新冠病毒抗原自我檢測套組,77,2022/05/07 14:01:02,口罩販賣時段：週一至週日09:00起
5932052933,天康南崁藥局,桃園市蘆竹區南崁路２４５號,121.2933,25.04894,(03)2122569,羅氏家用新冠病毒抗原自我檢測套組,72,2022/05/07 14:01:02,快篩販賣：週一~日14:00開賣通常30分鐘就售完不用再打電話問
5932052951,永青健康人生藥局,桃園市蘆竹區奉化路１４２號１樓,121.289,25.03917,(03)3528361,羅氏家用新冠病毒抗原自我檢測套組,6,2022/05/07 14:01:02,實名制快篩每日兩點開賣，人潮眾多額滿會提早開始
5932052979,南崁藥局,桃園市蘆竹區中正路２５１、２５３、２５５號,121.2921,25.04695,(03)3522022,羅氏家用新冠病毒抗原自我檢測套組,157,2022/05/07 14:01:02,快篩實名制，每天16:00開始販售，售完為止。
5932062439,青埔長青藥師藥局,桃園市大園區新生路四段２５１號,121.2134,25.0081,(03)3815097,羅氏家用新冠病毒抗原自我檢測套組,72,2022/05/07 14:01:02,快篩販賣時段 : 14:00開賣，現場排隊，售完為止
5932076844,帕米爾藥局,桃園市龜山區萬壽路二段９９１號,121.3369,24.99464,(03)3295522,羅氏家用新冠病毒抗原自我檢測套組,2,2022/05/07 14:01:02,星期一~六:家用快篩試劑販賣時段：14:30~售完。不發號碼牌，請直接排隊購買。
5932077056,桃園龜山藥局,桃園市龜山區萬壽路二段８９６號,121.3394,24.99586,(03)3203312,羅氏家用新冠病毒抗原自我檢測套組,78,2022/05/07 14:01:02,快篩實名制，每天16:00開始販售，售完為止。
5932077154,博爾康生活藥局,桃園市龜山區大同路２５０號１樓,121.3446,24.98989,(03)3506588,羅氏家用新冠病毒抗原自我檢測套組,76,2022/05/07 14:01:02,快篩實名制每日15:00販售。不發號碼牌，請直接排隊購買。
5932077270,明昌藥局,桃園市龜山區中興里萬壽路二段１１９１－６號,121.3318,24.99291,(03)3501205,羅氏家用新冠病毒抗原自我檢測套組,4,2022/05/07 14:01:02,無
5932077378,佑昌藥局,桃園市龜山區民生北路一段５３４號,121.298,25.044,(03)3120760,羅氏家用新冠病毒抗原自我檢測套組,64,2022/05/07 14:01:02,實名制快篩發放時間 14:00
5932077403,穩好保健藥局,桃園市龜山區中興路１３７號,121.3317,24.9889,(03)3500088,羅氏家用新冠病毒抗原自我檢測套組,57,2022/05/07 14:01:02,快篩販賣時段：1400
5932077510,左外野藥局,桃園市龜山區文光街６號１樓,121.3802,25.05471,(03)3271503,羅氏家用新冠病毒抗原自我檢測套組,77,2022/05/07 14:01:02,快篩販售:晚上19:30至20:30（週五公休）*不發號碼牌 請直接排隊購買
5932077574,樂樂聯合藥局,桃園市龜山區萬壽路１段１０９號１、２樓,121.4091,25.01886,(02)82000560,羅氏家用新冠病毒抗原自我檢測套組,4,2022/05/07 14:01:02,實名制快篩於每日9點開始發放號碼牌，發完為止。 中午12點至14點半為藥局休息時間
5932077618,大山藥局,桃園市龜山區中興路１段１８、２２、２４號１樓,121.3379,24.99376,(03)3191057,羅氏家用新冠病毒抗原自我檢測套組,72,2022/05/07 14:01:02,無
5932077627,文興藥局,桃園市龜山區復興一路１０２號１、２、３樓,121.368,25.0592,(03)3285330,羅氏家用新冠病毒抗原自我檢測套組,78,2022/05/07 14:01:02,快篩實名制，每天16:00開始販售，售完為止。
5932077645,美康萬壽藥局,桃園市龜山區萬壽路１段３２５號１、２樓,121.4024,25.0169,(02)82000001,羅氏家用新冠病毒抗原自我檢測套組,224,2022/05/07 14:01:02,下午兩點開始發號碼牌販售公費快篩
5932083303,吉康生活藥局,桃園市八德區義勇街１２０號,121.3045,24.96354,(03)3768577,羅氏家用新冠病毒抗原自我檢測套組,78,2022/05/07 14:01:02,周休二日，周一到周五09.:30發放快篩號碼牌 銷售時間 09:30-11:30
5932083509,上方藥局,桃園市八德區廣褔路一八八號,121.279,24.96204,(03)3635902,羅氏家用新冠病毒抗原自我檢測套組,78,2022/05/07 14:01:02,販賣快篩:於午間12:30~1:30發號碼牌，開賣時間下午3:00~4:30，賣完為止
5932083670,保健藥局,桃園市八德區介壽路一段８３３號２樓,121.3,24.96168,(03)3669486,羅氏家用新冠病毒抗原自我檢測套組,200,2022/05/07 14:01:02,無
5932083714,佳美大藥局,桃園市八德區介壽路一段六八八號,121.3006,24.96636,(03)3772239,羅氏家用新冠病毒抗原自我檢測套組,78,2022/05/07 14:01:02,營業時間:9:00-22:00，快篩14:00販售
5932083974,晨鴻藥師藥局,桃園市八德區桃鶯路７號１樓,121.3265,24.97179,(03)3764299,羅氏家用新冠病毒抗原自我檢測套組,33,2022/05/07 14:01:02,快篩為早上8:30跟晚上6:00領取號碼牌，星期六早上一次發78份，快篩地圖數量參考就好，請勿再打電話詢問 謝謝
5932084300,博泰藥局,桃園市八德區介壽路二段９８２號,121.2973,24.93407,(03)3731010,羅氏家用新冠病毒抗原自我檢測套組,78,2022/05/07 14:01:02,快篩實名制，每天16:00開始販售，售完為止。
5932084319,新寶樹藥局,桃園市八德區介壽路一段９６６號,121.2991,24.95818,(03)3770000,羅氏家用新冠病毒抗原自我檢測套組,78,2022/05/07 14:01:02,快篩試劑  禮拜一至六 1430開始販售，週日1500開始販售
5932084462,興豐丁丁藥局,桃園市八德區興豐路４３５號,121.2895,24.92983,(03)3689287,羅氏家用新冠病毒抗原自我檢測套組,78,2022/05/07 14:01:02,無
5932084695,康馥藥局,桃園市八德區金和路５３號１樓,121.2971,24.95494,(03)3749620,羅氏家用新冠病毒抗原自我檢測套組,78,2022/05/07 14:01:02,口罩販賣時段：15:00 ， 週日14:30開始營業；星期六公休。
5932084828,阿爾富山藥局,桃園市八德區桃鶯路４號１樓,121.3261,24.97167,(03)3763350,羅氏家用新冠病毒抗原自我檢測套組,75,2022/05/07 14:01:02,本藥局實名制快篩於每日晚間7點以實際到貨數量發放，唯保留可視現場排隊人數額滿情況.酌情提前發號碼牌並受理購買!
5932084864,阿寶藥局,桃園市八德區東勇一路６號,121.3064,24.96452,(03)3750060,羅氏家用新冠病毒抗原自我檢測套組,77,2022/05/07 14:01:02,實名制快篩詳細公告請參閱阿寶藥局官方臉書
5932084873,宏昌藥局,桃園市八德區介壽路１段８９０號,121.2994,24.95998,(03)3639797,羅氏家用新冠病毒抗原自我檢測套組,1,2022/05/07 14:01:02,每日13:30開賣 星期日休息
5932099203,普善藥局,桃園市龍潭區北龍路３３３號,121.219,24.86887,(03)4705877,羅氏家用新冠病毒抗原自我檢測套組,72,2022/05/07 14:01:02,快篩試劑販賣時段：14:10~售完為止
5932099516,１Ｏ１藥師聯合藥局,桃園市龍潭區中正路４４號,121.2144,24.86893,(03)4708593,羅氏家用新冠病毒抗原自我檢測套組,78,2022/05/07 14:01:02,快篩販售時間: 週一至週六 14:00準時販售，週日藥局休息  快篩停售
5932099687,承融藥局,桃園市龍潭區中興里中興路２８２號,121.234,24.87417,(03)4095543,羅氏家用新冠病毒抗原自我檢測套組,61,2022/05/07 14:01:02,5／6完售!!!!每日14:00開賣!!!5／6完售!!!!每日14:00開賣!!!~~週日停售~~
5932099927,大心聯合藥局,桃園市龍潭區中興路３９０號,121.2313,24.87337,(03)4897998,羅氏家用新冠病毒抗原自我檢測套組,78,2022/05/07 14:01:02,快篩實名制：週一至週日下午15:30開始販售
5932099963,龍潭北龍藥局,桃園市龍潭區北龍路２７５號,121.2174,24.8681,(03)4893123,羅氏家用新冠病毒抗原自我檢測套組,78,2022/05/07 14:01:02,快篩實名制，每天16:00開始販售，售完為止。
5932100809,福澤民族藥局,桃園市平鎮區民族路二段１３９號１樓,121.2048,24.95706,(03)4014747,羅氏家用新冠病毒抗原自我檢測套組,74,2022/05/07 14:01:02,家用快篩販賣時段15:30至售完為止
5932101155,杏一平鎮環南藥局,桃園市平鎮區環南路２號,121.2067,24.95694,(03)4951758,羅氏家用新冠病毒抗原自我檢測套組,2,2022/05/07 14:01:02,快篩販售時間為週一到週五11:00，10:55發號碼牌
5932101226,平鎮中豐藥局,桃園市平鎮區中豐路山頂段１６４號,121.2109,24.90035,(03)4690939,羅氏家用新冠病毒抗原自我檢測套組,78,2022/05/07 14:01:02,快篩實名制，每天16:00開始販售，售完為止。
593210A078,康健複合式連鎖藥局,桃園市平鎮區金陵路三段９１號,121.2276,24.92882,(03)4684601,羅氏家用新冠病毒抗原自我檢測套組,22,2022/05/07 14:01:02,實名制快篩試劑13:00開始，不發號碼牌，現場排隊售完為止，一人一卡，自備500元，恕不找零，不收銅板，謝謝配合
5932123008,立明藥局,桃園市觀音區草漯里大觀路二段３３－１號１樓,121.1433,25.04796,(03)4838292,羅氏家用新冠病毒抗原自我檢測套組,19,2022/05/07 14:01:02,下午兩點開始販售快篩
5932124096,松樹藥師藥局,桃園市觀音區中山路二段777號,121.1382,25.01172,(03)4988995,羅氏家用新冠病毒抗原自我檢測套組,27,2022/05/07 14:01:02,快篩販售時間：平日14:00~售完； 星期日20:00~售完
5933010064,明德藥局,新竹縣關西鎮中山路１８號,121.1778,24.79152,(03)5874335,羅氏家用新冠病毒抗原自我檢測套組,39,2022/05/07 14:01:02,無
5933011258,安東藥師藥局,新竹縣關西鎮中山路６２號,121.1766,24.79147,(03)5872385,羅氏家用新冠病毒抗原自我檢測套組,78,2022/05/07 14:01:02,口罩販賣時段：星期一至六08:00-21:00、星期日08:00-17:00
5933020104,廣和藥局,新竹縣新埔鎮中正路２９２號,121.0807,24.82769,(035)885959,羅氏家用新冠病毒抗原自我檢測套組,78,2022/05/07 14:01:02,實名制快篩 下午15:00開始販售
5933021254,梁藥局,新竹縣新埔鎮中正路２３３號,121.0798,24.82761,(03)5885439,羅氏家用新冠病毒抗原自我檢測套組,78,2022/05/07 14:01:02,快篩實名制，每天15:00開始販售，售完為止。
5933030066,鄧藥局,新竹縣竹東鎮榮樂里大同路４３號,121.0882,24.73841,(03)5952908,羅氏家用新冠病毒抗原自我檢測套組,47,2022/05/07 14:01:02,快篩販售時間14:00起
5933031643,能安西藥局,新竹縣竹東鎮東峰路13號,121.0966,24.72171,(03)5950515,羅氏家用新冠病毒抗原自我檢測套組,69,2022/05/07 14:01:02,下午2點，星期日不販售
5933031778,樂安藥師藥局,新竹縣竹東鎮東林路８９號,121.0916,24.73705,(03)5101941,羅氏家用新冠病毒抗原自我檢測套組,65,2022/05/07 14:01:02,實名制快篩販售時間 14:00
5933031821,新月藥局,新竹縣竹東鎮永康街８１號１樓,121.0818,24.74841,(03)5960501,羅氏家用新冠病毒抗原自我檢測套組,76,2022/05/07 14:01:02,快篩代售時間 14:00（39份） 19:00（39份）
5933031885,東林藥局,新竹縣竹東鎮東林路８０號,121.0913,24.73683,(03)5961321,羅氏家用新冠病毒抗原自我檢測套組,78,2022/05/07 14:01:02,快篩實名制，每天16:00開始販售，售完為止。
5933052044,禾松藥局,新竹縣竹北市勝利5路23號,121.0227,24.8247,(03)6577267,羅氏家用新冠病毒抗原自我檢測套組,78,2022/05/07 14:01:02,實名制快篩販賣週一至週六下午15:00開始販售（營業時間）
5933052517,振元藥師藥局,新竹縣竹北市自強南路２０１號,121.0238,24.81364,(03)6587052,羅氏家用新冠病毒抗原自我檢測套組,73,2022/05/07 14:01:02,下午14:00銷售快篩，周日不販售.
5933052660,阿姆斯壯藥局,新竹縣竹北市六家五路一段１２５號,121.0254,24.80966,(03)6589178,羅氏家用新冠病毒抗原自我檢測套組,78,2022/05/07 14:01:02,快篩5／3早上9:00開始販售，5／4起改下午5點。
5933052973,芳鄰藥局,新竹縣竹北市三民路２６１號之１號,121.013,24.83308,(03)6213887,羅氏家用新冠病毒抗原自我檢測套組,13,2022/05/07 14:01:02,快篩販售：下午1：30，現場排隊領號碼牌，自備500元及健保卡
5933052982,如佳藥局,新竹縣竹北市中正西路１８９號,120.9989,24.84168,(03)5533161,羅氏家用新冠病毒抗原自我檢測套組,4,2022/05/07 14:01:02,每日下午13:30發放號碼牌，14:00開始販售
5933053041,中一藥局,新竹縣竹北市文興路一段２４２號１樓,121.0287,24.81018,(03)6670827,羅氏家用新冠病毒抗原自我檢測套組,78,2022/05/07 14:01:02,更新:快篩販售時間下午16:00
5933053167,育禾藥局,新竹縣竹北市莊敬南路１８６號,121.0195,24.8157,(03)6683255,羅氏家用新冠病毒抗原自我檢測套組,78,2022/05/07 14:01:02,因人力不足，快篩發放時間為14:00至14:30，逾時不候，敬請見諒！
5933053407,方米藥局,新竹縣竹北市博愛街５１１號,121.0106,24.8393,(03)5510015,羅氏家用新冠病毒抗原自我檢測套組,78,2022/05/07 14:01:02,實名制快篩，下午兩點發號碼牌並開賣
5933053532,金竹藥局,新竹縣竹北市勝利六街６８號,121.026,24.82491,(03)6683215,羅氏家用新冠病毒抗原自我檢測套組,64,2022/05/07 14:01:02,快篩實名制，每天下午2點準時販售。周日公休
5933053550,六家藥局,新竹縣竹北市六家一路一段１６３號,121.0289,24.80958,(03)6578456,羅氏家用新冠病毒抗原自我檢測套組,78,2022/05/07 14:01:02,快篩實名制，每天16:00開始販售，售完為止。
5933053596,中華藥局,新竹縣竹北市中華路２２６號１、２樓,121.0028,24.83118,(03)5513031,羅氏家用新冠病毒抗原自我檢測套組,78,2022/05/07 14:01:02,快篩實名制，每天16:00開始販售，售完為止。
5933061570,湖口藥局,新竹縣湖口鄉民族路４５號,121.0472,24.90602,(03)5991842,羅氏家用新冠病毒抗原自我檢測套組,1,2022/05/07 14:01:02,實名制快篩販賣時段：星期一~六14:30開賣
5933061712,湖山藥局,新竹縣湖口鄉中山路二段１２７號,121.0439,24.90198,(03)5904999,羅氏家用新冠病毒抗原自我檢測套組,78,2022/05/07 14:01:02,快篩實名制，每天16:00開始販售，售完為止。
5933081536,昌昌藥局,新竹縣新豐鄉新市路１９３號,120.9846,24.90465,(03)5598077,羅氏家用新冠病毒抗原自我檢測套組,1,2022/05/07 14:01:02,5／7（六）號碼牌已發放完畢。5／8（日）上午8:00開始發放號碼牌。
5933081607,新豐藥局,新竹縣新豐鄉中興路２０８、２１０號,120.9949,24.87571,(03)5575005,羅氏家用新冠病毒抗原自我檢測套組,78,2022/05/07 14:01:02,快篩實名制，每天16:00開始販售，售完為止。
5933081616,立果藥局,新竹縣新豐鄉尚仁街１３８號,120.9927,24.86946,(03)5571766,羅氏家用新冠病毒抗原自我檢測套組,75,2022/05/07 14:01:02,實名制快篩1400準時開售。營業時間並非販售快篩時間，請勿一早就來排隊
5934011529,宜生藥局,宜蘭縣宜蘭市新民路１１１號,121.7551,24.75716,(03)9327893,羅氏家用新冠病毒抗原自我檢測套組,22,2022/05/07 14:01:02,周一至周六 上午8點至上午 9點 （或售完為止）5月7日台電停電 休息一日
5934011958,栢心藥局,宜蘭縣宜蘭市宜興路１段１１１號,121.7561,24.7514,(03)9357277,羅氏家用新冠病毒抗原自我檢測套組,78,2022/05/07 14:01:02,週一~週六（週四下午休息），快篩試劑下午14:30開始販售
5934012179,宜蘭和睦藥局,宜蘭縣宜蘭市大新里和睦路４７號１、２樓,121.757,24.75614,(03)9313622,羅氏家用新冠病毒抗原自我檢測套組,78,2022/05/07 14:01:02,快篩販賣時間:每天（週一~週日）14:30起，售完為止
5934012473,宜蘭藥局,宜蘭縣宜蘭市泰山路３６號,121.7485,24.75524,(03)9365168,羅氏家用新冠病毒抗原自我檢測套組,78,2022/05/07 14:01:02,快篩實名制，每天16:00開始販售，售完為止。
5934020073,長生藥局,宜蘭縣羅東鎮復興路１段１號,121.7713,24.682,(03)9553222,羅氏家用新冠病毒抗原自我檢測套組,65,2022/05/07 14:01:02,5／7（六）下午2:00  實名制快篩貨到開賣    （快篩試劑販售時間為週一到週日；星期日早上08:30 開始販售）
5934022175,公正藥局,宜蘭縣羅東鎮興東路１３７、１３９號,121.769,24.6802,(03)9560543,羅氏家用新冠病毒抗原自我檢測套組,78,2022/05/07 14:01:02,快篩實名制，每天16:00開始販售，售完為止。
5935011523,天恩藥局,苗栗縣苗栗市中正路49號,120.8246,24.5688,(037)277285,羅氏家用新冠病毒抗原自我檢測套組,39,2022/05/07 14:01:02,快篩實名制，不發號碼牌，5／9起每日下午14:30販售，週日預約制。
5935012342,杏一苗栗中山藥局,苗栗縣苗栗市至公路３８號,120.8196,24.55733,(037)354552,羅氏家用新冠病毒抗原自我檢測套組,78,2022/05/07 14:01:02,販售快篩時間:14:00  現場排隊為主!售完為止! 若現場人數過多.視狀況提早銷售
5935030171,立安藥局,苗栗縣通霄鎮信義路１０７號,120.6804,24.48877,(037)760100,羅氏家用新冠病毒抗原自我檢測套組,69,2022/05/07 14:01:02,快篩實名制 週一到週六下午15:00開始販售  售完為止
5935030180,通霄藥局,苗栗縣通霄鎮中山路１３１號,120.678,24.48903,(037)755155,羅氏家用新冠病毒抗原自我檢測套組,76,2022/05/07 14:01:02,快篩實名制，每天16:00開始販售，售完為止。
5935040266,鴻仁大藥局,苗栗縣竹南鎮竹南里博愛街１８１號,120.8741,24.68686,(037)462396,羅氏家用新冠病毒抗原自我檢測套組,30,2022/05/07 14:01:02,無
5935041905,米樂中西健保藥局,苗栗縣竹南鎮大營路２０７號,120.8727,24.68686,(037)552116,羅氏家用新冠病毒抗原自我檢測套組,60,2022/05/07 14:01:02,各大醫院診所處方簽調劑窗口快篩試劑販賣時段：（一）~（六）下午2:00至售完（六）營業時間08:30-16:00星期日休息
5935041914,合康連鎖藥局,苗栗縣竹南鎮博愛街２７０號,120.8725,24.68724,(037)474987,羅氏家用新冠病毒抗原自我檢測套組,78,2022/05/07 14:01:02,販售快篩時間為下午17:00開始販售
5935042091,好心健保藥局,苗栗縣竹南鎮中華路１５７號,120.9236,24.71002,(037)687088,羅氏家用新冠病毒抗原自我檢測套組,9,2022/05/07 14:01:02,快篩販售時間:下午01:00
5935051983,日康藥局,苗栗縣頭份市中央路４０２號１樓,120.8995,24.69356,(037)660061,羅氏家用新冠病毒抗原自我檢測套組,12,2022/05/07 14:01:02,快篩發放時間為每日13:30分 可能因物流配送影響發放時間，請見諒
5935060053,鴻輝大藥局,苗栗縣後龍鎮北龍里中華路６４－１號,120.7879,24.61557,(037)721952,羅氏家用新冠病毒抗原自我檢測套組,1,2022/05/07 14:01:02,AM07:50~PM10:00
5935061452,後龍藥局,苗栗縣後龍鎮中山路２０９號１樓,120.7931,24.6127,(037)723660,羅氏家用新冠病毒抗原自我檢測套組,78,2022/05/07 14:01:02,快篩實名制，每天16:00開始販售，售完為止。
5935071252,國良藥局,苗栗縣卓蘭鎮中山路１１１號１樓,120.8259,24.31214,(042)5899578,羅氏家用新冠病毒抗原自我檢測套組,70,2022/05/07 14:01:02,每天14:00準時販售快篩喔，賣完為止!
5935081169,景元藥局,苗栗縣大湖鄉中正路９７號,120.8664,24.42265,(037)996465,羅氏家用新冠病毒抗原自我檢測套組,60,2022/05/07 14:01:02,每天下午兩點開始販售快篩試劑
5935090015,永信藥局,苗栗縣公館鄉館中村榮光街１６號,120.8271,24.50226,(037)223597,羅氏家用新冠病毒抗原自我檢測套組,78,2022/05/07 14:01:02,每日下午3點開始販售快篩
5935091245,芳鄰藥局,苗栗縣公館鄉玉泉村玉泉３６８之１１號,120.8267,24.50749,(037)223727,羅氏家用新冠病毒抗原自我檢測套組,78,2022/05/07 14:01:02,口罩販賣時段：13:00~售完
5936010039,裕安藥局,臺中市豐原區南陽路南陽市場１１號,120.7239,24.24718,(04)25223494,羅氏家用新冠病毒抗原自我檢測套組,9,2022/05/07 14:01:02,無
5936010628,協安大藥局,臺中市豐原區府前街６３號,120.7184,24.24957,(04)25200808,羅氏家用新冠病毒抗原自我檢測套組,75,2022/05/07 14:01:02,實名制快篩販售時間為每日下午兩點。
5936010780,復生藥局,臺中市豐原區田心路２段２６９號,120.7226,24.23821,(04)25261803,羅氏家用新冠病毒抗原自我檢測套組,37,2022/05/07 14:01:02,營業時間９：００～２１：３０，實名制快篩每日下午２：００販售
5936012551,豐原福倫藥局,臺中市豐原區中正路２９６號,120.7156,24.25173,(04)25276618,羅氏家用新冠病毒抗原自我檢測套組,46,2022/05/07 14:01:02,實名制快篩販賣時段：下午2：00起
5936031583,日南藥局,臺中市大甲區通天路１７８之１號,120.6547,24.38114,(04)26816949,羅氏家用新冠病毒抗原自我檢測套組,56,2022/05/07 14:01:02,快篩試劑（星期一至 星期六）每日下午2點， 開始販賣
5936040021,持田健保藥局,臺中市清水區鰲峰路24號,120.5742,24.26938,(04)26229133,羅氏家用新冠病毒抗原自我檢測套組,141,2022/05/07 14:01:02,今天5／7（週六） 早上有領到號碼牌者， 現在可以前來購買快篩
5936040135,德厚藥局,臺中市清水區慷榔里慷榔２街５０號,121.4874,25.07275,(04)26560733,羅氏家用新冠病毒抗原自我檢測套組,12,2022/05/07 14:01:02,實名制快篩試劑於週一至週日10:00開始發送號碼牌，請勿離開現場，售完為止。
5936050060,大原藥局,臺中市沙鹿區洛泉里四平街１４２號,120.5608,24.23651,(04)26626572,羅氏家用新冠病毒抗原自我檢測套組,39,2022/05/07 14:01:02,執業時間販賣實名制快篩。
5936050248,濟生一藥局,臺中市沙鹿區沙田路１４６號,120.5596,24.2365,(04)26626826,羅氏家用新冠病毒抗原自我檢測套組,21,2022/05/07 14:01:02,快篩試劑下午2點-人潮多就提早30分開始 **醫院處方 牙科 備藥齊全 全年無休*
5936051441,永富藥局,臺中市沙鹿區中山路２８６號,120.5602,24.23833,(04)26625339,羅氏家用新冠病毒抗原自我檢測套組,72,2022/05/07 14:01:02,*每日14:00開始販賣防疫快篩試劑
5936060164,中港藥局,臺中市梧棲區臺灣大道八段７６６號,120.5424,24.24798,(04)26565360,羅氏家用新冠病毒抗原自我檢測套組,54,2022/05/07 14:01:02,無
5936071185,后里東亞大藥局,臺中市后里區民生路１２３號,120.7164,24.3071,(04)25570225,羅氏家用新冠病毒抗原自我檢測套組,78,2022/05/07 14:01:02,實名制快篩每周一到周日，下午2:00販售（售完為止）
5936111148,荷仕康藥局,臺中市新社區興安路１８－３３號,120.8078,24.24042,(04)25826258,羅氏家用新冠病毒抗原自我檢測套組,75,2022/05/07 14:01:02,快篩下午2點開始販售
5936120049,原隆安藥局,臺中市石岡區萬安里石岡街５３號,120.7767,24.27595,(04)25722833,羅氏家用新冠病毒抗原自我檢測套組,76,2022/05/07 14:01:02,周一至周日下午2點販售。若有時間異動，詳情關注FB: 原隆安藥局
5936150305,吳藥局,臺中市烏日區烏日里中山路二段２２４號,120.6219,24.1066,(04)23381148,羅氏家用新冠病毒抗原自我檢測套組,72,2022/05/07 14:01:02,早上如有配送 下午2:00販售
5936171402,上華藥局,臺中市龍井區新興路３７號,120.5882,24.18084,(04)26320433,羅氏家用新冠病毒抗原自我檢測套組,75,2022/05/07 14:01:02,周一至周日快篩販賣時間下午2點開始販售，賣完為止
5936180152,祥暘藥局,臺中市霧峰區中正路１１６２號,120.6996,24.07068,(04)23391346,羅氏家用新冠病毒抗原自我檢測套組,78,2022/05/07 14:01:02,快篩實名制，每天16:00開始販售，售完為止。
5936191913,興明健保藥局,臺中市太平區樹德路９７－６號,120.7113,24.15324,(04)23955521,羅氏家用新冠病毒抗原自我檢測套組,78,2022/05/07 14:01:02,週一至週六下午2:30開始販售實名制快篩劑.週日早上10:00至12:00販售
5936192312,安麗兒藥局太平店,臺中市太平區太平路１９０號,120.7204,24.12088,(04)22798819,羅氏家用新冠病毒抗原自我檢測套組,75,2022/05/07 14:01:02,快篩販售時間下午3點（15:00）開始.售完為止
5936209796,永欣藥局,臺中市大里區新里里新興路２４號,120.6773,24.09864,(04)24077085,羅氏家用新冠病毒抗原自我檢測套組,14,2022/05/07 14:01:02,無
5937012117,媽咪藥局,彰化縣彰化市彰南路２段１１５號,120.5793,24.08538,(04)7321517,羅氏家用新冠病毒抗原自我檢測套組,59,2022/05/07 14:01:02,實名制快篩:周一至周六下午3:00，週日早上9:00開始販售，售完為止
5937012582,正光藥局中正店,彰化縣彰化市中正路１段２５３號,120.5466,24.08348,(04)7235068,羅氏家用新冠病毒抗原自我檢測套組,64,2022/05/07 14:01:02,領藥來正光，快篩實名13:30開始販售。
5937013132,正光藥局彰南店,彰化縣彰化市中庄里彰南路１段２１號,120.5662,24.08841,(04)7321003,羅氏家用新冠病毒抗原自我檢測套組,1,2022/05/07 14:01:02,領藥來正光.防疫實名制快篩13:30開始販售
5937013196,彰化啄木鳥藥局,彰化縣彰化市茄南里金馬路２段２７號,120.5483,24.09616,(04)7330661,羅氏家用新冠病毒抗原自我檢測套組,1,2022/05/07 14:01:02,無
5937013347,康禾藥局,彰化縣彰化市崙平里建和街５２號,120.5322,24.07063,(04)7624077,羅氏家用新冠病毒抗原自我檢測套組,64,2022/05/07 14:01:02,固定周一至周五下午一點發放快篩試劑，售完為止
5937013418,曉陽藥局,彰化縣彰化市西安里曉陽路２０２號,120.5373,24.07311,(04)7270989,羅氏家用新冠病毒抗原自我檢測套組,78,2022/05/07 14:01:02,現場排隊，請自備零錢。週一至週五早上9：30，週六下午3：30 （休息：中午12：00-15：30，18：00-19：30 ）
5937013436,大埔藥局,彰化縣彰化市大埔路４０６、４０８、４１０、４１２號,120.5439,24.06298,(04)7117511,羅氏家用新冠病毒抗原自我檢測套組,78,2022/05/07 14:01:02,快篩實名制，每天16:00開始販售，售完為止。
5937013507,原安大藥局,彰化縣彰化市南郭路一段１８０號,120.5479,24.07445,(04)7272817,羅氏家用新冠病毒抗原自我檢測套組,66,2022/05/07 14:01:02,周一至周日 早上8點-晚上10點營業（實名制下午2點開始）
5937013561,友誼藥局彰化店,彰化縣彰化市辭修路１９１－２號,120.5376,24.08413,(04)7288865,羅氏家用新冠病毒抗原自我檢測套組,73,2022/05/07 14:01:02,5／4 下午2點販賣快篩，友誼藥局免費領取連續處方簽，衛生所，牙科單
5937013570,彰化藥局,彰化縣彰化市永安街２７８、２８０號,120.5438,24.08977,(04)7287877,羅氏家用新冠病毒抗原自我檢測套組,78,2022/05/07 14:01:02,快篩實名制，每天16:00開始販售，售完為止。
5937013605,大佳好藥局,彰化縣彰化市平和七街６號,120.5293,24.06697,(09)33520331,羅氏家用新冠病毒抗原自我檢測套組,4,2022/05/07 14:01:02,0507快篩10:00後暫時停售，勿來電詢問
5937013678,佑全彰化民族藥局,彰化縣彰化市民族路４５０號１樓,120.5404,24.07605,(04)7286549,羅氏家用新冠病毒抗原自我檢測套組,75,2022/05/07 14:01:02,處方領藥來佑全，快篩試劑販售時間:下午兩點
5937021821,新永吉藥局,彰化縣鹿港鎮中山路１２７號,120.4353,24.05296,(04)7770940,羅氏家用新冠病毒抗原自我檢測套組,76,2022/05/07 14:01:02,無
5937031541,友誼藥局和美店,彰化縣和美鎮和東里仁化路１４７、１４９號,120.4964,24.11017,(04)7550866,羅氏家用新冠病毒抗原自我檢測套組,40,2022/05/07 14:01:02,早上9::00-10:00發快篩，六日不發售。
5937031747,大樹和美藥局,彰化縣和美鎮道周路５０１號,120.494,24.10896,(04)7550090,羅氏家用新冠病毒抗原自我檢測套組,78,2022/05/07 14:01:02,快篩實名制，每天16:00開始販售，售完為止。
5937041369,北斗福倫藥局,彰化縣北斗鎮西德里斗苑路１段４２５、４２７號,120.5177,23.87305,(04)8886618,羅氏家用新冠病毒抗原自我檢測套組,78,2022/05/07 14:01:02,星期一~星期日每天下午3:00開始販售.人多同時間於2:50發號碼牌.取牌後保留10分鐘
5937041421,惠生大藥局,彰化縣北斗鎮西德里中華路２９１號,120.521,23.87288,(04)8874041,羅氏家用新冠病毒抗原自我檢測套組,75,2022/05/07 14:01:02,販售時間 : 週一 ~ 週日，每日下午1:50~2點後至販售完畢
