醫事機構代碼,醫事機構名稱,醫事機構地址,經度,緯度,醫事機構電話,廠牌項目,快篩試劑截至目前結餘存貨數量,來源資料時間,備註
2331260016,新北市貢寮區衛生所,新北市貢寮區朝陽街７０巷１０號、新北市貢寮區仁愛路１２８號,121.9095,25.02258,(02)24901431,羅氏家用新冠病毒抗原自我檢測套組,10,2022/05/10 10:35:02,快篩試劑販售時間為周一至周五早上9點開始販售，每日販售一箱，數量有限售完為止。
2333120015,新竹縣峨眉鄉衛生所,新竹縣峨眉鄉峨眉村峨眉街２鄰５號,121.0214,24.68842,(03)5800314,羅氏家用新冠病毒抗原自我檢測套組,78,2022/05/10 10:35:02,自5月6日起平常上班日販賣快篩試劑12時至13時止，星期六為8時30分至9時30分，目前皆以現場排隊人員順序，每日最多78組
2335180019,苗栗縣泰安鄉衛生所,苗栗縣泰安鄉清安村２鄰７２號,120.9083,24.44722,(037)941054,羅氏家用新冠病毒抗原自我檢測套組,26,2022/05/10 10:35:02,口罩販賣時段：星期一~五：8:30~15：00。
2338120015,南投縣信義鄉衛生所,南投縣信義鄉明德村玉山路４５號,120.8547,23.69653,(049)2791148,羅氏家用新冠病毒抗原自我檢測套組,1,2022/05/10 10:35:02,快篩試劑販售時間星期一至星期五上午09：00-11：00，現場排隊發售，國定假日不販賣。
2340170016,嘉義縣大埔鄉衛生所,嘉義縣大埔鄉大埔村５３－１號,120.5928,23.29397,(05)2521214,羅氏家用新冠病毒抗原自我檢測套組,64,2022/05/10 10:35:02,無
2340180012,嘉義縣阿里山鄉衛生所,嘉義縣阿里山鄉樂野村３鄰９７－２號,120.7019,23.4666,(05)2561573,羅氏家用新冠病毒抗原自我檢測套組,23,2022/05/10 10:35:02,無
2341240017,臺南市楠西區衛生所,臺南市楠西區楠西里中正路２２６號,120.4859,23.17477,(06)5751006,羅氏家用新冠病毒抗原自我檢測套組,78,2022/05/10 10:35:02,門診看診時間為W1和每月第二週W5早上8:30-11:30及W4下午1:30-4:30；家用快篩試劑販售時間為W1-5早上10:30-12:00
2342130010,高雄市田寮區衛生所,高雄市田寮區南安里崗北路３２號,120.3594,22.87301,(07)6361504,羅氏家用新冠病毒抗原自我檢測套組,1,2022/05/10 10:35:02,巡迴醫療:每星期一、四下午及每月第一個有上班的星期三下午巡迴醫療
2342250017,高雄市茂林區衛生所,高雄市茂林區茂林里茂林巷８－４號,120.6641,22.88641,(07)6801046,羅氏家用新冠病毒抗原自我檢測套組,3,2022/05/10 10:35:02,夜間急診，請先撥電話07-6801046
2342260013,高雄市桃源區衛生所,高雄市桃源區桃源里南進巷１８８－１號,120.7642,23.15845,(07)6861126,羅氏家用新冠病毒抗原自我檢測套組,90,2022/05/10 10:35:02,IDS提供24小時服務
2342270019,高雄市那瑪夏區衛生所,高雄市那瑪夏區瑪雅里６鄰平和巷２５２號,120.7024,23.24708,(07)6701142,羅氏家用新冠病毒抗原自我檢測套組,1,2022/05/10 10:35:02,春節期間正常門診
2343230019,屏東縣車城鄉衛生所,屏東縣車城鄉福安村福安路２之３０號,120.7125,22.06986,(08)8821300,羅氏家用新冠病毒抗原自我檢測套組,11,2022/05/10 10:35:02,販賣快篩試劑時間:週一~週五10:00售完為止
2343330014,屏東縣牡丹鄉衛生所,屏東縣牡丹鄉石門村１９號,120.7469,22.10105,(08)8831013,羅氏家用新冠病毒抗原自我檢測套組,5,2022/05/10 10:35:02,早上9:00 實名制快篩販售（售完為止）
2344011036,澎湖縣馬公市第三衛生所,澎湖縣馬公市西文里１１８之２號,119.5836,23.56813,(06)9211723,羅氏家用新冠病毒抗原自我檢測套組,86,2022/05/10 10:35:02,本所快篩試劑只提供離島衛生室（虎井、桶盤）販售，時間週一至週五08:30-17:00售完為止，星期六、日國定假日09:00-12:00。
2344030022,澎湖縣白沙鄉鳥嶼衛生所,澎湖縣白沙鄉鳥嶼村漁港新村３號,119.6599,23.66008,(06)9916092,羅氏家用新冠病毒抗原自我檢測套組,137,2022/05/10 10:35:02,非上班時間提供急診服務
2344030031,澎湖縣白沙鄉吉貝衛生所,澎湖縣白沙鄉吉貝村８－１３號,119.6138,23.74056,(06)9911430,羅氏家用新冠病毒抗原自我檢測套組,254,2022/05/10 10:35:02,無
2344050015,澎湖縣望安鄉衛生所,澎湖縣望安鄉西安村３６－７號,119.4972,23.36161,(06)9991036,羅氏家用新冠病毒抗原自我檢測套組,3,2022/05/10 10:35:02,夜間急診。快篩試劑販售時間為:每日08:00-12:00、13:30-17:30售完為止，如有餘數為離島未售出（東嶼坪、花嶼）。
2344050024,澎湖縣望安鄉將軍衛生所,澎湖縣望安鄉將軍村１２鄰將軍澳１之３號,119.5216,23.3615,(06)9902066,羅氏家用新冠病毒抗原自我檢測套組,62,2022/05/10 10:35:02,24小時急診
2344060011,澎湖縣七美鄉衛生所,澎湖縣七美鄉中和村埔內５４號,119.431,23.2041,(06)9971005,羅氏家用新冠病毒抗原自我檢測套組,4,2022/05/10 10:35:02,無
2345080017,衛生福利部花蓮醫院豐濱原住民分院,花蓮縣豐濱鄉豐濱村光豐路４１號,121.5215,23.60195,(03)8358141,羅氏家用新冠病毒抗原自我檢測套組,78,2022/05/10 10:35:02,*本院口罩每天販售，時間自上午8點至晚上9點  *本院週一至週五上下午皆有門診，星期六隔週提供門診，及24小時急診。
2345100014,花蓮縣富里鄉衛生所,花蓮縣富里鄉富里村中山路２０３號,121.2491,23.17847,(03)8831029,羅氏家用新冠病毒抗原自我檢測套組,69,2022/05/10 10:35:02,*內科:每週二下午東里玉蓮寺巡診 **牙科:每週二至卓溪醫療站***口罩販賣時間8:30起至11:00止
2345120016,花蓮縣萬榮鄉衛生所,花蓮縣萬榮鄉萬榮村１鄰１６號,121.4092,23.71558,(03)8751651,羅氏家用新冠病毒抗原自我檢測套組,62,2022/05/10 10:35:02,快篩試劑代售時間：週一至週五下午2點至下午4點，販售為止。
2345130012,花蓮縣卓溪鄉衛生所,花蓮縣卓溪鄉卓溪村中正路６５號,121.3033,23.33294,(03)8882592,羅氏家用新冠病毒抗原自我檢測套組,154,2022/05/10 10:35:02,快篩試劑代售時間：週一至週五上午8：30-11：00（售完即結束）
2346030011,臺東縣關山鎮衛生所,臺東縣關山鎮中福里中華路７８號,121.1639,23.04957,(089)811042,羅氏家用新冠病毒抗原自我檢測套組,57,2022/05/10 10:35:02,無
2346040017,台東縣卑南鄉衛生所,臺東縣卑南鄉太平村和平路１３２號,121.0881,22.78207,(089)382042,羅氏家用新冠病毒抗原自我檢測套組,3,2022/05/10 10:35:02,無
2346050013,台東縣大武鄉衛生所,臺東縣大武鄉大武村復興路２－２號,120.9078,22.36414,(089)791143,羅氏家用新冠病毒抗原自我檢測套組,1,2022/05/10 10:35:02,24小時急診服務（急診無販售快篩試劑）
2346110014,台東縣綠島鄉衛生所,臺東縣綠島鄉中寮村１－１號,121.4696,22.67319,(089)672511,羅氏家用新冠病毒抗原自我檢測套組,78,2022/05/10 10:35:02,家用快篩實名制，販售時段為上午08:30至12:00，下午13:30至16:30（周一至周五），售完為止。）
2346140012,台東縣達仁鄉衛生所,臺東縣達仁鄉安朔村復興路１２２號,120.8836,22.29488,(089)702209,羅氏家用新冠病毒抗原自我檢測套組,1,2022/05/10 10:35:02,12／31 元旦連假
2346160014,台東縣蘭嶼鄉衛生所,臺東縣蘭嶼鄉紅頭村３６號,121.5546,22.02493,(089)732575,羅氏家用新冠病毒抗原自我檢測套組,19,2022/05/10 10:35:02,販售口罩時間 星期一至星期五 8:00~12:00 13:30~17:30
2390050032,金門縣烈嶼鄉衛生所,金門縣烈嶼鄉西口村西方６－５號,118.2395,24.43519,(082)362078,羅氏家用新冠病毒抗原自我檢測套組,78,2022/05/10 10:35:02,快篩試劑販售時間:周一至周五下午1點至3點
2391020010,連江縣北竿鄉衛生所,連江縣北竿鄉塘岐村２８１－６號,119.9991,26.22617,(083)655592,羅氏家用新冠病毒抗原自我檢測套組,38,2022/05/10 10:35:02,新冠快篩試劑販售於週一至周六每日上午08:30-12:00開放購買。
2391030016,連江縣莒光鄉西莒衛生所,連江縣莒光鄉青帆村１４－１號,119.9331,25.97157,(083)689122,羅氏家用新冠病毒抗原自我檢測套組,182,2022/05/10 10:35:02,防疫口罩星期一至五09:00-17:00、（六）09:00-12:00現場購買
2391030026,連江縣莒光鄉東莒衛生所,連江縣莒光鄉大坪村３０－１號,119.9731,25.96113,(083)689038,羅氏家用新冠病毒抗原自我檢測套組,463,2022/05/10 10:35:02,防疫口罩星期一至星期日上午10:00-12:00收取健保卡，下午3:30至本所領取口罩。
2391040012,連江縣東引鄉衛生所,連江縣東引鄉中柳村１２３號,120.4904,26.36701,(083)677206,羅氏家用新冠病毒抗原自我檢測套組,22,2022/05/10 10:35:02,防疫口罩每日10:00-12:00現場購買
5901010094,明一藥局,臺北市松山區南京東路５段５９巷２８弄２５號１樓,121.5582,25.0527,(02)27691654,羅氏家用新冠病毒抗原自我檢測套組,6,2022/05/10 10:35:02,AM10: ~~PM9:00
5901010165,傑安藥局,臺北市松山區八德路２段４３７巷７弄８號１樓,121.5473,25.04914,(02)27524155,羅氏家用新冠病毒抗原自我檢測套組,46,2022/05/10 10:35:02,9:30開始發號碼牌
5901010192,益華藥局,臺北市松山區民生東路５段１３８巷６號,121.5615,25.05827,(02)27624898,羅氏家用新冠病毒抗原自我檢測套組,7,2022/05/10 10:35:02,無
5901010272,德靈藥局,臺北市松山區富錦街５４８號,121.5667,25.06178,(02)27646998,羅氏家用新冠病毒抗原自我檢測套組,19,2022/05/10 10:35:02,週日休 .
5901011699,建東大藥局,臺北市松山區三民路９７號１樓,121.5634,25.05723,(02)27676237,羅氏家用新冠病毒抗原自我檢測套組,7,2022/05/10 10:35:02,早上9點發號碼牌.留健保卡.12點前回來買快篩.一人一卡.周日公修（沒快篩）
5901012749,躍獅松和藥局,臺北市松山區八德路四段６６６－１號,121.5761,25.04979,(02)27492569,羅氏家用新冠病毒抗原自我檢測套組,78,2022/05/10 10:35:02,實名制快篩販售時段，每日下午4點販售，售完為止
5901013095,康采藥局,臺北市松山區南京東路５段２９１巷１７－２號,121.5663,25.05236,(02)27670271,羅氏家用新冠病毒抗原自我檢測套組,17,2022/05/10 10:35:02,（已完售，庫存不準）快篩試劑每日16點販售，週日沒有販售
5901013308,立赫敦北藥局,臺北市松山區敦化北路２２２巷２０號,121.5477,25.05945,(02)27199277,羅氏家用新冠病毒抗原自我檢測套組,34,2022/05/10 10:35:02,5／10（二）早上9:30發放號碼牌販售
5901013371,玖田藥局,臺北市松山區八德路４段６５５號,121.5755,25.05018,(02)27666578,羅氏家用新冠病毒抗原自我檢測套組,1,2022/05/10 10:35:02,實名制快篩：09:40開始，售完為止！
5901013442,松山八德藥局,臺北市松山區八德路２段４００號,121.5466,25.04804,(02)27782773,羅氏家用新冠病毒抗原自我檢測套組,78,2022/05/10 10:35:02,快篩實名制，每天16:00開始販售，售完為止。
5901013595,巧心藥局,臺北市松山區八德路３段１２巷５７弄３９之３號１樓,121.5521,25.04567,(02)25703728,羅氏家用新冠病毒抗原自我檢測套組,43,2022/05/10 10:35:02,快篩試劑14:00販售，售完為止．
5901013693,民生盛康藥局,臺北市松山區民生東路５段２０４號１樓,121.5648,25.05826,(02)27460758,羅氏家用新冠病毒抗原自我檢測套組,140,2022/05/10 10:35:02,【每日70分】星期一~六9:00發號碼牌，11:00~20:00拿號碼牌回來領取，每人限1張號碼牌，逾時不候
5901013737,全欣藥局,臺北市松山區復興北路７３號２樓,121.5442,25.05104,(02)87729066,羅氏家用新冠病毒抗原自我檢測套組,48,2022/05/10 10:35:02,9:00am開始販售30人份15:00販售30人份:18:00販售17人份；週六:9:00販售39人份；週日:15:00販售39人份....排隊人數滿會先發號碼
5901013746,富景藥局,臺北市松山區三民路１４５號１樓,121.5631,25.06078,(02)27455666,羅氏家用新冠病毒抗原自我檢測套組,69,2022/05/10 10:35:02,無
5901020661,泰佑藥局,臺北市大安區安和路２段７２號１Ｆ,121.5517,25.03011,(02)27056841,羅氏家用新冠病毒抗原自我檢測套組,1,2022/05/10 10:35:02,每日早上九點半
5901023304,麗樺藥師藥局,臺北市大安區麗水街３號,121.529,25.03225,(02)23952628,羅氏家用新冠病毒抗原自我檢測套組,25,2022/05/10 10:35:02,無
5901023653,信安健康藥局,臺北市大安區仁愛路４段１２２巷５８號,121.5501,25.03392,(02)27084858,羅氏家用新冠病毒抗原自我檢測套組,78,2022/05/10 10:35:02,快篩實聯制每天下午2:00開始 （沒有發號碼牌）
5901023902,惠良藥局,臺北市大安區和平東路３段９３－１號,121.5507,25.02461,(02)27387872,羅氏家用新冠病毒抗原自我檢測套組,4,2022/05/10 10:35:02,平日早上10點開賣實名快篩  週日11點開賣（週日最晚到中午12點 賣完快篩即休息）
5901024007,古亭健康人生藥局,臺北市大安區羅斯福路２段８３號,121.5237,25.02572,(02)23660895,羅氏家用新冠病毒抗原自我檢測套組,2,2022/05/10 10:35:02,快篩僅販售14:00-16:00。營業時間9:30-21:55。
5901024114,好安心藥局,臺北市大安區和平東路２段９８之２號,121.5415,25.02493,(02)23772166,羅氏家用新冠病毒抗原自我檢測套組,71,2022/05/10 10:35:02,快篩發放: 週一至週六 15:30現場開始販售（人滿提早發售），不發號碼牌。
5901024543,奇威藥局,臺北市大安區雲和街９３號,121.5312,25.02338,(02)23651110,羅氏家用新冠病毒抗原自我檢測套組,37,2022/05/10 10:35:02,無
5901024669,百岳藥局,臺北市大安區和平東路２段３１１巷１１號,121.5452,25.02514,(02)27551037,羅氏家用新冠病毒抗原自我檢測套組,94,2022/05/10 10:35:02,快篩試劑販售時間:周一至周五10:30~12:00止
5901024721,麗泰藥局,臺北市大安區復興南路２段１５１巷４號,121.544,25.02832,(02)27079595,羅氏家用新冠病毒抗原自我檢測套組,37,2022/05/10 10:35:02,每天到貨時間不定，到貨後即公告開賣
5901024918,康祥藥局,臺北市大安區忠孝東路４段２１６巷２１號,121.5531,25.04025,(02)27817891,羅氏家用新冠病毒抗原自我檢測套組,5,2022/05/10 10:35:02,星期天11:00-19:00
5901025059,博醫仁愛藥局,臺北市大安區仁愛路４段８巷２號１樓,121.5443,25.0375,(02)27019107,羅氏家用新冠病毒抗原自我檢測套組,78,2022/05/10 10:35:02,每天11:30發號碼牌，12:00~15:00憑號碼牌與健保卡購買實名制快篩
5901090369,保慶藥局,臺北市大同區保安街２１號,121.5129,25.05926,(02)25538988,羅氏家用新冠病毒抗原自我檢測套組,41,2022/05/10 10:35:02,因到貨時間不定，視到貨時間販售
5901091544,得意藥師藥局,臺北市大同區延平北路２段２２９號,121.5115,25.06029,(02)25534294,羅氏家用新冠病毒抗原自我檢測套組,7,2022/05/10 10:35:02,無
5901100155,大信藥局,臺北市中山區林森北路１５９巷６號,121.5255,25.0517,(02)25719080,羅氏家用新冠病毒抗原自我檢測套組,1,2022/05/10 10:35:02,無
5901100422,滿順藥局,臺北市中山區伊通街５４號１樓,121.5347,25.05145,(02)25075283,羅氏家用新冠病毒抗原自我檢測套組,68,2022/05/10 10:35:02,快篩服務時間 AM 8:30 起 售完為止
5901101607,蓁榛健康生活藥局,臺北市中山區合江街１００－２號１樓,121.5391,25.05845,(02)25099333,羅氏家用新冠病毒抗原自我檢測套組,10,2022/05/10 10:35:02,實名制快篩配售時間依到貨時間而定，請參考蓁榛健康生活藥局合江店臉書公告
5901102060,專心藥局,臺北市中山區伊通街１１２－２號,121.5347,25.05426,(02)25155847,羅氏家用新冠病毒抗原自我檢測套組,35,2022/05/10 10:35:02,無
5901103227,建誠中西藥局,臺北市中山區龍江路３８５之１號,121.541,25.06511,(02)25158608,羅氏家用新冠病毒抗原自我檢測套組,22,2022/05/10 10:35:02,實名制快篩發放時間 週一至週六13:00-14:00
5901103558,佳頤中西藥局,臺北市中山區長春路１４７之１號,121.5323,25.05495,(02)25641479,羅氏家用新冠病毒抗原自我檢測套組,1,2022/05/10 10:35:02,實名制快篩販售時間為下午1點起，售完為止，其他販售細節以店內公告為主
5901103656,大樹龍江藥局,臺北市中山區龍江路２４２號,121.5406,25.05889,(02)25035666,羅氏家用新冠病毒抗原自我檢測套組,78,2022/05/10 10:35:02,快篩實名制，每天16:00開始販售，售完為止。
5901103665,安悅藥局,臺北市中山區吉林路１８９號,121.5304,25.0597,(02)25419879,羅氏家用新冠病毒抗原自我檢測套組,1,2022/05/10 10:35:02,實名制快篩販售時間:早上11點~售完為止，不發號碼牌僅現場排隊（每周日不販售）
5901103745,吉林藥局,臺北市中山區吉林路３７１號（１樓）,121.5305,25.06511,(02)25865990,羅氏家用新冠病毒抗原自我檢測套組,78,2022/05/10 10:35:02,快篩實名制，每天16:00開始販售，售完為止。
5901103790,可康藥局,臺北市中山區林森北路３７３號（１樓）,121.5257,25.05826,(02)25361078,羅氏家用新冠病毒抗原自我檢測套組,2,2022/05/10 10:35:02,快篩實名制晚上9點開始發放
5901112879,壹零捌藥局,臺北市內湖區成功路４段３４４號,121.5996,25.08488,(02)27910061,羅氏家用新冠病毒抗原自我檢測套組,1,2022/05/10 10:35:02,快篩晚上7:30開始販售（星期一至星期六）
5901113018,桔子藥局,臺北市內湖區內湖路２段３３３號,121.5917,25.08319,(02)27930052,羅氏家用新冠病毒抗原自我檢測套組,78,2022/05/10 10:35:02,早0900-1200，午1400-1700，晚1900-2100
5901113250,大內湖藥局,臺北市內湖區成功路３段１６４號１樓,121.5903,25.08035,(02)27956286,羅氏家用新冠病毒抗原自我檢測套組,4,2022/05/10 10:35:02,早上9:30開始發售
5901113269,樂齡藥師藥局,臺北市內湖區內湖路３段１０３號,121.5909,25.08641,(02)27919707,羅氏家用新冠病毒抗原自我檢測套組,3,2022/05/10 10:35:02,早上8:30
5901113296,喜越藥局,臺北市內湖區內湖路１段２８５巷５９弄７號,121.5673,25.08377,(02)26271955,羅氏家用新冠病毒抗原自我檢測套組,2,2022/05/10 10:35:02,無
5901113385,躍獅康成藥局,臺北市內湖區成功路４段６１巷１１號,121.5928,25.0814,(02)87922031,羅氏家用新冠病毒抗原自我檢測套組,78,2022/05/10 10:35:02,如有收到政府配送，實名制快篩13:40發號碼牌，14:00開賣。實名制口罩已無販售。
5901113590,維安藥局,臺北市內湖區成功路３段１７４巷２３號,121.5906,25.08143,(02)27944520,羅氏家用新冠病毒抗原自我檢測套組,5,2022/05/10 10:35:02,快篩每周一至六0930開賣，10點結束，視人數發號，每日固定78位，多的78為隔日庫存
5901113652,加一藥師藥局,臺北市內湖區星雲街２４號１樓,121.5908,25.07804,(02)87912653,羅氏家用新冠病毒抗原自我檢測套組,120,2022/05/10 10:35:02,無
5901113661,內湖藥局,臺北市內湖區康寧路１段１１６號１樓,121.5934,25.07948,(02)27940545,羅氏家用新冠病毒抗原自我檢測套組,78,2022/05/10 10:35:02,快篩實名制，每天16:00開始販售，售完為止。
5901113723,杏一港墘藥局,臺北市內湖區港墘路８３號（１樓）,121.5781,25.08078,(02)87978746,羅氏家用新冠病毒抗原自我檢測套組,78,2022/05/10 10:35:02,無
5901113732,富康活力誠功藥局,臺北市內湖區成功路４段３０巷２０號１樓,121.5916,25.08235,(02)27960222,羅氏家用新冠病毒抗原自我檢測套組,1,2022/05/10 10:35:02,正常供應的話都是每日16:00開始販售快篩，建議來現場加入**LINE社群**，可以獲得最新第一手資訊
5901121841,泓安藥局,臺北市南港區興華路７５號,121.6061,25.05517,(02)27861083,羅氏家用新冠病毒抗原自我檢測套組,3,2022/05/10 10:35:02,星期一至星期日早上10:00開賣快篩試劑
5901121869,南港藥局,臺北市南港區南港路一段１６６號,121.6119,25.05536,(02)27829137,羅氏家用新冠病毒抗原自我檢測套組,78,2022/05/10 10:35:02,快篩販售時間晚上6:00~晚上8:00（每天78份，售完即止）（周日休息）
5901121930,小藥師健保藥局,臺北市南港區福德街３２０之１號,121.588,25.03948,(02)27867002,羅氏家用新冠病毒抗原自我檢測套組,24,2022/05/10 10:35:02,快篩販售時間，每天早上10點開始販售，售完為止
5901150128,新興藥局,臺北市士林區德行西路１１７號,121.5206,25.10398,(02)28362643,羅氏家用新冠病毒抗原自我檢測套組,1,2022/05/10 10:35:02,無
5901150271,建芳藥局,臺北市士林區德行東路１４８號,121.5296,25.10804,(02)28357172,羅氏家用新冠病毒抗原自我檢測套組,17,2022/05/10 10:35:02,無
5901152079,資生堂藥局,臺北市士林區承德路４段４０巷１７號１Ｆ,121.522,25.08107,(02)28857588,羅氏家用新冠病毒抗原自我檢測套組,78,2022/05/10 10:35:02,今日快篩已售完
5901152604,達揚藥局,臺北市士林區社正路３６號１樓,121.5099,25.08877,(02)88115559,羅氏家用新冠病毒抗原自我檢測套組,6,2022/05/10 10:35:02,無
5901152659,和樹藥局,臺北市士林區後港街４５巷１號１樓,121.5228,25.08444,(02)28821188,羅氏家用新冠病毒抗原自我檢測套組,78,2022/05/10 10:35:02,週日公休，周一早上9:30
5901152748,柏雅大藥局,臺北市士林區德行西路６４號,121.5227,25.10506,(02)88664398,羅氏家用新冠病毒抗原自我檢測套組,91,2022/05/10 10:35:02,每天早上10:30開始販售快篩試劑，星期日公休不販售。
5901153263,健揚藥局,臺北市士林區延平北路５段２５１號,121.5097,25.08483,(02)28163698,羅氏家用新冠病毒抗原自我檢測套組,1,2022/05/10 10:35:02,每日下午13:30開始販售
5901153496,躍獅忠誠藥局,臺北市士林區忠義街７０號,121.5314,25.10594,(02)28387948,羅氏家用新冠病毒抗原自我檢測套組,1,2022/05/10 10:35:02,快篩下午兩點販售，現場排隊沒有發號碼牌（週日販售視到貨情況決定）
5901153503,祥新藥局,臺北市士林區社子街６５號,121.5067,25.08751,(02)28110906,羅氏家用新冠病毒抗原自我檢測套組,12,2022/05/10 10:35:02,實名制快篩星期2、3、5、6早上十點開賣；週一、四晚上7點開賣，周日公休
5901153674,愛佳藥局,臺北市士林區承德路４段２２２之１號,121.5215,25.0885,(02)28811199,羅氏家用新冠病毒抗原自我檢測套組,78,2022/05/10 10:35:02,實名制快篩平日一~五下午5:00販售，假日（六、日）不販售
5901153683,安奕藥局,臺北市士林區葫蘆街３０巷１２號,121.5099,25.08034,(02)28133289,羅氏家用新冠病毒抗原自我檢測套組,19,2022/05/10 10:35:02,週日休。快篩劑開賣時間，早上10:00。
5901153941,士東藥局,臺北市士林區士東路９１巷３號,121.5291,25.11256,(02)28760588,羅氏家用新冠病毒抗原自我檢測套組,78,2022/05/10 10:35:02,快篩實名制，每天16:00開始販售，售完為止。
5901154028,向宇藥局,臺北市士林區德行東路２１７號１樓,121.5328,25.10935,(02)88661101,羅氏家用新冠病毒抗原自我檢測套組,126,2022/05/10 10:35:02,無
5901154073,中山盛康藥局,臺北市士林區中山北路７段１６２號１樓,121.5327,25.12416,(02)28771887,羅氏家用新冠病毒抗原自我檢測套組,12,2022/05/10 10:35:02,實名制快篩早上9:00-12:00發放號碼牌
5901154108,藥本家藥局,臺北市士林區中山北路７段１４巷２６號１樓,121.5328,25.11884,(02)28766682,羅氏家用新冠病毒抗原自我檢測套組,8,2022/05/10 10:35:02,無
5901161890,良興藥局,臺北市北投區中和街２８６號,121.5004,25.14047,(02)28933360,羅氏家用新冠病毒抗原自我檢測套組,1,2022/05/10 10:35:02,18點30分點開始營業
5901162477,長宜藥局,臺北市北投區自強街１１２號,121.5155,25.11074,(02)28216605,羅氏家用新冠病毒抗原自我檢測套組,78,2022/05/10 10:35:02,實名制快篩試劑發放時間:14:00~售完為止，會依政府配送狀況調整
5901163572,永欣中西藥局,臺北市北投區中和街５０１號,121.4947,25.1452,(02)28910307,羅氏家用新冠病毒抗原自我檢測套組,61,2022/05/10 10:35:02,週一至週六 早上9:30發號碼牌 10點販售 周日公休（庫存不準 號碼牌發完即售完）謝謝
5901170184,臺陽藥局,臺北市信義區大道路６１號,121.5823,25.04136,(02)27283403,羅氏家用新冠病毒抗原自我檢測套組,9,2022/05/10 10:35:02,快篩試劑早上9:30現場販售，週日沒有販售
5901170433,松山大藥局,臺北市信義區永吉路４３６號,121.5781,25.04526,(932)156305,羅氏家用新冠病毒抗原自我檢測套組,18,2022/05/10 10:35:02,購防疫快篩早上10:00_發售.週日下午1點起.售完即止
5901172179,新和平藥局,臺北市信義區虎林街１９８號１樓,121.5769,25.03844,(02)23460951,羅氏家用新冠病毒抗原自我檢測套組,21,2022/05/10 10:35:02,每星期一至星期六早上10點起   發放實名制快篩試劑 .星期日休息
5901172268,皇佳大藥局,臺北市信義區松山路５４１巷１９號,121.5789,25.03793,(02)27269868,羅氏家用新冠病毒抗原自我檢測套組,50,2022/05/10 10:35:02,早上10:00 持健保卡領取實名制快篩，每人限領一份，請自備500元
5901172651,康杏藥局,臺北市信義區福德街３０６號１樓,121.5874,25.03931,(02)27591510,羅氏家用新冠病毒抗原自我檢測套組,18,2022/05/10 10:35:02,無
5901172839,九州藥局,臺北市信義區和平東路３段２３９號,121.5543,25.02294,(02)87323331,羅氏家用新冠病毒抗原自我檢測套組,8,2022/05/10 10:35:02,實名制快篩5月9日早上10:00開賣
5901173041,皇昇大藥局,臺北市信義區松山路２１０號１樓,121.5776,25.04509,(02)27663488,羅氏家用新冠病毒抗原自我檢測套組,82,2022/05/10 10:35:02,周一至週五下午3點開始販售實名制快篩
5901173283,上禾藥師藥局,臺北市信義區林口街２７號,121.5792,25.03741,(02)27592686,羅氏家用新冠病毒抗原自我檢測套組,19,2022/05/10 10:35:02,無
5901173407,康怡健保藥局,臺北市信義區吳興街４６７巷２弄１２號,121.5695,25.02381,(02)27206193,羅氏家用新冠病毒抗原自我檢測套組,15,2022/05/10 10:35:02,快篩早上9點開賣，賣完為止
5901173710,專品光復藥局,臺北市信義區光復南路４６７之１號,121.5577,25.03384,(02)27586682,羅氏家用新冠病毒抗原自我檢測套組,75,2022/05/10 10:35:02,禮拜一到六下午三點販售口罩
5901173738,尚頤中西藥局,臺北市信義區虎林街１４５號,121.5767,25.03959,(02)27253818,羅氏家用新冠病毒抗原自我檢測套組,42,2022/05/10 10:35:02,無
5901173818,博亞藥局,臺北市信義區莊敬路４６２號,121.5677,25.02672,(02)27580506,羅氏家用新冠病毒抗原自我檢測套組,40,2022/05/10 10:35:02,平日早上8:30、晚上8:00；假日早上8:30，發放號碼牌，持號碼牌購買!
5901173863,立赫北醫藥局,臺北市信義區吳興街１１８巷２６弄１７號,121.5599,25.03007,(02)27320100,羅氏家用新冠病毒抗原自我檢測套組,6,2022/05/10 10:35:02,5／10上午10:00開始販售實名制快篩試劑
5901173881,壹間藥師藥局,臺北市信義區虎林街１２０巷１４８號,121.5742,25.04213,(02)27672833,羅氏家用新冠病毒抗原自我檢測套組,66,2022/05/10 10:35:02,5／10（二）10:30實名制快篩開始販售
5901173943,躍獅興雅藥局,臺北市信義區松德路１２８號,121.5745,25.03734,(02)87808429,羅氏家用新冠病毒抗原自我檢測套組,78,2022/05/10 10:35:02,14:00發號碼牌且同步開賣快篩，販賣至15:00或售完為止，週日無販售。
5901173961,北一忠孝藥局,臺北市信義區忠孝東路５段５２４巷１弄１６號１樓,121.5802,25.04133,(02)23464588,羅氏家用新冠病毒抗原自我檢測套組,5,2022/05/10 10:35:02,實名制快篩一~六販早上10點販售，周日不販售
5901174057,詠晴中西藥局,臺北市信義區松山路４８４之４號（１樓含夾層）,121.5778,25.0389,(02)27266890,羅氏家用新冠病毒抗原自我檢測套組,90,2022/05/10 10:35:02,實名制快篩 - 16:30領號碼牌.當天取貨即可.避免群聚風險
5901174066,愛維喜藥局,臺北市信義區莊敬路２７８號１樓,121.5627,25.02882,(02)27586989,羅氏家用新冠病毒抗原自我檢測套組,77,2022/05/10 10:35:02,快篩周一至五15:30.周六8:30開賣.約30分前收健保卡現金500元1張.發號碼牌
5901174075,信義盛康藥局,臺北市信義區永吉路２８６號（１樓）,121.5744,25.04538,(02)23460521,羅氏家用新冠病毒抗原自我檢測套組,1,2022/05/10 10:35:02,無
5901174084,市政藥局,臺北市信義區忠孝東路５段１６９號１樓、１７１號１樓,121.5688,25.0412,(02)27560050,羅氏家用新冠病毒抗原自我檢測套組,78,2022/05/10 10:35:02,快篩實名制，每天16:00開始販售，售完為止。
5901180206,大安藥局,臺北市中正區新生南路１段１０６號,121.5326,25.03969,(02)23213186,羅氏家用新冠病毒抗原自我檢測套組,2,2022/05/10 10:35:02,週一到週六
5901180224,中心藥局,臺北市中正區汀州路３段１２１號,121.5303,25.01654,(02)23689889,羅氏家用新冠病毒抗原自我檢測套組,1,2022/05/10 10:35:02,實名制快篩因物流貨運配送調度，調整領取時間延後至下午3點
5901180322,南昌大藥局,臺北市中正區南昌路１段８６號１樓,121.5174,25.03086,(02)23510322,羅氏家用新冠病毒抗原自我檢測套組,29,2022/05/10 10:35:02,早上10點發號碼牌，下午2點前來購買，逾期作廢。
5901183645,大愛生活藥局,臺北市中正區汀州路２段２３２號,121.5243,25.02189,(02)23661155,羅氏家用新冠病毒抗原自我檢測套組,67,2022/05/10 10:35:02,下午14:30開始發放快篩（不發號碼牌直接買）~~不要太早開始排隊啊啊啊啊
5901184071,進達健保藥局,臺北市中正區中華路２段４５３號,121.5096,25.0249,(02)23039829,羅氏家用新冠病毒抗原自我檢測套組,2,2022/05/10 10:35:02,星期日公休 5／9起快篩代售時間為上午10點 下午3-4點清消不營業
5901184366,宏越藥局,臺北市中正區中華路２段３１３巷４號,121.5061,25.02813,(02)23050880,羅氏家用新冠病毒抗原自我檢測套組,3,2022/05/10 10:35:02,代售實名制快篩時間 每日下午14:30開始  售完即停止  可關注FB公告當日是否代售
5901184473,中力藥局,臺北市中正區襄陽路１３之５號、１５號,121.5155,25.04349,(02)23313768,羅氏家用新冠病毒抗原自我檢測套組,5,2022/05/10 10:35:02,實名制快篩 販售時間：09:30~售完為止
5901184535,桐心藥局,臺北市中正區金華街１８之６號１樓,121.5202,25.03175,(02)23581663,羅氏家用新冠病毒抗原自我檢測套組,8,2022/05/10 10:35:02,無
5901190426,皇祥藥局,臺北市萬華區萬青街１６５號１樓,121.5016,25.02279,(02)23375676,羅氏家用新冠病毒抗原自我檢測套組,78,2022/05/10 10:35:02,無
5901190668,聯慶大藥局,臺北市萬華區萬大路３０６號１樓,121.5003,25.02495,(02)23039850,羅氏家用新冠病毒抗原自我檢測套組,9,2022/05/10 10:35:02,無
5901192180,康之友藥局,臺北市萬華區青年路２０號,121.5055,25.02592,(02)23011598,羅氏家用新冠病毒抗原自我檢測套組,77,2022/05/10 10:35:02,下午兩點發號碼牌
5901192822,專品藥局,臺北市萬華區長沙街２段７１－１號,121.5051,25.04062,(02)23718892,羅氏家用新冠病毒抗原自我檢測套組,1,2022/05/10 10:35:02,快篩實名制下午3點發放
5901193070,榮勝藥局,臺北市萬華區萬大路２３３號,121.5006,25.02649,(02)23331121,羅氏家用新冠病毒抗原自我檢測套組,78,2022/05/10 10:35:02,每日快篩早上十一點開始販售
5901193123,千誠北護藥局,臺北市萬華區內江街１１４號,121.5034,25.04152,(02)23123530,羅氏家用新冠病毒抗原自我檢測套組,49,2022/05/10 10:35:02,快篩一開門就發號碼牌，故網路庫存不準。
5901193132,松本藥局,臺北市萬華區西昌街２３３號,121.5007,25.03723,(02)23029559,羅氏家用新冠病毒抗原自我檢測套組,31,2022/05/10 10:35:02,無
5901193150,日森人文藥局,臺北市萬華區和平西路３段１４９號,121.4988,25.03543,(02)23082100,羅氏家用新冠病毒抗原自我檢測套組,78,2022/05/10 10:35:02,快篩依政府每日到貨時間， 會立即公告粉絲頁販售時間規則
5901193221,正盛藥局,臺北市萬華區中華路２段４３４－１號,121.5064,25.02708,(02)23050386,羅氏家用新冠病毒抗原自我檢測套組,76,2022/05/10 10:35:02,【5／9自費快篩+血氧機到貨!!】1.一~六20點，周日不賣 2.排隊人潮多，建議7點左右提前候位 3.詳情看公告或板橋正康臉書
5901193338,艾米力藥師藥局,臺北市萬華區西藏路１０７－２號１樓,121.5035,25.02955,(02)23036583,羅氏家用新冠病毒抗原自我檢測套組,73,2022/05/10 10:35:02,實名制快篩：周一~周五【晚上】7:00販售；周末（六日）早上9:00販售
5901200105,建興藥局,臺北市文山區木柵路２段８１號１樓,121.561,24.98889,(02)29399993,羅氏家用新冠病毒抗原自我檢測套組,1,2022/05/10 10:35:02,星期一至星期日早上8時30分現場販售實名制快篩試劑
5901200141,景美藥局,臺北市文山區景文街１２５號,121.5412,24.99033,(02)29335741,羅氏家用新冠病毒抗原自我檢測套組,113,2022/05/10 10:35:02,無
5901201826,舒博威藥局,臺北市文山區興隆路２段９５巷３號,121.547,24.99952,(02)29306805,羅氏家用新冠病毒抗原自我檢測套組,3,2022/05/10 10:35:02,早上8:30開始販售
5901202627,杏隆藥局,臺北市文山區羅斯福路５段２６１號,121.5395,25.00115,(02)29313151,羅氏家用新冠病毒抗原自我檢測套組,156,2022/05/10 10:35:02,快篩實名制採預約登記，至5／14已登記額滿。
5901202949,萬隆大藥局,臺北市文山區羅斯福路５段２１８巷１５號,121.538,25.00203,(02)29334580,羅氏家用新冠病毒抗原自我檢測套組,78,2022/05/10 10:35:02,9：00~23：00
5901203062,大樹文山藥局,臺北市文山區興隆路３段１３號（１、２、３樓）,121.555,25.00088,(02)29342226,羅氏家用新冠病毒抗原自我檢測套組,78,2022/05/10 10:35:02,快篩實名制，每天16:00開始販售，售完為止。
5901203375,大樹景美藥局,臺北市文山區羅斯福路６段２３４之１號,121.5404,24.99244,(02)29322951,羅氏家用新冠病毒抗原自我檢測套組,78,2022/05/10 10:35:02,快篩實名制，每天16:00開始販售，售完為止。
5901203455,全球萬芳藥局,臺北市文山區興隆路３段６３號（１樓）,121.5562,25.00024,(02)89352147,羅氏家用新冠病毒抗原自我檢測套組,1,2022/05/10 10:35:02,營業時間9:00~22:00
5902010132,宏恩藥局,高雄市鹽埕區教仁里瀨南街１３３號,120.2823,22.62472,(07)5211318,羅氏家用新冠病毒抗原自我檢測套組,58,2022/05/10 10:35:02,5／10 10:30貨到開始販售 星期一至星期六10:30貨到開始販售，星期日14:00貨到開始販售
5902011291,長庚藥局,高雄市鹽埕區五福四路１６３號一樓,120.2834,22.62347,(07)5513436,羅氏家用新冠病毒抗原自我檢測套組,35,2022/05/10 10:35:02,無
5902011308,昇安藥局,高雄市鹽埕區瀨南街２２５號１樓,120.284,22.62797,(07)5216438,羅氏家用新冠病毒抗原自我檢測套組,1,2022/05/10 10:35:02,快篩試劑早上8:4 0開始發號碼牌
5902022794,定國藥局,高雄市鼓山區九如四路１１３５號,120.2791,22.65936,(07)5815858,羅氏家用新冠病毒抗原自我檢測套組,47,2022/05/10 10:35:02,無
5902030312,吉辰藥局,高雄市左營區左營大路４１之１號,120.2876,22.68109,(07)5815069,羅氏家用新冠病毒抗原自我檢測套組,74,2022/05/10 10:35:02,早上9點開賣口罩   賣完為止
5902032674,辰暘藥局,高雄市左營區富民路１２０號１、２樓,120.3054,22.66066,(07)5588545,羅氏家用新冠病毒抗原自我檢測套組,18,2022/05/10 10:35:02,無
5902040210,益民藥局,高雄市楠梓區建楠路４７號,120.3287,22.72659,(07)3522161,羅氏家用新冠病毒抗原自我檢測套組,22,2022/05/10 10:35:02,開門時間10:00
5902040229,進昇藥局,高雄市楠梓區德賢路２０２號,120.3068,22.72694,(07)3652334,羅氏家用新冠病毒抗原自我檢測套組,8,2022/05/10 10:35:02,實名制快篩每日上午10點販售，售完為止
5902042661,元春中西藥師藥局,高雄市楠梓區後昌路８３７巷３７號,120.294,22.71109,(07)3605656,羅氏家用新冠病毒抗原自我檢測套組,78,2022/05/10 10:35:02,周1~周6下午16:00開賣快篩，售完為止
5902050298,瑞鶴藥局,高雄市三民區寶德里義德路２５號,120.3352,22.64301,(07)3862757,羅氏家用新冠病毒抗原自我檢測套組,1,2022/05/10 10:35:02,下午2:00至4:30午休勿擾，每日08:30至21:30發售快篩。星期日不發售。
5902050798,友泰藥局,高雄市三民區中和街１６９號,120.2868,22.6388,(07)3125236,羅氏家用新冠病毒抗原自我檢測套組,78,2022/05/10 10:35:02,無
5902050903,皇安藥局,高雄市三民區九如一路４６１號,120.3296,22.63865,(07)3866779,羅氏家用新冠病毒抗原自我檢測套組,5,2022/05/10 10:35:02,營業日0900可先領取號碼牌，上午9:00-12:00及下午3:00~10:.00為販賣快篩時間，售完為止
5902056807,長慶藥局,高雄市三民區金鼎路３１０號,120.3207,22.66513,(07)3105835,羅氏家用新冠病毒抗原自我檢測套組,9,2022/05/10 10:35:02,無
5902057493,上泰藥局,高雄市三民區鼎山街５６９號,120.3177,22.65148,(07)3987396,羅氏家用新冠病毒抗原自我檢測套組,50,2022/05/10 10:35:02,快篩實名制販售星期一到星期日早上10:30開始.售完為止
5902057902,利安藥局,高雄市三民區建工路５４５號,120.3213,22.64854,(07)3965550,羅氏家用新冠病毒抗原自我檢測套組,14,2022/05/10 10:35:02,營業日9:00AM起販賣口罩，售完為止
5902080803,功安中西大藥局,高雄市苓雅區三多二路２９１號,120.3195,22.61858,(07)7215949,羅氏家用新冠病毒抗原自我檢測套組,4,2022/05/10 10:35:02,快篩試劑早上9:30開賣
5902085031,上好藥局,高雄市苓雅區四維一路六三號一樓,120.3294,22.6257,(07)7266863,羅氏家用新冠病毒抗原自我檢測套組,4,2022/05/10 10:35:02,快篩購買:上午10:30~／／／周六日上午10:00~
5902085166,景福藥局,高雄市苓雅區和平一路１４７之５號,120.3204,22.62364,(07)7719152,羅氏家用新冠病毒抗原自我檢測套組,7,2022/05/10 10:35:02,2／11早上9:00至下午15:00，2／12至16日休
5902085371,加和藥局,高雄市苓雅區和平一路１４３之７號,120.3205,22.62331,(07)7219332,羅氏家用新冠病毒抗原自我檢測套組,13,2022/05/10 10:35:02,快篩試劑每日下午2:30販售，務再來電詢問。星期天不販售快篩試劑
5902091128,北京藥局,高雄市前鎮區公正路３１號,120.3322,22.60291,(07)7113100,羅氏家用新冠病毒抗原自我檢測套組,78,2022/05/10 10:35:02,發放方式，下午15；00現場過卡
5902092410,旺盛藥局,高雄市前鎮區永豐路１０８號,120.3337,22.6065,(07)7512899,羅氏家用新冠病毒抗原自我檢測套組,1,2022/05/10 10:35:02,過年期間 111／01／31下午至111／02／03  休診
5902110628,悅是康藥局,高雄市小港區漢民路２７６號,120.3536,22.56665,(07)8010012,羅氏家用新冠病毒抗原自我檢測套組,3,2022/05/10 10:35:02,每日早上10:00開賣、不須拿號碼牌、領完為止。
5903040072,碧綠谷藥局,臺中市清水區中華路５２５號,120.5718,24.27605,(04)26281151,羅氏家用新冠病毒抗原自我檢測套組,1,2022/05/10 10:35:02,09:30發放快篩.星期日休息.癌症諮詢.慢箋領藥.長照特約.更年期.糖尿病.戒菸諮詢.孕期保健.小兒營養
5903050069,進騰藥局,臺中市沙鹿區鎮南路２段２３４號,120.5689,24.22394,(04)26314418,羅氏家用新冠病毒抗原自我檢測套組,33,2022/05/10 10:35:02,營業時間8:00-22:00，每日中午12點開始販售家用快篩
5903050103,北勢進騰藥局,臺中市沙鹿區北勢東路５０９之７號１樓,120.576,24.22526,(04)26330893,羅氏家用新冠病毒抗原自我檢測套組,71,2022/05/10 10:35:02,營業時間12:00-22:00，每日12:00販售實名制快篩
5903050176,全國藥局,臺中市沙鹿區臺灣大道７段９９２號,120.5622,24.24074,(04)26627097,羅氏家用新冠病毒抗原自我檢測套組,77,2022/05/10 10:35:02,快篩劑每日配送時間不同，依現場到貨為主，現場排隊購買
5903080138,佑全神岡中山藥局,臺中市神岡區中山路５４９、５４９之１、５４９之２號１樓,120.6842,24.24638,(04)25634677,羅氏家用新冠病毒抗原自我檢測套組,78,2022/05/10 10:35:02,每日下午1點50分發號碼牌2點開賣
5903090116,上宇藥局,臺中市潭子區中山路２段３８１號１樓,120.7051,24.21301,(04)25321258,羅氏家用新冠病毒抗原自我檢測套組,1,2022/05/10 10:35:02,週一至週五上午9點至12點，下午三點至九點，週六，日，早上9點至12點，依序發售快篩。
5903090189,名方藥局,臺中市潭子區勝利路２８５號１樓,120.7004,24.21321,(04)25341777,羅氏家用新冠病毒抗原自我檢測套組,78,2022/05/10 10:35:02,快篩販售  （一）~（五） 下午6點    週（六）早上9點  週日不販售
5903100180,杏一大雅中清藥局,臺中市大雅區中清路四段３１、３３、３５號１樓,120.6448,24.22615,(04)25601791,羅氏家用新冠病毒抗原自我檢測套組,22,2022/05/10 10:35:02,週一~週六14:00販售（13:50發號碼牌）每人每卡限定1份500元!週日無販售!
5903100215,佑全大雅雅環藥局,臺中市大雅區雅環路二段８８號１樓,120.653,24.22634,(04)25605942,羅氏家用新冠病毒抗原自我檢測套組,78,2022/05/10 10:35:02,營業時間:09:00~21:00；實名制快篩於每日13:50發放號碼牌，14:00開始販售。
5903170119,開心果藥局,臺中市龍井區新興路１１２號１樓,120.5835,24.18225,(04)26315252,羅氏家用新冠病毒抗原自我檢測套組,73,2022/05/10 10:35:02,週一到週六: 晚上6點半開賣，週日: 下午3點開賣，現場排隊。
5903190362,太平中山藥局,臺中市太平區中山路４段１１號,120.7139,24.14931,(04)23959200,羅氏家用新冠病毒抗原自我檢測套組,78,2022/05/10 10:35:02,快篩實名制，每天16:00開始販售，售完為止。
5903190693,維肯藥局,臺中市太平區中興路７８－１號１樓,120.7163,24.12783,(04)23512198,羅氏家用新冠病毒抗原自我檢測套組,10,2022/05/10 10:35:02,實名制快篩 週一~六早上10點開始發放
5903200149,祥佑健保特約藥局,臺中市大里區中興路２段４０６號,120.6901,24.10769,(04)24866398,羅氏家用新冠病毒抗原自我檢測套組,52,2022/05/10 10:35:02,政府快篩代售時間:周一~周六早上10:30開始販售.現場排隊.售完為止（週日店休）
5903200229,信元藥局,臺中市大里區益民路２段３７２號１樓,120.684,24.11545,(04)24876051,羅氏家用新冠病毒抗原自我檢測套組,62,2022/05/10 10:35:02,下午5點發號碼牌並依序販賣
5903200587,大里安德健保藥局,臺中市大里區大明路１１７號,120.6861,24.11527,(04)24875607,羅氏家用新冠病毒抗原自我檢測套組,2,2022/05/10 10:35:02,早上9點開始發放
5903200621,德芳東榮藥局,臺中市大里區東榮路８號,120.6893,24.1102,(04)24863898,羅氏家用新冠病毒抗原自我檢測套組,2,2022/05/10 10:35:02,快篩販售時間：下午3點~6點，現場排隊，完售即停
5903200658,德芳成功藥局,臺中市大里區成功路５３５－３號１樓,120.7033,24.0913,(04)24920298,羅氏家用新冠病毒抗原自我檢測套組,80,2022/05/10 10:35:02,快篩販售時間:下午3點~6點
5903200756,佑全大里大明藥局,臺中市大里區大明路３６０、３６２號,120.6787,24.11511,(04)24818633,羅氏家用新冠病毒抗原自我檢測套組,77,2022/05/10 10:35:02,實名制快篩，開賣時間:下午14:00，售完為止
5903220150,老順安大藥局,臺中市中區中華路二段６３號、６５號１樓,120.6794,24.14801,(04)22016306,羅氏家用新冠病毒抗原自我檢測套組,50,2022/05/10 10:35:02,實名制快篩銷售時間:周一至周六下午兩點至三點
5903240170,美村全成藥局,臺中市西區美村路１段２２２號１樓,120.6615,24.14875,(04)23014006,羅氏家用新冠病毒抗原自我檢測套組,60,2022/05/10 10:35:02,5／10快篩 10:10開始販售    售完完止
5903240198,鑫祐藥局,臺中市西區民權路３０２－５號,120.67,24.14767,(04)23027778,羅氏家用新冠病毒抗原自我檢測套組,6,2022/05/10 10:35:02,實名快篩每日開賣時間以店外公告為主，1人1或2卡，週一至週六早上銷售，週日停售
5903250041,小林健保藥局,臺中市南區美村路２段１８２號,120.6631,24.12549,(04)22622099,羅氏家用新冠病毒抗原自我檢測套組,22,2022/05/10 10:35:02,固定周一到周日，早上8:00發號碼牌，下午4:30開始販賣防疫口罩
5903250505,心安藥局,臺中市南區國光路２４１號１樓,120.6794,24.12676,(04)22858773,羅氏家用新冠病毒抗原自我檢測套組,3,2022/05/10 10:35:02,每天下午三點排隊開賣，一人一卡，週日公休下次是5／9號
5903250658,田園藥局,臺中市南區學府路１６０號１樓,120.6742,24.12909,(04)22220605,羅氏家用新冠病毒抗原自我檢測套組,1,2022/05/10 10:35:02,每週三公休。每天13:30 開始販售，一人限一卡，依到貨數量販售
5903260314,喜悅健保藥局,臺中市北區健行路４１４號１樓,120.6818,24.15927,(04)22333988,羅氏家用新冠病毒抗原自我檢測套組,47,2022/05/10 10:35:02,星期一到星期五早上10點到晚上9點半，星期六中午12點到晚上6點半.
5903260421,忠明小林健保藥局,臺中市北區忠明路１６１號,120.6642,24.16235,(04)22013666,羅氏家用新冠病毒抗原自我檢測套組,18,2022/05/10 10:35:02,每日早上8點發號碼牌及收健保卡，下午4點半領回
5903260449,喜樂藥局,臺中市北區中清路１段３１號,120.677,24.1529,(04)22060423,羅氏家用新冠病毒抗原自我檢測套組,42,2022/05/10 10:35:02,快篩實名制，每日早上9:30開始販售，售完為止。
5903260618,中清小林健保藥局,臺中市北區中清路一段８６、８８號１樓,120.6767,24.15622,(04)22034197,羅氏家用新冠病毒抗原自我檢測套組,58,2022/05/10 10:35:02,24小時營業無公休，早上八點發號碼牌，十二點以後過健保卡發放口罩.
5903260896,中清丁丁藥局,臺中市北區中清路一段５３１號１樓,120.6728,24.1678,(04)22919866,羅氏家用新冠病毒抗原自我檢測套組,16,2022/05/10 10:35:02,快篩實名制到貨後開始販售  facebook公告 賣完為止
5903260949,進化瑞昌藥局,臺中市北區進化路３３２號１樓,120.6946,24.15378,(04)23608199,羅氏家用新冠病毒抗原自我檢測套組,37,2022/05/10 10:35:02,上午10:00開賣，9:45發號碼牌，須在現場排隊過號即棄權，請依現場指示排隊謝謝
5903270105,樂得好大藥局,臺中市西屯區上石路２號１樓,120.644,24.16669,(04)24521173,羅氏家用新冠病毒抗原自我檢測套組,3,2022/05/10 10:35:02,試劑09:00販賣（依到貨狀況滾動式調整）
5903270365,麒霖藥局,臺中市西屯區福順路３０７號１樓,120.6185,24.1832,(04)24638978,羅氏家用新冠病毒抗原自我檢測套組,16,2022/05/10 10:35:02,販售健保快篩時間：週一至週六10:00開始至售完、週日公休。
5903270392,瑞德大藥局,臺中市西屯區中清西二街８４號,120.6671,24.17511,(04)22939820,羅氏家用新冠病毒抗原自我檢測套組,12,2022/05/10 10:35:02,固定周一至周日早上9:00開始販售口罩.售完為止
5903270721,舒健藥局,臺中市西屯區西屯路二段２５５號２樓,120.6459,24.17179,(04)27077858,羅氏家用新冠病毒抗原自我檢測套組,76,2022/05/10 10:35:02,公費快篩試劑於周一至周六晚上7點現場排隊購買，週日公休。
5903270847,分子藥局,臺中市西屯區惠來路二段２３６－１號,120.6421,24.16318,(04)22513080,羅氏家用新冠病毒抗原自我檢測套組,58,2022/05/10 10:35:02,發放時間週一至週日早上10點起售完為止
5903270892,杏林堂藥局,臺中市西屯區黎明路三段１４８號１樓,120.6376,24.17729,(04)24528967,羅氏家用新冠病毒抗原自我檢測套組,78,2022/05/10 10:35:02,週一至週六11:00販售 週日08:30販售
5903270927,河南小林健保藥局,臺中市西屯區河南路二段２９８號１樓,120.6485,24.17477,(04)24512830,羅氏家用新冠病毒抗原自我檢測套組,44,2022/05/10 10:35:02,固定每日早上8點發放口罩號碼牌，下午4點半開始販售。
5903271031,美十樂中科藥局,臺中市西屯區西屯路三段１６６－６５號１樓,120.6129,24.19035,(04)24610219,羅氏家用新冠病毒抗原自我檢測套組,468,2022/05/10 10:35:02,醫事人員卡片損壞，暫時無法販賣快篩
5903271175,維康中榮藥局,臺中市西屯區東大路一段１３號１樓,120.6022,24.18315,(04)23593195,羅氏家用新冠病毒抗原自我檢測套組,3,2022/05/10 10:35:02,無
5903271246,柏醫藥局,臺中市西屯區上安路５６號１樓,120.6412,24.17052,(04)24526391,羅氏家用新冠病毒抗原自我檢測套組,78,2022/05/10 10:35:02,因應到貨時間不定，統一晚上7點開放78組（5／10已到貨 09:46）
5903271282,禾安藥局,臺中市西屯區西屯路二段１２６之８號,120.6518,24.16682,(04)23176162,羅氏家用新冠病毒抗原自我檢測套組,33,2022/05/10 10:35:02,無
5903280898,佑全台中忠勇藥局,臺中市南屯區忠勇路５１－８號１樓,120.614,24.14376,(04)23803282,羅氏家用新冠病毒抗原自我檢測套組,77,2022/05/10 10:35:02,每週一到週六實名制快篩販售14:00（限量78份） 售完為止
5903290045,康美得藥局,臺中市北屯區昌平路１段１０５－８號,120.6903,24.17373,(04)22467128,羅氏家用新冠病毒抗原自我檢測套組,1,2022/05/10 10:35:02,早上9:30開始。W日早上10點販售。快篩使用方法請上（康美得藥局）官方臉書。有血氧機現貨。平面醫療口罩100元。
5903290385,元復藥局,臺中市北屯區東山路１段２２５－７號,120.7155,24.17475,(04)24362075,羅氏家用新冠病毒抗原自我檢測套組,20,2022/05/10 10:35:02,上午7:20-7:40及8:30起發號碼牌。
5903290394,億銓藥局,臺中市北屯區北屯路２１０－１號,120.6961,24.16756,(04)22313670,羅氏家用新冠病毒抗原自我檢測套組,78,2022/05/10 10:35:02,快篩實名制週一~週五下午1：00開賣、週六上午11：00開賣，週日公休。
5903290661,康博中西健保藥局,臺中市北屯區后庄一街７號１樓,120.6644,24.1865,(04)24252468,羅氏家用新冠病毒抗原自我檢測套組,2,2022/05/10 10:35:02,快篩下午01:00發售53份；晚上06:00銷售25份.週六.日及假日下午06:30開始依配送滾動調整
5903290830,齊方藥局,臺中市北屯區四平路３９號,120.6708,24.17885,(04)22912192,羅氏家用新冠病毒抗原自我檢測套組,10,2022/05/10 10:35:02,5／7（星期六）下午4:00開賣，5／9（星期一）早上9:00開賣
5903290947,德寶健保藥局,臺中市北屯區熱河路一段７０號１樓,120.687,24.1674,(04)22325511,羅氏家用新冠病毒抗原自我檢測套組,35,2022/05/10 10:35:02,快篩試劑九點開始銷售賣完為止
5903291042,全成北屯藥局,臺中市北屯區北屯路４３９－１１號１樓,120.7004,24.17913,(04)22463518,羅氏家用新冠病毒抗原自我檢測套組,75,2022/05/10 10:35:02,快篩每日下午3:00開始販售
5903291060,大樹北屯藥局,臺中市北屯區松竹路二段４１１號１樓,120.6895,24.18192,(04)22422262,羅氏家用新冠病毒抗原自我檢測套組,78,2022/05/10 10:35:02,快篩實名制，每天16:00開始販售，售完為止。
5903291079,富丘藥局,臺中市北屯區興安路二段７７號１樓,120.6947,24.17686,(04)22477301,羅氏家用新冠病毒抗原自我檢測套組,1,2022/05/10 10:35:02,實名制快篩試劑早上08:30販售
5903291248,潔西卡大藥局,臺中市北屯區崇德路二段３１４號１樓,120.686,24.1765,(04)22416879,羅氏家用新冠病毒抗原自我檢測套組,19,2022/05/10 10:35:02,無
5903291275,康是美藥局東山店,臺中市北屯區東山路一段３２０號１樓、和福路２５８號１樓,120.7229,24.17591,(04)24364571,羅氏家用新冠病毒抗原自我檢測套組,23,2022/05/10 10:35:02,無
5905010125,宏泰大藥局,臺南市新營區新東里東興８街２７號,120.3273,23.3189,(06)6327801,羅氏家用新冠病毒抗原自我檢測套組,22,2022/05/10 10:35:02,營業時間至21:00
5905010250,大樹新營藥局,臺南市新營區民權路７４、７６、７８號１樓,120.3127,23.30615,(06)6328300,羅氏家用新冠病毒抗原自我檢測套組,78,2022/05/10 10:35:02,快篩實名制，每天16:00開始販售，售完為止。
5905010330,新進啄木鳥藥局,臺南市新營區新進路２段２５４號１樓,120.3056,23.30074,(06)6565303,羅氏家用新冠病毒抗原自我檢測套組,34,2022/05/10 10:35:02,自5／7起每日上午10:00開賣，售完為止..
5905020023,大樹鹽水藥局,臺南市鹽水區朝琴路１２６－３號１樓,120.271,23.32228,(06)6520432,羅氏家用新冠病毒抗原自我檢測套組,78,2022/05/10 10:35:02,快篩實名制，每天16:00開始販售，售完為止。
5905030092,大樹白河藥局,臺南市白河區中山路１５３號１樓,120.417,23.35255,(06)6830006,羅氏家用新冠病毒抗原自我檢測套組,78,2022/05/10 10:35:02,快篩實名制，每天16:00開始販售，售完為止。
5905040141,大樹麻豆藥局,臺南市麻豆區中山路４８、５０號１樓,120.2469,23.18382,(06)5716556,羅氏家用新冠病毒抗原自我檢測套組,78,2022/05/10 10:35:02,快篩實名制，每天16:00開始販售，售完為止。
5905060054,全家康藥師藥局,臺南市新化區北勢里中正路１２０７號,120.2968,23.05935,(06)5980866,羅氏家用新冠病毒抗原自我檢測套組,20,2022/05/10 10:35:02,週一~週日早上10:00開始賣實名制快篩，售完為止
5905060198,大樹新化藥局,臺南市新化區中正路５３１號１樓,120.3072,23.03764,(06)5901331,羅氏家用新冠病毒抗原自我檢測套組,78,2022/05/10 10:35:02,快篩實名制，每天16:00開始販售，售完為止。
5905080056,大樹學甲藥局,臺南市學甲區中正路１３５號１樓,120.1793,23.23029,(06)7820001,羅氏家用新冠病毒抗原自我檢測套組,78,2022/05/10 10:35:02,快篩實名制，每天16:00開始販售，售完為止。
5905100035,華恩藥局,臺南市後壁區菁寮里５１號１樓,120.3356,23.37883,(06)6623491,羅氏家用新冠病毒抗原自我檢測套組,3,2022/05/10 10:35:02,快篩08:00發號牌09:00開賣售完為止    星期日停售
5905140039,安安藥局隆田店,臺南市官田區中山路一段１５號１樓,120.3186,23.1927,(06)5795705,羅氏家用新冠病毒抗原自我檢測套組,72,2022/05/10 10:35:02,全日口罩販賣
5905210027,愛心藥師藥局,臺南市安定區港南里港口１４７號,120.233,23.09041,(06)5935104,羅氏家用新冠病毒抗原自我檢測套組,23,2022/05/10 10:35:02,春節營業時間請電洽或依現場公告
5905280092,元康保健藥局,臺南市歸仁區中山路二段２２９號,120.2888,22.96721,(06)2309055,羅氏家用新冠病毒抗原自我檢測套組,15,2022/05/10 10:35:02,快篩販售時間星期一至五下午1點開始至售完.星期六不販售.星期日早上9點半販售（不分單雙）
5905290034,大樹關廟藥局,臺南市關廟區中央路２６３號１樓,120.3272,22.96109,(06)5965889,羅氏家用新冠病毒抗原自我檢測套組,78,2022/05/10 10:35:02,快篩實名制，每天16:00開始販售，售完為止。
5905310326,美德生醫藥局,臺南市永康區復國一路４９６號１樓,120.245,23.01514,(06)2030463,羅氏家用新冠病毒抗原自我檢測套組,70,2022/05/10 10:35:02,快篩販售時間：星期一~星期日 10:30~至售完
5905311083,心康藥局,臺南市永康區永大路二段１７９號１樓,120.2616,23.00665,(06)2055075,羅氏家用新冠病毒抗原自我檢測套組,36,2022/05/10 10:35:02,實名制快篩販售時間:周一至週五下午1點至3點，售完為止，讓領藥患者優先領藥，每人限購一份；周六周日不販售
5905320331,高福藥局,臺南市東區大智里德東街１６８號,120.2322,22.96171,(06)2904668,羅氏家用新冠病毒抗原自我檢測套組,10,2022/05/10 10:35:02,禮拜一至六**早上10點**開始販售實名制快篩試劑
5905320653,東門台安藥局,臺南市東區中華東路三段２號１樓,120.2291,22.98105,(06)2904377,羅氏家用新冠病毒抗原自我檢測套組,30,2022/05/10 10:35:02,國定假日不開放領口罩
5905330284,大樹佳華藥局,臺南市南區金華路二段１２９號１樓,120.1911,22.98035,(06)2641238,羅氏家用新冠病毒抗原自我檢測套組,78,2022/05/10 10:35:02,快篩實名制，每天16:00開始販售，售完為止。
5905330417,明興啄木鳥藥局,臺南市南區明興路５１號１樓,120.1883,22.95974,(06)2620793,羅氏家用新冠病毒抗原自我檢測套組,26,2022/05/10 10:35:02,每日10:00開始賣實名制快篩，若配送延遲則14:30開始。
5905340075,麗欣健保藥局,臺南市中西區永華路一段１９４號１樓,120.1917,22.98835,(06)2209393,羅氏家用新冠病毒抗原自我檢測套組,74,2022/05/10 10:35:02,w1~w6早上11:00開始發放快篩
5905350151,公園台安藥局,臺南市北區公園路８４０號,120.2121,23.01331,(06)2518402,羅氏家用新冠病毒抗原自我檢測套組,62,2022/05/10 10:35:02,實名制快篩每日上午10:30販售（依快篩配送時間可能延後）。
5905370466,大樹北安藥局,臺南市安南區北安路三段１５８號１樓,120.2036,23.04256,(06)2553633,羅氏家用新冠病毒抗原自我檢測套組,78,2022/05/10 10:35:02,快篩實名制，每天16:00開始販售，售完為止。
5905380300,新高橋藥局台南永華店,臺南市安平區華平路２７９號１樓,120.1748,22.99031,(06)2992362,羅氏家用新冠病毒抗原自我檢測套組,18,2022/05/10 10:35:02,若有到貨早上九點五十分發放號碼牌十點開始販售
5907010276,愛家社區藥局,高雄市鳳山區福德街１４１號,120.3267,22.59042,(07)8123698,羅氏家用新冠病毒抗原自我檢測套組,16,2022/05/10 10:35:02,星期一~星期日早上9:30開始販售快篩，現場發號碼牌，售完為止，領到號碼牌請勿離開，早上10:00後未領取者視同放棄
5907010454,上泰健保藥局,高雄市鳳山區鎮西里中華街２７號１樓,120.3559,22.62698,(07)7455127,羅氏家用新冠病毒抗原自我檢測套組,20,2022/05/10 10:35:02,5／7 配售之快篩目前0950開始販售。售完為止...1200~~1900店休
5907010927,元元鳳山藥局,高雄市鳳山區一甲里五甲二路３４８之１號１樓,120.3377,22.59955,(07)7529595,羅氏家用新冠病毒抗原自我檢測套組,6,2022/05/10 10:35:02,現場排隊，自備500元不找零!一至五下午3-6點。星期六下午2-5點。星期日公休
5907011040,伊甸藥師藥局文化店,高雄市鳳山區文福里文化西路１１號１樓,120.3494,22.63475,(07)7776002,羅氏家用新冠病毒抗原自我檢測套組,49,2022/05/10 10:35:02,實名制快篩販售時間早上10:30起售完為止。請現場排隊。
5907011148,大樹國泰藥局,高雄市鳳山區興仁里五甲一路２９２號,120.3539,22.61698,(07)7407234,羅氏家用新冠病毒抗原自我檢測套組,78,2022/05/10 10:35:02,快篩實名制，每天16:00開始販售，售完為止。
5907011193,新高橋藥局新富店,高雄市鳳山區新泰里新富路４２８號１樓,120.3451,22.61288,(07)9630233,羅氏家用新冠病毒抗原自我檢測套組,25,2022/05/10 10:35:02,早上10:00開始販售口罩
5907020085,大德藥局,高雄市岡山區大德一路９８號,120.3025,22.79689,(07)6221456,羅氏家用新冠病毒抗原自我檢測套組,78,2022/05/10 10:35:02,快篩實名制，每天16:00開始販售，售完為止。
5907080214,新高橋藥局八德中店,高雄市仁武區八卦里八德中路８６、８８、９０號,120.3393,22.68489,(07)3485857,羅氏家用新冠病毒抗原自我檢測套組,12,2022/05/10 10:35:02,藥局電話 07-3736437
5907080223,新高橋藥局仁雄店,高雄市仁武區赤山里仁雄路８９－３號,120.3457,22.67722,(07)3485857,羅氏家用新冠病毒抗原自我檢測套組,10,2022/05/10 10:35:02,藥局電話07-3743243
5907080250,仁同藥局,高雄市仁武區八卦里永仁街７０６號１樓,120.3313,22.69072,(07)3736142,羅氏家用新冠病毒抗原自我檢測套組,156,2022/05/10 10:35:02,自5月01日~5月31日，營業日8:00起開始販售，當場刷卡領口罩
5907090121,新高橋藥局大社店,高雄市大社區中山路２７７號１樓,120.3496,22.73189,(07)3520061,羅氏家用新冠病毒抗原自我檢測套組,10,2022/05/10 10:35:02,早上9:50發號碼牌 10:00開始販售
5907090167,大樹大社藥局,高雄市大社區中山路３０８號１樓,120.3503,22.73145,(07)3531682,羅氏家用新冠病毒抗原自我檢測套組,78,2022/05/10 10:35:02,快篩實名制，每天16:00開始販售，售完為止。
5907160093,保生藥局,高雄市湖內區葉厝里保生路３４０．３４２號,120.2195,22.90733,(07)6990800,羅氏家用新冠病毒抗原自我檢測套組,1,2022/05/10 10:35:02,快篩實名制，每天16:00開始販售，售完為止。
5907290158,美館久億藥局,高雄市鼓山區美術東二路２４５、２４７號,120.2883,22.66526,(07)5227762,羅氏家用新冠病毒抗原自我檢測套組,1,2022/05/10 10:35:02,星期一至星期天快篩發放，以物流實際到貨時間開始發放，請持續注意快篩地圖
5907290327,金好藥局,高雄市鼓山區青海路４１８號１樓,120.2845,22.65177,(07)5869556,羅氏家用新冠病毒抗原自我檢測套組,9,2022/05/10 10:35:02,無
5907290354,文昇藥局,高雄市鼓山區慶豐街１２５號,120.2942,22.66724,(07)5525314,羅氏家用新冠病毒抗原自我檢測套組,62,2022/05/10 10:35:02,無
5907300024,重愛藥局,高雄市左營區文自路９３０號１樓,120.3161,22.68547,(07)3501870,羅氏家用新冠病毒抗原自我檢測套組,25,2022/05/10 10:35:02,下午2:30開始販售口罩
5907300168,金元藥局,高雄市左營區重愛路２２０號,120.3156,22.68562,(07)3458378,羅氏家用新冠病毒抗原自我檢測套組,6,2022/05/10 10:35:02,快篩試劑郵差配送，約10點至11點左右會送到藥局，即開始販售，星期四，六營業時間至中午12點
5907300506,躍獅祐恩藥局,高雄市左營區明華一路１３２號１樓,120.3073,22.66307,(07)5508706,羅氏家用新冠病毒抗原自我檢測套組,56,2022/05/10 10:35:02,到貨時間不固定，到貨會FB通知並立即販售，售完為止~
5907300588,明禾藥局,高雄市左營區華夏路１７３２號１樓,120.3204,22.68777,(07)3493734,羅氏家用新冠病毒抗原自我檢測套組,27,2022/05/10 10:35:02,快篩販賣時間早上10點開始
5907300800,元大藥師健保藥局,高雄市左營區榮德街３２７號,120.3211,22.68636,(07)3507531,羅氏家用新冠病毒抗原自我檢測套組,38,2022/05/10 10:35:02,無
5907300819,志全藥局,高雄市左營區富國路１６８號１樓,120.3068,22.66075,(07)5568217,羅氏家用新冠病毒抗原自我檢測套組,26,2022/05/10 10:35:02,藥局販售口罩時間，依藥局門口公告時間為主（售完為止）
5907310262,大樹楠梓藥局,高雄市楠梓區軍校路９０８號,120.2919,22.71246,(07)3632322,羅氏家用新冠病毒抗原自我檢測套組,78,2022/05/10 10:35:02,快篩實名制，每天16:00開始販售，售完為止。
5907310388,宸實藥局,高雄市楠梓區後昌路４７巷２３－１號,120.3129,22.71975,(07)3642142,羅氏家用新冠病毒抗原自我檢測套組,72,2022/05/10 10:35:02,W1星期一 ~ W5星期五（10:30開賣）。W6星期六（9:00開賣）賣完為止!
5907310404,藍田藥局,高雄市楠梓區藍田路１號,120.2953,22.72643,(07)3601236,羅氏家用新冠病毒抗原自我檢測套組,78,2022/05/10 10:35:02,快篩實名制，每天16:00開始販售，售完為止。
5907320428,東京藥局,高雄市三民區建工路６８５號,120.3173,22.6478,(07)3874567,羅氏家用新冠病毒抗原自我檢測套組,78,2022/05/10 10:35:02,實名制快篩販售時間: 每日15:00-晚上20:00
5907320633,勁康健保藥局,高雄市三民區義華路４０２號１樓,120.3331,22.64371,(07)3966716,羅氏家用新冠病毒抗原自我檢測套組,30,2022/05/10 10:35:02,如為當日配量快篩實名制配貨到即可販售，若前一日就到貨，則早上10點開始
5907320651,未來照護藥局,高雄市三民區鼎瑞街１０８號１樓,120.3154,22.66606,(07)3105356,羅氏家用新冠病毒抗原自我檢測套組,55,2022/05/10 10:35:02,實名制快篩發放規則: 周一至周六AM10:00發號碼牌，下午14:00~21:30為領取快篩時間  每 周日為公休日
5907320697,鄰好藥師藥局,高雄市三民區褒揚街２８７號,120.3398,22.64097,(07)3909589,羅氏家用新冠病毒抗原自我檢測套組,78,2022/05/10 10:35:02,購買實名制快篩時間下午14:00-16:00，各類防疫用品販售中
5907320768,心樂保健藥局,高雄市三民區光裕路７８號１樓,120.3331,22.63789,(07)3855377,羅氏家用新冠病毒抗原自我檢測套組,125,2022/05/10 10:35:02,星期一到星期四上午8:30-12:00（快篩售完為止）. 星期五下午14:00-17:00（售完為止）
5907320893,大樹天祥藥局,高雄市三民區天祥一路１６７號,120.3191,22.66737,(07)3429902,羅氏家用新冠病毒抗原自我檢測套組,78,2022/05/10 10:35:02,快篩實名制，每天16:00開始販售，售完為止。
5907321005,諾亞藥局,高雄市三民區鼎華路１４號１樓,120.3164,22.65139,(07)3929966,羅氏家用新冠病毒抗原自我檢測套組,17,2022/05/10 10:35:02,快篩早上10:00開始，營業時間:（一-五）早上8:00-12:00，下午02:30-6:00（五-下午5:30休息，六-開上午半天，日-休息）
5907321041,鼎安健保藥局,高雄市三民區鼎中路４１８號１樓,120.3199,22.66719,(07)3509939,羅氏家用新冠病毒抗原自我檢測套組,33,2022/05/10 10:35:02,無
5907321069,桂林活力藥局九如店,高雄市三民區懷安街１１２號１樓,120.3176,22.64095,(07)3981009,羅氏家用新冠病毒抗原自我檢測套組,78,2022/05/10 10:35:02,每天15:30發號碼牌，於18:00前兌換完畢，逾期棄權，剩餘則繼續發放
5907321103,自由藥局,高雄市三民區自由一路７８號,120.3089,22.64422,(07)3223113,羅氏家用新冠病毒抗原自我檢測套組,78,2022/05/10 10:35:02,快篩實名制，每天16:00開始販售，售完為止。
5907330219,美麗島台安藥局,高雄市新興區中山一路１１５號地下２樓（轉換層）,120.3015,22.63155,(07)2365490,羅氏家用新冠病毒抗原自我檢測套組,17,2022/05/10 10:35:02,位於美麗島捷運站內，往西子灣方向地下二樓。販賣時間依現場公告為主，可來電詢問。
5907340046,銘益藥局,高雄市前金區七賢二路２０８、２１０號１樓,120.2951,22.63314,(07)2853107,羅氏家用新冠病毒抗原自我檢測套組,20,2022/05/10 10:35:02,無
5907350220,仁愛藥師藥局,高雄市苓雅區中正一路２３０號,120.3296,22.62921,(07)7222300,羅氏家用新冠病毒抗原自我檢測套組,64,2022/05/10 10:35:02,快篩一到五10:00發號碼牌，紅字假日12:00發號碼牌。於3小時之後取快篩
5907350480,健森藥局,高雄市苓雅區林森二路１３８號１、２樓,120.3066,22.62054,(07)3365169,羅氏家用新冠病毒抗原自我檢測套組,76,2022/05/10 10:35:02,早上9點領牌 下午3~5點領口罩
5907350560,成功合豐藥局,高雄市苓雅區成功一路１７０號１樓,120.2972,22.61595,(07)2695657,羅氏家用新冠病毒抗原自我檢測套組,1,2022/05/10 10:35:02,早上9點開始賣口罩~晚上9點   售完為止
5907350631,三多藥局,高雄市苓雅區三多二路２９２號１樓,120.3173,22.61838,(07)3365889,羅氏家用新冠病毒抗原自我檢測套組,78,2022/05/10 10:35:02,快篩實名制，每天16:00開始販售，售完為止。
5907360520,大樹瑞福藥局,高雄市前鎮區瑞隆路１７０號１樓、２樓,120.3357,22.60598,(07)7271170,羅氏家用新冠病毒抗原自我檢測套組,78,2022/05/10 10:35:02,快篩實名制，每天16:00開始販售，售完為止。
5907360664,忠純藥局,高雄市前鎮區中華五路１００９號１樓,120.3056,22.60341,(07)3366886,羅氏家用新冠病毒抗原自我檢測套組,78,2022/05/10 10:35:02,快篩實名制，每天16:00開始販售，售完為止。
5907380175,新朋友藥師藥局小港店,高雄市小港區漢民路２５４號,120.3531,22.56653,(07)8065361,羅氏家用新冠病毒抗原自我檢測套組,78,2022/05/10 10:35:02,每週六公休
5907380255,安安藥師藥局,高雄市小港區孔鳳路５６５號１樓,120.3586,22.58393,(07)7915933,羅氏家用新冠病毒抗原自我檢測套組,78,2022/05/10 10:35:02,快篩實名制周一至周六下午14:00開始販售，售完為止
5907380317,朋盛藥局,高雄市小港區大鵬路１４２號,120.3586,22.56906,(07)8017288,羅氏家用新冠病毒抗原自我檢測套組,3,2022/05/10 10:35:02,健保快篩販售時間為星期一至星期六早上8點半
5911011469,維元社區藥局,基隆市中正區新豐街４４８號,121.7859,25.13568,(02)24601388,羅氏家用新冠病毒抗原自我檢測套組,42,2022/05/10 10:35:02,無
5911011638,中正藥局,基隆市中正區新豐街３８５號１、２樓,121.7856,25.13537,(02)24690660,羅氏家用新冠病毒抗原自我檢測套組,78,2022/05/10 10:35:02,快篩實名制，每天16:00開始販售，售完為止。
5911021438,正心藥局,基隆市七堵區南興路１０號１樓,121.7149,25.09755,(02)24563378,羅氏家用新冠病毒抗原自我檢測套組,1,2022/05/10 10:35:02,每日限量78盒， 星期一~六下午13:30發號碼牌，14:00開始販賣，星期日上午9:00發號碼牌，9:30開始販賣，12:00停止領取
5911041350,何房藥局,基隆市仁愛區忠三路８１號,121.7389,25.12931,(02)24222978,羅氏家用新冠病毒抗原自我檢測套組,1,2022/05/10 10:35:02,無
5911051409,順豐藥局,基隆市中山區中華路４號,121.7388,25.14545,(02)24369176,羅氏家用新冠病毒抗原自我檢測套組,78,2022/05/10 10:35:02,家用快篩每日下午2點起隨到隨領售完為止。
5911060088,宏仁藥局,基隆市安樂區安樂路２段１３０號,121.724,25.12159,(02)24321739,羅氏家用新冠病毒抗原自我檢測套組,2,2022/05/10 10:35:02,快篩 一到六 早上9點開始
5912012120,仁美藥局,新竹市東區振興里振興路５２號,120.9625,24.79493,(03)5625398,羅氏家用新冠病毒抗原自我檢測套組,78,2022/05/10 10:35:02,週一~週六晚上六點販售（週日店休），下雨天，就提早販售!
5912012353,康田大藥局,新竹市東區金山街１０２號１樓,121.0238,24.77687,(03)5638217,羅氏家用新冠病毒抗原自我檢測套組,25,2022/05/10 10:35:02,週一-六 AM10點販售快篩 週日休息沒賣
5912013412,牛津藥局,新竹市東區民族路６２號１樓,120.9756,24.8067,(03)5320780,羅氏家用新冠病毒抗原自我檢測套組,1,2022/05/10 10:35:02,5／9（一）快篩  於早上8:00開始販售。5／10，5／11於9:00開賣。
5912013529,新莊藥局,新竹市東區光復路１段４７３號１樓,121.015,24.78421,(03)5634775,羅氏家用新冠病毒抗原自我檢測套組,156,2022/05/10 10:35:02,週日早上7點
5912013592,康妍藥局,新竹市東區西大路１２６號１樓,120.9703,24.79667,(03)5622476,羅氏家用新冠病毒抗原自我檢測套組,9,2022/05/10 10:35:02,無
5912013609,丁丁藥局,新竹市東區中華路二段９１號,120.9812,24.80794,(03)6117888,羅氏家用新冠病毒抗原自我檢測套組,1,2022/05/10 10:35:02,無
5912013654,七二八藥局,新竹市東區明湖路１２４５號１樓,120.979,24.76774,(03)5200530,羅氏家用新冠病毒抗原自我檢測套組,1,2022/05/10 10:35:02,5／9政府快篩，已經售完。5／10政府快篩，12:30開始販售。
5912013672,關東藥局,新竹市東區光復路１段３３２、３３４號１至２樓,121.0187,24.78289,(03)5777077,羅氏家用新冠病毒抗原自我檢測套組,78,2022/05/10 10:35:02,快篩實名制，每天16:00開始販售，售完為止。
5912042098,欣欣藥局,新竹市北區西大路736巷1號,120.9591,24.81011,(03)5351205,羅氏家用新冠病毒抗原自我檢測套組,1,2022/05/10 10:35:02,快篩代售周一~周六下午3點開始販售，售完為止  藥局營業時間上午8:00-12:00 ；下午15:00-18:00 ；晚上18:30-21:30
5912042235,均祐健康藥局,新竹市北區境福里１５鄰中正路３８９號１樓,120.961,24.81546,(03)5325369,羅氏家用新冠病毒抗原自我檢測套組,8,2022/05/10 10:35:02,口罩販售時間：09:00
5912042940,新竹北門藥局,新竹市北區中正路３６０、３６２號１樓,120.9629,24.81414,(03)5333234,羅氏家用新冠病毒抗原自我檢測套組,1,2022/05/10 10:35:02,快篩實名制，每天16:00開始販售，售完為止。
5912051350,高晟藥師藥局,新竹市香山區大庄路59號,120.9279,24.78964,(03)5306645,羅氏家用新冠病毒抗原自我檢測套組,78,2022/05/10 10:35:02,下午2點銷售快篩
5917010082,仁壽藥局,臺中市中區東墩里三民路三段１號,120.6817,24.14482,(04)22228058,羅氏家用新冠病毒抗原自我檢測套組,11,2022/05/10 10:35:02,週一至週日上午9時30分起販售快篩劑
5917011945,正三吉藥局,臺中市中區臺灣大道一段９５號,120.6831,24.13911,(04)22207700,羅氏家用新冠病毒抗原自我檢測套組,77,2022/05/10 10:35:02,快篩販售時間 14:00~17:00
5917021718,中大藥局,臺中市東區十甲路５０５號,120.7109,24.14466,(04)22131348,羅氏家用新冠病毒抗原自我檢測套組,9,2022/05/10 10:35:02,無
5917030066,立安藥局,臺中市西區土庫里忠明南路３４８號,120.6576,24.14276,(04)23719125,羅氏家用新冠病毒抗原自我檢測套組,8,2022/05/10 10:35:02,每天09:00開始依排隊先後序開始發放號碼牌並配售口罩，售完為止。
5917030128,太信藥局,臺中市西區三民路一段９５－１號１樓,120.6698,24.13322,(04)23718318,羅氏家用新冠病毒抗原自我檢測套組,12,2022/05/10 10:35:02,健保卡快篩請0900自備500元／份
5917030520,林西藥局,臺中市西區向上路一段４６－１號,120.6661,24.14688,(04)23014023,羅氏家用新冠病毒抗原自我檢測套組,14,2022/05/10 10:35:02,每日早上9點開始依序當場領口罩，售完為止。
5917030600,永昇藥局,臺中市西區東昇里朝陽街４５號,120.6701,24.13522,(04)23717280,羅氏家用新冠病毒抗原自我檢測套組,5,2022/05/10 10:35:02,九時開賣快篩   周日休息
5917030646,華隆藥局,臺中市西區樂群街６之２號,120.6735,24.14025,(04)22243785,羅氏家用新冠病毒抗原自我檢測套組,22,2022/05/10 10:35:02,上午09:00開始販售快篩試劑，售完為止
5917030726,元泉藥局,臺中市西區公益里中美街２５７號,120.6601,24.14874,(04)23015503,羅氏家用新冠病毒抗原自我檢測套組,12,2022/05/10 10:35:02,固定週一至週六早上8:30開始販售口罩.售完為止
5917030860,振聲藥局,臺中市西區公正里向上路１段４４７號１樓,120.6541,24.14654,(04)24721100,羅氏家用新冠病毒抗原自我檢測套組,2,2022/05/10 10:35:02,週一至週六早上9:00開始販售口罩，售完為止
5917032220,匯康藥局,臺中市西區向上路一段二七七號一樓,120.6585,24.14651,(04)23014038,羅氏家用新冠病毒抗原自我檢測套組,16,2022/05/10 10:35:02,週一至週六早上09:30開始販售至口罩售完為止
5917032462,名亨藥局,臺中市西區五權路２９號１樓,120.6696,24.14423,(04)22201089,羅氏家用新冠病毒抗原自我檢測套組,1,2022/05/10 10:35:02,每日上午8:20至12，下午3至6時販售.周 日  . 周 六    下 午 休 息 .
5917032471,銘津藥局,臺中市西區民生路３９０號１樓,120.6611,24.14444,(04)23021314,羅氏家用新冠病毒抗原自我檢測套組,40,2022/05/10 10:35:02,每日上午10:00至13:00，下午3:00至21:00 現場排隊，星期日下午休息
5917032613,向日睽藥局,臺中市西區林森路９８－２號１樓,120.6707,24.1379,(04)23731893,羅氏家用新冠病毒抗原自我檢測套組,1,2022/05/10 10:35:02,快篩.每天早上9點開賣
5917032908,佑恩藥師藥局,臺中市西區精誠路６７號１樓,120.6553,24.15224,(04)23100058,羅氏家用新冠病毒抗原自我檢測套組,23,2022/05/10 10:35:02,實名制快篩周一到周六，早上9:00，周日下午2:10開始販賣
5917041765,荃大藥局,臺中市南區臺中路１５４號,120.6843,24.13114,(04)22858850,羅氏家用新冠病毒抗原自我檢測套組,3,2022/05/10 10:35:02,防疫快篩販售，早上09:10~10:00止...若貨運延誤，依門市公告販售時間
5917050577,東生藥局,臺中市北區永興街１１２－１號１樓,120.6825,24.16152,(04)22358880,羅氏家用新冠病毒抗原自我檢測套組,8,2022/05/10 10:35:02,周一到周六上午8:30到晚上10:00開始販售口罩，周日公休
5917050719,百鴻藥局,臺中市北區金龍里北屯路１３－１號,120.6914,24.15981,(04)22336330,羅氏家用新冠病毒抗原自我檢測套組,17,2022/05/10 10:35:02,固定周一至周五10.00--16.00 17.00--21.00開始販售口罩售完為止
5917050880,欣康藥局,臺中市北區館前路２１號,120.6657,24.15543,(04)23226837,羅氏家用新冠病毒抗原自我檢測套組,4,2022/05/10 10:35:02,週一至週六上午9時開始發放號碼牌，週日上午10時開始發放號碼牌。
5917051449,格霖大藥局,臺中市北區山西路二段７０號１樓,120.6758,24.1689,(04)22925076,羅氏家用新冠病毒抗原自我檢測套組,43,2022/05/10 10:35:02,早上10點-晚上9點
5917053514,學士藥局,臺中市北區學士路１３號之１樓,120.6823,24.15372,(04)22015008,羅氏家用新冠病毒抗原自我檢測套組,31,2022/05/10 10:35:02,固定周一到周日，早上09:50開始發放號碼牌及販賣快篩
5917053550,嘉樂藥局,臺中市北區西屯路一段３５１－７號,120.6658,24.15956,(04)23263967,羅氏家用新冠病毒抗原自我檢測套組,18,2022/05/10 10:35:02,星期一~五8.30~12.30，14.00~21.30，星期六8.30-12.30
5917060108,博新藥局,臺中市西屯區福安里中工三路２２０號,120.6153,24.17541,(04)23583412,羅氏家用新冠病毒抗原自我檢測套組,59,2022/05/10 10:35:02,星期一至六 下午2:30分 開始販賣快篩劑  無號碼牌 星期日休營
5917060359,明達藥局,臺中市西屯區何厝里青海路一段１７號,120.6564,24.16345,(04)23137079,羅氏家用新冠病毒抗原自我檢測套組,1,2022/05/10 10:35:02,固定周一至周六9:30開始販售口罩
5917062406,健康藥局,臺中市西屯區何南里大墩１９街２６號１樓,120.6568,24.15693,(04)23190305,羅氏家用新冠病毒抗原自我檢測套組,3,2022/05/10 10:35:02,原則上W1-W6 10:00開始販售快篩（視排隊狀況提前），星期日休息
5917062620,東亞藥師藥局,臺中市西屯區河南路２段３５０號１樓,120.6472,24.17387,(04)27022702,羅氏家用新冠病毒抗原自我檢測套組,13,2022/05/10 10:35:02,實名快篩每日早上9:30販賣
5917063725,永旭大藥局,臺中市西屯區逢甲路９２號１樓,120.6439,24.17883,(04)27087952,羅氏家用新冠病毒抗原自我檢測套組,55,2022/05/10 10:35:02,5／6起實名快篩，星期一到五早上10點開始，星期六日中午12點開始排隊販售。
5917070248,聯發藥局,臺中市南屯區溝墘里大墩路８５０號,120.6496,24.15551,(04)23262738,羅氏家用新冠病毒抗原自我檢測套組,44,2022/05/10 10:35:02,週一至周六早上十點開賣，以現場數量為主，售完為止。販售時間忙碌，恕無法接聽電話，請見諒。
5917071996,乾生大藥局,臺中市南屯區大業路９５號,120.6524,24.15336,(04)23281277,羅氏家用新冠病毒抗原自我檢測套組,1,2022/05/10 10:35:02,09:00
5917072313,大業藥局,臺中市南屯區大業路５７１號１樓,120.6361,24.15347,(04)22516715,羅氏家用新冠病毒抗原自我檢測套組,33,2022/05/10 10:35:02,週一至週六早上10點  快篩試劑開賣
5917080762,順泰大藥局,臺中市北屯區北屯村北屯路１１５號,120.6939,24.165,(04)22341477,羅氏家用新冠病毒抗原自我檢測套組,26,2022/05/10 10:35:02,周三及周日公休，其餘時間每日上午9:00開賣，不需發號碼牌
5917080780,吉英藥局,臺中市北屯區平順里昌平路一段４３４號１樓,120.6905,24.1763,(04)22448289,羅氏家用新冠病毒抗原自我檢測套組,13,2022/05/10 10:35:02,快篩實名制販賣
5917082300,蔡宗耀中西藥局,臺中市北屯區平德里河北路２段６１號,120.6831,24.16994,(04)22341880,羅氏家用新冠病毒抗原自我檢測套組,13,2022/05/10 10:35:02,早上9點30分至下午12點30分，下午3點至8點發口罩，有發號碼牌。
5917082364,慈慧藥師藥局,臺中市北屯區平田里昌平路１段１７８號１Ｆ,120.6887,24.17108,(04)22389846,羅氏家用新冠病毒抗原自我檢測套組,11,2022/05/10 10:35:02,星期一到星期日早上9點開始販售，5／6已販售完
5917083272,吉富康藥局,臺中市北屯區大連路三段９９號１樓,120.6935,24.17494,(04)22473057,羅氏家用新冠病毒抗原自我檢測套組,9,2022/05/10 10:35:02,營業時間早上9點至晚上9點，快篩早上9點開賣，中午12:30至14:00午休及清消，周日公休
5917083343,豋盛藥局,臺中市北屯區北平路三段１０７號,120.6827,24.17117,(04)22373863,羅氏家用新冠病毒抗原自我檢測套組,26,2022/05/10 10:35:02,實名制快篩販賣時間:5／10日上午10點開賣
5921010205,文成藥局,臺南市東區大學里東寧路４３號之１,120.2212,22.99217,(06)2340860,羅氏家用新冠病毒抗原自我檢測套組,48,2022/05/10 10:35:02,早上10:30至晚上10點     中午2點至3點休息
5921012049,小太陽藥局,臺南市東區東光里東平路１３號,120.2336,22.9947,(06)2099858,羅氏家用新冠病毒抗原自我檢測套組,43,2022/05/10 10:35:02,藥局營業時間為星期一至星期六10:00~21:30，星期天休息  實名制快篩試劑10:00開始販售，售完為止
5921012325,林英文藥局,臺南市東區關聖里裕農路８６６之２號,120.2392,22.98931,(06)3311252,羅氏家用新冠病毒抗原自我檢測套組,54,2022/05/10 10:35:02,隨到貨時間調整販賣
5921012870,麗生藥師藥局,臺南市東區崇德路５６５號,120.2276,22.97294,(06)3356868,羅氏家用新冠病毒抗原自我檢測套組,1,2022/05/10 10:35:02,快篩實名制販售時間14:30-16:00
5921050076,千代藥局,臺南市中西區民生路一段６０號１樓,120.2034,22.99337,(06)2256895,羅氏家用新冠病毒抗原自我檢測套組,63,2022/05/10 10:35:02,快篩試劑實名制:星期1~6下午一點至三點販售（星期日當日貨到開始販售）
5921060198,平光藥局,臺南市安南區安中路１段８２２號,120.1947,23.0437,(06)2459641,羅氏家用新冠病毒抗原自我檢測套組,62,2022/05/10 10:35:02,快篩 早上 10:30 開店起 販售 周日不賣快篩
5921060321,慈安藥局,臺南市安南區大安街５３號,120.1919,23.03148,(06)2551117,羅氏家用新冠病毒抗原自我檢測套組,1,2022/05/10 10:35:02,下午2:00
5921071226,康活藥局,臺南市安平區健康三街１８６號,120.1686,22.98883,(06)2936483,羅氏家用新冠病毒抗原自我檢測套組,4,2022/05/10 10:35:02,快篩晚上18:00開賣.
5922010263,秉榮藥局,嘉義市東區東仁里中山路１８９號,120.4553,23.48162,(05)2224320,羅氏家用新冠病毒抗原自我檢測套組,26,2022/05/10 10:35:02,周一至周日販售實名制快篩，5／9（一）起早上11:00開始販售
5922010361,壽生堂藥局,嘉義市東區府路里延平街２８０號,120.4502,23.47683,(05)2225058,羅氏家用新冠病毒抗原自我檢測套組,14,2022/05/10 10:35:02,周一至周日上午09:00起，至20:00或售鑿為止。
5922010718,安泰藥局,嘉義市東區民族路１８１號,120.4566,23.47649,(05)2294202,羅氏家用新冠病毒抗原自我檢測套組,4,2022/05/10 10:35:02,每天早上九點開始販售口罩! 售完為止
5922011966,源豪藥局,嘉義市東區光華路８２號,120.4529,23.4782,(05)2169696,羅氏家用新冠病毒抗原自我檢測套組,23,2022/05/10 10:35:02,周一至周六，售鑿為止。周日休
5922012856,民族弘安藥局,嘉義市東區朝陽里民族路１６５號,120.4571,23.47653,(05)2240101,羅氏家用新冠病毒抗原自我檢測套組,15,2022/05/10 10:35:02,周一至周日快篩到貨開始販售快篩，至售完為止.
5922012972,百佑藥局,嘉義市東區公明路８２號１樓,120.4602,23.48088,(05)2757387,羅氏家用新冠病毒抗原自我檢測套組,14,2022/05/10 10:35:02,固定周一至周六08:30開始*貨運*來才發放號碼牌並依序販售，售完為止
5922013059,杏光藥局,嘉義市東區保健街１４７號附４,120.4492,23.50036,(05)2745642,羅氏家用新冠病毒抗原自我檢測套組,6,2022/05/10 10:35:02,週一至週五 下午1:00~5:00 現場排隊，無號碼牌（ （六日及國定假日停售）
5922013102,後庄藥局,嘉義市東區吳鳳南路６４９號,120.4594,23.45511,(05)2391233,羅氏家用新冠病毒抗原自我檢測套組,78,2022/05/10 10:35:02,快篩實名制，每天16:00開始販售，售完為止。
5922013111,富善藥局,嘉義市東區新生路２３４號,120.4609,23.48419,(05)2759559,羅氏家用新冠病毒抗原自我檢測套組,60,2022/05/10 10:35:02,5／13、14休假，實名制快篩早上9:30-12:00 號碼牌領取
5922013120,大雅藥局,嘉義市東區大雅路二段４８７號,120.4714,23.47751,(05)2778237,羅氏家用新冠病毒抗原自我檢測套組,33,2022/05/10 10:35:02,有提前收到快篩就9:30營業就發 沒提前收到就依當天到貨時間發
5922013157,軍輝健康幸福藥局,嘉義市東區軍輝路１９２號,120.46,23.45571,(05)2395789,羅氏家用新冠病毒抗原自我檢測套組,65,2022/05/10 10:35:02,無
5922013175,森活中西藥局,嘉義市東區吳鳳北路２０８號一樓,120.4533,23.47931,(05)2288518,羅氏家用新冠病毒抗原自我檢測套組,79,2022/05/10 10:35:02,8:30開始發放號碼牌，12:00~14:00領取快篩
5922013193,民權藥局,嘉義市東區民權路１５５號１樓、１５７號１樓,120.4604,23.48374,(05)2775322,羅氏家用新冠病毒抗原自我檢測套組,78,2022/05/10 10:35:02,快篩實名制，每天16:00開始販售，售完為止。
5922020358,泰春藥局,嘉義市西區學圃里民生北路６６號,120.4468,23.47543,(05)2224118,羅氏家用新冠病毒抗原自我檢測套組,1,2022/05/10 10:35:02,快篩試劑販售時間：早上9點至晚上9點
5922020527,友愛藥局,嘉義市西區福全里友愛路１７０號,120.4343,23.48026,(05)2330599,羅氏家用新冠病毒抗原自我檢測套組,38,2022/05/10 10:35:02,快篩實名制早上10點開始販售
5922020563,信康藥局,嘉義市西區翠岱里仁愛路２２６號,120.443,23.46984,(05)2161680,羅氏家用新冠病毒抗原自我檢測套組,45,2022/05/10 10:35:02,快篩星期一至星期五早上10:00開賣 星期六下午14:00開賣
5922020858,大統藥局,嘉義市西區慶安里北興街１３６號,120.4421,23.48389,(05)2330230,羅氏家用新冠病毒抗原自我檢測套組,61,2022/05/10 10:35:02,5月10日預約登記已滿.有預約的民眾請於上午9:00-12:00領取
5922021006,竹圍藥局,嘉義市西區友愛路２７０、２７２號,120.4339,23.4837,(05)2811233,羅氏家用新冠病毒抗原自我檢測套組,78,2022/05/10 10:35:02,快篩實名制，每天16:00開始販售，售完為止。
5922021024,理維藥局,嘉義市西區民生南路４０９號１樓,120.4436,23.45979,(05)2831110,羅氏家用新冠病毒抗原自我檢測套組,36,2022/05/10 10:35:02,週一至週日上午10:00販售。（週一至週六有保留25份於下午5:00販售，週日無）
5922028783,勝成藥局,嘉義市西區南京路１２６巷１９號,120.4406,23.45687,(05)2360247,羅氏家用新冠病毒抗原自我檢測套組,22,2022/05/10 10:35:02,4月28日起9:30至12:00販賣快篩試劑，請於現場排隊，售完為止
5922028863,益生堂藥局,嘉義市西區杭州三街３０號,120.4446,23.46678,(05)2861415,羅氏家用新冠病毒抗原自我檢測套組,72,2022/05/10 10:35:02,平日（W一~W六）10:30
5922028881,中興中西藥局,嘉義市西區垂楊路５０１號,120.4422,23.47297,(05)2353096,羅氏家用新冠病毒抗原自我檢測套組,22,2022/05/10 10:35:02,周一至周五10點開始，周末下午5點開始，並依序販售快篩售完為止
5922028925,健安藥局,嘉義市西區民族路６２６號,120.4452,23.4757,(05)2281219,羅氏家用新冠病毒抗原自我檢測套組,1,2022/05/10 10:35:02,口罩:星期一至星期六9點-12點，15點-21點
592202A358,國豐藥局,嘉義市西區北興街２４５－２號１樓,120.4386,23.4854,(05)2318473,羅氏家用新冠病毒抗原自我檢測套組,16,2022/05/10 10:35:02,週一至週六上午10:00開始販售，無號碼牌（週六下午及例假日停售）
5931010315,優良藥局,新北市板橋區莊敬路９３號,121.4727,25.02628,(02)22550251,羅氏家用新冠病毒抗原自我檢測套組,3,2022/05/10 10:35:02,無
5931010342,宏達大藥局,新北市板橋區莒光路１７號,121.47,25.02478,(02)22572345,羅氏家用新冠病毒抗原自我檢測套組,78,2022/05/10 10:35:02,快篩 晚上20:00開始販售! 不要打電話來 問題這麼多就到現場 也不給你問
5931010726,賜您康大藥局,新北市板橋區國泰街５０號,121.4679,25.00668,(02)29513166,羅氏家用新冠病毒抗原自我檢測套組,41,2022/05/10 10:35:02,快篩配發時間，每天早上:10:00~11:00
5931010842,大福藥局,新北市板橋區三民路１段３１巷１５號,121.48,25.02326,(02)29610311,羅氏家用新冠病毒抗原自我檢測套組,32,2022/05/10 10:35:02,每週一至周六13:30開始販售實名制快篩試劑，週日無販售
5931011045,進發大藥局,新北市板橋區民治街１０１號,121.479,25.0315,(02)22528361,羅氏家用新冠病毒抗原自我檢測套組,48,2022/05/10 10:35:02,快篩08:00先收卡，排隊請不要擋到攤販，中午就可以領，開放80歲長者前天寄卡，謝謝。
5931011223,民侑藥局,新北市板橋區大觀路２段３７巷３１０號,121.45,25.00221,(02)22755938,羅氏家用新冠病毒抗原自我檢測套組,4,2022/05/10 10:35:02,快篩號碼牌發放時間為早上9點。12點前須拿號碼牌完成購買。
5931012131,中山大藥局,新北市板橋區中山路１段１０７號,121.4618,25.01025,(02)29575029,羅氏家用新冠病毒抗原自我檢測套組,8,2022/05/10 10:35:02,口罩配發時間.星期一~六早上9點開始.星期日下午1點開始
5931013389,谷全藥局,新北市板橋區裕民街４９號,121.4613,25.02851,(02)22561856,羅氏家用新冠病毒抗原自我檢測套組,24,2022/05/10 10:35:02,無
5931013692,合泰藥局,新北市板橋區忠孝路１９號１樓,121.4604,25.002,(02)29572437,羅氏家用新冠病毒抗原自我檢測套組,2,2022/05/10 10:35:02,無
5931013781,佳和藥局,新北市板橋區文化路１段３８７巷５號１樓,121.4667,25.02193,(02)22589598,羅氏家用新冠病毒抗原自我檢測套組,38,2022/05/10 10:35:02,快篩週一 至五均分早上8:30 和下午3:00販售- 週六早上售完為止. 週日休
5931014046,欣安藥局,新北市板橋區懷德街１０９號１樓,121.4786,25.03147,(02)82570296,羅氏家用新冠病毒抗原自我檢測套組,15,2022/05/10 10:35:02,目前快篩送貨時間不定，發放時間依現場公告為主。
5931014420,萬泰藥局,新北市板橋區信義路２２１之１號,121.4597,24.99145,(02)89645570,羅氏家用新冠病毒抗原自我檢測套組,78,2022/05/10 10:35:02,無
5931014555,廣益藥局,新北市板橋區自由路２１號,121.4654,25.02296,(02)22545726,羅氏家用新冠病毒抗原自我檢測套組,87,2022/05/10 10:35:02,下午3點50發號碼牌，4點開始賣
5931014831,詠濟藥局,新北市板橋區幸福路２３號,121.4618,25.02023,(02)22536951,羅氏家用新冠病毒抗原自我檢測套組,74,2022/05/10 10:35:02,無
5931015687,正康健保藥局,新北市板橋區大觀路２段６５號１樓,121.4467,25.00246,(02)22756681,羅氏家用新冠病毒抗原自我檢測套組,24,2022/05/10 10:35:02,下午13:30依現場順序開始販售快篩，快篩配送絮亂庫存不準!!
5931015972,德豐健保藥局,新北市板橋區四川路２段４７巷３弄１號１樓,121.4543,24.99479,(02)89675880,羅氏家用新冠病毒抗原自我檢測套組,1,2022/05/10 10:35:02,無
5931016504,仁泰藥局,新北市板橋區四川路２段３３號１樓,121.4543,24.99537,(02)89672133,羅氏家用新冠病毒抗原自我檢測套組,5,2022/05/10 10:35:02,無
5931016611,民川藥局,新北市板橋區四川路１段９７號１樓,121.4598,25.00544,(02)29520090,羅氏家用新冠病毒抗原自我檢測套組,40,2022/05/10 10:35:02,星期一~星期六（快篩上午9:00販售38份下午3:00販售40份）
5931016808,正安健保藥局,新北市板橋區民族路２２４號（１樓）,121.4687,25.00733,(02)29526813,羅氏家用新冠病毒抗原自我檢測套組,76,2022/05/10 10:35:02,17時依現場順序開始販售.週六12點.電腦配送庫存不準..以現場數量為準
5931017261,正康新埔藥局,新北市板橋區介壽街４號（１樓）,121.467,25.02025,(02)82595882,羅氏家用新冠病毒抗原自我檢測套組,78,2022/05/10 10:35:02,下午2:30依現場順序開始販售快篩。週日無快篩!
5931017289,板橋大樹藥局,新北市板橋區忠孝路２８號（１樓）,121.4603,25.00176,(02)29555551,羅氏家用新冠病毒抗原自我檢測套組,78,2022/05/10 10:35:02,快篩實名制，每天16:00開始販售，售完為止。
5931017690,杏文藥局,新北市板橋區實踐路１００號（１樓）,121.464,25.00484,(02)29555699,羅氏家用新冠病毒抗原自我檢測套組,2,2022/05/10 10:35:02,無
5931017869,躍獅國慶藥局,新北市板橋區國慶路１７９號（１樓）,121.4626,24.99636,(02)29641548,羅氏家用新冠病毒抗原自我檢測套組,78,2022/05/10 10:35:02,快篩實名制，每天14:00開始販售，售完為止
5931017967,曉品中西藥局,新北市板橋區貴興路２４號（１樓）,121.4575,25.00389,(02)29586990,羅氏家用新冠病毒抗原自我檢測套組,76,2022/05/10 10:35:02,無
5931017976,豐禾藥局,新北市板橋區中山路１段２７９號１樓,121.4696,25.0142,(02)89516666,羅氏家用新冠病毒抗原自我檢測套組,8,2022/05/10 10:35:02,快篩試劑販售時間為上午9:00~10:30，下午3:00~4:30。若上午售完，下午即停止販售。
5931020473,天佑藥局,新北市三重區大同北路８號,121.4954,25.06207,(02)29857456,羅氏家用新冠病毒抗原自我檢測套組,59,2022/05/10 10:35:02,無
5931020562,力健藥局,新北市三重區自強路３段３８號,121.4868,25.07266,(02)29856255,羅氏家用新冠病毒抗原自我檢測套組,3,2022/05/10 10:35:02,無
5931020688,厚德藥局,新北市三重區大智街１７５號１樓,121.4898,25.07265,(02)29717277,羅氏家用新冠病毒抗原自我檢測套組,1,2022/05/10 10:35:02,防疫口罩於早上0830發放，售完為止
5931020991,久洲藥局,新北市三重區長元街５１－９號,121.5009,25.06616,(02)29783515,羅氏家用新冠病毒抗原自我檢測套組,2,2022/05/10 10:35:02,快篩八點半發號碼牌售完為止
5931021167,禮隆藥局,新北市三重區自強路４段６４號,121.4901,25.07853,(02)29894735,羅氏家用新冠病毒抗原自我檢測套組,21,2022/05/10 10:35:02,快篩試劑早上九點開始發號碼牌，發完為止
5931021532,龍門藥局,新北市三重區龍門路１８９號,121.4996,25.07322,(02)29756141,羅氏家用新冠病毒抗原自我檢測套組,78,2022/05/10 10:35:02,實名制快篩販售時間~星期一至星期六下午3點
5931023349,迪化藥局,新北市三重區中華路７７號,121.4836,25.06267,(02)29834445,羅氏家用新冠病毒抗原自我檢測套組,16,2022/05/10 10:35:02,實名制快篩每日早上九點發牌號／週日食藥署暫停供應快篩
5931023447,安泰藥局,新北市三重區正義北路３００－３號２樓,121.4953,25.06978,(02)89815379,羅氏家用新冠病毒抗原自我檢測套組,78,2022/05/10 10:35:02,5／2只有早上8:30--12:00營業下午.及晚上休息
5931024426,甜心健康生活藥局,新北市三重區福祉里集美街４５號１樓,121.488,25.05542,(02)29762223,羅氏家用新冠病毒抗原自我檢測套組,72,2022/05/10 10:35:02,無
5931024588,陽光藥師藥局,新北市三重區三和路２段１８２號１樓,121.4987,25.06886,(02)29788120,羅氏家用新冠病毒抗原自我檢測套組,88,2022/05/10 10:35:02,無
5931024962,建祥三和藥局,新北市三重區三和路２段１６０號１樓,121.4992,25.06853,(02)29703379,羅氏家用新冠病毒抗原自我檢測套組,29,2022/05/10 10:35:02,實名制快篩10:00發放號碼牌
5931025398,昌誠藥局,新北市三重區三和路４段１６１號１樓,121.4835,25.0785,(02)22876338,羅氏家用新冠病毒抗原自我檢測套組,5,2022/05/10 10:35:02,5／2 （休診）
5931025647,幸康藥局,新北市三重區正義北路２０５號２樓,121.4962,25.0684,(02)29816105,羅氏家用新冠病毒抗原自我檢測套組,42,2022/05/10 10:35:02,國定假日，如元旦，端午，中秋不執行調劑業務。政府快篩實名制於週一~週六的14:30開始販售。
5931025781,芯慈藥局,新北市三重區永安北路２段１０５號１樓,121.4831,25.08392,(02)28570670,羅氏家用新冠病毒抗原自我檢測套組,10,2022/05/10 10:35:02,國定假日有提供藥劑服務
5931025905,出雲藥局,新北市三重區正義北路２７２號１樓,121.4958,25.06892,(02)29842559,羅氏家用新冠病毒抗原自我檢測套組,3,2022/05/10 10:35:02,快篩實名制發放時間請見粉絲專頁：https:／／tinyurl.com／bdhnj6x6
5931026055,芮櫟溪尾大藥局,新北市三重區仁愛街５１６號１樓,121.4871,25.08201,(02)22809009,羅氏家用新冠病毒抗原自我檢測套組,36,2022/05/10 10:35:02,周一到周日 10:30發快篩  ! 疫情分流上班下午休息 晚上18:30分營業
5931026091,重新藥局,新北市三重區重新路４段１２號１樓,121.4888,25.05775,(02)29742700,羅氏家用新冠病毒抗原自我檢測套組,78,2022/05/10 10:35:02,快篩實名制，每天16:00開始販售，售完為止。
5931032759,友辰藥局,新北市永和區中正路３８０號１樓,121.5177,25.00123,(02)29267131,羅氏家用新冠病毒抗原自我檢測套組,34,2022/05/10 10:35:02,無
5931032955,博輝藥局,新北市永和區中興街６０號１樓,121.5171,25.01162,(02)89211766,羅氏家用新冠病毒抗原自我檢測套組,10,2022/05/10 10:35:02,星期日提供急診服務
5931033461,常安中西藥局,新北市永和區保平路２６號１樓,121.5122,25.00749,(02)29283530,羅氏家用新冠病毒抗原自我檢測套組,7,2022/05/10 10:35:02,每日下午三點開始實名制快篩
5931033774,台化藥局,新北市永和區勵行街１１９號１樓,121.5175,25.01202,(02)22318585,羅氏家用新冠病毒抗原自我檢測套組,1,2022/05/10 10:35:02,無
5931033792,明慧藥師藥局,新北市永和區仁愛路２９５號１樓,121.5053,25.00917,(02)29297118,羅氏家用新冠病毒抗原自我檢測套組,9,2022/05/10 10:35:02,早上11:30營業
5931033925,康和藥局,新北市永和區中和路５８９號１樓,121.5122,25.00407,(02)22310300,羅氏家用新冠病毒抗原自我檢測套組,2,2022/05/10 10:35:02,實名制快篩下午1點開賣（現場排隊售完為止），星期日無販售
5931033989,悠活藥局,新北市永和區得和路３３０號１樓,121.5233,24.99947,(02)31516288,羅氏家用新冠病毒抗原自我檢測套組,3,2022/05/10 10:35:02,快篩販售: 周一至周日早上8:10開始發售。
5931034119,仁愛陽光藥局,新北市永和區仁愛路１４３號１樓,121.5114,25.01293,(02)89213691,羅氏家用新冠病毒抗原自我檢測套組,1,2022/05/10 10:35:02,快篩代售時段14:00，售完為止...
5931034146,亮點藥局,新北市永和區竹林路７１號１樓,121.5186,25.01355,(02)89253895,羅氏家用新冠病毒抗原自我檢測套組,37,2022/05/10 10:35:02,快篩發放時段 下午16:30-18:00
5931034208,正銨藥局,新北市永和區得和路２４７－１號（１樓）,121.5206,25.00009,(02)29288100,羅氏家用新冠病毒抗原自我檢測套組,1,2022/05/10 10:35:02,星期1~6下午2:15發號碼牌.星期日休息
5931040215,華新藥局,新北市中和區華新街７３號,121.5082,24.98392,(02)29448345,羅氏家用新冠病毒抗原自我檢測套組,1,2022/05/10 10:35:02,無
5931040402,健星藥局,新北市中和區景平路７５４號,121.4965,25.00456,(02)22403437,羅氏家用新冠病毒抗原自我檢測套組,74,2022/05/10 10:35:02,無
5931040680,博健藥局,新北市中和區忠孝街３７巷４號,121.5112,24.98368,(02)29402107,羅氏家用新冠病毒抗原自我檢測套組,7,2022/05/10 10:35:02,無
5931042326,璟福藥局,新北市中和區安平路７６號１樓,121.511,24.99652,(02)29408669,羅氏家用新冠病毒抗原自我檢測套組,2,2022/05/10 10:35:02,無
5931043421,錦和藥局,新北市中和區錦和路１６４號１樓,121.4898,24.99585,(02)82282296,羅氏家用新冠病毒抗原自我檢測套組,2,2022/05/10 10:35:02,週一~週六，早上10點開始發售快篩試劑，週日公休。
5931043565,一安藥妝藥局,新北市中和區中和路９號１.２樓,121.4998,25.00221,(02)22483778,羅氏家用新冠病毒抗原自我檢測套組,78,2022/05/10 10:35:02,下午3點開始發號碼牌販售快篩
5931043627,銓家藥局,新北市中和區員山路３１９號１-２樓,121.4812,25.0006,(02)22257728,羅氏家用新冠病毒抗原自我檢測套組,47,2022/05/10 10:35:02,實名制快篩 下午3點販售 前15分鐘發號碼牌
5931043690,捷勝藥師藥局,新北市中和區華順街１２２號〈１樓〉,121.4651,24.99646,(02)29646225,羅氏家用新冠病毒抗原自我檢測套組,26,2022/05/10 10:35:02,1-6賣快篩.貨到就賣.無法定時（週日無販售）
5931043798,永成藥局,新北市中和區景平路１５６號１樓,121.5176,24.99222,(02)29407619,羅氏家用新冠病毒抗原自我檢測套組,78,2022/05/10 10:35:02,實名制快篩，下午三點領取號碼並開始販售（每日78份）
5931043921,良安藥局,新北市中和區連城路４７７巷１號１樓,121.4833,24.99555,(02)22225798,羅氏家用新冠病毒抗原自我檢測套組,3,2022/05/10 10:35:02,週六日不開店，實名制快篩，晚上9:00開始販售
5931044017,幸福連鎖藥局,新北市中和區忠孝街１２２號１樓,121.5122,24.98581,(02)29410771,羅氏家用新冠病毒抗原自我檢測套組,30,2022/05/10 10:35:02,無
5931044955,安騏生活藥局,新北市中和區南華路１５號１樓,121.5024,24.99567,(02)22445130,羅氏家用新冠病毒抗原自我檢測套組,1,2022/05/10 10:35:02,快篩周一至周六下午2點直接販售
5931045210,廣來藥師藥局,新北市中和區員山路３９３號１樓,121.4811,25.00293,(02)32340393,羅氏家用新冠病毒抗原自我檢測套組,78,2022/05/10 10:35:02,代為販售實名制快篩，販售時間：每天上午11點到中午12點為止。
5931045327,景新藥局,新北市中和區景新街４２９號１樓,121.513,24.98908,(02)86686091,羅氏家用新冠病毒抗原自我檢測套組,17,2022/05/10 10:35:02,無
5931045345,芳碩藥局,新北市中和區連城路４７巷２號１樓,121.4982,25.00162,(02)82458816,羅氏家用新冠病毒抗原自我檢測套組,2,2022/05/10 10:35:02,販售時間星期一~星期六下午14:00-21:00 （星期日休息）
5931045498,好意藥局,新北市中和區景新街４６７巷３號１樓,121.5136,24.98825,(02)89416598,羅氏家用新冠病毒抗原自我檢測套組,78,2022/05/10 10:35:02,週日無販售快篩試劑
5931050131,再生藥局,新北市新店區北新路３段６５巷９號,121.5412,24.981,(02)29113781,羅氏家用新冠病毒抗原自我檢測套組,1,2022/05/10 10:35:02,5／7之後上午9點半販售實名制快篩試劑 請自備500元
5931050444,活元藥局,新北市新店區民族路４９號１樓,121.5403,24.97854,(02)29125526,羅氏家用新冠病毒抗原自我檢測套組,6,2022/05/10 10:35:02,快篩代售時間平日早上10:00開始   星期日休息
5931051852,康裕藥局,新北市新店區民權路８號,121.5426,24.98306,(02)29135479,羅氏家用新冠病毒抗原自我檢測套組,17,2022/05/10 10:35:02,無
5931052288,躍獅正新藥局,新北市新店區中正路５７之１號１樓,121.5443,24.96989,(02)89145930,羅氏家用新冠病毒抗原自我檢測套組,119,2022/05/10 10:35:02,星期一至六9:00為領取快篩號碼牌，20:00以前帶號碼牌來取快篩
5931052484,大河藥局,新北市新店區三民路１４０號１樓,121.5351,24.97502,(02)29140910,羅氏家用新冠病毒抗原自我檢測套組,78,2022/05/10 10:35:02,週一至週六下午2點開始發購實名制快篩試劑。限1人1卡購買1份。5／15週日不發購。
5931052984,北一藥師藥局,新北市新店區北新路２段１６０號１樓、２樓,121.5431,24.97563,(02)89115686,羅氏家用新冠病毒抗原自我檢測套組,10,2022/05/10 10:35:02,14:30發完號碼牌即發口罩，勿持號碼牌離開，叫號未到視同放棄
5931053169,貳品藥局,新北市新店區新和街７５號１樓,121.5205,24.98612,(02)89418890,羅氏家用新冠病毒抗原自我檢測套組,78,2022/05/10 10:35:02,實名制快篩下午一點半依排隊順序發售
5931053178,長照藥局,新北市新店區如意街１６號１樓,121.4944,24.94838,(02)22153325,羅氏家用新冠病毒抗原自我檢測套組,78,2022/05/10 10:35:02,請注意5／10快篩下午2:00開賣雙號 一人一 卡 自備500 （請勿再來電詢問了）現場自主排隊不發號碼牌
5931053347,健詮藥局,新北市新店區建國路１１９號１樓,121.5398,24.97777,(02)29116312,羅氏家用新冠病毒抗原自我檢測套組,1,2022/05/10 10:35:02,11點發號碼牌，12點半-3點過卡買快篩。最新消息會公佈在臉書「健詮藥局」
5931053383,大豐藥局,新北市新店區北新路３段５３號之１（１樓）,121.5417,24.9807,(02)89113196,羅氏家用新冠病毒抗原自我檢測套組,1,2022/05/10 10:35:02,每日下午2點發號碼牌同步販售實名制快篩試劑 請自備500元
5931060342,十安藥局,新北市新莊區中港路３１６號,121.4524,25.04544,(02)29922859,羅氏家用新冠病毒抗原自我檢測套組,2,2022/05/10 10:35:02,自111／04／01起不再販賣實名制口罩
5931060557,一安藥局,新北市新莊區立德里新泰路２６８號,121.446,25.04029,(02)29941618,羅氏家用新冠病毒抗原自我檢測套組,95,2022/05/10 10:35:02,實名制快篩發放時間為15:00  其他詳情請上FB查詢
5931060682,勝安藥局,新北市新莊區中正路３３４巷２３號１樓,121.4456,25.03585,(02)29963394,羅氏家用新冠病毒抗原自我檢測套組,1,2022/05/10 10:35:02,無
5931060824,禮安藥師藥局,新北市新莊區自立街１０９號１樓,121.4555,25.0455,(02)29942891,羅氏家用新冠病毒抗原自我檢測套組,79,2022/05/10 10:35:02,無
5931067092,恩泰藥局,新北市新莊區民安西路２６５號－１,121.4262,25.01296,(02)22038680,羅氏家用新冠病毒抗原自我檢測套組,106,2022/05/10 10:35:02,無
5931067412,幸寧藥局,新北市新莊區福壽街８４巷１２號１樓,121.4588,25.04985,(02)29971150,羅氏家用新冠病毒抗原自我檢測套組,7,2022/05/10 10:35:02,快篩上午8點半開賣
5931068464,健安藥局,新北市新莊區光和里民安西路２０９號１樓,121.4261,25.0147,(02)22043765,羅氏家用新冠病毒抗原自我檢測套組,78,2022/05/10 10:35:02,無
5931068866,大愛藥師藥局,新北市新莊區後港一路６９號１樓,121.4267,25.02666,(02)22042119,羅氏家用新冠病毒抗原自我檢測套組,19,2022/05/10 10:35:02,快篩代售時間自早上10點 現場排隊
593106A379,輔大美康藥局,新北市新莊區中正路５１０號之１，１樓,121.4341,25.03294,(02)29013056,羅氏家用新冠病毒抗原自我檢測套組,4,2022/05/10 10:35:02,實名制快篩9:20發號碼牌／9:30過卡+收費
593106A735,樂家藥局,新北市新莊區中平路２７３號１樓,121.4447,25.04995,(02)29960723,羅氏家用新冠病毒抗原自我檢測套組,1,2022/05/10 10:35:02,無
593106A833,欣國藥局,新北市新莊區富國路５７號１樓、２樓,121.4196,25.02625,(02)29080958,羅氏家用新冠病毒抗原自我檢測套組,21,2022/05/10 10:35:02,每天快篩劑發號碼牌AM09:30販賣AM09:30售完為止
593106A897,陽光豐年藥局,新北市新莊區豐年街１４號１樓,121.4463,25.03287,(02)22060665,羅氏家用新冠病毒抗原自我檢測套組,69,2022/05/10 10:35:02,無
593106B036,家嘉藥局,新北市新莊區自立街１０３號（１樓）,121.4553,25.04549,(02)89926488,羅氏家用新冠病毒抗原自我檢測套組,16,2022/05/10 10:35:02,今天號碼牌都已發放完畢
593106B241,善美藥局,新北市新莊區公園路８９號１樓,121.4546,25.04041,(02)29960979,羅氏家用新冠病毒抗原自我檢測套組,8,2022/05/10 10:35:02,無
5931070062,鴻真藥局,新北市樹林區保安街１段２０巷６號,121.4277,24.99363,(02)26828977,羅氏家用新冠病毒抗原自我檢測套組,4,2022/05/10 10:35:02,無
5931071658,大慶藥局,新北市樹林區鎮前街４２－１號,121.4258,24.99271,(02)26759212,羅氏家用新冠病毒抗原自我檢測套組,78,2022/05/10 10:35:02,實名制快篩每日下午2:00開始販售， 現場排隊， 帶500元鈔票／ 健保卡
5931071836,弘昌藥師藥局,新北市樹林區保安街１段６５號１樓,121.4232,24.99491,(02)26871276,羅氏家用新冠病毒抗原自我檢測套組,37,2022/05/10 10:35:02,快篩到貨時間不定，到貨即售，售完為止。
5931071916,立欣藥局,新北市樹林區三福街１６６號,121.4047,25.01619,(02)26764728,羅氏家用新冠病毒抗原自我檢測套組,1,2022/05/10 10:35:02,口罩代售時間 每日下午14:30 號碼牌發放時間14:20 現場排隊
5931072066,琉璃水藥師藥局,新北市樹林區龍興街２１號１樓,121.403,25.01614,(02)26764262,羅氏家用新冠病毒抗原自我檢測套組,12,2022/05/10 10:35:02,無
5931072468,樹林丁丁藥局,新北市樹林區中華路１７４號１樓,121.4208,24.9819,(02)86851518,羅氏家用新冠病毒抗原自我檢測套組,55,2022/05/10 10:35:02,無
5931072520,世淇健保藥局,新北市樹林區復興路５０號１樓,121.4221,24.99391,(02)26842255,羅氏家用新冠病毒抗原自我檢測套組,28,2022/05/10 10:35:02,無
5931081412,小樹藥師藥局,新北市鶯歌區光明街１２６號１樓,121.3455,24.95592,(02)26785107,羅氏家用新冠病毒抗原自我檢測套組,37,2022/05/10 10:35:02,快篩販賣時間: 早上10:00~11:00開始販售
5931081458,食在好健康藥局,新北市鶯歌區國慶街１６５號１樓,121.3512,24.95312,(02)26702559,羅氏家用新冠病毒抗原自我檢測套組,44,2022/05/10 10:35:02,實名制快篩販賣時間週一到週四19:00~20:00 （請自備散鈔）
5931081510,鶯歌藥局,新北市鶯歌區鶯桃路２段１１號１樓,121.3258,24.97205,(02)86778778,羅氏家用新冠病毒抗原自我檢測套組,78,2022/05/10 10:35:02,快篩實名制，每天16:00開始販售，售完為止。
5931091605,三峽文化藥局,新北市三峽區文化路２１２－２號,121.3685,24.93606,(02)26710825,羅氏家用新冠病毒抗原自我檢測套組,3,2022/05/10 10:35:02,12:00~14:00 17:00~18:00 休息時間
5931091696,祥祐藥局,新北市三峽區文化路１２５號１樓,121.3699,24.93598,(02)26738080,羅氏家用新冠病毒抗原自我檢測套組,3,2022/05/10 10:35:02,實名制快篩下午2點開始販售
5931091892,三峽藥局,新北市三峽區介壽路１段２７號１樓,121.3757,24.93321,(02)26738868,羅氏家用新冠病毒抗原自我檢測套組,1,2022/05/10 10:35:02,快篩實名制，每天16:00開始販售，售完為止。
5931092219,北大藥局,新北市三峽區大義路９號１樓,121.3788,24.94372,(02)26738535,羅氏家用新冠病毒抗原自我檢測套組,1,2022/05/10 10:35:02,快篩發放依政府實際到貨時間為主會公告在臉書粉專
5931100047,松和大藥局,新北市淡水區英專路９２號,121.4459,25.17167,(02)26203698,羅氏家用新冠病毒抗原自我檢測套組,73,2022/05/10 10:35:02,口罩代售:每週一~每週五10:30發放號碼牌
5931100092,上全藥局,新北市淡水區民族路３６號,121.4614,25.13622,(02)28098022,羅氏家用新冠病毒抗原自我檢測套組,8,2022/05/10 10:35:02,實名制快篩若有到貨，早上十點現場販售，售完為止。星期日不販售。
5931100154,尚運藥局,新北市淡水區學府路５１巷１弄２０號,121.4473,25.16892,(02)26225149,羅氏家用新冠病毒抗原自我檢測套組,10,2022/05/10 10:35:02,無
5931101919,優德仕藥局,新北市淡水區新市一路３段１０３號,121.4464,25.18314,(02)26236573,羅氏家用新冠病毒抗原自我檢測套組,1,2022/05/10 10:35:02,快篩代售時間 15:00~售完
5931102078,躍獅竹圍藥局,新北市淡水區民生路４６號,121.4617,25.13781,(02)28090565,羅氏家用新冠病毒抗原自我檢測套組,1,2022/05/10 10:35:02,晚上7點販售快篩
5931102103,四季寶健保藥局,新北市淡水區新市一路３段１１７－１號（含夾層）,121.4468,25.18314,(02)26283199,羅氏家用新冠病毒抗原自我檢測套組,2,2022/05/10 10:35:02,無
5931102336,淡大郭藥局,新北市淡水區英專路３２號１樓,121.4456,25.17008,(02)26229966,羅氏家用新冠病毒抗原自我檢測套組,10,2022/05/10 10:35:02,如前日有收到快篩，隔日販售時間為上午10點。（以現場公告為主）
5931112314,杏光藥局,新北市汐止區建成路５９巷１９號１樓,121.6617,25.07287,(02)26411340,羅氏家用新冠病毒抗原自我檢測套組,1,2022/05/10 10:35:02,快篩每日早上十點販售  不發號碼牌
5931112645,健成藥局,新北市汐止區新興路２０號１樓,121.6564,25.06456,(02)26428989,羅氏家用新冠病毒抗原自我檢測套組,22,2022/05/10 10:35:02,無
5931113071,蒲公英藥局,新北市汐止區連興街１２６號（１樓）,121.6538,25.06188,(02)26907770,羅氏家用新冠病毒抗原自我檢測套組,78,2022/05/10 10:35:02,實名制快篩銷售時間:下午17:00-19:00（無發放號碼牌）
5931113160,社后藥局,新北市汐止區康寧街４２４號１樓,121.6307,25.06801,(02)26956321,羅氏家用新冠病毒抗原自我檢測套組,78,2022/05/10 10:35:02,快篩實名制，每天16:00開始販售，售完為止。
5931120049,本平藥局,新北市瑞芳區瑞芳街４５號,121.8076,25.10913,(02)24972167,羅氏家用新冠病毒抗原自我檢測套組,2,2022/05/10 10:35:02,無
5931131908,璨鴻藥局,新北市土城區延和路１９１號,121.4692,24.99035,(02)82622588,羅氏家用新冠病毒抗原自我檢測套組,21,2022/05/10 10:35:02,快篩發放時間星期一至五
5931132343,誠安藥局,新北市土城區中央路４段３６號１樓,121.4207,24.96088,(02)22677737,羅氏家用新冠病毒抗原自我檢測套組,79,2022/05/10 10:35:02,快篩代售時段：平日晚上8點，售完為止
5931132594,元蒼藥局,新北市土城區學府路１段６９號１樓,121.4571,24.98825,(02)22733868,羅氏家用新冠病毒抗原自我檢測套組,32,2022/05/10 10:35:02,無
5931133126,成康藥局,新北市土城區學府路１段１８８號１樓,121.4532,24.98614,(02)22706596,羅氏家用新冠病毒抗原自我檢測套組,22,2022/05/10 10:35:02,春節期間看診時段請電洽
5931133331,城安大藥局,新北市土城區金城路３段４０號,121.4656,24.98639,(02)22646561,羅氏家用新冠病毒抗原自我檢測套組,70,2022/05/10 10:35:02,快篩代售時間晚上8:30
5931133653,家泰藥局,新北市土城區青雲路１８１號１、２樓,121.4593,24.98285,(02)22749490,羅氏家用新冠病毒抗原自我檢測套組,11,2022/05/10 10:35:02,上午9：00發號碼牌14：00-21：00攜帶號碼牌及費用領快篩
5931141637,華興藥師藥局,新北市蘆洲區中山一路１８４號１樓,121.4739,25.08104,(02)22893899,羅氏家用新冠病毒抗原自我檢測套組,31,2022/05/10 10:35:02,防疫口罩：早上10點直接販售
5931141726,松展多利日式連鎖藥粧藥局,新北市蘆洲區民族路１６１號,121.4793,25.08817,(02)22882586,羅氏家用新冠病毒抗原自我檢測套組,3,2022/05/10 10:35:02,防疫物資每日下午02:00開始販售
5931142670,陽光幸福藥局,新北市蘆洲區重陽街８８號１樓,121.4821,25.08454,(02)28486566,羅氏家用新冠病毒抗原自我檢測套組,2,2022/05/10 10:35:02,快篩實名制 早上9點開始販售 採現場排隊
5931143266,中美永結藥局,新北市蘆洲區長安街１８５號１樓,121.4605,25.08169,(02)22887676,羅氏家用新冠病毒抗原自我檢測套組,33,2022/05/10 10:35:02,無
5931143319,大樹長榮藥局,新北市蘆洲區長榮路６１、６１－１號１樓,121.4624,25.0833,(02)28480567,羅氏家用新冠病毒抗原自我檢測套組,78,2022/05/10 10:35:02,快篩實名制，每天16:00開始販售，售完為止。
5931151302,宏安藥局,新北市五股區成泰路２段１３６號,121.4382,25.08369,(02)22915932,羅氏家用新冠病毒抗原自我檢測套組,78,2022/05/10 10:35:02,口罩販售時間:每日08:15~23:00售完為止 星期日如果前一日還有庫存，當日照常販售
5931151713,五股藥局,新北市五股區成泰路１段２３５之２號（１樓）,121.4363,25.07968,(02)22951150,羅氏家用新冠病毒抗原自我檢測套組,78,2022/05/10 10:35:02,快篩實名制，每天16:00開始販售，售完為止。
5931160141,日泰藥局,新北市泰山區泰林路２段２２７號,121.4323,25.06194,(02)29095989,羅氏家用新冠病毒抗原自我檢測套組,84,2022/05/10 10:35:02,下午兩點開始販售。每日提供10份確診個案，詳情上臉書粉絲頁
5931161353,台灣藥局,新北市泰山區明志路１段２８２－２８６號,121.4319,25.06002,(02)22971969,羅氏家用新冠病毒抗原自我檢測套組,70,2022/05/10 10:35:02,下午2:20發號碼牌2:30販售實名制快篩試劑
5931161620,華特藥局,新北市泰山區明志路１段２６０號１樓,121.4321,25.06052,(02)29095662,羅氏家用新冠病毒抗原自我檢測套組,139,2022/05/10 10:35:02,5／7（六）-5／8（日）人力調度停止販售快篩 大家辛苦了 多多關心身邊的家人 加油 我們星期一再繼續奮鬥!!
5931171582,綠園藥局,新北市林口區仁愛路２段１０５號１樓,121.3843,25.07507,(02)86012258,羅氏家用新冠病毒抗原自我檢測套組,12,2022/05/10 10:35:02,上午8:30-12:00、下午2:30-18:00、晚上18:00-21:30
5931171724,林康藥局,新北市林口區文化二路１段２２２號１樓,121.3695,25.07226,(02)26088869,羅氏家用新冠病毒抗原自我檢測套組,78,2022/05/10 10:35:02,快篩於下午2點販售，周日公休
5931171742,唯恩藥局,新北市林口區麗園一街９巷１號１樓之２,121.3768,25.07139,(02)26005805,羅氏家用新冠病毒抗原自我檢測套組,78,2022/05/10 10:35:02,快篩發放固定13點，領取號碼牌
5931181195,健康小站藥局,新北市深坑區埔新里北深路２段７５號,121.6184,25.00373,(02)26629568,羅氏家用新冠病毒抗原自我檢測套組,16,2022/05/10 10:35:02,販售時間
5932010917,幸運草健保藥局,桃園市桃園區縣府路２８０號,121.2994,24.99316,(03)3379977,羅氏家用新冠病毒抗原自我檢測套組,1,2022/05/10 10:35:02,快篩販售時間：平日8:00起售完為止，週六9:00開始
5932011610,郁祥藥局,桃園市桃園區成功里春日路２１６號,121.3156,24.99722,(03)3335495,羅氏家用新冠病毒抗原自我檢測套組,6,2022/05/10 10:35:02,無
5932011870,永祥大藥局,桃園市桃園區永安路５２８號,121.2986,25.00181,(03)3337161,羅氏家用新冠病毒抗原自我檢測套組,4,2022/05/10 10:35:02,口罩販賣時段：週一至週六早上9點
5932012813,桃園大興藥局,桃園市桃園區大興西路二段７６巷３號,121.2984,25.01183,(03)3013222,羅氏家用新冠病毒抗原自我檢測套組,18,2022/05/10 10:35:02,快篩實名制，每天16:00開始販售，售完為止。
5932013123,桃康藥局,桃園市桃園區桃鶯路２０３號,121.3184,24.98495,(03)3641815,羅氏家用新冠病毒抗原自我檢測套組,5,2022/05/10 10:35:02,實名制快篩：早上10點發號碼牌，每日78份
5932013374,芳鄰藥局,桃園市桃園區昆明路３９號,121.3173,24.98372,(03)3679498,羅氏家用新冠病毒抗原自我檢測套組,3,2022/05/10 10:35:02,無
5932013392,桃園中正藥局,桃園市桃園區中正路３７３號,121.3079,24.99955,(03)3381600,羅氏家用新冠病毒抗原自我檢測套組,91,2022/05/10 10:35:02,快篩實名制，每天16:00開始販售，售完為止。
5932013409,欣立藥局,桃園市桃園區龍安街１８１－１號１樓,121.2782,24.99294,(03)3792001,羅氏家用新冠病毒抗原自我檢測套組,52,2022/05/10 10:35:02,快篩代售時間：晚上6點至銷售完畢。
5932013650,金安藥局,桃園市桃園區南華街１４８號,121.3077,24.99269,(03)3398088,羅氏家用新冠病毒抗原自我檢測套組,2,2022/05/10 10:35:02,無
5932013721,桃園民光藥局,桃園市桃園區中正路５６９號,121.3049,25.0041,(03)3364888,羅氏家用新冠病毒抗原自我檢測套組,78,2022/05/10 10:35:02,快篩實名制，每天16:00開始販售，售完為止。
5932013749,桃園寶山藥局,桃園市桃園區寶山街７２號,121.3175,25.01291,(03)3250562,羅氏家用新冠病毒抗原自我檢測套組,78,2022/05/10 10:35:02,快篩實名制，每天16:00開始販售，售完為止。
5932013990,福澤大業藥局,桃園市桃園區大業路１段４２２號１樓,121.3118,25.01473,(03)3563865,羅氏家用新冠病毒抗原自我檢測套組,69,2022/05/10 10:35:02,家用快篩販賣時段15:30至售完為止
5932014102,小飛象藥局,桃園市桃園區慈文路１９２號,121.3041,25.00907,(03)3552771,羅氏家用新冠病毒抗原自我檢測套組,15,2022/05/10 10:35:02,5／10[09:30]開賣78份，再打來問就掛電話。不發號碼牌。即起調劑確診者視訊處方，請自保。
5932014111,鴻發藥師藥局,桃園市桃園區大有路５４３號,121.3171,25.0149,(03)3582468,羅氏家用新冠病毒抗原自我檢測套組,78,2022/05/10 10:35:02,實聯快篩:早上09:30發放號碼牌，限當日下午2~4點憑牌購買，逾時不候請見諒
5932014148,躍獅興業藥局,桃園市桃園區大業路２段１５號１樓,121.3112,25.01628,(03)3163569,羅氏家用新冠病毒抗原自我檢測套組,78,2022/05/10 10:35:02,快篩下午一點販售，現場排隊
5932014175,東門大藥局,桃園市桃園區春日路７５號,121.3169,24.99305,(03)3378919,羅氏家用新冠病毒抗原自我檢測套組,7,2022/05/10 10:35:02,無
5932014273,藝文藥局,桃園市桃園區大興西路１段１６５號,121.3049,25.01414,(03)3261789,羅氏家用新冠病毒抗原自我檢測套組,78,2022/05/10 10:35:02,快篩實名制，每天16:00開始販售，售完為止。
5932014317,躍獅省桃藥局,桃園市桃園區龍壽街２４號,121.2697,24.97836,(03)3791488,羅氏家用新冠病毒抗原自我檢測套組,34,2022/05/10 10:35:02,週1-7實名制快篩10:00開賣，5／6開始每日10點販售，沒發號碼牌
5932014424,桃園中山藥局,桃園市桃園區中山路７０７號,121.2914,24.99079,(03)2207168,羅氏家用新冠病毒抗原自我檢測套組,78,2022/05/10 10:35:02,快篩實名制，每天16:00開始販售，售完為止。
5932014442,新光藥局,桃園市桃園區大有路１７２號,121.3209,25.00752,(03)3310133,羅氏家用新冠病毒抗原自我檢測套組,108,2022/05/10 10:35:02,營業時間:週一至週五10:00-22:00；快篩下午2:00開始，賣完為止，不發號碼牌
5932014488,琦舜藥師藥局,桃園市桃園區文中三路６３號,121.2885,24.99724,(03)3695001,羅氏家用新冠病毒抗原自我檢測套組,78,2022/05/10 10:35:02,營業時間: 9:00-21:30　　　　　　　　快篩販售時間於到貨後公布於FB【琦舜藥師藥局-桃園中路】粉絲專頁
5932017096,榮生藥師藥局,桃園市桃園區民生路２７５號一樓,121.3118,24.99697,(03)3396120,羅氏家用新冠病毒抗原自我檢測套組,14,2022/05/10 10:35:02,快篩販賣時段：星期一到星期六上午10:00-12:00 依配送時間滾動調整
5932018593,品一藥局,桃園市桃園區建新街７６號,121.3118,24.98261,(03)3638510,羅氏家用新冠病毒抗原自我檢測套組,18,2022/05/10 10:35:02,快篩販賣時間：週一至週五早上9：30；週六下午1：00（星期天休息），會發號碼牌（今天已發完）
5932018628,民富大藥局,桃園市桃園區大有路４８８號,121.3186,25.01277,(03)3469976,羅氏家用新冠病毒抗原自我檢測套組,54,2022/05/10 10:35:02,快篩販賣時段：暫定週一至週五14:00-15:00， 週六.日不發放以現場公告時間為主
5932019581,莘莘藥局,桃園市桃園區莊敬路一段３６８號,121.2957,25.02375,(03)3170681,羅氏家用新冠病毒抗原自我檢測套組,78,2022/05/10 10:35:02,實名制快篩週一至週六 下午2點開始 售完為止
5932019929,元氣藥局,桃園市桃園區民光東路一Ｏ九號,121.3183,25.0079,(03)3332201,羅氏家用新冠病毒抗原自我檢測套組,78,2022/05/10 10:35:02,現場排隊喔!，快篩試劑銷售時間:星期一三四六15:30，星期二五19:00，星期日無，12:00~15:00；18:00~18:30為休息時間
593201A506,永忻藥局,桃園市桃園區大興路一九三號一樓,121.312,25.01564,(03)3585569,羅氏家用新冠病毒抗原自我檢測套組,3,2022/05/10 10:35:02,口罩販賣時段：週一~週六 15:00~1700
593201A631,大國民藥局,桃園市桃園區中正路５７８號１樓,121.3053,25.00403,(03)3355575,羅氏家用新冠病毒抗原自我檢測套組,78,2022/05/10 10:35:02,下午1點開始販售（現場排隊售完為止 不發號碼牌）
593201A640,大心藥局,桃園市桃園區中平路１４１號,121.2934,24.98627,(03)2209842,羅氏家用新冠病毒抗原自我檢測套組,7,2022/05/10 10:35:02,9:00發號碼牌，號碼牌當天有效，9:30開始販售，11:00前結束販售，以號碼牌為準請勿遺失
593201A695,安祐藥局,桃園市桃園區南平路516之1號,121.2937,25.01633,(03)3166889,羅氏家用新冠病毒抗原自我檢測套組,78,2022/05/10 10:35:02,快篩販賣時間 每日下午 13:45-17:00，現場排隊
5932020548,生富藥師藥局,桃園市中壢區新明里中央西路二段７６號,121.2162,24.95848,(03)4941475,羅氏家用新冠病毒抗原自我檢測套組,1,2022/05/10 10:35:02,快篩時段8：30發號碼牌，10：00以後領快筛劑
5932021036,廣怡藥局,桃園市中壢區華勛街２５６號,121.2603,24.94865,(03)4366885,羅氏家用新冠病毒抗原自我檢測套組,1,2022/05/10 10:35:02,口罩販賣時段：開賣時間周一~周六13:30~17:30 、  周日8:30~11:30
5932021269,優良藥局,桃園市中壢區長春路２０號,121.2499,24.97907,(03)4612336,羅氏家用新冠病毒抗原自我檢測套組,1,2022/05/10 10:35:02,快篩販售時間10:00
5932021401,懷仁藥師健保藥局,桃園市中壢區中北路９３號１樓,121.238,24.95653,(03)4378466,羅氏家用新冠病毒抗原自我檢測套組,77,2022/05/10 10:35:02,實名制快篩銷售\5月7號更改時間為下午5:00\星期日沒有販售
5932021670,日光健康藥局,桃園市中壢區華祥一街２號１樓,121.2606,24.94827,(03)4383559,羅氏家用新冠病毒抗原自我檢測套組,78,2022/05/10 10:35:02,快篩販賣時段：星期一~星期六下午13:30開始，售完為止
5932022159,躍獅新明藥局,桃園市中壢區新明路６６號１樓,121.215,24.95868,(03)2813361,羅氏家用新冠病毒抗原自我檢測套組,2,2022/05/10 10:35:02,快篩販賣時段：14:00~售完為止，現場排隊 ， 星期天沒有販售快篩
5932023183,佳華藥局,桃園市中壢區六和路４６號,121.2244,24.96452,(03)2753018,羅氏家用新冠病毒抗原自我檢測套組,77,2022/05/10 10:35:02,快篩銷售時間:星期一二三五下午2:00，星期四六早上8:00，售完為止
5932023281,裕翔藥局,桃園市中壢區榮民路４８號１樓,121.2606,24.96956,(03)4355499,羅氏家用新冠病毒抗原自我檢測套組,2,2022/05/10 10:35:02,快篩下午五點販售
5932023647,樂謙藥師藥局,桃園市中壢區龍東路１３４號,121.2522,24.92929,(03)4662775,羅氏家用新冠病毒抗原自我檢測套組,45,2022/05/10 10:35:02,實名快篩每日下午2點、晚上6點 各發39份
5932023718,鈞育藥局,桃園市中壢區吉林路１２７號,121.2504,24.98381,(03)4622031,羅氏家用新冠病毒抗原自我檢測套組,60,2022/05/10 10:35:02,販賣時段：W1至W5：13:00至售完，W六日不販售
5932023889,華勛藥局,桃園市中壢區華勛街１１２、１１４號,121.2597,24.95065,(03)4161881,羅氏家用新冠病毒抗原自我檢測套組,2,2022/05/10 10:35:02,快篩實名制，每天16:00開始販售，售完為止。
5932023914,內壢忠孝藥局,桃園市中壢區忠孝路３６號,121.2566,24.97338,(03)4636641,羅氏家用新冠病毒抗原自我檢測套組,78,2022/05/10 10:35:02,快篩實名制，每天16:00開始販售，售完為止。
5932023996,青瑭藥局,桃園市中壢區民權路４段２７７號１樓,121.2022,25.00625,(03)2875901,羅氏家用新冠病毒抗原自我檢測套組,1,2022/05/10 10:35:02,無
5932024260,新資生福州大藥局,桃園市中壢區福州二街４０９號,121.232,24.96789,(03)3606180,羅氏家用新冠病毒抗原自我檢測套組,1,2022/05/10 10:35:02,營業時間：星期六 日 上午0900至下午1000
5932024304,鈞康藥局,桃園市中壢區興仁路２段９１號１樓,121.263,24.96665,(03)2850505,羅氏家用新冠病毒抗原自我檢測套組,34,2022/05/10 10:35:02,營業時間：上午11點-售完。星期六日不販售
5932029676,中日大藥局,桃園市中壢區中北路二段７８號,121.225,24.95063,(03)4285068,羅氏家用新冠病毒抗原自我檢測套組,78,2022/05/10 10:35:02,快篩11點前到貨，11點開始販售；11點後到貨，到貨開始販售
593202A833,君安藥局,桃園市中壢區中北路二段３９０號,121.2318,24.95388,(03)4685484,羅氏家用新冠病毒抗原自我檢測套組,75,2022/05/10 10:35:02,快篩實名制，週一至週五晚上7點，週六週日早上9點，視現場狀況，45分鐘前發號碼牌，發完隨即販售，過號視同放棄
593202A931,佳佑藥局,桃園市中壢區環中東路二四一號,121.2573,24.96345,(03)4356190,羅氏家用新冠病毒抗原自我檢測套組,33,2022/05/10 10:35:02,口罩販賣時段：09:00以後發號碼牌，售完為止
593202B296,慧康藥局,桃園市中壢區中北路二段１０１號１樓,121.2255,24.95122,(03)2840064,羅氏家用新冠病毒抗原自我檢測套組,2,2022/05/10 10:35:02,5／4快篩販賣時段:14:00
5932031756,明仁藥局,桃園市大溪區介壽路８１號１樓,121.2949,24.92218,(03)3804832,羅氏家用新冠病毒抗原自我檢測套組,3,2022/05/10 10:35:02,0800-11000
5932031890,福生藥局,桃園市大溪區民權東路１０３號１樓,121.2919,24.88209,(03)3873533,羅氏家用新冠病毒抗原自我檢測套組,3,2022/05/10 10:35:02,早上八點開始發放快篩試劑
5932031907,福澤大溪藥局,桃園市大溪區復興路１０５號１樓,121.2911,24.87917,(03)3884886,羅氏家用新冠病毒抗原自我檢測套組,16,2022/05/10 10:35:02,家用快篩販賣時段15:30至售完為止
5932040246,龍泰藥局,桃園市楊梅區民族路五段１４７巷２號,121.1736,24.9586,(03)4901525,羅氏家用新冠病毒抗原自我檢測套組,15,2022/05/10 10:35:02,快篩販售時間:早上7:30領號碼牌下午2點至4點領快篩（當日有效） 六日中午10點至12點領快篩
5932040255,中美藥局,桃園市楊梅區埔心里中興路７７號,121.1848,24.91776,(03)4822483,羅氏家用新冠病毒抗原自我檢測套組,18,2022/05/10 10:35:02,實名制快篩早上11點發放販售，一人只限一卡
5932042320,家康藥師藥局,桃園市楊梅區文化街二三二之一號,121.1851,24.91622,(03)4810893,羅氏家用新冠病毒抗原自我檢測套組,67,2022/05/10 10:35:02,快篩販售時間：12:00-13:00
5932042339,德美藥局,桃園市楊梅區中正路８號,121.0829,24.93497,(03)2821668,羅氏家用新冠病毒抗原自我檢測套組,2,2022/05/10 10:35:02,口罩販售時間：售完為止
5932043390,元森藥局,桃園市楊梅區瑞溪路２段１２５號１樓,121.1806,24.90875,(03)4311058,羅氏家用新冠病毒抗原自我檢測套組,1,2022/05/10 10:35:02,無
5932050215,九德藥局,桃園市蘆竹區中山路６９號,121.3003,25.05242,(03)3116868,羅氏家用新冠病毒抗原自我檢測套組,96,2022/05/10 10:35:02,口罩販賣時段：中午12點
5932051329,恆安藥局,桃園市蘆竹區忠孝西路２４號,121.2924,25.04425,(03)2120206,羅氏家用新冠病毒抗原自我檢測套組,1,2022/05/10 10:35:02,口罩販賣時段：下午16:00  晚上20:00
5932052433,承昇藥局,桃園市蘆竹區桃園街８６號,121.2918,25.04607,(03)3211085,羅氏家用新冠病毒抗原自我檢測套組,3,2022/05/10 10:35:02,快篩實名制販賣時間：週一~週五早上08:30 ~售完；週六早上08:30~售完，現埸排隊
5932052979,南崁藥局,桃園市蘆竹區中正路２５１、２５３、２５５號,121.2921,25.04695,(03)3522022,羅氏家用新冠病毒抗原自我檢測套組,157,2022/05/10 10:35:02,快篩實名制，每天16:00開始販售，售完為止。
5932053065,民生藥局,桃園市蘆竹區南昌路４５號,121.2876,25.04245,(03)3216784,羅氏家用新冠病毒抗原自我檢測套組,78,2022/05/10 10:35:02,快篩開賣時間:星期一到五16點. 星期六10:30. 星期日休息.
5932076791,誠安生活藥局,桃園市龜山區文化七路７９之２號,121.3635,25.05166,(03)3271997,羅氏家用新冠病毒抗原自我檢測套組,128,2022/05/10 10:35:02,實名制快篩試劑每日下午三點啟售。5／7.8週六週日不販售
5932076835,光峰藥局,桃園市龜山區光峰路６７號,121.3402,25.00085,(03)3207630,羅氏家用新冠病毒抗原自我檢測套組,2,2022/05/10 10:35:02,口罩販賣時段: 周一至周六上午 08:30-12:00
5932076844,帕米爾藥局,桃園市龜山區萬壽路二段９９１號,121.3369,24.99464,(03)3295522,羅氏家用新冠病毒抗原自我檢測套組,2,2022/05/10 10:35:02,星期一~六:家用快篩試劑販賣時段：14:30~售完。不發號碼牌，請直接排隊購買。
5932076862,和信藥局,桃園市龜山區南祥路５８號１樓,121.2979,25.04629,(03)2124028,羅氏家用新冠病毒抗原自我檢測套組,4,2022/05/10 10:35:02,快篩販賣時段：每日中午12點，5／8（日）母親節公休一日。
5932077056,桃園龜山藥局,桃園市龜山區萬壽路二段８９６號,121.3394,24.99586,(03)3203312,羅氏家用新冠病毒抗原自我檢測套組,78,2022/05/10 10:35:02,快篩實名制，每天16:00開始販售，售完為止。
5932077118,文青藥局,桃園市龜山區文青路２０２號,121.3878,25.04034,(03)3270581,羅氏家用新冠病毒抗原自我檢測套組,14,2022/05/10 10:35:02,快篩販賣時段：上午10點到12點。（星期一下午2點開始），快篩無每日配送
5932077154,博爾康生活藥局,桃園市龜山區大同路２５０號１樓,121.3446,24.98989,(03)3506588,羅氏家用新冠病毒抗原自我檢測套組,1,2022/05/10 10:35:02,快篩實名制每日15:00販售。不發號碼牌，請直接排隊購買。
5932077163,新資生龜山大藥局,桃園市龜山區大同里自強東路１號,121.3414,24.99401,(03)3290429,羅氏家用新冠病毒抗原自我檢測套組,78,2022/05/10 10:35:02,快篩試劑11:00開始 不發號碼牌
5932077510,左外野藥局,桃園市龜山區文光街６號１樓,121.3802,25.05471,(03)3271503,羅氏家用新冠病毒抗原自我檢測套組,69,2022/05/10 10:35:02,快篩販售:晚上19:30至20:30（週五公休）*不發號碼牌 請直接排隊購買
5932077627,文興藥局,桃園市龜山區復興一路１０２號１、２、３樓,121.368,25.0592,(03)3285330,羅氏家用新冠病毒抗原自我檢測套組,78,2022/05/10 10:35:02,快篩實名制，每天16:00開始販售，售完為止。
5932080035,慶昇藥局,桃園市八德區桃鶯路一Ｏ二號,121.3279,24.97006,(03)3648037,羅氏家用新冠病毒抗原自我檢測套組,1,2022/05/10 10:35:02,口罩販賣時段：9:00~12:00
5932083303,吉康生活藥局,桃園市八德區義勇街１２０號,121.3045,24.96354,(03)3768577,羅氏家用新冠病毒抗原自我檢測套組,35,2022/05/10 10:35:02,周休二日，周一到周五09.:30發放快篩號碼牌 銷售時間 09:30-11:30
5932083670,保健藥局,桃園市八德區介壽路一段８３３號２樓,121.3,24.96168,(03)3669486,羅氏家用新冠病毒抗原自我檢測套組,78,2022/05/10 10:35:02,無
5932083974,晨鴻藥師藥局,桃園市八德區桃鶯路７號１樓,121.3265,24.97179,(03)3764299,羅氏家用新冠病毒抗原自我檢測套組,62,2022/05/10 10:35:02,快篩為早上8:30跟晚上6:00領取號碼牌，星期六早上一次發78份，快篩地圖數量參考就好，請勿再打電話詢問 謝謝
5932084435,康健藥局,桃園市八德區介壽路ㄧ段８６３號,121.2999,24.96109,(03)3617226,羅氏家用新冠病毒抗原自我檢測套組,19,2022/05/10 10:35:02,無
5932084677,杏一八德介壽藥局,桃園市八德區介壽路一段７７１號１樓,121.3003,24.96305,(03)3665542,羅氏家用新冠病毒抗原自我檢測套組,78,2022/05/10 10:35:02,假日及國定假日不賣快篩.平日早上10點 開始賣
5932084695,康馥藥局,桃園市八德區金和路５３號１樓,121.2971,24.95494,(03)3749620,羅氏家用新冠病毒抗原自我檢測套組,69,2022/05/10 10:35:02,口罩販賣時段：15:00 ， 週日14:30開始營業；星期六公休。
5932084855,中山啄木鳥藥局,桃園市八德區中山路２１１號、２１３號、２１５號、２１７號１樓,121.2849,24.92539,(03)3656375,羅氏家用新冠病毒抗原自我檢測套組,78,2022/05/10 10:35:02,無
5932098091,悅發藥局,桃園市龍潭區龍元路８６號,121.2119,24.86481,(03)4705098,羅氏家用新冠病毒抗原自我檢測套組,13,2022/05/10 10:35:02,快篩販賣時段:貨源隨到隨賣
5932099927,大心聯合藥局,桃園市龍潭區中興路３９０號,121.2313,24.87337,(03)4897998,羅氏家用新冠病毒抗原自我檢測套組,78,2022/05/10 10:35:02,快篩實名制：週一至週日下午15:30開始販售
5932100185,德聯藥師藥局,桃園市平鎮區龍南路３１號,121.2452,24.92473,(03)4603613,羅氏家用新冠病毒抗原自我檢測套組,60,2022/05/10 10:35:02,快篩 5月10日 下午2點開始賣
5932100354,世新藥局,桃園市平鎮區廣泰路７５之２號,121.2052,24.94629,(03)4941234,羅氏家用新冠病毒抗原自我檢測套組,1,2022/05/10 10:35:02,實名制快篩周一至周五13:30販售
5932100809,福澤民族藥局,桃園市平鎮區民族路二段１３９號１樓,121.2048,24.95706,(03)4014747,羅氏家用新冠病毒抗原自我檢測套組,75,2022/05/10 10:35:02,家用快篩販賣時段15:30至售完為止
5932100925,譽達藥局,桃園市平鎮區育達路２４０號１樓,121.2072,24.95155,(03)4922990,羅氏家用新冠病毒抗原自我檢測套組,78,2022/05/10 10:35:02,快篩星期一到六下午三點開始，現場領取，口罩地圖不準，以現場門口公告為主（星期日無販售）
5932101137,平鎮延平藥局,桃園市平鎮區延平路二段４３０巷７９—１６號,121.206,24.94458,(03)4918187,羅氏家用新冠病毒抗原自我檢測套組,228,2022/05/10 10:35:02,周一~周六，下午1點~3點販售公費快篩，請自備500元，不找零!不找零!
5932101164,南勢藥局,桃園市平鎮區中豐路南勢二段１０８號,121.2106,24.91665,(03)4395663,羅氏家用新冠病毒抗原自我檢測套組,56,2022/05/10 10:35:02,無
5932101191,譽達文化藥局,桃園市平鎮區文化街８巷２號１樓,121.2027,24.95667,(03)4919660,羅氏家用新冠病毒抗原自我檢測套組,48,2022/05/10 10:35:02,星期一至星期六.早上10點發放（無預先發放號碼牌）-現場排隊購買.需自備零錢不找零
5932101253,新大賀藥局,桃園市平鎮區新榮路２５９號１樓,121.2135,24.94617,(03)4927100,羅氏家用新冠病毒抗原自我檢測套組,78,2022/05/10 10:35:02,下午兩點開始發號碼牌販售快篩
5932108430,建德藥局,桃園市平鎮區北勢里金陵路１０３號,121.2229,24.94747,(03)4686662,羅氏家用新冠病毒抗原自我檢測套組,1,2022/05/10 10:35:02,國定假日皆休診.口罩販售時段:上午9:30起至售完為止
5932108574,天健示範藥局,桃園市平鎮區文化街２５２號,121.2032,24.95127,(03)4937169,羅氏家用新冠病毒抗原自我檢測套組,22,2022/05/10 10:35:02,快篩實名制每天8點販售，七點發號碼牌
593210A238,美樂蒂藥局,桃園市平鎮區民族路二三七號二樓,121.2091,24.95658,(03)4023131,羅氏家用新冠病毒抗原自我檢測套組,15,2022/05/10 10:35:02,以調劑為主  開賣時間不固定 勿提早排隊  等越久染疫風險越大
5932120114,廣福藥局,桃園市觀音區新坡里新生路４１號,121.1358,25.01381,(03)4984488,羅氏家用新冠病毒抗原自我檢測套組,2,2022/05/10 10:35:02,實名制快篩上午8點開始販售
5932124381,日昇藥局,桃園市觀音區成功路一段７８１號,121.119,25.05221,(03)4834212,羅氏家用新冠病毒抗原自我檢測套組,2,2022/05/10 10:35:02,下午4點及晚上9點各販售39份快篩試劑
5933010064,明德藥局,新竹縣關西鎮中山路１８號,121.1778,24.79152,(03)5874335,羅氏家用新冠病毒抗原自我檢測套組,1,2022/05/10 10:35:02,無
5933010091,進安藥局,新竹縣關西鎮正義路１５號,121.1761,24.79111,(03)5872153,羅氏家用新冠病毒抗原自我檢測套組,75,2022/05/10 10:35:02,12:00-14:00休息（配合醫療院所）。
5933010144,佳仁藥局,新竹縣關西鎮中興路１２號,121.1771,24.79227,(035)872298,羅氏家用新冠病毒抗原自我檢測套組,73,2022/05/10 10:35:02,全年無休（星期日不定期）
5933052875,健樹藥局,新竹縣竹北市莊敬三路３９號１樓,121.0249,24.82242,(03)5505262,羅氏家用新冠病毒抗原自我檢測套組,35,2022/05/10 10:35:02,如期收到快篩時，每日早上10點開始販售，可追蹤啄木鳥耳鼻喉科臉書公告
5933052955,仁里藥局,新竹縣竹北市勝利二路１２５號,121.0278,24.82236,(03)6673878,羅氏家用新冠病毒抗原自我檢測套組,6,2022/05/10 10:35:02,實名制快篩販賣時段：星期一~日 上午10:00至售完為止
5933053489,十興藥局,新竹縣竹北市莊敬五街７５號,121.0268,24.82346,(03)6684889,羅氏家用新冠病毒抗原自我檢測套組,78,2022/05/10 10:35:02,快篩實名制，每天16:00開始販售，售完為止。
5933053596,中華藥局,新竹縣竹北市中華路２２６號１、２樓,121.0028,24.83118,(03)5513031,羅氏家用新冠病毒抗原自我檢測套組,78,2022/05/10 10:35:02,快篩實名制，每天16:00開始販售，售完為止。
5933061650,勝利大藥局,新竹縣湖口鄉勝利村漢陽路１號,121.0262,24.86326,(03)5987520,羅氏家用新冠病毒抗原自我檢測套組,2,2022/05/10 10:35:02,實名制快篩10點開始（5／2暫停，沒有到貨）
5933061712,湖山藥局,新竹縣湖口鄉中山路二段１２７號,121.0439,24.90198,(03)5904999,羅氏家用新冠病毒抗原自我檢測套組,78,2022/05/10 10:35:02,快篩實名制，每天16:00開始販售，售完為止。
5933080119,建仁藥局,新竹縣新豐鄉建興路一段１２２號,120.9951,24.87287,(03)5595850,羅氏家用新冠病毒抗原自我檢測套組,1,2022/05/10 10:35:02,快篩試劑晨7:00開始過卡（發售時間請勿打電話.請勿天天來排隊）
5933081536,昌昌藥局,新竹縣新豐鄉新市路１９３號,120.9846,24.90465,(03)5598077,羅氏家用新冠病毒抗原自我檢測套組,45,2022/05/10 10:35:02,5／10（二）號碼牌已發放完畢。5／11（三）上午8:00開始發放號碼牌。
5934011958,栢心藥局,宜蘭縣宜蘭市宜興路１段１１１號,121.7561,24.7514,(03)9357277,羅氏家用新冠病毒抗原自我檢測套組,78,2022/05/10 10:35:02,週一~週六14:00發號碼牌，下午14:30開始販售.（週四下午17:30發號碼牌，18:00開賣）
5934012419,熊貓健保藥局,宜蘭縣宜蘭市中山路３段１６９號１樓,121.753,24.75984,(03)9331335,羅氏家用新冠病毒抗原自我檢測套組,12,2022/05/10 10:35:02,星期一、五：下午14:30販賣；星期二三四六：上午10:00販賣。
5934021525,喜樂藥師藥局,宜蘭縣羅東鎮中山路３段１７１號,121.7697,24.67491,(03)9547113,羅氏家用新冠病毒抗原自我檢測套組,78,2022/05/10 10:35:02,無
5934022031,大菖藥局,宜蘭縣羅東鎮公正路８８號１樓,121.7715,24.67827,(03)9559898,羅氏家用新冠病毒抗原自我檢測套組,19,2022/05/10 10:35:02,星期一到六上午10:00販售，不發號碼牌，現場排隊售完為止。星期日上午9:00販售
5934031165,宏一藥局,宜蘭縣蘇澳鎮中山路１段２９號,121.8524,24.59604,(03)9962125,羅氏家用新冠病毒抗原自我檢測套組,16,2022/05/10 10:35:02,快篩販售時間 ~ 10:00
5934031263,皇超藥局,宜蘭縣蘇澳鎮華山路３號,121.8698,24.58087,(03)9951309,羅氏家用新冠病毒抗原自我檢測套組,12,2022/05/10 10:35:02,5／9 販售快篩試劑0850-1200 售完為止
5934031281,佑全蘇澳中山藥局,宜蘭縣蘇澳鎮中山路一段２３１號,121.8446,24.59558,(03)9961063,羅氏家用新冠病毒抗原自我檢測套組,19,2022/05/10 10:35:02,實名制快篩於早上10:00開始販售，售完為止
5935011738,佳禾藥局,苗栗縣苗栗市青苗里建台街7號,120.821,24.55742,(037)373041,羅氏家用新冠病毒抗原自我檢測套組,11,2022/05/10 10:35:02,快篩試劑7：30發號碼牌8：00開始販賣，販賣時段：營業時間至售完為止
5935012351,錦岳大藥局,苗栗縣苗栗市民族路１４０號１樓,120.8158,24.56409,(037)353046,羅氏家用新冠病毒抗原自我檢測套組,1,2022/05/10 10:35:02,營業時間：8:30 A.M～9:30 P.M 實名制快篩販售時間：早上8:40開始 可追蹤本店臉書
5935012413,苗栗藥局,苗栗縣苗栗市光復路５５號,120.8165,24.5532,(037)360789,羅氏家用新冠病毒抗原自我檢測套組,78,2022/05/10 10:35:02,快篩實名制，每天16:00開始販售，售完為止。
5935021458,沐安藥局,苗栗縣苑裡鎮客庄里信義路１－１０號１樓,120.653,24.43873,(037)868600,羅氏家用新冠病毒抗原自我檢測套組,31,2022/05/10 10:35:02,星期天快篩14點發號碼牌，販售為15-18點、19-21點；星期1至6的快篩8點開始發號碼牌。販售時間8-12點、15-18點、19-21點
5935030171,立安藥局,苗栗縣通霄鎮信義路１０７號,120.6804,24.48877,(037)760100,羅氏家用新冠病毒抗原自我檢測套組,20,2022/05/10 10:35:02,快篩實名制 週一到週六下午15:00開始販售  售完為止
5935030180,通霄藥局,苗栗縣通霄鎮中山路１３１號,120.678,24.48903,(037)755155,羅氏家用新冠病毒抗原自我檢測套組,1,2022/05/10 10:35:02,快篩實名制，每天16:00開始販售，售完為止。
5935050182,民昌藥局,苗栗縣頭份市忠孝里信東路１３０號,120.9095,24.68911,(037)673 232,羅氏家用新冠病毒抗原自我檢測套組,13,2022/05/10 10:35:02,無
5935051947,森品藥局,苗栗縣頭份市建國路２段１５０、１５２、１５６號,120.9032,24.69653,(037)672378,羅氏家用新冠病毒抗原自我檢測套組,9,2022/05/10 10:35:02,營業時間：9:00-22:30
5935090015,永信藥局,苗栗縣公館鄉館中村榮光街１６號,120.8271,24.50226,(037)223597,羅氏家用新冠病毒抗原自我檢測套組,78,2022/05/10 10:35:02,每日下午3點開始販售快篩
5935131075,安康藥局,苗栗縣三義鄉廣盛中正路１１４號,120.7698,24.41377,(037)875958,羅氏家用新冠病毒抗原自我檢測套組,6,2022/05/10 10:35:02,早上8:20開始銷售，售完為止。臉書也會發布最新資訊
5936012515,中正藥局,臺中市豐原區中正路１８６號,120.7186,24.25187,(04)25298379,羅氏家用新冠病毒抗原自我檢測套組,64,2022/05/10 10:35:02,健保快篩販售AM10:30（貨運延遲則改為PM15:00）
5936020080,仁生藥局,臺中市東勢區東安里豐勢路４２１號,120.8286,24.25644,(04)25872245,羅氏家用新冠病毒抗原自我檢測套組,11,2022/05/10 10:35:02,以實際到貨為準*開始販售*售完為止！ （13:00-15:00 休息）週日有庫存會持續販售，均以現場為準！
5936040135,德厚藥局,臺中市清水區慷榔里慷榔２街５０號,121.4874,25.07275,(04)26560733,羅氏家用新冠病毒抗原自我檢測套組,1,2022/05/10 10:35:02,實名制快篩試劑於週一至週日預計10:00開始發送號碼牌（排隊數量額滿即開始販售）
5936050364,沙鹿福倫藥局,臺中市沙鹿區中山路４３５號１樓,120.5612,24.24291,(04)26657718,羅氏家用新冠病毒抗原自我檢測套組,78,2022/05/10 10:35:02,實名制快篩早上11點開賣。 賣完為止。謝謝。
5936080077,明興藥局,臺中市神岡區北庄里中山路１０３７號,120.6711,24.25617,(04)25621030,羅氏家用新冠病毒抗原自我檢測套組,78,2022/05/10 10:35:02,週日店休，快篩11:00
5936090126,頭張藥局,臺中市潭子區頭張路一段１０８號,120.6998,24.1945,(04)25334510,羅氏家用新冠病毒抗原自我檢測套組,5,2022/05/10 10:35:02,快篩販售 早上8點領號碼牌 並於當日中午12點前領取.逾期作廢
5936101893,新信和藥局,臺中市大雅區民興街５０號,120.6482,24.22531,(04)25603058,羅氏家用新冠病毒抗原自我檢測套組,78,2022/05/10 10:35:02,5／10（二） 11：00準時開賣！健保卡尾數雙號可以購買！！
5936103002,學府藥局,臺中市大雅區學府路２２５號１樓,120.6498,24.22214,(04)25609333,羅氏家用新冠病毒抗原自我檢測套組,78,2022/05/10 10:35:02,實名制快篩12:00開始販售 8:30-10:00  星期天下午晚上休息
5936111120,新安藥局,臺中市新社區興安路４９之１號,120.8096,24.24215,(04)25820690,羅氏家用新冠病毒抗原自我檢測套組,16,2022/05/10 10:35:02,快篩劑10:00販售.週日不販售
5936171386,國際大藥局,臺中市龍井區藝術街６號,120.5954,24.18751,(04)26522118,羅氏家用新冠病毒抗原自我檢測套組,1,2022/05/10 10:35:02,無
5936190327,富眾藥局,臺中市太平區永豐路３５號,120.7131,24.12447,(04)22706009,羅氏家用新冠病毒抗原自我檢測套組,68,2022/05/10 10:35:02,111年平安吉祥年:星期一至星期六.下午1點.星期日:休息.
5936190336,仁和藥局,臺中市太平區新仁路一段１６０號,120.7034,24.11124,(04)22783239,羅氏家用新冠病毒抗原自我檢測套組,1,2022/05/10 10:35:02,口罩販賣時間詳情，請見藥局粉絲團專頁
5936190710,東亞藥師大藥局,臺中市太平區中興路６６號,120.7167,24.12806,(04)22787987,羅氏家用新冠病毒抗原自我檢測套組,4,2022/05/10 10:35:02,每日早上9:00先領號碼牌下午2:00~10:00領快篩試劑
5936200097,大里啄木鳥藥局,臺中市大里區中興路２段７２號,120.6871,24.09733,(04)24865725,羅氏家用新冠病毒抗原自我檢測套組,36,2022/05/10 10:35:02,快篩開賣時間AM10.00
5936209287,德芳大藥局,臺中市大里區益民路二段３０４號１、２樓,120.684,24.11183,(04)24815932,羅氏家用新冠病毒抗原自我檢測套組,5,2022/05/10 10:35:02,快篩販售時間:下午3點~6點
593620B138,聯生中西健保藥局,臺中市大里區現岱路１５８巷１１號,120.6919,24.10295,(04)24834058,羅氏家用新冠病毒抗原自我檢測套組,2,2022/05/10 10:35:02,早上八點半領號碼牌下午四點到六點領口罩W6W日早七點
5937012117,媽咪藥局,彰化縣彰化市彰南路２段１１５號,120.5793,24.08538,(04)7321517,羅氏家用新冠病毒抗原自我檢測套組,60,2022/05/10 10:35:02,實名制快篩:周一至周六下午3:00，週日早上9:00開始販售，售完為止
5937013196,彰化啄木鳥藥局,彰化縣彰化市茄南里金馬路２段２７號,120.5483,24.09616,(04)7330661,羅氏家用新冠病毒抗原自我檢測套組,5,2022/05/10 10:35:02,無
5937013285,大仁藥局,彰化縣彰化市忠孝里辭修路８０號１樓,120.5385,24.08752,(04)7282678,羅氏家用新冠病毒抗原自我檢測套組,1,2022/05/10 10:35:02,5 月份8.15 .22 .29 休診 14. 28晚上休診7.21下午晚上休診
5937013347,康禾藥局,彰化縣彰化市崙平里建和街５２號,120.5322,24.07063,(04)7624077,羅氏家用新冠病毒抗原自我檢測套組,78,2022/05/10 10:35:02,固定周一至周五下午一點發放快篩試劑，售完為止
5937013383,大心藥局,彰化縣彰化市中央里民族路５１７號,120.5406,24.07783,(04)7282797,羅氏家用新冠病毒抗原自我檢測套組,19,2022/05/10 10:35:02,星期日公休
5937013418,曉陽藥局,彰化縣彰化市西安里曉陽路２０２號,120.5373,24.07311,(04)7270989,羅氏家用新冠病毒抗原自我檢測套組,15,2022/05/10 10:35:02,現場排隊，請自備零錢。週一至週五早上9：30，週六下午3：30 ，售完為止（休息：中午12：00-15：30，18：00-19：30 ）
5937013472,建國春生中西藥局,彰化縣彰化市建國北路１５０號,120.5498,24.09435,(04)7225047,羅氏家用新冠病毒抗原自我檢測套組,14,2022/05/10 10:35:02,下午2點發放號碼牌 發完即開始依序購買
5937013570,彰化藥局,彰化縣彰化市永安街２７８、２８０號,120.5438,24.08977,(04)7287877,羅氏家用新冠病毒抗原自我檢測套組,78,2022/05/10 10:35:02,暫停販售
5937013678,佑全彰化民族藥局,彰化縣彰化市民族路４５０號１樓,120.5404,24.07605,(04)7286549,羅氏家用新冠病毒抗原自我檢測套組,78,2022/05/10 10:35:02,處方領藥來佑全，快篩試劑販售時間:下午兩點
5937013749,中央啄木鳥藥局,彰化縣彰化市中央路２０６號,120.5285,24.06637,(04)7639581,羅氏家用新冠病毒抗原自我檢測套組,1,2022/05/10 10:35:02,13:30開始販售，若未收到配送，則以收到時間開始
5937013767,民族藥局,彰化縣彰化市民族路２１２號１樓,120.5393,24.071,(04)7261221,羅氏家用新冠病毒抗原自我檢測套組,1,2022/05/10 10:35:02,快篩實名制，每天16:00開始販售，售完為止。
5937031452,春生藥局愛民店,彰化縣和美鎮愛民路１０６號,120.4995,24.1099,(04)7566092,羅氏家用新冠病毒抗原自我檢測套組,4,2022/05/10 10:35:02,每日早上十點販售快篩試劑，若到貨延遲，則另行公佈販售時間
5937031756,永元藥局,彰化縣和美鎮和線路９１號,120.4925,24.11452,(04)7550045,羅氏家用新冠病毒抗原自我檢測套組,7,2022/05/10 10:35:02,固定週一至週日中午11:30分起開始販賣口罩，每週四公休。
5937050395,裕良大藥局,彰化縣員林市莒光路３號,120.5663,23.95163,(04)8360388,羅氏家用新冠病毒抗原自我檢測套組,78,2022/05/10 10:35:02,全年無休
5937052246,新義藥局,彰化縣員林市南平里新義街２８８號,120.5678,23.96254,(04)8396788,羅氏家用新冠病毒抗原自我檢測套組,3,2022/05/10 10:35:02,每天早上10點販賣
5937052255,淑德藥局,彰化縣員林市仁美里中山路２段１１０、１１２號,120.5713,23.96388,(04)8359155,羅氏家用新冠病毒抗原自我檢測套組,24,2022/05/10 10:35:02,周日沒營業。
5937052264,醫聯藥師藥局,彰化縣員林市三條里員東路二段４１０號１樓,120.5811,23.95898,(04)8360617,羅氏家用新冠病毒抗原自我檢測套組,9,2022/05/10 10:35:02,無
5937052317,員郭藥局,彰化縣員林市三民街３８－１號,120.573,23.95862,(04)8356201,羅氏家用新冠病毒抗原自我檢測套組,26,2022/05/10 10:35:02,無
5937052335,大樹三民藥局,彰化縣員林市三民東街３５６號,120.5825,23.96065,(04)8372837,羅氏家用新冠病毒抗原自我檢測套組,78,2022/05/10 10:35:02,快篩實名制，每天16:00開始販售，售完為止。
5937052433,迪迪連鎖藥局員林店,彰化縣員林市林森路１６３號１樓,120.5777,23.95715,(04)8312898,羅氏家用新冠病毒抗原自我檢測套組,22,2022/05/10 10:35:02,快篩實名制販售時間：每日十點發放，依物流配送時間為準。
5937052479,莒光藥局,彰化縣員林市莒光路３１６號１樓,120.5669,23.95942,(04)8361388,羅氏家用新冠病毒抗原自我檢測套組,1,2022/05/10 10:35:02,快篩實名制，每天16:00開始販售，售完為止。
5937052497,家家藥局,彰化縣員林市惠來街８７號,120.5704,23.95526,(04)8367007,羅氏家用新冠病毒抗原自我檢測套組,3,2022/05/10 10:35:02,無
5937052540,莒光啄木鳥藥局,彰化縣員林市中山路一段４５４號１樓,120.5668,23.95171,(04)8399625,羅氏家用新冠病毒抗原自我檢測套組,14,2022/05/10 10:35:02,無
5937061727,溪湖藥局,彰化縣溪湖鎮西環路３６５、３７１號１樓,120.4771,23.96099,(04)8818617,羅氏家用新冠病毒抗原自我檢測套組,26,2022/05/10 10:35:02,5／8今日實名制快篩因電腦系統關係以發放號碼牌方式，目前號碼牌已經發放完畢
5937071330,祥品藥局,彰化縣田中鎮北路里福安路３０８號,120.5874,23.86373,(04)8762311,羅氏家用新冠病毒抗原自我檢測套組,18,2022/05/10 10:35:02,口罩9點發號碼牌，持號碼牌和健保卡領口罩
5937071401,田中啄木鳥藥局,彰化縣田中鎮南路里員集路２段２６６號,120.5864,23.85628,(04)8746468,羅氏家用新冠病毒抗原自我檢測套組,35,2022/05/10 10:35:02,無
5937071447,大安藥局,彰化縣田中鎮新福路５７號,120.586,23.86264,(04)8752201,羅氏家用新冠病毒抗原自我檢測套組,7,2022/05/10 10:35:02,早上8點販售至晚間9點。中午12:00~14:30休息。
5937071456,萬禾藥局,彰化縣田中鎮員集路３段２７７號,120.5872,23.87138,(04)8742242,羅氏家用新冠病毒抗原自我檢測套組,1,2022/05/10 10:35:02,週一至週六08:50營業，中午1小時用餐 20:20停止營業， 週日公休。
5937091056,線西藥局,彰化縣線西鄉寓埔村中央路二段４８號,120.4709,24.13103,(04)7582482,羅氏家用新冠病毒抗原自我檢測套組,78,2022/05/10 10:35:02,快篩試劑 請FB搜尋[線西藥局] 週一至週五中午12點開始  週六早上9點開始 週日公休
5937101217,友誼藥局,彰化縣伸港鄉新港村中山路１５號,120.4864,24.14731,(047)980591,羅氏家用新冠病毒抗原自我檢測套組,67,2022/05/10 10:35:02,5／9 快篩晚上7:00~8:00；星期六.日不發放快篩；免費領取各大醫院診所牙科衛生所處方箋
5937101244,春生藥局伸港店,彰化縣伸港鄉新港村新港路４１７號,120.4868,24.15135,(04)7986263,羅氏家用新冠病毒抗原自我檢測套組,62,2022/05/10 10:35:02,每週一至週日早上8:30開始發放號碼，發完為售完
5937121237,福慧藥局,彰化縣秀水鄉彰水路２段２０３號,120.4917,24.02402,(04)7689180,羅氏家用新冠病毒抗原自我檢測套組,14,2022/05/10 10:35:02,1.早上8；45開始營業，早上9:00開始販售口罩 2.每日中午12:00-15:00休息
5937130049,明志藥局,彰化縣花壇鄉三春村彰員路１段５４２號,120.5679,24.01439,(04)7867702,羅氏家用新冠病毒抗原自我檢測套組,1,2022/05/10 10:35:02,周一至周日9:00開始販賣口罩
5937131233,春生藥局花壇店,彰化縣花壇鄉花壇村中正路５７－１號,120.5225,24.03964,(04)7867715,羅氏家用新冠病毒抗原自我檢測套組,63,2022/05/10 10:35:02,周一至周日10:30開始販賣
5937131260,大福藥局,彰化縣花壇鄉長沙村中正路９１號１樓,120.5449,24.02718,(04)7880073,羅氏家用新冠病毒抗原自我檢測套組,11,2022/05/10 10:35:02,周一至週五早上8:30開始販賣快篩，售完為止。周六每月第二，四週固定公休。周日皆公休。
5937161133,石埤藥局,彰化縣埔鹽鄉石埤村番金路８０之１６號,120.4225,23.98887,(04)8655146,羅氏家用新冠病毒抗原自我檢測套組,29,2022/05/10 10:35:02,週一至週日早上08:00開始販賣快篩.售完為止。
5937181279,佳恩藥局,彰化縣永靖鄉永西村瑚璉路３０２號,120.547,23.92421,(04)8235753,羅氏家用新冠病毒抗原自我檢測套組,1,2022/05/10 10:35:02,快篩實名制 :電話預約制，當日早上9點開始預約（已額滿）
5937201105,安利藥局,彰化縣二水鄉光化村員集路４段３號,120.6159,23.81147,(04)8794933,羅氏家用新冠病毒抗原自我檢測套組,73,2022/05/10 10:35:02,快篩下午3點現場販售 不發號碼牌 身障.醫護可優先購買
5937261147,益興藥局,彰化縣溪州鄉大庄村中山巷２７號,120.567,23.81505,(04)8802581,羅氏家用新冠病毒抗原自我檢測套組,6,2022/05/10 10:35:02,週一至週六早上10點開始販售，售完為止；1930休診
5937261236,溪州貓頭鷹藥局,彰化縣溪州鄉中山路三段臨２９１號、２９３號,120.4933,23.85328,(04)8890101,羅氏家用新冠病毒抗原自我檢測套組,5,2022/05/10 10:35:02,無
5938011838,愛馨藥局,南投縣南投市中山街１４巷１５號,120.687,23.90573,(049)2206006,羅氏家用新冠病毒抗原自我檢測套組,78,2022/05/10 10:35:02,周一至周六14:30開始販售，周日9:00販售
5938011909,彰南藥局,南投縣南投市彰南路二段２１號,120.6845,23.90847,(049)2230005,羅氏家用新冠病毒抗原自我檢測套組,78,2022/05/10 10:35:02,無
5938011918,聖宸健保藥局,南投縣南投市彰南路三段１６２號１樓,120.6744,23.92727,(049)2251741,羅氏家用新冠病毒抗原自我檢測套組,11,2022/05/10 10:35:02,早上10點發號碼牌銷售 離開視同放棄
5938020079,仁和藥局,南投縣埔里鎮薰化里中山路三段９７號,120.9631,23.96619,(049)2985470,羅氏家用新冠病毒抗原自我檢測套組,17,2022/05/10 10:35:02,固定周一至周日上午10.00快篩開賣，售完為止
5938020257,德林藥局,南投縣埔里鎮大城路２０６號,120.9517,23.97306,(049)2915293,羅氏家用新冠病毒抗原自我檢測套組,4,2022/05/10 10:35:02,每日10點開始販售快篩試劑，直至當日應售數量完畢或店休為止。
5938021772,集成藥局,南投縣埔里鎮南興街２７０號,120.9644,23.96386,(049)2992837,羅氏家用新冠病毒抗原自我檢測套組,58,2022/05/10 10:35:02,避免群聚~改成預約制~5／9~5／15已預約完畢~目前停止預約
5938021781,幸福藥局,南投縣埔里鎮中正路５４８號,120.9643,23.96946,(049)2999800,羅氏家用新冠病毒抗原自我檢測套組,74,2022/05/10 10:35:02,快篩13:30發放號碼牌，發完號碼牌即開始販售。
5938022000,禾安康藥局,南投縣埔里鎮南昌街２１９號１樓,120.9645,23.96633,(049)2900219,羅氏家用新冠病毒抗原自我檢測套組,1,2022/05/10 10:35:02,營業日早上十點開始代售快篩，售完為止。周日固定公休。
5938022064,大樹埔里藥局,南投縣埔里鎮中正路４３８號,120.9632,23.97263,(049)2980805,羅氏家用新冠病毒抗原自我檢測套組,78,2022/05/10 10:35:02,快篩實名制，每天16:00開始販售，售完為止。
5938032435,順安藥局,南投縣草屯鎮中正路７６８號,120.6848,23.98161,(049)2333228,羅氏家用新冠病毒抗原自我檢測套組,5,2022/05/10 10:35:02,實名制快篩試劑於早上10 點開始販售，售完為止
5938032560,祥陽藥局,南投縣草屯鎮中正路８２２、８２４號,120.6854,23.98276,(049)2353393,羅氏家用新冠病毒抗原自我檢測套組,78,2022/05/10 10:35:02,快篩實名制，每天16:00開始販售，售完為止。
5938040366,竹山藥局,南投縣竹山鎮中山里竹山路１５０之２號,120.6818,23.7539,(049)2644930,羅氏家用新冠病毒抗原自我檢測套組,2,2022/05/10 10:35:02,避免群聚，快篩試劑採預約制，週日照常營業，售完為止。
5938040437,宏明堂藥局,南投縣竹山鎮竹山里橫街８８號,120.6831,23.75616,(049)2642202,羅氏家用新冠病毒抗原自我檢測套組,1,2022/05/10 10:35:02,早上7:30開始營業至晚上9:00。（全年無休）
5938041729,早安藥局,南投縣竹山鎮雲林路４１號,120.6834,23.75608,(049)2651032,羅氏家用新冠病毒抗原自我檢測套組,7,2022/05/10 10:35:02,實名制快篩試劑早上10點開始販售
5938041756,集山啄木鳥藥局,南投縣竹山鎮集山路３段４０５號,120.696,23.76179,(049)2659287,羅氏家用新冠病毒抗原自我檢測套組,11,2022/05/10 10:35:02,口罩代售時間無限制
5938041809,維淇藥師藥局,南投縣竹山鎮集山路三段８１６－１號,120.6863,23.75949,(049)2653689,羅氏家用新冠病毒抗原自我檢測套組,5,2022/05/10 10:35:02,早上8：30~晚上21：00，星期六下午晚上及星期日休息
5938041916,大明藥局,南投縣竹山鎮大明路４８２號,120.6798,23.759,(049)2652500,羅氏家用新冠病毒抗原自我檢測套組,78,2022/05/10 10:35:02,快篩實名制，每天16:00開始販售，售完為止。
5938041925,耀聖藥局,南投縣竹山鎮集山路三段８１６之５號,120.6862,23.7596,(049)2652267,羅氏家用新冠病毒抗原自我檢測套組,18,2022/05/10 10:35:02,無
5938050120,家禾藥局,南投縣集集鎮民生路２３７號,120.779,23.82647,(049)2760565,羅氏家用新冠病毒抗原自我檢測套組,2,2022/05/10 10:35:02,快篩代售：w1~w5 下午2：00（當場發放號碼牌，而後當場代售）
5938061285,人德藥局,南投縣名間鄉南雅村員集路１３６號,120.7025,23.83565,(049)2739317,羅氏家用新冠病毒抗原自我檢測套組,1,2022/05/10 10:35:02,快篩代售時間週一至週五上午09:00起，週日下午1:00起
5938110078,立特藥局,南投縣水里鄉中央村中正路６８號,120.8543,23.81587,(049)2775837,羅氏家用新冠病毒抗原自我檢測套組,4,2022/05/10 10:35:02,每天早上8點現場排隊持健保卡領號碼牌，中午12點至晚上9點半持號碼牌領快篩劑.
5939010504,桂賓藥局,雲林縣斗六市信義里鎮北路３號,120.5432,23.71143,(05)5332138,羅氏家用新冠病毒抗原自我檢測套組,75,2022/05/10 10:35:02,週五.六.日 休息 沒售快篩
5939011734,怡康健保藥局,雲林縣斗六市西平路４２－１號,120.5392,23.70849,(05)5334585,羅氏家用新冠病毒抗原自我檢測套組,84,2022/05/10 10:35:02,5／9（一） 9:30開始販售快篩
5939012240,究安藥局,雲林縣斗六市雲林路二段２０２號,120.5311,23.70307,(05)5375697,羅氏家用新冠病毒抗原自我檢測套組,68,2022/05/10 10:35:02,今日快篩下午一點發貨，請到現場拿貨.，不要電話諮詢，人力不夠
5939012400,陽光藥局,雲林縣斗六市永安路６９號,120.548,23.70923,(05)5362097,羅氏家用新冠病毒抗原自我檢測套組,72,2022/05/10 10:35:02,快篩16:00開賣~現場排隊，請勿電話詢問
5939012428,德昌藥局,雲林縣斗六市明德路１０１號,120.5374,23.69834,(05)5340870,羅氏家用新冠病毒抗原自我檢測套組,1,2022/05/10 10:35:02,快篩每日9點30至11點30現場排隊.當日有剩.下午3點30至售完
5939012580,林博彥藥師藥局,雲林縣斗六市莊敬路６５號,120.5495,23.70354,(05)5361258,羅氏家用新冠病毒抗原自我檢測套組,35,2022/05/10 10:35:02,無
5939012606,永兆藥局,雲林縣斗六市北平路１６６號,120.5397,23.7153,(05)5378257,羅氏家用新冠病毒抗原自我檢測套組,8,2022/05/10 10:35:02,每日早上9點開始販售，預留18組給醫護警消及居隔者之緊急狀況使用，請持相關證明文件至藥局洽詢。
5939021294,玲津藥局,雲林縣斗南鎮中山路１７之２號,120.4801,23.67372,(05)5972889,羅氏家用新冠病毒抗原自我檢測套組,5,2022/05/10 10:35:02,周一至周六.上午8-12 14:30-18 週日9-11
5939021463,安瑞藥局,雲林縣斗南鎮新興街９４號,120.48,23.67483,(05)5972099,羅氏家用新冠病毒抗原自我檢測套組,13,2022/05/10 10:35:02,因物流配送時間不一定，原則上9:00販售
5939021490,庚辛藥局,雲林縣斗南鎮中正路１３９－１號,120.478,23.67642,(05)5953776,羅氏家用新冠病毒抗原自我檢測套組,24,2022/05/10 10:35:02,因為配送時間不一定，以當日配送到店時間安排販售時段。
5939021614,斗南藥局,雲林縣斗南鎮南昌路１１２號,120.4791,23.67321,(05)5960102,羅氏家用新冠病毒抗原自我檢測套組,78,2022/05/10 10:35:02,無
5939030177,上方藥局,雲林縣虎尾鎮中山里中正路１７７號,120.4325,23.70765,(05)6332828,羅氏家用新冠病毒抗原自我檢測套組,13,2022/05/10 10:35:02,快篩採號碼牌販售，星期一至六早上8點30分開始發放，請提早來排隊，星期天無快篩販售服務
5939030355,祥惠藥局,雲林縣虎尾鎮惠來里惠來８１之５號,120.4892,23.72847,(05)6224308,羅氏家用新冠病毒抗原自我檢測套組,57,2022/05/10 10:35:02,週日請先電話洽詢
5939030364,勝泰中西藥局,雲林縣虎尾鎮林森路一段４２７號,120.4353,23.71068,(05)6329479,羅氏家用新冠病毒抗原自我檢測套組,47,2022/05/10 10:35:02,無
5939031585,利芳藥局,雲林縣虎尾鎮光復路３１０號,120.4385,23.71011,(05)6311016,羅氏家用新冠病毒抗原自我檢測套組,35,2022/05/10 10:35:02,販賣口罩時間:0830-賣完為止
5939031996,端發藥局,雲林縣虎尾鎮林森路一段３２９號,120.4368,23.71237,(05)6314168,羅氏家用新冠病毒抗原自我檢測套組,56,2022/05/10 10:35:02,販賣快篩時間:每日14:30-售完為止請提早排隊
5939032144,新生松藥局,雲林縣虎尾鎮民生路３７－５號,120.4367,23.70816,(05)6326562,羅氏家用新冠病毒抗原自我檢測套組,36,2022/05/10 10:35:02,實名制快篩販賣時間:周一到周五早上9:30販賣，周六，日休息
5939032617,永德健保藥局,雲林縣虎尾鎮德興路８３號,120.4313,23.70946,(05)6322802,羅氏家用新冠病毒抗原自我檢測套組,2,2022/05/10 10:35:02,早上8:30開始販售快篩試劑，售完為止。（營業時間： 週一至週五8:30~21:00，假日9:00~18:00）
5939032724,虎尾藥局,雲林縣虎尾鎮林森路二段１１７、１１９號,120.4298,23.70595,(05)6336330,羅氏家用新冠病毒抗原自我檢測套組,2,2022/05/10 10:35:02,新開業， 5／4網路建置完成 每日下午16:00開始販售
5939050044,健康藥局,雲林縣土庫鎮順天里中正路１１號,120.388,23.6739,(05)6622889,羅氏家用新冠病毒抗原自我檢測套組,7,2022/05/10 10:35:02,代售口罩時間早上七點三十五分開始，現場排隊，售完為止
5939051238,天愛藥局,雲林縣土庫鎮中山路８０號,120.3903,23.6749,(05)6629923,羅氏家用新冠病毒抗原自我檢測套組,7,2022/05/10 10:35:02,無
5939060120,民生藥局,雲林縣北港鎮民生路７０號,120.3027,23.56495,(05)7822476,羅氏家用新冠病毒抗原自我檢測套組,3,2022/05/10 10:35:02,上午8:30-晚上9:30，週末請先電話洽詢
5939060317,益安大藥局,雲林縣北港鎮華勝里公園路１８之２號,120.3028,23.57434,(05)7730779,羅氏家用新冠病毒抗原自我檢測套組,7,2022/05/10 10:35:02,篩劑...每天貨到販售..賣完為止
5939061805,宜康藥局,雲林縣北港鎮公園路１５９號,120.3011,23.57754,(05)7820685,羅氏家用新冠病毒抗原自我檢測套組,1,2022/05/10 10:35:02,販賣口罩時間:0830-2200
5939061921,北港啄木鳥藥局,雲林縣北港鎮華勝路２５０號,120.2982,23.57877,(05)7822795,羅氏家用新冠病毒抗原自我檢測套組,1,2022/05/10 10:35:02,固定周一至週日09:00開始發放並依序販售口罩售完
5939061930,德豐藥局,雲林縣北港鎮公園路１２號,120.303,23.5735,(05)7835338,羅氏家用新冠病毒抗原自我檢測套組,1,2022/05/10 10:35:02,平日中午十二點到兩點休息，下午六點到六點半休息，週日全天休息
5939071310,禾安藥局,雲林縣古坑鄉朝陽村中山路１３６－１號,120.562,23.64552,(05)5828318,羅氏家用新冠病毒抗原自我檢測套組,31,2022/05/10 10:35:02,口罩代售時間每日上午8:00發號碼販售，售完為止
5939090146,明泰藥局,雲林縣莿桐鄉莿桐村中山路１０６號,120.5002,23.75753,(05)5842824,羅氏家用新冠病毒抗原自我檢測套組,2,2022/05/10 10:35:02,販賣口罩時間08:30至完售
5939091269,禾季藥局,雲林縣莿桐鄉興貴村興北１０之１４號,120.5236,23.77634,(05)5713685,羅氏家用新冠病毒抗原自我檢測套組,19,2022/05/10 10:35:02,快篩販售時間早上10點半 （周日公休）
5939121173,元美藥局,雲林縣崙背鄉港尾村６１－２號,120.378,23.75106,(05)6962496,羅氏家用新冠病毒抗原自我檢測套組,43,2022/05/10 10:35:02,上午10:00開始代售快篩 ； 上午08:00開放健保卡排序
5939121271,崙背台丞藥局,雲林縣崙背鄉建國路５６號,120.3548,23.76012,(05)6966789,羅氏家用新冠病毒抗原自我檢測套組,78,2022/05/10 10:35:02,週日公休，下午２：３０開賣，售完為止。
5939131482,麥津藥局,雲林縣麥寮鄉中山路３１３、３１５號,120.2527,23.74947,(05)6932258,羅氏家用新冠病毒抗原自我檢測套組,78,2022/05/10 10:35:02,快篩實名制，每天16:00開始販售，售完為止。
5939150012,博順藥局,雲林縣褒忠鄉中正路３２５之３號,120.3081,23.69338,(05)6971048,羅氏家用新冠病毒抗原自我檢測套組,18,2022/05/10 10:35:02,因故無法發口罩，已向健保局告知。
5939161140,木川藥局,雲林縣台西鄉中山路３９３號,120.1931,23.70056,(05)6986220,羅氏家用新冠病毒抗原自我檢測套組,1,2022/05/10 10:35:02,口罩發放時間:星期一到星期六早上8:00開始，售完為止.星期日休息
5939171039,嘉民藥局,雲林縣元長鄉長南村元南路６２號,120.3124,23.64811,(05)7880513,羅氏家用新冠病毒抗原自我檢測套組,48,2022/05/10 10:35:02,無
5939201283,義生藥局,雲林縣水林鄉水林路１９７號,120.2445,23.57217,(05)7853701,羅氏家用新冠病毒抗原自我檢測套組,11,2022/05/10 10:35:02,販賣快篩時間:如營業時間
5939201354,玉璽藥局,雲林縣水林鄉水南村水林路１１５號之１,120.2466,23.57223,(05)7856019,羅氏家用新冠病毒抗原自我檢測套組,23,2022/05/10 10:35:02,實名制快篩早上8:30 開賣，售完為止
5940011400,一信藥局,嘉義縣朴子市山通路１３２號,120.2443,23.46547,(05)3792323,羅氏家用新冠病毒抗原自我檢測套組,26,2022/05/10 10:35:02,早上9:00到晚上21:00
5940030058,萬有藥局,嘉義縣大林鎮平林里民權路３６號,120.4599,23.60009,(05)2654246,羅氏家用新冠病毒抗原自我檢測套組,13,2022/05/10 10:35:02,周一～周六 08:00-21:30週日 08:00-12:00
5940031359,家寶藥局,嘉義縣大林鎮平林里中興路２６４號,120.4613,23.60269,(05)2649000,羅氏家用新冠病毒抗原自我檢測套組,57,2022/05/10 10:35:02,08:00~售罄
5940031368,溝背藥局,嘉義縣大林鎮義和里三塊厝７－７號,120.4859,23.61441,(05)2955878,羅氏家用新冠病毒抗原自我檢測套組,32,2022/05/10 10:35:02,快篩早上10點開始販賣，週日不販賣快篩.營業時間星期一至星期六0800-1200；1430-1930.星期日0800-1200，下午晚上休息.
5940040072,三和藥局,嘉義縣民雄鄉中樂村中樂路５３號,120.4302,23.55603,(05)2262488,羅氏家用新冠病毒抗原自我檢測套組,55,2022/05/10 10:35:02,現場到貨後開始賣，星期天沒有販售
5940040081,惠民藥局,嘉義縣民雄鄉福樂村埤角１０２號,120.4413,23.52544,(05)2211466,羅氏家用新冠病毒抗原自我檢測套組,58,2022/05/10 10:35:02,星期一~星期六.上午10:30開始販售
5940040170,健安藥局,嘉義縣民雄鄉興南村頭橋４５號,120.439,23.52336,(05)2211797,羅氏家用新冠病毒抗原自我檢測套組,49,2022/05/10 10:35:02,營業:上午9點至下午9點.週日下午6點至9點
5940040321,上安藥局,嘉義縣民雄鄉西安路４６－２３號,120.4259,23.55737,(05)2261216,羅氏家用新冠病毒抗原自我檢測套組,3,2022/05/10 10:35:02,上午0830開賣-售罄為止
5940040349,正道藥局,嘉義縣民雄鄉中樂村復興路３８號,120.4304,23.55706,(05)2268345,羅氏家用新冠病毒抗原自我檢測套組,16,2022/05/10 10:35:02,周一~周六 15:00-售罄周日 視人力彈性發放08:30-12:00
5940041435,嘉方藥局,嘉義縣民雄鄉中樂村昇平路５８號,120.4303,23.55781,(05)2066747,羅氏家用新冠病毒抗原自我檢測套組,1,2022/05/10 10:35:02,早上08:00開始販賣，賣完為止，周六晚休、周日午晚休
5940041480,安生藥局,嘉義縣民雄鄉昇平路１２號,120.43,23.55676,(05)2262053,羅氏家用新冠病毒抗原自我檢測套組,14,2022/05/10 10:35:02,周一~周日 08:30-售罄
5940041597,民雄弘安藥局,嘉義縣民雄鄉建國路一段４５號,120.4336,23.5556,(05)2060200,羅氏家用新冠病毒抗原自我檢測套組,1,2022/05/10 10:35:02,無
5940041668,民雄照安藥局,嘉義縣民雄鄉中樂路２１號１樓,120.431,23.55621,(05)2060368,羅氏家用新冠病毒抗原自我檢測套組,1,2022/05/10 10:35:02,周一至周日早上8:00開始販售快篩，現場排隊，售完為止
5940041677,大方藥局,嘉義縣民雄鄉中樂村民族路４０－２號,120.4294,23.55555,(05)2268560,羅氏家用新冠病毒抗原自我檢測套組,8,2022/05/10 10:35:02,實名制快篩試劑配送到貨即販售~售完為止
5940041739,民雄藥局,嘉義縣民雄鄉東榮村００５鄰建國路一段１１７號,120.4333,23.55681,(05)2264566,羅氏家用新冠病毒抗原自我檢測套組,78,2022/05/10 10:35:02,快篩實名制，每天16:00開始販售，售完為止。
5940041748,大祐藥局,嘉義縣民雄鄉西安村西安路２１－１號１樓,120.4272,23.5564,(05)2067077,羅氏家用新冠病毒抗原自我檢測套組,28,2022/05/10 10:35:02,週日下午晚上休息
5940051164,濟安藥局,嘉義縣溪口鄉民生街５４號,120.3985,23.60407,(05)2696078,羅氏家用新冠病毒抗原自我檢測套組,4,2022/05/10 10:35:02,無
5940111450,祥和藥局,嘉義縣太保市太保二路１４９號１樓,120.2951,23.45484,(05)3623006,羅氏家用新冠病毒抗原自我檢測套組,8,2022/05/10 10:35:02,周一至周五早上十點賣快篩，周六八點
5940111576,太保照安藥局,嘉義縣太保市麻寮里中山路２段２９—２號１樓,120.3768,23.49864,(05)2381076,羅氏家用新冠病毒抗原自我檢測套組,57,2022/05/10 10:35:02,無
5940121376,水上弘安藥局,嘉義縣水上鄉寬士村崎子頭１號附１２５,120.4292,23.45,(05)2858000,羅氏家用新冠病毒抗原自我檢測套組,4,2022/05/10 10:35:02,08:00-22:00營業 快篩實名制因配送時間不定、販售時間將於本店群組公告
5940121394,水上藥局,嘉義縣水上鄉水頭村中興路２６６號,120.4029,23.43014,(05)2601121,羅氏家用新冠病毒抗原自我檢測套組,78,2022/05/10 10:35:02,快篩實名制，每天16:00開始販售，售完為止。
5940130035,康寧藥局,嘉義縣中埔鄉中山路５段９１９號,120.4601,23.45266,(05)2391380,羅氏家用新冠病毒抗原自我檢測套組,52,2022/05/10 10:35:02,販售口罩時間   08:00~售完
5940130106,榮芳藥局,嘉義縣中埔鄉金蘭村頂山門２８之２號,120.4942,23.44596,(05)2397405,羅氏家用新冠病毒抗原自我檢測套組,5,2022/05/10 10:35:02,無
5940131283,一心藥局,嘉義縣中埔鄉富收村頂中下街３１、３１－１號１樓,120.4885,23.45077,(05)2303553,羅氏家用新冠病毒抗原自我檢測套組,30,2022/05/10 10:35:02,無
5940131363,和睦藥局,嘉義縣中埔鄉中山路５段８２１號１樓,120.4618,23.45158,(05)2395283,羅氏家用新冠病毒抗原自我檢測套組,12,2022/05/10 10:35:02,每星期日無販售快篩      每週一週四早（8:30）  晚（19:00）販售各39份
