醫事機構代碼,醫事機構名稱,醫事機構地址,經度,緯度,醫事機構電話,廠牌項目,快篩試劑截至目前結餘存貨數量,來源資料時間,備註
0291010010,連江縣立醫院,連江縣南竿鄉復興村２１７號,119.9492,26.16084,(083)623995,羅氏家用新冠病毒抗原自我檢測套組,10,2022/05/09 14:50:34,4／29起固定周一至周六上午8:30-9:30快篩試劑販售.
2336210034,臺中市和平區梨山衛生所,臺中市和平區中正路１２號１樓、６８號１樓,121.2592,24.25678,(04)25989540,羅氏家用新冠病毒抗原自我檢測套組,5,2022/05/09 14:50:34,提供24小時急診待診服務，快篩試劑販售時段為周一至五0900-12:00，六日及國定假日為0900-1100
2340170016,嘉義縣大埔鄉衛生所,嘉義縣大埔鄉大埔村５３－１號,120.5928,23.29397,(05)2521214,羅氏家用新冠病毒抗原自我檢測套組,78,2022/05/09 14:50:34,無
2341250013,臺南市南化區衛生所,臺南市南化區南化里２２６－１號,120.4793,23.0444,(06)5771139,羅氏家用新冠病毒抗原自我檢測套組,197,2022/05/09 14:50:34,5／9日起調整實名制快篩試劑販售時間:下午2點30分-4點整，2點20分開始發放號碼牌售完提早結束。周六周日不販售。
2341300018,臺南市龍崎區衛生所,臺南市龍崎區崎頂里新市子１５８號,120.3618,22.96521,(06)5941397,羅氏家用新冠病毒抗原自我檢測套組,44,2022/05/09 14:50:34,無
2342250017,高雄市茂林區衛生所,高雄市茂林區茂林里茂林巷８－４號,120.6641,22.88641,(07)6801046,羅氏家用新冠病毒抗原自我檢測套組,16,2022/05/09 14:50:34,夜間急診，請先撥電話07-6801046
2342260013,高雄市桃源區衛生所,高雄市桃源區桃源里南進巷１８８－１號,120.7642,23.15845,(07)6861126,羅氏家用新冠病毒抗原自我檢測套組,104,2022/05/09 14:50:34,IDS提供24小時服務
2342270019,高雄市那瑪夏區衛生所,高雄市那瑪夏區瑪雅里６鄰平和巷２５２號,120.7024,23.24708,(07)6701142,羅氏家用新冠病毒抗原自我檢測套組,8,2022/05/09 14:50:34,春節期間正常門診
2344011036,澎湖縣馬公市第三衛生所,澎湖縣馬公市西文里１１８之２號,119.5836,23.56813,(06)9211723,羅氏家用新冠病毒抗原自我檢測套組,86,2022/05/09 14:50:34,本所快篩試劑只提供離島衛生室（虎井、桶盤）販售，時間週一至週五08:30-17:00售完為止，星期六、日國定假日09:00-12:00。
2344030022,澎湖縣白沙鄉鳥嶼衛生所,澎湖縣白沙鄉鳥嶼村漁港新村３號,119.6599,23.66008,(06)9916092,羅氏家用新冠病毒抗原自我檢測套組,107,2022/05/09 14:50:34,非上班時間提供急診服務
2344030031,澎湖縣白沙鄉吉貝衛生所,澎湖縣白沙鄉吉貝村８－１３號,119.6138,23.74056,(06)9911430,羅氏家用新冠病毒抗原自我檢測套組,237,2022/05/09 14:50:34,無
2344050015,澎湖縣望安鄉衛生所,澎湖縣望安鄉西安村３６－７號,119.4972,23.36161,(06)9991036,羅氏家用新冠病毒抗原自我檢測套組,61,2022/05/09 14:50:34,夜間急診。口罩、快篩試劑販售時間為:每日08:00-12:00、13:30-17:30售完為止，如有餘數為離島未售出（東嶼坪、花嶼）。
2344050024,澎湖縣望安鄉將軍衛生所,澎湖縣望安鄉將軍村１２鄰將軍澳１之３號,119.5216,23.3615,(06)9902066,羅氏家用新冠病毒抗原自我檢測套組,37,2022/05/09 14:50:34,24小時急診
2345120016,花蓮縣萬榮鄉衛生所,花蓮縣萬榮鄉萬榮村１鄰１６號,121.4092,23.71558,(03)8751651,羅氏家用新冠病毒抗原自我檢測套組,88,2022/05/09 14:50:34,快篩試劑代售時間：週一至週五下午2點至下午4點，販售為止。
2391030016,連江縣莒光鄉西莒衛生所,連江縣莒光鄉青帆村１４－１號,119.9331,25.97157,(083)689122,羅氏家用新冠病毒抗原自我檢測套組,233,2022/05/09 14:50:34,防疫口罩星期一至五09:00-17:00、（六）09:00-12:00現場購買
2391030026,連江縣莒光鄉東莒衛生所,連江縣莒光鄉大坪村３０－１號,119.9731,25.96113,(083)689038,羅氏家用新冠病毒抗原自我檢測套組,483,2022/05/09 14:50:34,防疫口罩星期一至星期日上午10:00-12:00收取健保卡，下午3:30至本所領取口罩。
2391040012,連江縣東引鄉衛生所,連江縣東引鄉中柳村１２３號,120.4904,26.36701,(083)677206,羅氏家用新冠病毒抗原自我檢測套組,2,2022/05/09 14:50:34,防疫口罩每日10:00-12:00現場購買
5901012598,婕登藥局,臺北市松山區八德路４段６９９號,121.5766,25.05021,(02)27482893,羅氏家用新冠病毒抗原自我檢測套組,2,2022/05/09 14:50:34,今天快篩已經發送完畢（電腦庫存不準）
5901012749,躍獅松和藥局,臺北市松山區八德路四段６６６－１號,121.5761,25.04979,(02)27492569,羅氏家用新冠病毒抗原自我檢測套組,78,2022/05/09 14:50:34,實名制快篩販售時段，每日下午4點販售，售完為止
5901013095,康采藥局,臺北市松山區南京東路５段２９１巷１７－２號,121.5663,25.05236,(02)27670271,羅氏家用新冠病毒抗原自我檢測套組,16,2022/05/09 14:50:34,（已完售，庫存不準）快篩試劑每日16點販售，週日沒有販售
5901013200,專品南京藥局,臺北市松山區南京東路４段７３號,121.5532,25.05185,(02)25147685,羅氏家用新冠病毒抗原自我檢測套組,73,2022/05/09 14:50:34,無
5901013399,一安正昇藥局,臺北市松山區南京東路５段３０９號,121.5667,25.05155,(02)27680993,羅氏家用新冠病毒抗原自我檢測套組,55,2022/05/09 14:50:34,快篩發放時間  下午14:30
5901013442,松山八德藥局,臺北市松山區八德路２段４００號,121.5466,25.04804,(02)27782773,羅氏家用新冠病毒抗原自我檢測套組,78,2022/05/09 14:50:34,快篩實名制，每天16:00開始販售，售完為止。
5901013700,杏一台北台安藥局,臺北市松山區八德路２段３９９號１樓,121.5465,25.04833,(02)87728295,羅氏家用新冠病毒抗原自我檢測套組,78,2022/05/09 14:50:34,快篩實名制販售時間為每天下午15:00，開賣前10分鐘發放號碼牌，售完為止
5901013719,大樹松山藥局,臺北市松山區民生東路５段１０７號１樓,121.5601,25.05878,(02)27562226,羅氏家用新冠病毒抗原自我檢測套組,78,2022/05/09 14:50:34,快篩實名制，每天16:00開始販售，售完為止。
5901013737,全欣藥局,臺北市松山區復興北路７３號２樓,121.5442,25.05104,(02)87729066,羅氏家用新冠病毒抗原自我檢測套組,48,2022/05/09 14:50:34,9:00am開始販售30人份15:00販售30人份:18:00販售17人份；週六:9:00販售39人份；週日:15:00販售39人份....排隊人數滿會先發號碼
5901020303,宏恩藥局,臺北市大安區大安路１段１８１號,121.5461,25.03619,(02)27000956,羅氏家用新冠病毒抗原自我檢測套組,2,2022/05/09 14:50:34,實名制快篩每周一~六，10:00發放號碼牌， 後於12:00~21:00自由擇時，持號碼牌領取快篩並收費
5901020385,延吉大藥局,臺北市大安區延吉街１５３號１樓,121.5548,25.04066,(02)27819227,羅氏家用新冠病毒抗原自我檢測套組,18,2022/05/09 14:50:34,無
5901020554,師大藥局,臺北市大安區師大路９９號１樓,121.5285,25.02271,(02)23623479,羅氏家用新冠病毒抗原自我檢測套組,35,2022/05/09 14:50:34,實名制快篩試劑開賣時間下午2:30現場排隊
5901020689,四維藥局,臺北市大安區復興南路２段１５１巷４３號１樓,121.5454,25.02846,(02)27094222,羅氏家用新冠病毒抗原自我檢測套組,75,2022/05/09 14:50:34,假日可先打電話聯絡
5901020787,吉成藥局,臺北市大安區泰順街７號,121.5316,25.02557,(02)23636475,羅氏家用新冠病毒抗原自我檢測套組,78,2022/05/09 14:50:34,每日下午三點發放號碼牌，同時間開始販賣實名制快篩，四點結束，週日無發放
5901023411,長虹藥局,臺北市大安區忠孝東路４段２１６巷 ６３號,121.5531,25.0382,(02)27210232,羅氏家用新冠病毒抗原自我檢測套組,25,2022/05/09 14:50:34,週一-週日2:30pm 發實名制快篩（現場排隊領號碼牌，依序購買，過號請重新排隊）
5901024098,杏一瑞安藥局,臺北市大安區瑞安街２０８巷１１弄１號,121.5406,25.02866,(02)27096710,羅氏家用新冠病毒抗原自我檢測套組,78,2022/05/09 14:50:34,3點發快篩，前5分鐘發牌
5901024221,安居藥局,臺北市大安區安居街１９號,121.5549,25.02085,(02)23773537,羅氏家用新冠病毒抗原自我檢測套組,78,2022/05/09 14:50:34,領快篩注意事項:週一到週五晚上7:30-9:00 週六早上8:00-12:00直接排隊購買 .週日不營業
5901024347,博大藥局,臺北市大安區安和路２段６５號,121.5526,25.03063,(02)27027858,羅氏家用新冠病毒抗原自我檢測套組,23,2022/05/09 14:50:34,若有配給．下午兩點開始販售。
5901024490,明星大藥局,臺北市大安區光復南路４３０之１號,121.5574,25.03618,(02)27023747,羅氏家用新冠病毒抗原自我檢測套組,38,2022/05/09 14:50:34,無
5901024516,博昱師大藥局,臺北市大安區羅斯福路３段１８９號,121.5281,25.02109,(02)23696966,羅氏家用新冠病毒抗原自我檢測套組,42,2022/05/09 14:50:34,實名制快篩販售時間為下午14:00~15:30
5901024669,百岳藥局,臺北市大安區和平東路２段３１１巷１１號,121.5452,25.02514,(02)27551037,羅氏家用新冠病毒抗原自我檢測套組,89,2022/05/09 14:50:34,快篩試劑販售時間:周一至周五10:30~12:00止
5901024678,大安健康人生藥局,臺北市大安區信義路４段３４號,121.5447,25.03316,(02)27025553,羅氏家用新冠病毒抗原自我檢測套組,78,2022/05/09 14:50:34,快篩發放時間:下午3點開始發放號碼牌，並依序入場購買，請協助自備紙鈔
5901024687,博昱大藥局,臺北市大安區樂業街１４８號、１５０號,121.5529,25.01998,(02)23776199,羅氏家用新冠病毒抗原自我檢測套組,78,2022/05/09 14:50:34,快篩發放為周一至周五1600開始發放
5901024838,昶青藥局,臺北市大安區濟南路３段２２之１號,121.5346,25.04008,(02)27515678,羅氏家用新冠病毒抗原自我檢測套組,1,2022/05/09 14:50:34,每天下午13:00販售快篩實名制
5901024918,康祥藥局,臺北市大安區忠孝東路４段２１６巷２１號,121.5531,25.04025,(02)27817891,羅氏家用新冠病毒抗原自我檢測套組,1,2022/05/09 14:50:34,星期天11:00-19:00
5901025059,博醫仁愛藥局,臺北市大安區仁愛路４段８巷２號１樓,121.5443,25.0375,(02)27019107,羅氏家用新冠病毒抗原自我檢測套組,5,2022/05/09 14:50:34,每天11:30發號碼牌，12:00~15:00憑號碼牌與健保卡購買實名制快篩
5901025077,敦南春天藥局,臺北市大安區敦化南路２段８１巷６３號１樓,121.5513,25.03002,(02)27553266,羅氏家用新冠病毒抗原自我檢測套組,78,2022/05/09 14:50:34,快篩待售時間:週一至週日15:00現場排隊購買，售完為止。（物流配送不及則例外，以門市公告為主）
5901091857,佳禾藥局,臺北市大同區大龍街２６２號,121.5158,25.07061,(02)25953806,羅氏家用新冠病毒抗原自我檢測套組,12,2022/05/09 14:50:34,無
5901092112,酒泉春天藥局,臺北市大同區酒泉街９４號、９４號２樓,121.5146,25.07193,(02)25977932,羅氏家用新冠病毒抗原自我檢測套組,73,2022/05/09 14:50:34,無
5901092130,大同民生藥局,臺北市大同區民生西路１２８號１樓、２樓及１３０號１樓、２樓,121.5191,25.05734,(02)25558886,羅氏家用新冠病毒抗原自我檢測套組,78,2022/05/09 14:50:34,快篩實名制，每天16:00開始販售，售完為止。
5901100333,明美藥局,臺北市中山區長春路６９號,121.5266,25.05502,(02)25365419,羅氏家用新冠病毒抗原自我檢測套組,13,2022/05/09 14:50:34,口罩周一至周五，16:30-18:30販售
5901100422,滿順藥局,臺北市中山區伊通街５４號１樓,121.5347,25.05145,(02)25075283,羅氏家用新冠病毒抗原自我檢測套組,1,2022/05/09 14:50:34,快篩服務時間 AM 8:30 起 售完為止
5901101321,文德藥局,臺北市中山區龍江路３５６巷１９號１樓,121.5401,25.06607,(02)25181178,羅氏家用新冠病毒抗原自我檢測套組,20,2022/05/09 14:50:34,無
5901101509,永直藥局,臺北市中山區北安路５９５巷２弄６號,121.5483,25.08192,(02)85098059,羅氏家用新冠病毒抗原自我檢測套組,214,2022/05/09 14:50:34,周一至周六早上8點發號碼牌，下午2點到晚上8點販售（拿號碼牌來買），周日不販售
5901101929,樂活苑藥局,臺北市中山區北安路５４６號１樓,121.548,25.08014,(02)25323296,羅氏家用新冠病毒抗原自我檢測套組,77,2022/05/09 14:50:34,實名制快篩代售時間為18:00~19:00.現場排隊，不發號碼牌.
5901102597,德惠藥局,臺北市中山區德惠街１２２號,121.53,25.06652,(02)25971131,羅氏家用新冠病毒抗原自我檢測套組,78,2022/05/09 14:50:34,每日下午3點30分開始販售快篩實名制
5901102677,興康源藥局,臺北市中山區中山北路１段１４０巷８號,121.5214,25.05143,(02)25311248,羅氏家用新冠病毒抗原自我檢測套組,41,2022/05/09 14:50:34,無
5901102855,錦西春天生活藥局,臺北市中山區錦西街１０號,121.5216,25.06024,(02)25312658,羅氏家用新冠病毒抗原自我檢測套組,78,2022/05/09 14:50:34,快篩14:40領號碼牌 15:00開始販售
5901103192,昶青林森藥局,臺北市中山區林森北路１１９巷５２號,121.5269,25.05018,(02)25639939,羅氏家用新冠病毒抗原自我檢測套組,8,2022/05/09 14:50:34,口罩代售平日10:30-20:00，例假日13:30-18:00 售完為止
5901103414,元宏藥局,臺北市中山區北安路４５８巷４１弄４９號,121.5465,25.0794,(02)25339728,羅氏家用新冠病毒抗原自我檢測套組,49,2022/05/09 14:50:34,快篩試劑於下午2:30販售，周日不販售，現場排隊，不提供號碼牌。
5901103629,十二願藥局,臺北市中山區林森北路３０９號,121.5256,25.05588,(02)25311223,羅氏家用新冠病毒抗原自我檢測套組,78,2022/05/09 14:50:34,快篩晚上8點開始發放.營業時間下午1點至凌晨3點
5901103656,大樹龍江藥局,臺北市中山區龍江路２４２號,121.5406,25.05889,(02)25035666,羅氏家用新冠病毒抗原自我檢測套組,78,2022/05/09 14:50:34,快篩實名制，每天16:00開始販售，售完為止。
5901103683,東東藥局,臺北市中山區長春路２５７之２號１樓,121.5408,25.05477,(02)25031730,羅氏家用新冠病毒抗原自我檢測套組,78,2022/05/09 14:50:34,快篩發放時間:星期一至六 .15點開始銷售至16點前結束
5901103745,吉林藥局,臺北市中山區吉林路３７１號（１樓）,121.5305,25.06511,(02)25865990,羅氏家用新冠病毒抗原自我檢測套組,78,2022/05/09 14:50:34,快篩實名制，每天16:00開始販售，售完為止。
5901112682,富康東湖藥局,臺北市內湖區東湖路１１９巷４９弄１６號,121.617,25.06988,(02)26323222,羅氏家用新冠病毒抗原自我檢測套組,1,2022/05/09 14:50:34,視快篩實際到貨時間販售；LINE社群搜尋「富康藥局東湖店」會有第一線消息
5901113018,桔子藥局,臺北市內湖區內湖路２段３３３號,121.5917,25.08319,(02)27930052,羅氏家用新冠病毒抗原自我檢測套組,130,2022/05/09 14:50:34,早0900-1200，午1400-1700，晚1900-2100
5901113438,晶龍藥局,臺北市內湖區成功路４段２１８號,121.5961,25.08456,(02)27956255,羅氏家用新冠病毒抗原自我檢測套組,19,2022/05/09 14:50:34,快篩試劑販售時間:星期一~六下午2:30 售完為止
5901113723,杏一港墘藥局,臺北市內湖區港墘路８３號（１樓）,121.5781,25.08078,(02)87978746,羅氏家用新冠病毒抗原自我檢測套組,78,2022/05/09 14:50:34,無
5901121734,湳港藥局,臺北市南港區研究院路１段１０１巷１２號,121.6167,25.05175,(02)27892200,羅氏家用新冠病毒抗原自我檢測套組,34,2022/05/09 14:50:34,週一至週日，2:30開賣（政府有配送的況狀下）（沒有發放號碼牌），售完為止
5901122080,成福大藥局,臺北市南港區成福路８號,121.5859,25.04578,(02)27859221,羅氏家用新冠病毒抗原自我檢測套組,3,2022/05/09 14:50:34,無
5901150342,士林三安藥局,臺北市士林區大南路１１號,121.526,25.08898,(02)28812631,羅氏家用新冠病毒抗原自我檢測套組,25,2022/05/09 14:50:34,無
5901150548,田倉藥局,臺北市士林區士東路１２４號,121.5302,25.11219,(02)88662188,羅氏家用新冠病毒抗原自我檢測套組,78,2022/05/09 14:50:34,每日19:00（傍晚7點）開始販售.
5901152079,資生堂藥局,臺北市士林區承德路４段４０巷１７號１Ｆ,121.522,25.08107,(02)28857588,羅氏家用新冠病毒抗原自我檢測套組,78,2022/05/09 14:50:34,今日快篩已售完
5901152453,家赫藥局,臺北市士林區忠義街８０號１樓,121.5317,25.10614,(02)28346453,羅氏家用新冠病毒抗原自我檢測套組,63,2022/05/09 14:50:34,每日下午2:40開始發號碼牌販售實名制快篩
5901153272,光榮藥局,臺北市士林區社中街１１８號,121.5103,25.0899,(02)28136060,羅氏家用新冠病毒抗原自我檢測套組,31,2022/05/09 14:50:34,實名制快篩販售時間~下午兩點半（14:30）開始販售~另外若當日未收到快篩無法販售會公告，謝謝大家~
5901153432,大南春天生活藥局,臺北市士林區大南路３１７、３１９號,121.518,25.08888,(02)28882196,羅氏家用新冠病毒抗原自我檢測套組,71,2022/05/09 14:50:34,本藥局可領慢箋 快篩是下午3點開始販售 售完為止（物流無配送&配送不及例外）
5901153521,天母台安藥局,臺北市士林區天母西路３４號,121.5262,25.11835,(02)28728017,羅氏家用新冠病毒抗原自我檢測套組,35,2022/05/09 14:50:34,有配送→每日下午2:30開始販售實
5901153567,華齡春天生活藥局,臺北市士林區華齡街３６、３８號,121.5195,25.08359,(02)28882156,羅氏家用新冠病毒抗原自我檢測套組,77,2022/05/09 14:50:34,快篩代售時間周一至周日15:00現場排隊購買售完為止（物流配送不及則例外，以門市公告為主）
5901153585,德行春天生活藥局,臺北市士林區德行東路７６號,121.5275,25.1073,(02)28380306,羅氏家用新冠病毒抗原自我檢測套組,64,2022/05/09 14:50:34,下午2點40持健保卡領號碼牌販售快篩到晚上10點售完為止
5901153674,愛佳藥局,臺北市士林區承德路４段２２２之１號,121.5215,25.0885,(02)28811199,羅氏家用新冠病毒抗原自我檢測套組,78,2022/05/09 14:50:34,實名制快篩平日一~五下午5:00販售，假日（六、日）不販售
5901153941,士東藥局,臺北市士林區士東路９１巷３號,121.5291,25.11256,(02)28760588,羅氏家用新冠病毒抗原自我檢測套組,78,2022/05/09 14:50:34,快篩實名制，每天16:00開始販售，售完為止。
5901154019,忠義台安藥局,臺北市士林區忠義街７２號１樓,121.5315,25.106,(02)28380685,羅氏家用新冠病毒抗原自我檢測套組,5,2022/05/09 14:50:34,下午2點開始販售快篩試劑
5901154028,向宇藥局,臺北市士林區德行東路２１７號１樓,121.5328,25.10935,(02)88661101,羅氏家用新冠病毒抗原自我檢測套組,54,2022/05/09 14:50:34,無
5901160142,德昇藥局,臺北市北投區裕民二路２０號,121.517,25.11604,(02)28217565,羅氏家用新冠病毒抗原自我檢測套組,47,2022/05/09 14:50:34,週一至週五 &[5／7週六] 下午 2:30分 實名制快篩現場排隊發售
5901160428,九福藥局,臺北市北投區公館路２３６號,121.5081,25.12612,(02)28953009,羅氏家用新冠病毒抗原自我檢測套組,9,2022/05/09 14:50:34,★週日店休未營業. 快篩下午1點發號碼牌
5901161890,良興藥局,臺北市北投區中和街２８６號,121.5004,25.14047,(02)28933360,羅氏家用新冠病毒抗原自我檢測套組,61,2022/05/09 14:50:34,18點30分點開始營業
5901161934,康揚藥局,臺北市北投區中和街３２２號,121.4998,25.14108,(02)28946520,羅氏家用新冠病毒抗原自我檢測套組,1,2022/05/09 14:50:34,（ 實名制快篩發放時間: 14:00~售完為止）
5901162306,上頤藥局,臺北市北投區中和街３２７號１樓,121.4997,25.14097,(02)28981230,羅氏家用新冠病毒抗原自我檢測套組,531,2022/05/09 14:50:34,無
5901163269,佳祈健保藥局,臺北市北投區明德路１４４號,121.5208,25.11047,(02)28232535,羅氏家用新冠病毒抗原自我檢測套組,14,2022/05/09 14:50:34,無
5901163296,天禧大藥局,臺北市北投區實踐街３５號,121.5087,25.11521,(02)28213558,羅氏家用新冠病毒抗原自我檢測套組,78,2022/05/09 14:50:34,實名制快篩下午1:30現場販售
5901163394,致遠春天藥局,臺北市北投區致遠一路１段１３２號１、２樓,121.5149,25.11051,(02)28253258,羅氏家用新冠病毒抗原自我檢測套組,60,2022/05/09 14:50:34,15:30開始發放號碼牌15:30開始販售口罩
5901163509,吉利春天生活藥局,臺北市北投區吉利街１２０號,121.5068,25.11851,(02)28253256,羅氏家用新冠病毒抗原自我檢測套組,78,2022/05/09 14:50:34,無
5901163536,天富大藥局,臺北市北投區石牌路２段１７１號（實際使用：１樓）,121.518,25.11848,(02)28225812,羅氏家用新冠病毒抗原自我檢測套組,16,2022/05/09 14:50:34,週一至週六下午2-3點直接販售；週日暫停販售
5901163572,永欣中西藥局,臺北市北投區中和街５０１號,121.4947,25.1452,(02)28910307,羅氏家用新冠病毒抗原自我檢測套組,56,2022/05/09 14:50:34,週一至週六 早上9:30發號碼牌 10點販售 周日公休（庫存不準 號碼牌發完即售完）謝謝
5901163616,江南育仁大藥局,臺北市北投區育仁路５５號１樓,121.4981,25.13361,(02)28981850,羅氏家用新冠病毒抗原自我檢測套組,5,2022/05/09 14:50:34,下午2點販售實名制快篩，假日視政府配發情況調整
5901163634,心樂藥局,臺北市北投區致遠一路２段１０５號１樓,121.5128,25.1131,(02)28210261,羅氏家用新冠病毒抗原自我檢測套組,58,2022/05/09 14:50:34,您好。發放快篩時間:周一二三五六早上8:30-09:00，週四加開早上10-11點，周一二三五 下午4:00-4:30，周日及國定假日休息
5901163643,致遠盛康藥局,臺北市北投區致遠二路１４１號１樓,121.5128,25.1173,(02)28263580,羅氏家用新冠病毒抗原自我檢測套組,7,2022/05/09 14:50:34,快篩試劑下午2點開始發放號碼牌
5901170406,鼎泰藥局,臺北市信義區基隆路１段１５５號１樓,121.5653,25.04222,(02)27620617,羅氏家用新冠病毒抗原自我檢測套組,7,2022/05/09 14:50:34,周一至周五 9：30-21：30 （9:30 開始發快篩） 5／1 有營業
5901172857,永吉藥局,臺北市信義區永吉路２１３號,121.5739,25.04572,(02)87874043,羅氏家用新冠病毒抗原自我檢測套組,10,2022/05/09 14:50:34,快篩代售，下午2:30開始服務，不發號碼牌，售完為止
5901172924,躍獅松仁藥局,臺北市信義區松仁路２３３號（實際營業地址：１樓）,121.5688,25.02617,(02)27238626,羅氏家用新冠病毒抗原自我檢測套組,4,2022/05/09 14:50:34,快篩販售時段:下午13:30開始售完至晚上19:00前
5901173238,正和藥局,臺北市信義區吳興街２２５巷６號,121.5634,25.02782,(02)23455186,羅氏家用新冠病毒抗原自我檢測套組,11,2022/05/09 14:50:34,下午2點半發放快篩，週日無發放
5901173283,上禾藥師藥局,臺北市信義區林口街２７號,121.5792,25.03741,(02)27592686,羅氏家用新冠病毒抗原自我檢測套組,1,2022/05/09 14:50:34,無
5901173587,新興健保藥局,臺北市信義區永吉路３０巷１１３號,121.5689,25.04324,(02)27494892,羅氏家用新冠病毒抗原自我檢測套組,10,2022/05/09 14:50:34,快篩試劑下午二點開始販售
5901173710,專品光復藥局,臺北市信義區光復南路４６７之１號,121.5577,25.03384,(02)27586682,羅氏家用新冠病毒抗原自我檢測套組,72,2022/05/09 14:50:34,禮拜一到六下午三點販售口罩
5901173738,尚頤中西藥局,臺北市信義區虎林街１４５號,121.5767,25.03959,(02)27253818,羅氏家用新冠病毒抗原自我檢測套組,57,2022/05/09 14:50:34,無
5901173818,博亞藥局,臺北市信義區莊敬路４６２號,121.5677,25.02672,(02)27580506,羅氏家用新冠病毒抗原自我檢測套組,39,2022/05/09 14:50:34,平日早上8:30、晚上8:00；假日早上8:30，發放號碼牌，持號碼牌購買!
5901173854,杏一後山埤藥局,臺北市信義區忠孝東路５段７７８號（實際營業地址：１樓）,121.5816,25.0434,(02)27274357,羅氏家用新冠病毒抗原自我檢測套組,74,2022/05/09 14:50:34,實名制快篩14:30開放排隊／14:55發放號碼牌
5901174002,吳興春天藥局,臺北市信義區吳興街１３７號１樓,121.5618,25.02947,(02)27585618,羅氏家用新冠病毒抗原自我檢測套組,71,2022/05/09 14:50:34,下午2:40發號碼牌
5901174066,愛維喜藥局,臺北市信義區莊敬路２７８號１樓,121.5627,25.02882,(02)27586989,羅氏家用新冠病毒抗原自我檢測套組,77,2022/05/09 14:50:34,快篩周一至五15:30.周六8:30開賣.約30分前收健保卡現金500元1張.發號碼牌
5901174084,市政藥局,臺北市信義區忠孝東路５段１６９號１樓、１７１號１樓,121.5688,25.0412,(02)27560050,羅氏家用新冠病毒抗原自我檢測套組,78,2022/05/09 14:50:34,快篩實名制，每天16:00開始販售，售完為止。
5901180055,日生大藥局,臺北市中正區汀州路１段５３號１樓,121.5076,25.03026,(02)23031393,羅氏家用新冠病毒抗原自我檢測套組,13,2022/05/09 14:50:34,快篩試劑代售服務時間:（1）5月9日周一 下午14點起開賣 售完為止
5901180304,祥全藥局,臺北市中正區信義路２段７９巷１５－８號１Ｆ,121.527,25.03545,(02)23939339,羅氏家用新冠病毒抗原自我檢測套組,77,2022/05/09 14:50:34,星期一至六下午3點開始賣快篩試劑
5901184366,宏越藥局,臺北市中正區中華路２段３１３巷４號,121.5061,25.02813,(02)23050880,羅氏家用新冠病毒抗原自我檢測套組,54,2022/05/09 14:50:34,代售實名制快篩時間 每日下午14:30開始  售完即停止  可關注FB公告當日是否代售
5901184553,珍忻藥局,臺北市中正區南昌路１段６５號,121.5174,25.03107,(02)23965115,羅氏家用新冠病毒抗原自我檢測套組,31,2022/05/09 14:50:34,健保快篩發放:13:20及18:20分兩梯次發號碼牌
5901184633,躍獅東門藥局,臺北市中正區金山南路１段１０８之１號（１樓）,121.5273,25.03538,(02)23920339,羅氏家用新冠病毒抗原自我檢測套組,3,2022/05/09 14:50:34,5／9早上9點開始販售，不提早發放號碼牌
5901190033,世欣藥局,臺北市萬華區東園街１７３號１Ｆ,121.4973,25.02419,(02)23074263,羅氏家用新冠病毒抗原自我檢測套組,11,2022/05/09 14:50:34,防疫快篩劑服務時間週一至五14:00-16:00週六10:00-12:00
5901190426,皇祥藥局,臺北市萬華區萬青街１６５號１樓,121.5016,25.02279,(02)23375676,羅氏家用新冠病毒抗原自我檢測套組,51,2022/05/09 14:50:34,無
5901192180,康之友藥局,臺北市萬華區青年路２０號,121.5055,25.02592,(02)23011598,羅氏家用新冠病毒抗原自我檢測套組,2,2022/05/09 14:50:34,下午兩點發號碼牌
5901193150,日森人文藥局,臺北市萬華區和平西路３段１４９號,121.4988,25.03543,(02)23082100,羅氏家用新冠病毒抗原自我檢測套組,1,2022/05/09 14:50:34,快篩依政府每日到貨時間， 會立即公告粉絲頁販售時間規則
5901193221,正盛藥局,臺北市萬華區中華路２段４３４－１號,121.5064,25.02708,(02)23050386,羅氏家用新冠病毒抗原自我檢測套組,62,2022/05/09 14:50:34,【5／8血氧機到貨!!】1.一~六20點，周日不賣 2.排隊人潮多，建議7點左右提前候位 3.詳情看門口公告或板橋正康總店臉書
5901201835,巧康藥局,臺北市文山區木新路３段２６２、２６４號,121.5585,24.98132,(02)29372061,羅氏家用新冠病毒抗原自我檢測套組,49,2022/05/09 14:50:34,每日下午2點發放號碼牌，2點15進行快篩販售。請勿離場，離場視同放棄。
5901202396,宇康藥局,臺北市文山區羅斯福路５段２１８巷７號,121.5383,25.00203,(02)29307066,羅氏家用新冠病毒抗原自我檢測套組,1,2022/05/09 14:50:34,無
5901202841,欣安景美藥局,臺北市文山區景文街７７號,121.5414,24.99126,(02)29316008,羅氏家用新冠病毒抗原自我檢測套組,45,2022/05/09 14:50:34,今日快篩劑PM:14:00販賣售完為止
5901202958,杏一萬安藥局,臺北市文山區萬安街１５號,121.5706,25.00139,(02)22302126,羅氏家用新冠病毒抗原自我檢測套組,2,2022/05/09 14:50:34,營業時間0900-2200
5901203044,木新健康人生藥局,臺北市文山區木新路３段２０３號,121.5598,24.9814,(02)86611465,羅氏家用新冠病毒抗原自我檢測套組,41,2022/05/09 14:50:34,10:00~21:00；13:45發號碼牌，14點發放快篩
5901203179,健安藥局,臺北市文山區景興路１６５號,121.5447,24.99346,(02)29323757,羅氏家用新冠病毒抗原自我檢測套組,77,2022/05/09 14:50:34,周一到周六.下午三點開賣實名制快篩.現場排隊不發號碼牌
5901203366,大樹木柵藥局,臺北市文山區木柵路３段１０８號、１１０號（１樓、２樓）,121.5676,24.98866,(02)22340110,羅氏家用新冠病毒抗原自我檢測套組,78,2022/05/09 14:50:34,快篩實名制，每天16:00開始販售，售完為止。
5901203375,大樹景美藥局,臺北市文山區羅斯福路６段２３４之１號,121.5404,24.99244,(02)29322951,羅氏家用新冠病毒抗原自我檢測套組,78,2022/05/09 14:50:34,快篩實名制，每天16:00開始販售，售完為止。
5901203446,景華盛康藥局,臺北市文山區景華街６９號１樓,121.545,24.99524,(02)29310188,羅氏家用新冠病毒抗原自我檢測套組,78,2022/05/09 14:50:34,快篩販售時間:下午3點開賣，現場發送號碼牌
5901203464,大愛幸福藥局,臺北市文山區木新路２段２２１號１樓,121.5675,24.98344,(02)29379977,羅氏家用新冠病毒抗原自我檢測套組,50,2022/05/09 14:50:34,無
5902020012,永松藥局,高雄市鼓山區鼓山三路１３０－１５號,120.2802,22.66454,(07)5810657,羅氏家用新冠病毒抗原自我檢測套組,78,2022/05/09 14:50:34,無
5902030643,新高橋藥局,高雄市左營區民族一路１０２８號,120.3201,22.68255,(07)3100696,羅氏家用新冠病毒抗原自我檢測套組,54,2022/05/09 14:50:34,依快篩配送時間滾動式調整5／9下午14:30，請備妥當日可領買之健保卡與現金500元購買，不找零，0號是雙號，謝謝配合
5902040087,世詠藥局,高雄市楠梓區楠都東街１３８號,120.3262,22.72532,(07)3539869,羅氏家用新冠病毒抗原自我檢測套組,61,2022/05/09 14:50:34,快篩周一~周五早上15:00-21:30周六.日下午15:00-21:30，售完為止
5902042661,元春中西藥師藥局,高雄市楠梓區後昌路８３７巷３７號,120.294,22.71109,(07)3605656,羅氏家用新冠病毒抗原自我檢測套組,78,2022/05/09 14:50:34,周1~周6下午16:00開賣快篩，售完為止
5902050565,澄和藥局,高雄市三民區澄和路６６號,120.3445,22.64474,(07)3923111,羅氏家用新冠病毒抗原自我檢測套組,8,2022/05/09 14:50:34,快篩試劑- 販售時間自下午14:00起至售完為止
5902050636,嘉益藥局,高雄市三民區重慶街３０號,120.302,22.64223,(07)3110157,羅氏家用新冠病毒抗原自我檢測套組,51,2022/05/09 14:50:34,快篩實名制下午15：00開始販售.
5902050798,友泰藥局,高雄市三民區中和街１６９號,120.2868,22.6388,(07)3125236,羅氏家用新冠病毒抗原自我檢測套組,36,2022/05/09 14:50:34,無
5902050903,皇安藥局,高雄市三民區九如一路４６１號,120.3296,22.63865,(07)3866779,羅氏家用新冠病毒抗原自我檢測套組,14,2022/05/09 14:50:34,營業日0900可先領取號碼牌，上午9:00-12:00及下午3:00~10:.00為販賣快篩時間，售完為止
5902056638,柏仁藥局,高雄市三民區覺民路５０４號,120.3317,22.64092,(07)3976016,羅氏家用新冠病毒抗原自我檢測套組,51,2022/05/09 14:50:34,實名制快篩下午3點開賣，現場排隊，售完為止
5903010485,大樹圓環藥局,臺中市豐原區圓環東路６１７號１樓,120.7283,24.25084,(04)25122212,羅氏家用新冠病毒抗原自我檢測套組,78,2022/05/09 14:50:34,口罩販售時間：14:00 - 16:00
5903010547,佑全豐原中正藥局,臺中市豐原區中正路２２３、２２５號１、２樓,120.7175,24.25179,(04)25152886,羅氏家用新冠病毒抗原自我檢測套組,2,2022/05/09 14:50:34,實名制快篩販售時間:下午2點開始（13:50發號碼牌）
5903010556,升禾和大藥局,臺中市豐原區育英路２６號１樓,120.7163,24.24346,(04)25293099,羅氏家用新冠病毒抗原自我檢測套組,78,2022/05/09 14:50:34,快篩試劑18:00領取.採現場排隊.售完為止
5903010583,林居藥局,臺中市豐原區源豐路１１４號１樓,120.7173,24.25367,(04)25159168,羅氏家用新冠病毒抗原自我檢測套組,2,2022/05/09 14:50:34,快篩依當天物流送貨時間， 會在 FB林居藥局 公告販售時間， 謝謝
5903010609,隔壁藥局,臺中市豐原區一心路２４０之２號１樓,120.7007,24.24613,(04)25231527,羅氏家用新冠病毒抗原自我檢測套組,7,2022/05/09 14:50:34,無
5903030110,大甲啄木鳥藥局,臺中市大甲區中山路１段９０５號,120.6251,24.3431,(04)26804502,羅氏家用新冠病毒抗原自我檢測套組,44,2022/05/09 14:50:34,週一~週日每日AM08:15開始販售口罩~PM10:20   啄木鳥藥局歡迎您   ︿__________︿
5903040036,得康藥局,臺中市清水區高美路１１７號,120.5753,24.27879,(04)26260622,羅氏家用新冠病毒抗原自我檢測套組,53,2022/05/09 14:50:34,5／9下午14:40開始販售
5903050149,立好藥局,臺中市沙鹿區北勢東路６９３號１樓,120.5722,24.22957,(04)26522389,羅氏家用新冠病毒抗原自我檢測套組,20,2022/05/09 14:50:34,快篩下午2:30開賣
5903050274,鹿寮藥局,臺中市沙鹿區中山路４６１、４６１－１號１、２樓,120.5615,24.24387,(04)26630677,羅氏家用新冠病毒抗原自我檢測套組,78,2022/05/09 14:50:34,快篩實名制，每天16:00開始販售，售完為止。
5903070098,祐恩藥局,臺中市后里區甲后路一段４７８號１樓,120.6819,24.3157,(04)25587518,羅氏家用新冠病毒抗原自我檢測套組,78,2022/05/09 14:50:34,實名制快篩試劑每日15:00開始販售。週日休息。
5903070169,佑全后里甲后藥局,臺中市后里區甲后路一段７２８號１、２樓,120.7193,24.30951,(04)25583116,羅氏家用新冠病毒抗原自我檢測套組,5,2022/05/09 14:50:34,實名制快篩每日14:00販售。13:50發放號碼牌。
5903080094,灃洲大藥局,臺中市神岡區豐洲路４６６－３號１樓,120.7045,24.26179,(04)25150169,羅氏家用新冠病毒抗原自我檢測套組,2,2022/05/09 14:50:34,星期日公休，實名制快篩販售時間為每日下午三點
5903090072,元康健保藥局,臺中市潭子區圓通南路１９６號１樓,120.7043,24.20725,(04)25353893,羅氏家用新冠病毒抗原自我檢測套組,29,2022/05/09 14:50:34,下午3點現場分號碼後  依序賣口罩
5903090189,名方藥局,臺中市潭子區勝利路２８５號１樓,120.7004,24.21321,(04)25341777,羅氏家用新冠病毒抗原自我檢測套組,78,2022/05/09 14:50:34,快篩販售  （一）~（五） 下午6點    週（六）早上9點  週日不販售
5903090429,佑全潭子中山藥局,臺中市潭子區中山路一段９之１號,120.7023,24.18847,(04)25356140,羅氏家用新冠病毒抗原自我檢測套組,19,2022/05/09 14:50:34,營業時間:09:00-21:00／健保實聯制購買時間:14:00開始販售，13:50開始發號碼牌，售完為止。
5903100206,民生藥局,臺中市大雅區民生路一段２２１號１樓,120.6512,24.22789,(04)25662229,羅氏家用新冠病毒抗原自我檢測套組,78,2022/05/09 14:50:34,快篩實名制，每天16:00開始販售，售完為止。
5903100215,佑全大雅雅環藥局,臺中市大雅區雅環路二段８８號１樓,120.653,24.22634,(04)25605942,羅氏家用新冠病毒抗原自我檢測套組,33,2022/05/09 14:50:34,營業時間:09:00~21:00；實名制快篩於每日13:50發放號碼牌，14:00開始販售。
5903150135,全品藥局,臺中市烏日區公園路２４０之１號１樓,120.6254,24.10234,(04)23362690,羅氏家用新冠病毒抗原自我檢測套組,2,2022/05/09 14:50:34,週一 ~ 週五  下午2:00 & 週六 早上9點 販售 ，售完為止
5903150153,溪南藥局,臺中市烏日區溪南路一段５６５號１樓,120.6431,24.07523,(04)23353666,羅氏家用新冠病毒抗原自我檢測套組,78,2022/05/09 14:50:34,快篩實名制，每天16:00開始販售，售完為止。
5903150180,九德藥局,臺中市烏日區中山路一段４３８、４４０號１樓,120.6365,24.10748,(04)23385456,羅氏家用新冠病毒抗原自我檢測套組,78,2022/05/09 14:50:34,快篩實名制，每天16:00開始販售，售完為止。
5903160042,大肚新庄藥局,臺中市大肚區遊園路２段２２１－３號１樓,120.5808,24.17376,(04)26912119,羅氏家用新冠病毒抗原自我檢測套組,78,2022/05/09 14:50:34,每天下午3點開始排隊販賣，賣完為止
5903180142,峰正藥局,臺中市霧峰區中正路８３０號１樓,120.6987,24.06244,(04)23303353,羅氏家用新冠病毒抗原自我檢測套組,78,2022/05/09 14:50:34,快篩實名制，每天16:00開始販售，售完為止。
5903190148,亞洲藥師連鎖大藥局,臺中市太平區中山路２段４５８號,120.7253,24.14984,(04)23921681,羅氏家用新冠病毒抗原自我檢測套組,47,2022/05/09 14:50:34,實名制快篩，每天14:30開賣，一人一卡，請自備500元
5903190228,中山德侑藥局,臺中市太平區中山路３段２之２號１樓,120.7222,24.14942,(04)23920682,羅氏家用新冠病毒抗原自我檢測套組,3,2022/05/09 14:50:34,每日下午13:30開始販售，但遇特殊情況快篩販售時間會調整
5903190362,太平中山藥局,臺中市太平區中山路４段１１號,120.7139,24.14931,(04)23959200,羅氏家用新冠病毒抗原自我檢測套組,78,2022/05/09 14:50:34,快篩實名制，每天16:00開始販售，售完為止。
5903200229,信元藥局,臺中市大里區益民路２段３７２號１樓,120.684,24.11545,(04)24876051,羅氏家用新冠病毒抗原自我檢測套組,64,2022/05/09 14:50:34,下午5點發號碼牌並依序販賣
5903200514,大明永欣藥局,臺中市大里區大明路５３９號１樓、５４１號１樓,120.6735,24.11478,(04)24068864,羅氏家用新冠病毒抗原自我檢測套組,9,2022/05/09 14:50:34,實名制快篩每天下午2點開始發號碼牌
5903200685,塗城藥局,臺中市大里區中興路一段１８７、１８９、１９１號１樓,120.6933,24.09008,(04)24967234,羅氏家用新冠病毒抗原自我檢測套組,78,2022/05/09 14:50:34,快篩實名制，每天16:00開始販售，售完為止。
5903200701,大益藥局,臺中市大里區益民路二段３３５號１、２樓,120.6837,24.11311,(04)24811551,羅氏家用新冠病毒抗原自我檢測套組,78,2022/05/09 14:50:34,快篩實名制，每天16:00開始販售，售完為止。
5903200756,佑全大里大明藥局,臺中市大里區大明路３６０、３６２號,120.6787,24.11511,(04)24818633,羅氏家用新冠病毒抗原自我檢測套組,8,2022/05/09 14:50:34,實名制快篩，開賣時間:下午14:00，售完為止
5903220178,佑全台中中華藥局,臺中市中區中華路一段１６２號１樓,120.6779,24.14605,(04)22291556,羅氏家用新冠病毒抗原自我檢測套組,1,2022/05/09 14:50:34,下午01:40開始發放號碼牌!! 售完為止!! 一人一卡一盒
5903220196,日安藥局,臺中市中區臺灣大道一段３３０號１樓,120.6801,24.1422,(04)22234246,羅氏家用新冠病毒抗原自我檢測套組,32,2022/05/09 14:50:34,週一至週六 下午2:30開始販售快篩   週日 早上9:30開始販售
5903230209,東京藥師藥局,臺中市東區復興路五段１４９號１樓,120.6893,24.14543,(04)22132278,羅氏家用新冠病毒抗原自我檢測套組,12,2022/05/09 14:50:34,無
5903240143,利民藥局,臺中市西區四維街２３號１樓,120.6758,24.13714,(04)22292931,羅氏家用新冠病毒抗原自我檢測套組,39,2022/05/09 14:50:34,平日營業時間10-20，周六10-15，周日休。實名制快篩下午2點半現場排隊販售至售完或營業結束。
5903240278,美術藥局,臺中市西區美村路一段５６７號,120.6618,24.14442,(04)23725286,羅氏家用新冠病毒抗原自我檢測套組,48,2022/05/09 14:50:34,5／7起下午2:30開始販售快篩，售完為止。（星期日公休）
5903240367,宇祥藥局,臺中市西區五權五街１１９號１樓,120.6601,24.13635,(04)23728239,羅氏家用新冠病毒抗原自我檢測套組,31,2022/05/09 14:50:34,實名制快篩 14:30開始販售
5903240410,德芳美村藥局,臺中市西區美村路一段６８１、６８３號１樓,120.6618,24.13545,(04)23782848,羅氏家用新冠病毒抗原自我檢測套組,121,2022/05/09 14:50:34,周一到周五下午3點~6點
5903240465,德恩藥師藥局,臺中市西區精誠路２５２號１樓,120.6549,24.14949,(04)23102358,羅氏家用新冠病毒抗原自我檢測套組,36,2022/05/09 14:50:34,下午2:00開賣。若延後送貨，會再另外公告開賣時間。
5903240474,佑全台中向上藥局,臺中市西區向上路一段３８６、３８８號１樓,120.6559,24.14688,(04)23204732,羅氏家用新冠病毒抗原自我檢測套組,11,2022/05/09 14:50:34,因政府配貨時間不一，依照門市現場公告時間為主
5903240492,好好誠美藥局,臺中市西區向上北路１８６號１樓,120.6611,24.14797,(04)23022838,羅氏家用新冠病毒抗原自我檢測套組,18,2022/05/09 14:50:34,快篩販售時間下午兩點
5903250381,大樹美村藥局,臺中市南區美村南路１２４號,120.667,24.11499,(04)22621113,羅氏家用新冠病毒抗原自我檢測套組,78,2022/05/09 14:50:34,口罩販售時間：14:00 - 16:00
5903250443,千美台安藥局,臺中市南區美村南路２６３號,120.6666,24.11426,(04)22602101,羅氏家用新冠病毒抗原自我檢測套組,31,2022/05/09 14:50:34,周一到周日，下午2:30開始販售居家快篩
5903250505,心安藥局,臺中市南區國光路２４１號１樓,120.6794,24.12676,(04)22858773,羅氏家用新冠病毒抗原自我檢測套組,79,2022/05/09 14:50:34,每天下午三點排隊開賣，一人一卡，週日公休下次是5／9號
5903250630,澄光工學藥局,臺中市南區工學路１５９號１樓,120.6592,24.11688,(04)22620606,羅氏家用新冠病毒抗原自我檢測套組,78,2022/05/09 14:50:34,下午3點販售快篩，現場排隊無號碼牌。
5903250658,田園藥局,臺中市南區學府路１６０號１樓,120.6742,24.12909,(04)22220605,羅氏家用新冠病毒抗原自我檢測套組,31,2022/05/09 14:50:34,每週三公休。每天13:30 開始販售，一人限一卡，依到貨數量販售
5903260476,康媞藥局,臺中市北區北平路二段１２８號１樓,120.6774,24.17124,(04)22925388,羅氏家用新冠病毒抗原自我檢測套組,30,2022/05/09 14:50:34,無
5903260663,佑全台中五權藥局,臺中市北區五權路４９６號,120.6833,24.15329,(04)22080702,羅氏家用新冠病毒抗原自我檢測套組,20,2022/05/09 14:50:34,因政府配貨時間不一，依照門市現場公告時間為主
5903260734,立得藥局,臺中市北區忠太西路１１號１樓,120.6678,24.15997,(04)22080013,羅氏家用新冠病毒抗原自我檢測套組,78,2022/05/09 14:50:34,固定周一到周六，早上9:00開始販賣防疫口罩
5903260743,黎明安德藥局,臺中市北區中清路１段８５２號１樓,120.6718,24.17295,(04)22956098,羅氏家用新冠病毒抗原自我檢測套組,78,2022/05/09 14:50:34,週四公休、週日下午2點開始營業，一到六下午3點開始販賣快篩，禮拜日下午5點開始販賣快篩，現場排隊。
5903260878,927達霖藥師藥局,臺中市北區中華路二段２０１號１樓,120.6822,24.15278,(04)22060030,羅氏家用新冠病毒抗原自我檢測套組,58,2022/05/09 14:50:34,無
5903260912,莒光藥局,臺中市北區錦南街１２號１樓,120.6886,24.15399,(04)22336663,羅氏家用新冠病毒抗原自我檢測套組,78,2022/05/09 14:50:34,每日下午3點開賣 78份售完為止 星期日上午10點開賣 臉書搜尋莒光藥局
5903260958,健康達人藥局,臺中市北區北平路２段５６號１樓,120.6735,24.17153,(04)22994866,羅氏家用新冠病毒抗原自我檢測套組,28,2022/05/09 14:50:34,快篩實名制，每天中午2:00開始販售，售完為止。
5903260985,森川健保藥局,臺中市北區五權路２５１號１樓,120.6764,24.15074,(09)78157008,羅氏家用新冠病毒抗原自我檢測套組,64,2022/05/09 14:50:34,快篩試劑到貨後開賣，售完為止（請查閱快篩APP）
5903261008,台中大樹藥局,臺中市北區漢口路三段２６１號,120.6726,24.16703,(04)22981113,羅氏家用新冠病毒抗原自我檢測套組,78,2022/05/09 14:50:34,快篩實名制，每天16:00開始販售，售完為止。
5903270721,舒健藥局,臺中市西屯區西屯路二段２５５號２樓,120.6459,24.17179,(04)27077858,羅氏家用新冠病毒抗原自我檢測套組,75,2022/05/09 14:50:34,公費快篩試劑於周一至周六晚上7點現場排隊購買，週日公休。
5903270801,榮友藥局,臺中市西屯區臺灣大道四段１７４２號,120.6024,24.18286,(04)23508392,羅氏家用新冠病毒抗原自我檢測套組,18,2022/05/09 14:50:34,05／09實名快篩下午13:30開賣謝謝
5903270810,佑全福星藥局,臺中市西屯區黎明路三段３９５、３９７號,120.639,24.18251,(04)24527465,羅氏家用新冠病毒抗原自我檢測套組,14,2022/05/09 14:50:34,因政府實名制快篩配貨時間不一，依照門市現場公告時間為主
5903270865,尚禾藥局,臺中市西屯區青海路一段６５號,120.6548,24.16438,(04)23147688,羅氏家用新冠病毒抗原自我檢測套組,39,2022/05/09 14:50:34,實名制快篩發放：時段一中午12:30~14:00。時段二20：30~22：30。時段一若未發完，餘量將遞延至時段二發放。周日停售。
5903270874,熊健康藥局,臺中市西屯區太原路一段２３２號,120.6632,24.16394,(04)23163505,羅氏家用新冠病毒抗原自我檢測套組,35,2022/05/09 14:50:34,快篩實名制14:30開始販售，售完為止。 星期日公休。
5903270883,祥和大藥局,臺中市西屯區青海路二段２４０－９號,120.6418,24.17323,(04)27000122,羅氏家用新冠病毒抗原自我檢測套組,11,2022/05/09 14:50:34,快篩下午1:00發放
5903270918,全成西屯藥局,臺中市西屯區黎明路三段２２１、２２３號1樓,120.6373,24.17723,(04)24512290,羅氏家用新冠病毒抗原自我檢測套組,68,2022/05/09 14:50:34,每日下午3點開始販售實名制快篩
5903271022,西屯藥局,臺中市西屯區西屯路三段１５０－４５號１樓,120.621,24.18716,(04)24621822,羅氏家用新冠病毒抗原自我檢測套組,78,2022/05/09 14:50:34,快篩實名制，每天16:00開始販售，售完為止。
5903271031,美十樂中科藥局,臺中市西屯區西屯路三段１６６－６５號１樓,120.6129,24.19035,(04)24610219,羅氏家用新冠病毒抗原自我檢測套組,468,2022/05/09 14:50:34,醫事人員卡片損壞，暫時無法販賣快篩
5903271068,西墩藥局,臺中市西屯區黎明路三段２７５、２７７號１樓,120.6373,24.17812,(04)24510770,羅氏家用新冠病毒抗原自我檢測套組,78,2022/05/09 14:50:34,快篩實名制，每天16:00開始販售，售完為止。
5903271086,常春藤藥局,臺中市西屯區福康路８０號１樓,120.618,24.18603,(04)24619296,羅氏家用新冠病毒抗原自我檢測套組,20,2022/05/09 14:50:34,每日下午兩點到四點、晚上七點到九點 販賣防疫家用快篩
5903271193,何安藥局,臺中市西屯區西屯路二段１０１號Ｂ棟１樓,120.6531,24.16616,(04)23161110,羅氏家用新冠病毒抗原自我檢測套組,78,2022/05/09 14:50:34,快篩實名制，每天16:00開始販售，售完為止。
5903271246,柏醫藥局,臺中市西屯區上安路５６號１樓,120.6412,24.17052,(04)24526391,羅氏家用新冠病毒抗原自我檢測套組,78,2022/05/09 14:50:34,因應到貨時間不定，統一晚上7點開放78組（5／9已到貨 8:40）
5903271291,西屯長安藥局,臺中市西屯區成都路３６８號１樓,120.6641,24.17322,(04)22981221,羅氏家用新冠病毒抗原自我檢測套組,78,2022/05/09 14:50:34,快篩實名制，每天16:00開始販售，售完為止。
5903280067,博川健保藥局,臺中市南屯區大墩５街２９８號１樓,120.6486,24.14257,(04)24732995,羅氏家用新冠病毒抗原自我檢測套組,24,2022/05/09 14:50:34,每日指揮中心發送量為78份，多餘之庫存為系統異常；因目前配送時間不固定，送達即開始販售
5903280325,亞洲連鎖大藥局,臺中市南屯區黎明路２段１３３、１３５號,120.6336,24.15977,(04)23812886,羅氏家用新冠病毒抗原自我檢測套組,3,2022/05/09 14:50:34,下午2:00 開始發放快篩， 售完為止! 從 5月11日（星期三）開始， 改下午五點開始販售快篩
5903280521,百康健保藥局,臺中市南屯區黎明路二段３６３號,120.6353,24.15033,(04)22547776,羅氏家用新冠病毒抗原自我檢測套組,52,2022/05/09 14:50:34,營業每日上午8:30到晚上22:30!實名制快篩販售下午三點開始
5903280576,佑全黎明藥局,臺中市南屯區黎明路２段２６６號,120.6359,24.14816,(04)23805560,羅氏家用新冠病毒抗原自我檢測套組,2,2022/05/09 14:50:34,實名制快篩販售時間為每日下午兩點，一點50分發放號碼牌
5903280585,康得藥局,臺中市南屯區向上路三段４５號,120.6354,24.14623,(04)23820981,羅氏家用新冠病毒抗原自我檢測套組,78,2022/05/09 14:50:34,.5／9（一）下午3點開始販售實名制快篩試劑
5903280807,大樹南屯藥局,臺中市南屯區向上路一段６４３號１樓,120.6486,24.14659,(04)24758887,羅氏家用新冠病毒抗原自我檢測套組,78,2022/05/09 14:50:34,快篩實名制，每天16:00開始販售，售完為止。
5903290849,新盛藥局,臺中市北屯區松竹路二段１５７號１樓,120.6959,24.18312,(04)22467779,羅氏家用新冠病毒抗原自我檢測套組,20,2022/05/09 14:50:34,下午2:30至8:30賣快篩試劑週一至週六
5903290876,北屯軍功藥局,臺中市北屯區軍功路一段７５２號,120.7193,24.17513,(04)24375111,羅氏家用新冠病毒抗原自我檢測套組,77,2022/05/09 14:50:34,快篩實名制，每天16:00開始販售，售完為止。
5903290929,微笑藥局,臺中市北屯區昌平路一段３１８號１樓,120.6907,24.17344,(04)22432699,羅氏家用新冠病毒抗原自我檢測套組,21,2022/05/09 14:50:34,【快篩試劑】下午2:30起~現場排隊~
5903290992,益川健保藥局,臺中市北屯區昌平路二段４７－１號１樓,120.6829,24.1917,(04)24213696,羅氏家用新冠病毒抗原自我檢測套組,25,2022/05/09 14:50:34,快篩試劑下午2點20現場販售，售完為止，星期日下午3點開始販售
5903291006,五和健保藥局,臺中市北屯區崇德路二段４６０號１樓,120.6863,24.18001,(04)22415533,羅氏家用新冠病毒抗原自我檢測套組,69,2022/05/09 14:50:34,週六公休 。周一至周五 14:30 發號碼牌 14:40販售； 週日 8:30發號碼牌 隨後販售
5903291042,全成北屯藥局,臺中市北屯區北屯路４３９－１１號１樓,120.7004,24.17913,(04)22463518,羅氏家用新冠病毒抗原自我檢測套組,73,2022/05/09 14:50:34,快篩每日下午3:00開始販售
5903291060,大樹北屯藥局,臺中市北屯區松竹路二段４１１號１樓,120.6895,24.18192,(04)22422262,羅氏家用新冠病毒抗原自我檢測套組,78,2022/05/09 14:50:34,快篩實名制，每天16:00開始販售，售完為止。
5903291131,兩隻老虎藥局,臺中市北屯區崇德路２段１２號１樓,120.6855,24.16869,(04)22364635,羅氏家用新冠病毒抗原自我檢測套組,2,2022/05/09 14:50:34,營業時間早上九點到晚上九點半（快篩下午兩點開賣）
5903291140,興安藥局,臺中市北屯區興安路二段５２號１、２樓,120.6949,24.1762,(04)22460369,羅氏家用新冠病毒抗原自我檢測套組,78,2022/05/09 14:50:34,快篩實名制，每天16:00開始販售，售完為止。
5903291202,好心情藥局,臺中市北屯區昌平路一段１７之３號,120.6941,24.16607,(04)22335663,羅氏家用新冠病毒抗原自我檢測套組,50,2022/05/09 14:50:34,快篩販售時間 14:30 ~售完為止 ， 12:30~13:30 請勿來電，謝謝配合
5903291211,愛樂芬兒童藥局,臺中市北屯區松竹路一段９２９號１樓,120.7131,24.18216,(04)24363660,羅氏家用新冠病毒抗原自我檢測套組,34,2022/05/09 14:50:34,因配送時間不固定，預定下午三點開始販售
5905010330,新進啄木鳥藥局,臺南市新營區新進路２段２５４號１樓,120.3056,23.30074,(06)6565303,羅氏家用新冠病毒抗原自我檢測套組,1,2022/05/09 14:50:34,自5／7起每日上午10:00開賣，售完為止..
5905020023,大樹鹽水藥局,臺南市鹽水區朝琴路１２６－３號１樓,120.271,23.32228,(06)6520432,羅氏家用新冠病毒抗原自我檢測套組,78,2022/05/09 14:50:34,快篩實名制，每天16:00開始販售，售完為止。
5905030092,大樹白河藥局,臺南市白河區中山路１５３號１樓,120.417,23.35255,(06)6830006,羅氏家用新冠病毒抗原自我檢測套組,78,2022/05/09 14:50:34,快篩實名制，每天16:00開始販售，售完為止。
5905040141,大樹麻豆藥局,臺南市麻豆區中山路４８、５０號１樓,120.2469,23.18382,(06)5716556,羅氏家用新冠病毒抗原自我檢測套組,78,2022/05/09 14:50:34,快篩實名制，每天16:00開始販售，售完為止。
5905050058,佳里啄木鳥藥局,臺南市佳里區延平路７６號１樓,120.1795,23.15507,(06)7236396,羅氏家用新冠病毒抗原自我檢測套組,4,2022/05/09 14:50:34,下午2點-售完為止（若當天配送延誤，時間另行公布）
5905050165,德昌藥局佳里店,臺南市佳里區光復路２３３號,120.1746,23.16095,(06)7232388,羅氏家用新冠病毒抗原自我檢測套組,28,2022/05/09 14:50:34,固定周一至周六14:30開始販售口罩，售完為止
5905050209,大樹佳里藥局,臺南市佳里區延平路２３７號１樓,120.1783,23.1599,(06)7231323,羅氏家用新冠病毒抗原自我檢測套組,78,2022/05/09 14:50:34,快篩實名制，每天16:00開始販售，售完為止。
5905060198,大樹新化藥局,臺南市新化區中正路５３１號１樓,120.3072,23.03764,(06)5901331,羅氏家用新冠病毒抗原自我檢測套組,78,2022/05/09 14:50:34,快篩實名制，每天16:00開始販售，售完為止。
5905070050,晶德昌藥局,臺南市善化區文光里中山路８５號,120.3034,23.13298,(06)5856141,羅氏家用新冠病毒抗原自我檢測套組,5,2022/05/09 14:50:34,14:30-16:00.依號碼牌售完為止
5905070121,大樹善化藥局,臺南市善化區民權路５４、５６、５８號１樓,120.3034,23.1322,(06)5830550,羅氏家用新冠病毒抗原自我檢測套組,78,2022/05/09 14:50:34,快篩實名制，每天16:00開始販售，售完為止。
5905080056,大樹學甲藥局,臺南市學甲區中正路１３５號１樓,120.1793,23.23029,(06)7820001,羅氏家用新冠病毒抗原自我檢測套組,78,2022/05/09 14:50:34,快篩實名制，每天16:00開始販售，售完為止。
5905140039,安安藥局隆田店,臺南市官田區中山路一段１５號１樓,120.3186,23.1927,(06)5795705,羅氏家用新冠病毒抗原自我檢測套組,2,2022/05/09 14:50:34,全日口罩販賣
5905200058,欣和德藥局,臺南市新市區中正路２００號,120.2916,23.07516,(06)5895658,羅氏家用新冠病毒抗原自我檢測套組,40,2022/05/09 14:50:34,快篩實名制每日14:15發號碼牌；14:30開始販售，售完為止
5905200085,大樹新市藥局,臺南市新市區中正路４９、５１號１樓,120.2916,23.07223,(06)5892552,羅氏家用新冠病毒抗原自我檢測套組,78,2022/05/09 14:50:34,快篩實名制，每天16:00開始販售，售完為止。
5905270176,大樹仁德藥局,臺南市仁德區中正路二段１１５２號１樓,120.2519,22.97062,(06)2797466,羅氏家用新冠病毒抗原自我檢測套組,78,2022/05/09 14:50:34,快篩實名制，每天16:00開始販售，售完為止。
5905280109,大樹青青藥局,臺南市歸仁區中山路三段１２號,120.2875,22.96765,(06)2300301,羅氏家用新冠病毒抗原自我檢測套組,78,2022/05/09 14:50:34,快篩實名制，每天16:00開始販售，售完為止。
5905290034,大樹關廟藥局,臺南市關廟區中央路２６３號１樓,120.3272,22.96109,(06)5965889,羅氏家用新冠病毒抗原自我檢測套組,77,2022/05/09 14:50:34,快篩實名制，每天16:00開始販售，售完為止。
5905310755,德昌藥局永康店,臺南市永康區中華路４６２號,120.2327,23.01082,(06)3020628,羅氏家用新冠病毒抗原自我檢測套組,26,2022/05/09 14:50:34,快篩販售時間：星期一~星期日14:30~16:00
5905311001,和德藥局復國店,臺南市永康區復國里復國一路３３９之７號１樓,120.2464,23.01155,(06)2038728,羅氏家用新冠病毒抗原自我檢測套組,78,2022/05/09 14:50:34,快篩下午3:00開始~人數達到便開賣
5905311074,中華長億藥局,臺南市永康區中華路７３４、７３６號１樓,120.2288,23.0167,(06)3022322,羅氏家用新冠病毒抗原自我檢測套組,78,2022/05/09 14:50:34,快篩實名制，每天16:00開始販售，售完為止。
5905311127,台南永康藥局,臺南市永康區中山南路８１６、８１６─１、２、３號１樓,120.2471,23.02099,(06)2020201,羅氏家用新冠病毒抗原自我檢測套組,78,2022/05/09 14:50:34,快篩實名制，每天16:00開始販售，售完為止。
5905311190,和德藥局大灣店,臺南市永康區崑山里永大路二段９號１樓,120.2595,23.00127,(06)2735049,羅氏家用新冠病毒抗原自我檢測套組,3,2022/05/09 14:50:34,快篩販售時間14:30-人數達到會提前開賣
5905320466,佑全中華藥局,臺南市東區中華東路三段２１５號,120.2253,22.97603,(06)2906386,羅氏家用新冠病毒抗原自我檢測套組,3,2022/05/09 14:50:34,星期一-六08:00-21:00
5905320608,中華台安藥局,臺南市東區中華東路一段４號１樓,120.2344,22.99818,(06)2092622,羅氏家用新冠病毒抗原自我檢測套組,2,2022/05/09 14:50:34,固定週一至周日13點-16點販售快篩，售完為止，現場為主
5905320635,晉大藥局,臺南市東區東平路１３４號１樓,120.2298,22.99522,(06)2092580,羅氏家用新冠病毒抗原自我檢測套組,58,2022/05/09 14:50:34,快篩實名制下午3點開始販售
5905320804,大樹大同藥局,臺南市東區大同路二段２２７、２２９號１樓,120.2143,22.97567,(06)2158700,羅氏家用新冠病毒抗原自我檢測套組,78,2022/05/09 14:50:34,快篩實名制，每天16:00開始販售，售完為止。
5905320868,大樹東寧藥局,臺南市東區東寧路４３６號１樓,120.2291,22.9895,(06)2360006,羅氏家用新冠病毒抗原自我檢測套組,78,2022/05/09 14:50:34,快篩實名制，每天16:00開始販售，售完為止。
5905320886,中華崇德藥局,臺南市東區中華東路三段１８１、１８３號１樓,120.2259,22.97667,(06)2880800,羅氏家用新冠病毒抗原自我檢測套組,78,2022/05/09 14:50:34,快篩實名制，每天16:00開始販售，售完為止。
5905320911,大樹崇道藥局,臺南市東區崇道路６３號１樓,120.2272,22.97227,(06)2680456,羅氏家用新冠病毒抗原自我檢測套組,78,2022/05/09 14:50:34,快篩實名制，每天16:00開始販售，售完為止。
5905320939,東門啄木鳥藥局,臺南市東區東門路三段２４１號１樓,120.2358,22.97662,(06)2884569,羅氏家用新冠病毒抗原自我檢測套組,19,2022/05/09 14:50:34,貨運可能延遲以現場公告或來電詢問為準
5905330284,大樹佳華藥局,臺南市南區金華路二段１２９號１樓,120.1911,22.98035,(06)2641238,羅氏家用新冠病毒抗原自我檢測套組,78,2022/05/09 14:50:34,快篩實名制，每天16:00開始販售，售完為止。
5905370304,大樹安南藥局,臺南市安南區安和路四段５５７號１樓,120.2185,23.06181,(06)3563370,羅氏家用新冠病毒抗原自我檢測套組,78,2022/05/09 14:50:34,快篩實名制，每天16:00開始販售，售完為止。
5905370466,大樹北安藥局,臺南市安南區北安路三段１５８號１樓,120.2036,23.04256,(06)2553633,羅氏家用新冠病毒抗原自我檢測套組,78,2022/05/09 14:50:34,快篩實名制，每天16:00開始販售，售完為止。
5905370484,安中台安藥局,臺南市安南區北安路２段３６３之２４號１樓,120.2022,23.039,(06)2470015,羅氏家用新冠病毒抗原自我檢測套組,12,2022/05/09 14:50:34,實名制快篩劑:周1-周日下午:2:30開賣（如遇物流供貨異動，請電話詢問.不便處請見諒）
5905380293,人仁藥局,臺南市安平區怡平里慶平路２８１號１樓,120.1763,22.99668,(06)2998667,羅氏家用新冠病毒抗原自我檢測套組,28,2022/05/09 14:50:34,快篩每日下午2點開賣.現場排隊無號碼牌
5907010043,北京藥局文山店,高雄市鳳山區青年路二段３６７號１．２樓,120.3511,22.64152,(07)7676766,羅氏家用新冠病毒抗原自我檢測套組,78,2022/05/09 14:50:34,無
5907010427,好郝藥局鳳林店,高雄市鳳山區誠智里鳳林路２９０號,120.3779,22.62216,(07)7869188,羅氏家用新冠病毒抗原自我檢測套組,78,2022/05/09 14:50:34,健保快篩周一到周六（周日不販售）下午三點開始現場販售，售完為止
5907011068,新高橋藥局文龍東店,高雄市鳳山區鎮北里文龍東路３１０號,120.3666,22.64074,(07)7353946,羅氏家用新冠病毒抗原自我檢測套組,43,2022/05/09 14:50:34,快篩星期一~六 下午14:20發號碼牌 14:30準時販售快篩.自備500元
5907011095,鳳山五甲藥局,高雄市鳳山區正義里五甲二路１３９號１樓,120.3409,22.6014,(07)7269899,羅氏家用新冠病毒抗原自我檢測套組,78,2022/05/09 14:50:34,快篩實名制，每天16:00開始販售，售完為止。
5907011148,大樹國泰藥局,高雄市鳳山區興仁里五甲一路２９２號,120.3539,22.61698,(07)7407234,羅氏家用新冠病毒抗原自我檢測套組,78,2022/05/09 14:50:34,快篩實名制，每天16:00開始販售，售完為止。
5907011184,肉豆公藥局南榮店,高雄市鳳山區善美里南榮路１６９號１樓,120.3366,22.60186,(07)7278385,羅氏家用新冠病毒抗原自我檢測套組,10,2022/05/09 14:50:34,現場領藥優先處理，快篩實名制16:00開始販售，售完為止!!
5907011371,大樹五甲藥局,高雄市鳳山區福祥里五甲三路２４號１－２樓．２６號１－２樓,120.3278,22.59317,(07)8224926,羅氏家用新冠病毒抗原自我檢測套組,79,2022/05/09 14:50:34,快篩實名制，每天16:00開始販售，售完為止。
5907020085,大德藥局,高雄市岡山區大德一路９８號,120.3025,22.79689,(07)6221456,羅氏家用新冠病毒抗原自我檢測套組,78,2022/05/09 14:50:34,快篩實名制，每天16:00開始販售，售完為止。
5907020094,大樹岡山藥局,高雄市岡山區岡山路１３６號,120.2967,22.78913,(07)6219477,羅氏家用新冠病毒抗原自我檢測套組,78,2022/05/09 14:50:34,快篩實名制，每天16:00開始販售，售完為止。
5907030072,旗美藥局,高雄市旗山區東平里延平二路４１號,120.4933,22.882,(07)6629839,羅氏家用新冠病毒抗原自我檢測套組,7,2022/05/09 14:50:34,實名制快篩劑購買時間為下午14:00~20:00，星期日店休無配送快篩，請至鄰近藥局購買
5907030152,旗山藥局,高雄市旗山區中華路２３號,120.4841,22.88027,(07)6621158,羅氏家用新冠病毒抗原自我檢測套組,78,2022/05/09 14:50:34,快篩實名制，每天16:00開始販售，售完為止。
5907050092,林園啄木鳥藥局,高雄市林園區鳳林路二段８０３號１樓,120.3957,22.5135,(07)6414772,羅氏家用新冠病毒抗原自我檢測套組,6,2022/05/09 14:50:34,快篩實名制領取時間下午2點（若當天配送延誤，時間另行公布）
5907050109,林園藥局,高雄市林園區仁愛路１３號１樓,120.3928,22.50418,(07)6425855,羅氏家用新冠病毒抗原自我檢測套組,78,2022/05/09 14:50:34,快篩實名制，每天16:00開始販售，售完為止。
5907060230,華思中西藥局,高雄市大寮區永芳里進學路１２２號１樓,120.3933,22.60468,(07)7835567,羅氏家用新冠病毒抗原自我檢測套組,78,2022/05/09 14:50:34,星期一~星期六 下午四點販售實名制快篩到售完為止   星期天店休
5907080189,德昌藥局仁雄店,高雄市仁武區灣內里仁雄路３８、３８－１、３８－２號,120.3506,22.68074,(07)3749166,羅氏家用新冠病毒抗原自我檢測套組,26,2022/05/09 14:50:34,固定週一至週日14:30~16:00開始發放號碼牌並依序販售快篩.售完為止
5907080223,新高橋藥局仁雄店,高雄市仁武區赤山里仁雄路８９－３號,120.3457,22.67722,(07)3485857,羅氏家用新冠病毒抗原自我檢測套組,1,2022/05/09 14:50:34,藥局電話07-3743243
5907080269,興德昌藥局,高雄市仁武區文武里中華路２３２號,120.3516,22.69985,(07)3757005,羅氏家用新冠病毒抗原自我檢測套組,18,2022/05/09 14:50:34,固定週一至週日14:30~16:00開始發放號碼牌並依序販售快篩.售完為止
5907080330,文武藥局,高雄市仁武區文武里中華路３５３號,120.3535,22.7011,(07)3733551,羅氏家用新冠病毒抗原自我檢測套組,78,2022/05/09 14:50:34,快篩實名制，每天16:00開始販售，售完為止。
5907090087,安泰專業藥師藥局,高雄市大社區中山路２６７號１樓,120.3492,22.73194,(07)3553715,羅氏家用新冠病毒抗原自我檢測套組,37,2022/05/09 14:50:34,快篩每日14:20發號碼牌，14:30準時發放 請準備現金500元 不找錢
5907090167,大樹大社藥局,高雄市大社區中山路３０８號１樓,120.3503,22.73145,(07)3531682,羅氏家用新冠病毒抗原自我檢測套組,78,2022/05/09 14:50:34,快篩實名制，每天16:00開始販售，售完為止。
5907100088,本館藥局,高雄市鳥松區大華里本館路１９０號１樓,120.3361,22.65556,(07)3707655,羅氏家用新冠病毒抗原自我檢測套組,73,2022/05/09 14:50:34,營業時間每日09:00-22:00  實名制快篩販賣時間15:00-20:00
5907140108,德昌藥局阿蓮店,高雄市阿蓮區阿蓮里中正路４５６號,120.3321,22.88075,(07)6318868,羅氏家用新冠病毒抗原自我檢測套組,31,2022/05/09 14:50:34,固定周一至周日14:30-16:00販售快篩，售完為止
5907150097,金德昌藥師藥局,高雄市路竹區大社路９０之６號,120.263,22.86382,(07)6978143,羅氏家用新冠病毒抗原自我檢測套組,22,2022/05/09 14:50:34,快篩販售時間:14:30~16:00或售完為止
5907150202,永昌藥局,高雄市路竹區延平路８１號,120.2579,22.85786,(07)6964321,羅氏家用新冠病毒抗原自我檢測套組,37,2022/05/09 14:50:34,周一至周六上午10:00~12:30；下午15:30-18:00開始依序販售快篩試劑，售完為止。星期日休息。
5907150257,大樹大立藥局,高雄市路竹區國昌路５１號,120.26,22.85409,(07)6961663,羅氏家用新冠病毒抗原自我檢測套組,78,2022/05/09 14:50:34,快篩實名制，每天16:00開始販售，售完為止。
5907160093,保生藥局,高雄市湖內區葉厝里保生路３４０．３４２號,120.2195,22.90733,(07)6990800,羅氏家用新冠病毒抗原自我檢測套組,79,2022/05/09 14:50:34,快篩實名制，每天16:00開始販售，售完為止。
5907200047,永恒健康生活藥局,高雄市梓官區智蚵里通安路１７６號１樓,120.252,22.7307,(07)6102755,羅氏家用新冠病毒抗原自我檢測套組,51,2022/05/09 14:50:34,營業時間週一到週日早上8:30至晚上9:30  實名制快篩 每天下午3:00 開始
5907280036,七賢藥局,高雄市鹽埕區七賢三路１６２號１樓,120.2829,22.62712,(07)5330616,羅氏家用新冠病毒抗原自我檢測套組,78,2022/05/09 14:50:34,快篩實名制，每天16:00開始販售，售完為止。
5907290023,明倫藥局,高雄市鼓山區明倫路１５０號１樓,120.2979,22.66507,(07)5520736,羅氏家用新冠病毒抗原自我檢測套組,44,2022/05/09 14:50:34,無
5907290112,新高橋藥局華榮店,高雄市鼓山區華榮路２８７號１樓,120.2967,22.66616,(07)5534727,羅氏家用新冠病毒抗原自我檢測套組,43,2022/05/09 14:50:34,無
5907290354,文昇藥局,高雄市鼓山區慶豐街１２５號,120.2942,22.66724,(07)5525314,羅氏家用新冠病毒抗原自我檢測套組,4,2022/05/09 14:50:34,無
5907300239,左野藥局,高雄市左營區崇德路２２２號,120.3052,22.675,(07)3486883,羅氏家用新冠病毒抗原自我檢測套組,74,2022/05/09 14:50:34,每日9時開始營業．實名制快篩販售時間15:00-20:00售完為止! 14:50發號碼牌
5907300613,新高橋藥局河堤店,高雄市左營區裕誠路１４４號１樓及地下１樓,120.3095,22.66423,(07)5582806,羅氏家用新冠病毒抗原自我檢測套組,18,2022/05/09 14:50:34,下午1:30開始販售口罩至下午5:30
5907300686,左營自由藥局,高雄市左營區自由二路３５０、３５０－１號,120.3091,22.66599,(07)5589991,羅氏家用新冠病毒抗原自我檢測套組,78,2022/05/09 14:50:34,快篩實名制，每天16:00開始販售，售完為止。
5907300784,新高橋藥局博正店,高雄市左營區忠言路１８０號,120.3038,22.65841,(07)5509810,羅氏家用新冠病毒抗原自我檢測套組,43,2022/05/09 14:50:34,下午2:30開始販售口罩
5907300926,高鐵藥局,高雄市左營區華夏路１３２２．１３２６號,120.312,22.68587,(07)3452797,羅氏家用新冠病毒抗原自我檢測套組,78,2022/05/09 14:50:34,快篩實名制，每天16:00開始販售，售完為止。
5907300944,左營藥局,高雄市左營區華夏路３２５號,120.2972,22.67167,(07)5501017,羅氏家用新冠病毒抗原自我檢測套組,78,2022/05/09 14:50:34,快篩實名制，每天16:00開始販售，售完為止。
5907300980,大路藥局,高雄市左營區左營大路５５－２號１樓,120.2877,22.6813,(07)5851001,羅氏家用新冠病毒抗原自我檢測套組,78,2022/05/09 14:50:34,快篩實名制，每天16:00開始販售，售完為止。
5907301012,新高橋藥局華夏店,高雄市左營區華夏路１１１０號,120.3085,22.68343,(07)3410915,羅氏家用新冠病毒抗原自我檢測套組,23,2022/05/09 14:50:34,無
5907301021,杏一左營自由藥局,高雄市左營區自由二路３９７號,120.3084,22.66541,(07)5509511,羅氏家用新冠病毒抗原自我檢測套組,78,2022/05/09 14:50:34,周一-周六販賣時間:15點；週日無提供快篩實聯制服務
5907301049,新高橋藥局裕誠店,高雄市左營區裕誠路２９１號１樓,120.3078,22.66511,(07)5573857,羅氏家用新冠病毒抗原自我檢測套組,44,2022/05/09 14:50:34,無
5907310262,大樹楠梓藥局,高雄市楠梓區軍校路９０８號,120.2919,22.71246,(07)3632322,羅氏家用新冠病毒抗原自我檢測套組,78,2022/05/09 14:50:34,快篩實名制，每天16:00開始販售，售完為止。
5907310404,藍田藥局,高雄市楠梓區藍田路１號,120.2953,22.72643,(07)3601236,羅氏家用新冠病毒抗原自我檢測套組,78,2022/05/09 14:50:34,快篩實名制，每天16:00開始販售，售完為止。
5907320179,新高橋藥局天祥店,高雄市三民區天祥一路１１７號,120.3205,22.66711,(07)3102683,羅氏家用新冠病毒抗原自我檢測套組,40,2022/05/09 14:50:34,下午2:30開始販售快篩，2:20發號碼牌
5907320302,新高橋藥局明誠店,高雄市三民區明誠一路４９２號,120.3226,22.66046,(07)3107072,羅氏家用新冠病毒抗原自我檢測套組,40,2022/05/09 14:50:34,早上10:00開始販售口罩
5907320428,東京藥局,高雄市三民區建工路６８５號,120.3173,22.6478,(07)3874567,羅氏家用新冠病毒抗原自我檢測套組,64,2022/05/09 14:50:34,實名制快篩販售時間: 每日15:00-晚上20:00
5907320893,大樹天祥藥局,高雄市三民區天祥一路１６７號,120.3191,22.66737,(07)3429902,羅氏家用新冠病毒抗原自我檢測套組,78,2022/05/09 14:50:34,快篩實名制，每天16:00開始販售，售完為止。
5907321069,桂林活力藥局九如店,高雄市三民區懷安街１１２號１樓,120.3176,22.64095,(07)3981009,羅氏家用新冠病毒抗原自我檢測套組,78,2022/05/09 14:50:34,每天15:30發號碼牌，於18:00前兌換完畢，逾期棄權，剩餘則繼續發放
5907321103,自由藥局,高雄市三民區自由一路７８號,120.3089,22.64422,(07)3223113,羅氏家用新冠病毒抗原自我檢測套組,78,2022/05/09 14:50:34,快篩實名制，每天16:00開始販售，售完為止。
5907350113,英祥藥局,高雄市苓雅區英祥街１９號,120.3257,22.61678,(07)7522786,羅氏家用新冠病毒抗原自我檢測套組,25,2022/05/09 14:50:34,無
5907350346,武廟幸福藥局,高雄市苓雅區武廟路３５號,120.3316,22.62999,(07)7170085,羅氏家用新冠病毒抗原自我檢測套組,3,2022/05/09 14:50:34,1: 自111／5／1起：快篩販售時間為13:40開始。2: 販售方式依現場公告為主，售完為止。
5907350480,健森藥局,高雄市苓雅區林森二路１３８號１、２樓,120.3066,22.62054,(07)3365169,羅氏家用新冠病毒抗原自我檢測套組,3,2022/05/09 14:50:34,早上9點領牌 下午3~5點領口罩
5907350499,鑫美健保特約藥局,高雄市苓雅區光華一路１４８－５８號１樓,120.3158,22.62389,(07)7715088,羅氏家用新冠病毒抗原自我檢測套組,4,2022/05/09 14:50:34,14:00開賣實名制快篩，馨田診所配合公費快篩，慢箋免費領藥，防疫物資特賣
5907350506,大樹苓雅藥局,高雄市苓雅區中華四路１５３號,120.3001,22.61783,(07)5353111,羅氏家用新冠病毒抗原自我檢測套組,78,2022/05/09 14:50:34,快篩實名制，每天16:00開始販售，售完為止。
5907350551,大樹武廟藥局,高雄市苓雅區武廟路４３、４５號１樓,120.3314,22.63005,(07)7222268,羅氏家用新冠病毒抗原自我檢測套組,78,2022/05/09 14:50:34,快篩實名制，每天16:00開始販售，售完為止。
5907350631,三多藥局,高雄市苓雅區三多二路２９２號１樓,120.3173,22.61838,(07)3365889,羅氏家用新冠病毒抗原自我檢測套組,78,2022/05/09 14:50:34,快篩實名制，每天16:00開始販售，售完為止。
5907350659,北京藥局林泉店,高雄市苓雅區林泉里３鄰林泉街３５號１樓,120.3192,22.62323,(07)7263030,羅氏家用新冠病毒抗原自我檢測套組,78,2022/05/09 14:50:34,營業時間早上8點到下午11點，快篩下午3點30分開始販售
5907360520,大樹瑞福藥局,高雄市前鎮區瑞隆路１７０號１樓、２樓,120.3357,22.60598,(07)7271170,羅氏家用新冠病毒抗原自我檢測套組,78,2022/05/09 14:50:34,快篩實名制，每天16:00開始販售，售完為止。
5907360664,忠純藥局,高雄市前鎮區中華五路１００９號１樓,120.3056,22.60341,(07)3366886,羅氏家用新冠病毒抗原自我檢測套組,78,2022/05/09 14:50:34,快篩實名制，每天16:00開始販售，售完為止。
5907360673,前鎮大樹藥局,高雄市前鎮區瑞隆路４７２號１樓,120.3291,22.60547,(07)7137171,羅氏家用新冠病毒抗原自我檢測套組,78,2022/05/09 14:50:34,快篩實名制，每天16:00開始販售，售完為止。
5907380264,大樹孔鳳藥局,高雄市小港區孔鳳路５１９、５２１號,120.3587,22.5828,(07)7918521,羅氏家用新冠病毒抗原自我檢測套組,78,2022/05/09 14:50:34,快篩實名制，每天16:00開始販售，售完為止。
5907380424,大樹小港藥局,高雄市小港區康莊路７５號１樓,120.3559,22.56853,(07)8068328,羅氏家用新冠病毒抗原自我檢測套組,78,2022/05/09 14:50:34,快篩實名制，每天16:00開始販售，售完為止。
5911010015,喬寶藥局,基隆市中正區義二路６６號１樓,121.7461,25.13187,(02)24202827,羅氏家用新冠病毒抗原自我檢測套組,15,2022/05/09 14:50:34,下午2點開賣
5911011325,永好藥局,基隆市中正區北寧路３１５號１樓,121.7951,25.13981,(02)24697639,羅氏家用新冠病毒抗原自我檢測套組,51,2022/05/09 14:50:34,快篩星期一*三*五是單號 二*四雙號 下午14:30販售 星期六星期日休息
5911011478,天康新豐藥局,基隆市中正區新豐街２５１巷４弄９號１樓,121.7885,25.13594,(02)24695168,羅氏家用新冠病毒抗原自我檢測套組,8,2022/05/09 14:50:34,無
5911011638,中正藥局,基隆市中正區新豐街３８５號１、２樓,121.7856,25.13537,(02)24690660,羅氏家用新冠病毒抗原自我檢測套組,77,2022/05/09 14:50:34,快篩實名制，每天16:00開始販售，售完為止。
5911021438,正心藥局,基隆市七堵區南興路１０號１樓,121.7149,25.09755,(02)24563378,羅氏家用新冠病毒抗原自我檢測套組,2,2022/05/09 14:50:34,每日限量78盒， 星期一~六下午13:30發號碼牌，14:00開始販賣，星期日上午9:00發號碼牌，9:30開始販賣，12:00停止領取
5911030035,陸記藥局,基隆市暖暖區源遠路２４１號,121.7543,25.09882,(02)24576712,羅氏家用新冠病毒抗原自我檢測套組,1,2022/05/09 14:50:34,每日下午兩點販售快篩試劑
5911031096,東方藥局,基隆市暖暖區暖暖街１５３號１樓,121.7367,25.10013,(02)24574171,羅氏家用新冠病毒抗原自我檢測套組,1,2022/05/09 14:50:34,下午2點販售
5911050153,隆泰藥局,基隆市中山區西定路１２號,121.7355,25.13184,(02)24225889,羅氏家用新冠病毒抗原自我檢測套組,70,2022/05/09 14:50:34,無
5911060015,福泰藥局,基隆市安樂區麥金路４３３號,121.7194,25.12511,(02)24311631,羅氏家用新冠病毒抗原自我檢測套組,1,2022/05/09 14:50:34,下午2點發號碼牌  3點領快篩試劑  星期日休息
5911071590,基隆藥局,基隆市信義區東信路１６６、１６８號１、２樓,121.7646,25.12821,(02)24680955,羅氏家用新冠病毒抗原自我檢測套組,78,2022/05/09 14:50:34,快篩實名制，每天16:00開始販售，售完為止。
5912012120,仁美藥局,新竹市東區振興里振興路５２號,120.9625,24.79493,(03)5625398,羅氏家用新冠病毒抗原自我檢測套組,78,2022/05/09 14:50:34,週一~週六晚上六點販售（週日店休）不發號碼牌!請不要問我要幾點排隊，我不是九天玄女!盡量不打電話，感恩!!
5912012433,安安大藥局,新竹市東區金山里光復路一段１６３巷２號,121.0223,24.78144,(03)5772655,羅氏家用新冠病毒抗原自我檢測套組,22,2022/05/09 14:50:34,快篩實名制  周一至周五14:30販售
5912012979,哈佛藥局,新竹市東區北大路７２－１號,120.971,24.81178,(03)5326777,羅氏家用新冠病毒抗原自我檢測套組,72,2022/05/09 14:50:34,快篩販售時間：週一至週六14:50 週日08:00 有顯示庫存量 也要等販售時間才可買 請準備好不用找的錢 感謝
5912013494,田美藥局,新竹市東區田美三街３５之１號１樓,120.9767,24.81572,(03)5350233,羅氏家用新冠病毒抗原自我檢測套組,78,2022/05/09 14:50:34,快篩實名制，每天16:00開始販售，售完為止。
5912013672,關東藥局,新竹市東區光復路１段３３２、３３４號１至２樓,121.0187,24.78289,(03)5777077,羅氏家用新冠病毒抗原自我檢測套組,78,2022/05/09 14:50:34,快篩實名制，每天16:00開始販售，售完為止。
5912013681,仁春藥局,新竹市東區慈濟路２５２號１樓,121.0153,24.79245,(03)6686718,羅氏家用新冠病毒抗原自我檢測套組,78,2022/05/09 14:50:34,5／9實名制快篩 於16:00開始販售
5912013707,信安藥師藥局,新竹市東區南大路８４２號１樓,120.9669,24.78819,(03)5623101,羅氏家用新冠病毒抗原自我檢測套組,2,2022/05/09 14:50:34,下午2點開賣快篩試劑  週日無販售實名制快篩
5912040222,保健藥局,新竹市北區中山路１５３號１樓,120.9635,24.80324,(03)5242088,羅氏家用新冠病毒抗原自我檢測套組,15,2022/05/09 14:50:34,快篩販賣時段：下午2:00現場排隊至售完為止。
5912042235,均祐健康藥局,新竹市北區境福里１５鄰中正路３８９號１樓,120.961,24.81546,(03)5325369,羅氏家用新冠病毒抗原自我檢測套組,6,2022/05/09 14:50:34,口罩販售時間：09:00
5912042404,豐盛藥局,新竹市北區光華二街３５號,120.9747,24.81816,(03)5335651,羅氏家用新冠病毒抗原自我檢測套組,15,2022/05/09 14:50:34,實名制快篩:早上9點開始發號碼牌，13-22點領取快篩
5912042897,立新藥師藥局,新竹市北區延平路一段２４５號１樓,120.9532,24.80494,(03)5228968,羅氏家用新冠病毒抗原自我檢測套組,10,2022/05/09 14:50:34,周一~周六PM2:00販售快篩。周日不販售。ps.請自備500元，不找錢
5912042940,新竹北門藥局,新竹市北區中正路３６０、３６２號１樓,120.9629,24.81414,(03)5333234,羅氏家用新冠病毒抗原自我檢測套組,78,2022/05/09 14:50:34,快篩實名制，每天16:00開始販售，售完為止。
5912042968,大樹新竹藥局,新竹市北區西大路５４０、５４２號１、２樓,120.9619,24.80676,(03)5250388,羅氏家用新冠病毒抗原自我檢測套組,78,2022/05/09 14:50:34,快篩實名制，每天16:00開始販售，售完為止。
5912051350,高晟藥師藥局,新竹市香山區大庄路59號,120.9279,24.78964,(03)5306645,羅氏家用新冠病毒抗原自我檢測套組,7,2022/05/09 14:50:34,下午2點銷售快篩
5912051430,三姓藥局,新竹市香山區中華路四段５７６號１、２樓,120.9297,24.78886,(03)5385886,羅氏家用新冠病毒抗原自我檢測套組,78,2022/05/09 14:50:34,快篩實名制，每天16:00開始販售，售完為止。
5917011934,一安堂藥局,臺中市中區臺灣大道一段２０號１樓,120.6847,24.13819,(04)22259616,羅氏家用新冠病毒抗原自我檢測套組,4,2022/05/09 14:50:34,14:00開始領取實名制快篩劑
5917011945,正三吉藥局,臺中市中區臺灣大道一段９５號,120.6831,24.13911,(04)22207700,羅氏家用新冠病毒抗原自我檢測套組,78,2022/05/09 14:50:34,快篩販售時間 14:00~17:00
5917030995,麗新健保大藥局,臺中市西區向上路一段１６２號,120.6612,24.1469,(04)23017100,羅氏家用新冠病毒抗原自我檢測套組,66,2022/05/09 14:50:34,週一至週日下午15:00至售完為止
5917032800,壹藥局,臺中市西區美村路１段７７５號１樓,120.6618,24.13306,(04)23721998,羅氏家用新冠病毒抗原自我檢測套組,3,2022/05/09 14:50:34,星期一到星期日每天下午二點開始販售快篩試劑售完為止謝謝
5917050933,英才藥局,臺中市北區英才路２２９號,120.674,24.15558,(04)22012325,羅氏家用新冠病毒抗原自我檢測套組,67,2022/05/09 14:50:34,上午9~10:30及下午5~6:30依序發售口罩，週日公休。
5917053649,博森藥局,臺中市北區健行路４９３號,120.6778,24.15905,(04)22068589,羅氏家用新冠病毒抗原自我檢測套組,22,2022/05/09 14:50:34,固定週一到週六，下午2:00到下午4:00以現場排隊方式販售防疫家用快篩。
5917053756,中心旗艦藥局,臺中市北區五權路４０４號,120.6821,24.15288,(04)22068113,羅氏家用新冠病毒抗原自我檢測套組,3,2022/05/09 14:50:34,每日下午2:00開始賣快篩（實名制）.周一至周日都有營業
5917060108,博新藥局,臺中市西屯區福安里中工三路２２０號,120.6153,24.17541,(04)23583412,羅氏家用新冠病毒抗原自我檢測套組,32,2022/05/09 14:50:34,星期一至六 下午2:30分 開始販賣快篩劑  無號碼牌 星期日休營
5917061150,裕和藥局,臺中市西屯區大墩路９５１號１Ｆ,120.652,24.15929,(04)23252629,羅氏家用新冠病毒抗原自我檢測套組,4,2022/05/09 14:50:34,實名制快篩W1-W6 14:00開始販售；星期日9:00開始
5917062988,廣安大藥局,臺中市西屯區青海路一段一Ｏ一、一Ｏ三號,120.6536,24.16485,(04)23118572,羅氏家用新冠病毒抗原自我檢測套組,1,2022/05/09 14:50:34,週一~日10AM販售口罩售完為止，無發放號碼牌.
5917063065,達康藥局,臺中市西屯區中工三路１３９號,120.6186,24.17779,(04)23586332,羅氏家用新冠病毒抗原自我檢測套組,3,2022/05/09 14:50:34,週一~周日下午2點販售快篩售完為止，無發放號碼牌.
5917070382,得安藥局,臺中市南屯區溝墘里大墩路５９６號,120.6495,24.15136,(04)23234168,羅氏家用新冠病毒抗原自我檢測套組,1,2022/05/09 14:50:34,下午2:00開始現場購買快篩試劑，售完為止。
5917072699,博仕健保藥局,臺中市南屯區大墩１１街４４５號,120.638,24.14862,(04)23817009,羅氏家用新冠病毒抗原自我檢測套組,12,2022/05/09 14:50:34,星期一至星期五14:00開賣，星期六11:00開賣，現場排隊販售
5917083254,建祐藥局,臺中市北屯區太原路三段２６１號,120.6932,24.16505,(04)22389809,羅氏家用新冠病毒抗原自我檢測套組,52,2022/05/09 14:50:34,今日尚未收到貨；星期日休
5921010072,統一藥局,臺南市東區中西里東門路１段２９１號,120.2186,22.98683,(06)2376638,羅氏家用新冠病毒抗原自我檢測套組,1,2022/05/09 14:50:34,早上9點到晚間9點半  星期日休假
5921010107,榮泰藥局,臺南市東區崇誨里林森路２段１９２巷４９號,120.2256,22.98973,(06)2369095,羅氏家用新冠病毒抗原自我檢測套組,24,2022/05/09 14:50:34,實名制快篩: 14:00 開始販售（週日店休）
5921010223,王藥局,臺南市東區小東里小東路１９０－１號,120.2276,22.99976,(06)2378697,羅氏家用新冠病毒抗原自我檢測套組,1,2022/05/09 14:50:34,週一 至 週日，下午 2:00 ~ 晚上9:00 （ 需健保卡 ）
5921012085,台安藥局,臺南市東區大同路一段１６３號,120.2113,22.98503,(06)2150011,羅氏家用新冠病毒抗原自我檢測套組,55,2022/05/09 14:50:34,快篩下午四點開始銷售
5921012530,早安藥師藥局,臺南市東區裕學路１１２號,120.2358,22.98502,(06)3350535,羅氏家用新冠病毒抗原自我檢測套組,2,2022/05/09 14:50:34,營業時間:8:30~23:30   快篩試劑發放時間 : 星期一到日14:00開始售完為止
5921013206,和德藥局,臺南市東區崇德路４９７號,120.2272,22.97435,(06)2882789,羅氏家用新冠病毒抗原自我檢測套組,38,2022/05/09 14:50:34,實名制快篩試劑販售時間14:30~17:00，售完即止
5921040301,永生藥局,臺南市北區六甲里公園路４８１號,120.2079,23.00898,(06)2813681,羅氏家用新冠病毒抗原自我檢測套組,10,2022/05/09 14:50:34,每日販賣快篩劑下午2時起至售完為止／星期日休息
5921050138,金德藥局,臺南市中西區府前路１段３３號,120.2108,22.98881,(06)2149082,羅氏家用新冠病毒抗原自我檢測套組,1,2022/05/09 14:50:34,星期一-日08:00-23:00
5921061720,康悅健藥師藥局,臺南市安南區安和路５段１４９-２號,120.2179,23.0659,(06)3556382,羅氏家用新冠病毒抗原自我檢測套組,4,2022/05/09 14:50:34,快篩-星期一-五13:00-售完   星期六-日15:00-售完
5921071244,全家藥局,臺南市安平區華平路１７０號,120.1749,22.98882,(06)2939000,羅氏家用新冠病毒抗原自我檢測套組,15,2022/05/09 14:50:34,下午2:30 開賣快篩  到貨時間不確定 數量依現場為主  請準備剛好金額 謝謝  星期日不營業
5922010361,壽生堂藥局,嘉義市東區府路里延平街２８０號,120.4502,23.47683,(05)2225058,羅氏家用新冠病毒抗原自我檢測套組,2,2022/05/09 14:50:34,周一至周日上午09:00起，至20:00或售鑿為止。
5922012383,振安藥局,嘉義市東區王田里林森東路３００號１樓,120.464,23.48889,(05)2756541,羅氏家用新冠病毒抗原自我檢測套組,3,2022/05/09 14:50:34,實名制快篩:周一至周日14:00開始販售，售完為止
5922012392,維康藥局,嘉義市東區短竹里大雅路二段５６７號１樓,120.4663,23.47685,(05)2757663,羅氏家用新冠病毒抗原自我檢測套組,58,2022/05/09 14:50:34,＜領購快篩＞ 星期一  ~ 星期五 下午 2:00~5:00 。假日國定假日停售。
5922012945,大明藥局,嘉義市東區大雅路二段６８２號,120.4663,23.47719,(05)2760958,羅氏家用新冠病毒抗原自我檢測套組,27,2022/05/09 14:50:34,5／9 號碼牌已經分發完畢
5922013102,後庄藥局,嘉義市東區吳鳳南路６４９號,120.4594,23.45511,(05)2391233,羅氏家用新冠病毒抗原自我檢測套組,78,2022/05/09 14:50:34,快篩實名制，每天16:00開始販售，售完為止。
5922013111,富善藥局,嘉義市東區新生路２３４號,120.4609,23.48419,(05)2759559,羅氏家用新冠病毒抗原自我檢測套組,36,2022/05/09 14:50:34,5／13、14休假，實名制快篩早上9:10-12:00下午3:10-5:00
5922013193,民權藥局,嘉義市東區民權路１５５號１樓、１５７號１樓,120.4604,23.48374,(05)2775322,羅氏家用新冠病毒抗原自我檢測套組,78,2022/05/09 14:50:34,快篩實名制，每天16:00開始販售，售完為止。
5922020634,利安藥局,嘉義市西區番社里中山路３４４號１樓,120.4473,23.47984,(05)2225756,羅氏家用新冠病毒抗原自我檢測套組,22,2022/05/09 14:50:34,快篩星期一~六下午13:30販賣，星期日另行公告
5922020821,明興藥局,嘉義市西區仁愛路２４７號１樓,120.4425,23.47149,(05)2365938,羅氏家用新冠病毒抗原自我檢測套組,2,2022/05/09 14:50:34,快篩 周一至周六下午2點開賣  週日無
5922020858,大統藥局,嘉義市西區慶安里北興街１３６號,120.4421,23.48389,(05)2330230,羅氏家用新冠病毒抗原自我檢測套組,8,2022/05/09 14:50:34,5月9日預約登記已滿.有預約的民眾請於上午9:00-12:00領取
5922021006,竹圍藥局,嘉義市西區友愛路２７０、２７２號,120.4339,23.4837,(05)2811233,羅氏家用新冠病毒抗原自我檢測套組,78,2022/05/09 14:50:34,快篩實名制，每天16:00開始販售，售完為止。
5931010011,埔墘藥局,新北市板橋區中山路２段２２７號,121.477,25.01741,(02)29646705,羅氏家用新冠病毒抗原自我檢測套組,46,2022/05/09 14:50:34,實名制快篩每天14:30發放號碼牌
5931010235,友祥藥局,新北市板橋區裕民街１０７號,121.4599,25.02773,(02)22544666,羅氏家用新冠病毒抗原自我檢測套組,8,2022/05/09 14:50:34,無
5931010315,優良藥局,新北市板橋區莊敬路９３號,121.4727,25.02628,(02)22550251,羅氏家用新冠病毒抗原自我檢測套組,1,2022/05/09 14:50:34,無
5931010342,宏達大藥局,新北市板橋區莒光路１７號,121.47,25.02478,(02)22572345,羅氏家用新冠病毒抗原自我檢測套組,156,2022/05/09 14:50:34,快篩 晚上20:00開始販售! 不要打電話來 問題這麼多就到現場 也不給你問
5931010646,人民藥局,新北市板橋區仁愛路５９號,121.4604,24.99965,(02)89533956,羅氏家用新冠病毒抗原自我檢測套組,1,2022/05/09 14:50:34,1.依政府規定當日配送，當日販售。2.因每日郵局配送時間不一定，詳看現場公告。.
5931010842,大福藥局,新北市板橋區三民路１段３１巷１５號,121.48,25.02326,(02)29610311,羅氏家用新冠病毒抗原自我檢測套組,32,2022/05/09 14:50:34,每週一至周六13:30開始販售實名制快篩試劑，週日無販售
5931011161,全國藥局,新北市板橋區四川路１段２３１號,121.4601,25.00297,(02)29511212,羅氏家用新冠病毒抗原自我檢測套組,9,2022/05/09 14:50:34,健保快篩發放時間:星期一到星期六下午2點發放號碼牌~歡迎大家來領喔!
5931013389,谷全藥局,新北市板橋區裕民街４９號,121.4613,25.02851,(02)22561856,羅氏家用新冠病毒抗原自我檢測套組,2,2022/05/09 14:50:34,無
5931013781,佳和藥局,新北市板橋區文化路１段３８７巷５號１樓,121.4667,25.02193,(02)22589598,羅氏家用新冠病毒抗原自我檢測套組,37,2022/05/09 14:50:34,快篩週一 至五均分早上8:30 和下午3:00販售- 週六早上售完為止. 週日休
5931014046,欣安藥局,新北市板橋區懷德街１０９號１樓,121.4786,25.03147,(02)82570296,羅氏家用新冠病毒抗原自我檢測套組,3,2022/05/09 14:50:34,目前快篩送貨時間不定，發放時間依現場公告為主。
5931014224,大峰藥局,新北市板橋區莒光路１６８號１樓,121.4741,25.02314,(02)22510338,羅氏家用新冠病毒抗原自我檢測套組,12,2022/05/09 14:50:34,AM8:00起發放防疫口罩
5931014555,廣益藥局,新北市板橋區自由路２１號,121.4654,25.02296,(02)22545726,羅氏家用新冠病毒抗原自我檢測套組,34,2022/05/09 14:50:34,下午3點50發號碼牌，4點開始賣
5931015687,正康健保藥局,新北市板橋區大觀路２段６５號１樓,121.4467,25.00246,(02)22756681,羅氏家用新冠病毒抗原自我檢測套組,76,2022/05/09 14:50:34,下午13:30依現場順序開始販售快篩，快篩配送絮亂庫存不準!!
5931015981,立安中西藥局,新北市板橋區後埔街８３號１樓,121.4607,25.00523,(02)29582241,羅氏家用新冠病毒抗原自我檢測套組,36,2022/05/09 14:50:34,無
5931016273,湯明藥局,新北市板橋區中山路２段３１９號１樓,121.479,25.01866,(02)29571980,羅氏家用新冠病毒抗原自我檢測套組,67,2022/05/09 14:50:34,週一到週五 下午四點  六日時間未定 排隊不發號碼
5931016577,廣泰藥師藥局,新北市板橋區館前西路１５０號１樓,121.4556,25.00843,(02)89698381,羅氏家用新冠病毒抗原自我檢測套組,78,2022/05/09 14:50:34,無
5931016611,民川藥局,新北市板橋區四川路１段９７號１樓,121.4598,25.00544,(02)29520090,羅氏家用新冠病毒抗原自我檢測套組,40,2022/05/09 14:50:34,星期一~星期六（快篩上午9:00販售38份下午3:00販售40份）
5931016808,正安健保藥局,新北市板橋區民族路２２４號（１樓）,121.4687,25.00733,(02)29526813,羅氏家用新冠病毒抗原自我檢測套組,70,2022/05/09 14:50:34,17時依現場順序開始販售.週六12點.電腦配送庫存不準..以現場數量為準
5931017010,醫安藥局,新北市板橋區南雅南路１段１１號１樓及２樓,121.4565,25.00706,(02)29692588,羅氏家用新冠病毒抗原自我檢測套組,72,2022/05/09 14:50:34,週日休，下午3點開始販售，依現場排隊為主
5931017047,永欣藥師藥局,新北市板橋區龍興街４６號１樓,121.4433,25.00094,(02)29687120,羅氏家用新冠病毒抗原自我檢測套組,74,2022/05/09 14:50:34,無
5931017341,台安藥局,新北市板橋區中正路２０４號１樓、２樓、３樓,121.4561,25.01804,(02)29663600,羅氏家用新冠病毒抗原自我檢測套組,27,2022/05/09 14:50:34,無
5931017403,光澤醫美藥局,新北市板橋區四川路１段２１號（１樓）,121.4595,25.00689,(02)29551215,羅氏家用新冠病毒抗原自我檢測套組,78,2022/05/09 14:50:34,無
5931017618,新埔健保藥局,新北市板橋區自由路２號１樓,121.4654,25.02222,(02)22558878,羅氏家用新冠病毒抗原自我檢測套組,39,2022/05/09 14:50:34,無
5931017636,福澤藥局,新北市板橋區南雅南路１段８５號（１樓）,121.4556,25.00543,(02)29690013,羅氏家用新冠病毒抗原自我檢測套組,48,2022/05/09 14:50:34,口罩代售9:00-23:00
5931017645,松立藥局,新北市板橋區四川路２段９９之１０號（１樓）,121.4521,24.99448,(02)89670100,羅氏家用新冠病毒抗原自我檢測套組,1,2022/05/09 14:50:34,無
5931017663,盛生藥局,新北市板橋區合宜路９９號（１樓）,121.4479,24.9984,(02)89697299,羅氏家用新冠病毒抗原自我檢測套組,1,2022/05/09 14:50:34,政府快篩下午1:50發放號碼牌.下午2:00準時銷售..假日視政府配量（銷售時間相同）
5931017770,光環藥局,新北市板橋區光環路２段１６號１樓,121.4822,25.01476,(02)89520920,羅氏家用新冠病毒抗原自我檢測套組,32,2022/05/09 14:50:34,無
5931017789,明翠藥局,新北市板橋區四維路１４６、１４８號１、２樓,121.4651,25.02555,(02)22550201,羅氏家用新冠病毒抗原自我檢測套組,78,2022/05/09 14:50:34,快篩實名制，每天16:00開始販售，售完為止。
5931017832,躍獅莒光藥局,新北市板橋區莒光路５８號１樓,121.4709,25.02421,(02)22556743,羅氏家用新冠病毒抗原自我檢測套組,77,2022/05/09 14:50:34,5／8 78份已售完，5／9   下午2:50發號碼    請勿打電話詢問。
5931017841,莊敬健康人生藥局,新北市板橋區莊敬路８７號１樓,121.4728,25.02645,(02)22570028,羅氏家用新冠病毒抗原自我檢測套組,52,2022/05/09 14:50:34,實名快篩下午2:30發放號碼牌及販售，營業時間10:00-21:00
5931017967,曉品中西藥局,新北市板橋區貴興路２４號（１樓）,121.4575,25.00389,(02)29586990,羅氏家用新冠病毒抗原自我檢測套組,3,2022/05/09 14:50:34,無
5931017985,松柏藥局,新北市板橋區松柏街９４號（１樓）,121.4767,25.03065,(02)82585223,羅氏家用新冠病毒抗原自我檢測套組,78,2022/05/09 14:50:34,快篩實名制，每天16:00開始販售，售完為止。
5931017994,後埔藥局,新北市板橋區華興街９號（１樓）,121.459,25.00457,(02)89510306,羅氏家用新冠病毒抗原自我檢測套組,15,2022/05/09 14:50:34,5／9 下午2點發放號碼牌*確保作業流暢請自備500元*每天 78 份晚上10 點以前領取完畢（過卡時間差異剩餘數量僅供參考）
5931018053,廣福健保藥局,新北市板橋區三民路１段７６號（１樓）,121.4793,25.02207,(02)29544288,羅氏家用新冠病毒抗原自我檢測套組,70,2022/05/09 14:50:34,實名制快篩每日下午16:00開始販售
5931018099,廣品藥局,新北市板橋區漢生西路８２號（１樓）,121.4628,25.01934,(02)22576880,羅氏家用新冠病毒抗原自我檢測套組,78,2022/05/09 14:50:34,實名制快篩 周一~周五下午16；00發放 週六.日 早上09；30發放 請勿打電話詢問 感謝配合
5931018142,重慶藥局,新北市板橋區國慶路１２７號（１樓）,121.4608,24.99602,(02)29565586,羅氏家用新冠病毒抗原自我檢測套組,78,2022/05/09 14:50:34,快篩實名制，每天16:00開始販售，售完為止。
5931020044,唯安藥局,新北市三重區五華街１３０號,121.4916,25.08358,(02)29875750,羅氏家用新冠病毒抗原自我檢測套組,78,2022/05/09 14:50:34,無
5931021023,義中藥局,新北市三重區大同北路１０７號,121.4942,25.06421,(02)29815088,羅氏家用新冠病毒抗原自我檢測套組,54,2022/05/09 14:50:34,無
5931021532,龍門藥局,新北市三重區龍門路１８９號,121.4996,25.07322,(02)29756141,羅氏家用新冠病毒抗原自我檢測套組,146,2022/05/09 14:50:34,實名制快篩販售時間~星期一至星期六下午3點
5931022959,名成藥局,新北市三重區力行路１段１８２號,121.4819,25.0716,(02)29847828,羅氏家用新冠病毒抗原自我檢測套組,26,2022/05/09 14:50:34,快篩實名制，星期1--6下午2點30開始領，5月1日星期日，九點開始領
5931023447,安泰藥局,新北市三重區正義北路３００－３號２樓,121.4953,25.06978,(02)89815379,羅氏家用新冠病毒抗原自我檢測套組,156,2022/05/09 14:50:34,5／2只有早上8:30--12:00營業下午.及晚上休息
5931024088,美滿藥局,新北市三重區中華路１６號,121.4834,25.0606,(02)89824272,羅氏家用新冠病毒抗原自我檢測套組,78,2022/05/09 14:50:34,滾動式調整
5931024373,予康藥局,新北市三重區文化北路１９８號１樓,121.498,25.06794,(02)89858789,羅氏家用新冠病毒抗原自我檢測套組,32,2022/05/09 14:50:34,（星期日休息
5931024426,甜心健康生活藥局,新北市三重區福祉里集美街４５號１樓,121.488,25.05542,(02)29762223,羅氏家用新冠病毒抗原自我檢測套組,4,2022/05/09 14:50:34,無
5931024971,欽勝藥局,新北市三重區重陽路４段６號２樓,121.4906,25.06894,(02)29857389,羅氏家用新冠病毒抗原自我檢測套組,1,2022/05/09 14:50:34,販售快篩需現場排隊，無預約無號碼牌，販售時間15:00。
5931025290,康新藥局,新北市三重區正義北路１８５號２樓,121.4964,25.06783,(02)29865982,羅氏家用新冠病毒抗原自我檢測套組,3,2022/05/09 14:50:34,實名制代售時段：下午2點到4點。請自備零錢，恕不找零。.
5931025398,昌誠藥局,新北市三重區三和路４段１６１號１樓,121.4835,25.0785,(02)22876338,羅氏家用新冠病毒抗原自我檢測套組,5,2022/05/09 14:50:34,5／2 （休診）
5931025567,閎安藥局,新北市三重區重新路２段８５號１樓、２樓,121.4962,25.06181,(02)29881968,羅氏家用新冠病毒抗原自我檢測套組,78,2022/05/09 14:50:34,快篩代售時間:每日14:00發號碼牌（以在場者為主），15:00發快篩，當日領取至21:00
5931025914,仁美藥局,新北市三重區慈愛街５１號１、２樓,121.4861,25.07908,(02)22805150,羅氏家用新冠病毒抗原自我檢測套組,78,2022/05/09 14:50:34,快篩實名制，每天16:00開始販售，售完為止。
5931026064,五華春天生活藥局,新北市三重區五華街７３號１、２樓,121.4925,25.08291,(02)29876838,羅氏家用新冠病毒抗原自我檢測套組,78,2022/05/09 14:50:34,快篩代售時間：週一至週日15：00，現場排隊購買，售完為止。（物流配送不及則例外，以門市公告為主）
5931026082,大有藥局,新北市三重區中正北路２１３號１、２樓及２１５號１、２樓,121.4763,25.07013,(02)29885771,羅氏家用新冠病毒抗原自我檢測套組,78,2022/05/09 14:50:34,快篩實名制，每天16:00開始販售，售完為止。
5931026091,重新藥局,新北市三重區重新路４段１２號１樓,121.4888,25.05775,(02)29742700,羅氏家用新冠病毒抗原自我檢測套組,78,2022/05/09 14:50:34,快篩實名制，每天16:00開始販售，售完為止。
5931033201,級立健保藥局,新北市永和區保平路１３９號１樓,121.5102,25.00608,(02)29299995,羅氏家用新冠病毒抗原自我檢測套組,78,2022/05/09 14:50:34,快篩代售時間為下午15:00，週日不銷售
5931033541,大欣安藥局,新北市永和區得和路３７０號１樓,121.5244,24.99928,(02)29450808,羅氏家用新冠病毒抗原自我檢測套組,3,2022/05/09 14:50:34,5／3起快篩試劑PAM14:00開始發號碼牌跟販售
5931033649,敦品民治藥局,新北市永和區民治街８１號１樓,121.5175,24.99805,(02)29494150,羅氏家用新冠病毒抗原自我檢測套組,12,2022/05/09 14:50:34,口罩下午2點-4點半現場購買
5931033774,台化藥局,新北市永和區勵行街１１９號１樓,121.5175,25.01202,(02)22318585,羅氏家用新冠病毒抗原自我檢測套組,1,2022/05/09 14:50:34,無
5931033863,欣安大藥局,新北市永和區福和路２２１號１樓,121.5189,25.00749,(02)22326685,羅氏家用新冠病毒抗原自我檢測套組,1,2022/05/09 14:50:34,快篩試劑pm13:30發號碼牌暨銷售，售完為止。
5931034119,仁愛陽光藥局,新北市永和區仁愛路１４３號１樓,121.5114,25.01293,(02)89213691,羅氏家用新冠病毒抗原自我檢測套組,2,2022/05/09 14:50:34,快篩代售時段14:00，售完為止...
5931034191,健生活藥局,新北市永和區得和路２３７號１樓,121.5203,25.00021,(02)29223222,羅氏家用新冠病毒抗原自我檢測套組,35,2022/05/09 14:50:34,無
5931040297,信隆大藥局,新北市中和區安樂路６號１至２樓,121.5118,24.99168,(02)29426196,羅氏家用新冠病毒抗原自我檢測套組,75,2022/05/09 14:50:34,無
5931043529,新雙和藥師藥局,新北市中和區中正路２８１－８號１樓,121.4943,24.99374,(02)22404276,羅氏家用新冠病毒抗原自我檢測套組,4,2022/05/09 14:50:34,週1-週5早上8:45發售快篩  （週六及週日早上9:30  ）
5931043565,一安藥妝藥局,新北市中和區中和路９號１.２樓,121.4998,25.00221,(02)22483778,羅氏家用新冠病毒抗原自我檢測套組,78,2022/05/09 14:50:34,下午3點開始發號碼牌販售快篩
5931043798,永成藥局,新北市中和區景平路１５６號１樓,121.5176,24.99222,(02)29407619,羅氏家用新冠病毒抗原自我檢測套組,78,2022/05/09 14:50:34,實名制快篩，下午三點領取號碼並開始販售（每日78份）
5931043921,良安藥局,新北市中和區連城路４７７巷１號１樓,121.4833,24.99555,(02)22225798,羅氏家用新冠病毒抗原自我檢測套組,8,2022/05/09 14:50:34,週六日不開店，實名制快篩，晚上9:00開始販售
5931044848,和霖生活藥局,新北市中和區復興路２８９號１樓,121.5018,24.99015,(02)22458227,羅氏家用新冠病毒抗原自我檢測套組,8,2022/05/09 14:50:34,無
5931045032,朝安藥局,新北市中和區復興路２６２號１樓,121.5035,24.99038,(02)31511269,羅氏家用新冠病毒抗原自我檢測套組,3,2022/05/09 14:50:34,實名制快篩下午2點過卡販售，每人限持一卡，不發號碼牌。（任何異動依現場公告為準）
5931045130,四維藥局,新北市中和區四維街３７巷２號１樓,121.5124,24.98679,(02)86681345,羅氏家用新冠病毒抗原自我檢測套組,78,2022/05/09 14:50:34,快篩實名制，每天16:00開始販售，售完為止。
5931045416,信毅藥局,新北市中和區捷運路５６號１樓,121.5081,24.99078,(02)29423663,羅氏家用新冠病毒抗原自我檢測套組,3,2022/05/09 14:50:34,無
5931045452,安華藥局,新北市中和區圓通路２９３之２號２樓,121.4949,24.99236,(02)22426010,羅氏家用新冠病毒抗原自我檢測套組,16,2022/05/09 14:50:34,無
5931051816,康宜庭北新藥局,新北市新店區北新路２段４３號１樓,121.5428,24.97285,(02)89147015,羅氏家用新冠病毒抗原自我檢測套組,1,2022/05/09 14:50:34,快篩代售時間為下午2點， 現場排隊
5931052215,三民藥局,新北市新店區三民路７８號１樓－１,121.5348,24.97257,(02)89146301,羅氏家用新冠病毒抗原自我檢測套組,33,2022/05/09 14:50:34,實名制快篩試劑下午2點開始現場販售並同步發號碼牌周日休息
5931052724,合康大藥局,新北市新店區中正路２６３－２號１樓,121.5384,24.97367,(02)29109888,羅氏家用新冠病毒抗原自我檢測套組,28,2022/05/09 14:50:34,快篩14:00開始（有事先發號碼牌）網上還有數量是拿到號碼牌還沒來領的，拜託別再問了
5931052751,新康藥局,新北市新店區北新路１段１９５號１樓、２樓,121.5402,24.9648,(02)29178179,羅氏家用新冠病毒抗原自我檢測套組,51,2022/05/09 14:50:34,無
5931053034,康宜庭市公所藥局,新北市新店區北新路１段２８５號１樓,121.541,24.96707,(02)29151709,羅氏家用新冠病毒抗原自我檢測套組,1,2022/05/09 14:50:34,實名制快篩下午兩點開賣
5931053132,康宜庭碧潭藥局,新北市新店區北宜路１段４１號１樓,121.5384,24.95726,(02)29186266,羅氏家用新冠病毒抗原自我檢測套組,5,2022/05/09 14:50:34,14:00 發放號碼牌，同步販售
5931053347,健詮藥局,新北市新店區建國路１１９號１樓,121.5398,24.97777,(02)29116312,羅氏家用新冠病毒抗原自我檢測套組,8,2022/05/09 14:50:34,11點發號碼牌，12點半-3點過卡買快篩。最新消息會公佈在臉書「健詮藥局」
5931053365,十二願藥局,新北市新店區中正路６８２號１樓,121.5341,24.98998,(02)22181899,羅氏家用新冠病毒抗原自我檢測套組,1,2022/05/09 14:50:34,公費快篩每日下午2點販售~ 公費快篩每日下午2點販售
5931060342,十安藥局,新北市新莊區中港路３１６號,121.4524,25.04544,(02)29922859,羅氏家用新冠病毒抗原自我檢測套組,2,2022/05/09 14:50:34,自111／04／01起不再販賣實名制口罩
5931060557,一安藥局,新北市新莊區立德里新泰路２６８號,121.446,25.04029,(02)29941618,羅氏家用新冠病毒抗原自我檢測套組,107,2022/05/09 14:50:34,實名制快篩發放時間為15:00  其他詳情請上FB查詢
5931060619,蘇藥局,新北市新莊區中平路６巷３７號,121.446,25.04284,(02)29917818,羅氏家用新冠病毒抗原自我檢測套組,78,2022/05/09 14:50:34,販售快篩時間  固定每日下午3點發放!!!售完為止
5931060628,錄新藥局,新北市新莊區後港一路７６巷１０弄１號,121.427,25.02604,(02)22051849,羅氏家用新冠病毒抗原自我檢測套組,78,2022/05/09 14:50:34,無
5931067565,豐年藥局,新北市新莊區中正路３７７巷１６號,121.4462,25.03395,(02)22071182,羅氏家用新冠病毒抗原自我檢測套組,78,2022/05/09 14:50:34,無
5931068464,健安藥局,新北市新莊區光和里民安西路２０９號１樓,121.4261,25.0147,(02)22043765,羅氏家用新冠病毒抗原自我檢測套組,60,2022/05/09 14:50:34,無
5931068599,建昌藥局,新北市新莊區福營里中正路５５７號,121.435,25.03254,(02)29015422,羅氏家用新冠病毒抗原自我檢測套組,13,2022/05/09 14:50:34,快篩代售時間:週一至週日14:30現場排隊購買，售完為止。（物流配送不及則例外，以門市公告為主）
5931068819,東京大藥局,新北市新莊區民安路１７６號１樓,121.4251,25.02392,(02)22063806,羅氏家用新冠病毒抗原自我檢測套組,67,2022/05/09 14:50:34,口罩代售時間為9:30開始現場排隊販售
5931068991,新莊健業藥局,新北市新莊區昌平街３７號１樓至２樓,121.4547,25.05221,(02)22798808,羅氏家用新冠病毒抗原自我檢測套組,53,2022/05/09 14:50:34,快篩實名制每天下午三點開始販售（不發號碼牌）
5931069498,新杏藥局,新北市新莊區新泰路９９號１樓,121.449,25.03497,(02)22011012,羅氏家用新冠病毒抗原自我檢測套組,78,2022/05/09 14:50:34,若有配貨，將固定於週一至週日14:50開始發放號碼牌、15:00開始依序販售快篩，售完為止。
5931069505,陽光連鎖藥局,新北市新莊區中信街４０號１樓,121.4498,25.05089,(02)22774300,羅氏家用新冠病毒抗原自我檢測套組,75,2022/05/09 14:50:34,周一到週六下午三點賣快篩
5931069792,宏泰藥局,新北市新莊區自信街３７號１樓,121.4543,25.04863,(02)29964649,羅氏家用新冠病毒抗原自我檢測套組,30,2022/05/09 14:50:34,無
593106A388,元大藥局,新北市新莊區富國路２０４號１、２樓,121.4249,25.02427,(02)22020082,羅氏家用新冠病毒抗原自我檢測套組,1,2022/05/09 14:50:34,無
593106A566,一心春天藥局,新北市新莊區中和街１３號１樓、地下室,121.4481,25.04342,(02)89929482,羅氏家用新冠病毒抗原自我檢測套組,78,2022/05/09 14:50:34,快篩代售時間:週一至週日15:00現場排隊購買，售完為止。（物流配送不及則例外，以門市公告為主）
593106A931,建安藥局,新北市新莊區建安街１１７號、１１９號１樓,121.4262,25.02406,(02)22051969,羅氏家用新冠病毒抗原自我檢測套組,78,2022/05/09 14:50:34,快篩實名制，每天16:00開始販售，售完為止。
593106A977,丹鳳藥局,新北市新莊區中正路７４５、７４７號（１樓）,121.4227,25.0288,(02)29065755,羅氏家用新冠病毒抗原自我檢測套組,78,2022/05/09 14:50:34,快篩實名制，每天16:00開始販售，售完為止。
593106B036,家嘉藥局,新北市新莊區自立街１０３號（１樓）,121.4553,25.04549,(02)89926488,羅氏家用新冠病毒抗原自我檢測套組,45,2022/05/09 14:50:34,今天號碼牌都已發放完畢
593106B081,平安藥局,新北市新莊區民安西路６０號２樓,121.4273,25.02037,(02)22082368,羅氏家用新冠病毒抗原自我檢測套組,2,2022/05/09 14:50:34,無
593106B090,依都勇藥局,新北市新莊區自信街６３號（１樓）,121.4554,25.04829,(02)29901516,羅氏家用新冠病毒抗原自我檢測套組,13,2022/05/09 14:50:34,無
593106B152,福原藥局,新北市新莊區中原東路７０號（１樓）,121.4632,25.05461,(02)85216190,羅氏家用新冠病毒抗原自我檢測套組,4,2022/05/09 14:50:34,下午2點發放號碼牌
593106B205,藥師佛藥局,新北市新莊區中正路８８１之４號１樓,121.4175,25.02544,(02)29016625,羅氏家用新冠病毒抗原自我檢測套組,78,2022/05/09 14:50:34,準時七點開賣，現場排隊，不發號碼牌，會預留警察消防人員額度，所以民眾購買額度不會是78盒！
593106B232,新康健保藥局,新北市新莊區自立街１７２號１樓,121.4557,25.04537,(02)29962558,羅氏家用新冠病毒抗原自我檢測套組,21,2022/05/09 14:50:34,早上9點發號碼牌，下午2-4點帶號碼牌來領快篩（逾時不候）
593106B349,騰康藥局,新北市新莊區富國路１８４號１樓,121.4245,25.02446,(02)26793069,羅氏家用新冠病毒抗原自我檢測套組,41,2022/05/09 14:50:34,無
5931071970,保康藥局,新北市樹林區保安街１段３６４號,121.4176,24.99856,(02)86875503,羅氏家用新冠病毒抗原自我檢測套組,70,2022/05/09 14:50:34,無
5931072253,活水藥局,新北市樹林區鎮前街２１號１樓,121.4259,24.99255,(02)26818928,羅氏家用新冠病毒抗原自我檢測套組,78,2022/05/09 14:50:34,無
5931072351,瑪諾藥局,新北市樹林區復興路２０號,121.4225,24.99462,(02)26830304,羅氏家用新冠病毒抗原自我檢測套組,12,2022/05/09 14:50:34,無
5931072431,樹林大樹藥局,新北市樹林區育英街５４號１－２樓,121.4213,24.98928,(02)26815488,羅氏家用新冠病毒抗原自我檢測套組,78,2022/05/09 14:50:34,快篩實名制，每天16:00開始販售，售完為止。
5931072459,健康人生藥局,新北市樹林區博愛一街２６號１樓,121.4256,24.99091,(02)26814394,羅氏家用新冠病毒抗原自我檢測套組,3,2022/05/09 14:50:34,實名制快篩販售時間下午2點起.售完為止
5931072575,永賀藥局,新北市樹林區中山路１段１２７號１樓,121.4227,24.99003,(02)26815801,羅氏家用新冠病毒抗原自我檢測套組,6,2022/05/09 14:50:34,無
5931081378,鶯歌宏達藥局,新北市鶯歌區國慶街１３８號１樓,121.3508,24.95347,(02)26709693,羅氏家用新冠病毒抗原自我檢測套組,77,2022/05/09 14:50:34,下午三點開始販售實名制快篩~不要打電話來問~藥師有其他工作要做
5931081510,鶯歌藥局,新北市鶯歌區鶯桃路２段１１號１樓,121.3258,24.97205,(02)86778778,羅氏家用新冠病毒抗原自我檢測套組,78,2022/05/09 14:50:34,快篩實名制，每天16:00開始販售，售完為止。
5931081547,信義健保藥局,新北市鶯歌區信義街６３號１樓,121.3534,24.95571,(02)86775563,羅氏家用新冠病毒抗原自我檢測套組,39,2022/05/09 14:50:34,發放時間以現場公告為主
5931091481,盛加藥局,新北市三峽區民生街４９號,121.3755,24.9362,(02)26739797,羅氏家用新冠病毒抗原自我檢測套組,1,2022/05/09 14:50:34,政府快篩平日下午1:50發號碼牌，下午2:00準時販售，假日視政府配量（販售時間相同）
5931091696,祥祐藥局,新北市三峽區文化路１２５號１樓,121.3699,24.93598,(02)26738080,羅氏家用新冠病毒抗原自我檢測套組,4,2022/05/09 14:50:34,今日快篩已售完，電腦庫存有誤.***實名制快篩每日下午2點開始販售***
5931091865,大新藥局,新北市三峽區大義路２５９號１樓,121.3774,24.94638,(02)86713204,羅氏家用新冠病毒抗原自我檢測套組,76,2022/05/09 14:50:34,實名制快篩下午2:50開始發號碼牌 3:00販售
5931091892,三峽藥局,新北市三峽區介壽路１段２７號１樓,121.3757,24.93321,(02)26738868,羅氏家用新冠病毒抗原自我檢測套組,79,2022/05/09 14:50:34,快篩實名制，每天16:00開始販售，售完為止。
5931092022,瑞達美藥局,新北市三峽區民權街１８０號１樓,121.3678,24.92983,(02)86741627,羅氏家用新冠病毒抗原自我檢測套組,1,2022/05/09 14:50:34,若政府有配送則早上9點10分開始發號碼牌，拿到號碼牌要離開請先寄卡付費，否則視同放棄
5931092095,禾雅藥局,新北市三峽區文化路１３０號（１樓）,121.3709,24.93626,(02)26718621,羅氏家用新冠病毒抗原自我檢測套組,12,2022/05/09 14:50:34,無
5931092200,金美藥局,新北市三峽區大同路２３８號１樓,121.3663,24.92573,(02)86715859,羅氏家用新冠病毒抗原自我檢測套組,1,2022/05/09 14:50:34,無
5931100154,尚運藥局,新北市淡水區學府路５１巷１弄２０號,121.4473,25.16892,(02)26225149,羅氏家用新冠病毒抗原自我檢測套組,27,2022/05/09 14:50:34,無
5931101464,伯聯藥局,新北市淡水區清水街９－１０號１樓,121.4444,25.17023,(02)26255847,羅氏家用新冠病毒抗原自我檢測套組,59,2022/05/09 14:50:34,快篩實名制星期一到六08:00開賣（如有到貨），星期日無販售
5931101633,吉利安健保藥師藥局,新北市淡水區中山北路１段１００號１樓,121.4426,25.17639,(02)26295693,羅氏家用新冠病毒抗原自我檢測套組,21,2022/05/09 14:50:34,若有送貨則當日14:00準時開賣售完為止
5931101919,優德仕藥局,新北市淡水區新市一路３段１０３號,121.4464,25.18314,(02)26236573,羅氏家用新冠病毒抗原自我檢測套組,78,2022/05/09 14:50:34,快篩代售時間 15:00~售完
5931101955,伯宇藥局,新北市淡水區新春街１０３號－８,121.4401,25.1823,(02)26236006,羅氏家用新冠病毒抗原自我檢測套組,45,2022/05/09 14:50:34,週一至週六實名制快篩14:30開始販售（週日無販售）
5931102292,佑全淡水淡金藥局,新北市淡水區淡金路５５號、５７號１樓,121.4559,25.16127,(02)26228040,羅氏家用新冠病毒抗原自我檢測套組,15,2022/05/09 14:50:34,實名制快篩每日兩點開賣（售完為止）
5931102407,躍獅淡水長照藥局,新北市淡水區學府路７７號１樓,121.4484,25.17003,(02)26295603,羅氏家用新冠病毒抗原自我檢測套組,77,2022/05/09 14:50:34,無
5931102434,西雅圖聯合藥局,新北市淡水區新市一路３段１０１巷１６弄２０號１樓,121.4471,25.18403,(02)26200910,羅氏家用新冠病毒抗原自我檢測套組,59,2022/05/09 14:50:34,無
5931102489,水源藥局,新北市淡水區水源街１段１３３號１樓,121.447,25.172,(02)26295233,羅氏家用新冠病毒抗原自我檢測套組,78,2022/05/09 14:50:34,快篩實名制，每天16:00開始販售，售完為止。
5931112145,汐止健康人生藥局,新北市汐止區忠孝東路２６９號,121.6633,25.06809,(02)86421820,羅氏家用新冠病毒抗原自我檢測套組,9,2022/05/09 14:50:34,快篩代售時間 14:00~售完為止 ；現場排隊
5931112645,健成藥局,新北市汐止區新興路２０號１樓,121.6564,25.06456,(02)26428989,羅氏家用新冠病毒抗原自我檢測套組,2,2022/05/09 14:50:34,無
5931113160,社后藥局,新北市汐止區康寧街４２４號１樓,121.6307,25.06801,(02)26956321,羅氏家用新冠病毒抗原自我檢測套組,78,2022/05/09 14:50:34,快篩實名制，每天16:00開始販售，售完為止。
5931113204,富康活力忠孝藥局,新北市汐止區忠孝東路２７９號１樓,121.6638,25.06854,(02)26422666,羅氏家用新冠病毒抗原自我檢測套組,8,2022/05/09 14:50:34,無
5931120049,本平藥局,新北市瑞芳區瑞芳街４５號,121.8076,25.10913,(02)24972167,羅氏家用新冠病毒抗原自我檢測套組,2,2022/05/09 14:50:34,無
5931121279,大埔藥局,新北市瑞芳區大埔路１２８－３號１樓,121.762,25.10079,(02)24587020,羅氏家用新冠病毒抗原自我檢測套組,3,2022/05/09 14:50:34,無
5931121466,瑞芳藥局,新北市瑞芳區明燈路３段５９之１及５９之２號,121.8057,25.10812,(02)24966588,羅氏家用新冠病毒抗原自我檢測套組,78,2022/05/09 14:50:34,快篩實名制，每天16:00開始販售，售完為止。
5931131908,璨鴻藥局,新北市土城區延和路１９１號,121.4692,24.99035,(02)82622588,羅氏家用新冠病毒抗原自我檢測套組,36,2022/05/09 14:50:34,快篩發放時間星期一至五
5931132343,誠安藥局,新北市土城區中央路４段３６號１樓,121.4207,24.96088,(02)22677737,羅氏家用新冠病毒抗原自我檢測套組,156,2022/05/09 14:50:34,快篩代售時段：平日晚上8點，售完為止
5931132538,宏奇藥局,新北市土城區延吉街１２６號１樓,121.4695,24.98586,(02)82619585,羅氏家用新冠病毒抗原自我檢測套組,4,2022/05/09 14:50:34,無
5931133108,三豐藥局,新北市土城區永豐路１３５巷８號,121.4672,24.98333,(02)22733766,羅氏家用新冠病毒抗原自我檢測套組,1,2022/05/09 14:50:34,無
5931133331,城安大藥局,新北市土城區金城路３段４０號,121.4656,24.98639,(02)22646561,羅氏家用新冠病毒抗原自我檢測套組,79,2022/05/09 14:50:34,快篩代售時間晚上8:30
5931133546,宏林保健藥局,新北市土城區裕民路１３４號（１樓）,121.4515,24.98622,(02)82615919,羅氏家用新冠病毒抗原自我檢測套組,4,2022/05/09 14:50:34,無
5931133644,貓頭鷹藥妝藥局,新北市土城區中央路３段８８、９０號１樓,121.4361,24.96702,(02)22695659,羅氏家用新冠病毒抗原自我檢測套組,18,2022/05/09 14:50:34,快篩配送時間不一定，販賣時間依現場公告為主
5931142634,華安大藥局,新北市蘆洲區長安街４８號１樓,121.4633,25.07973,(02)22881168,羅氏家用新冠病毒抗原自我檢測套組,15,2022/05/09 14:50:34,無
5931143131,杏一蘆洲長安藥局,新北市蘆洲區長安街１２２號１樓,121.4606,25.08179,(02)82854278,羅氏家用新冠病毒抗原自我檢測套組,6,2022/05/09 14:50:34,快篩周一至周六下午兩點購買
5931143275,集賢藥局,新北市蘆洲區信義路２２２巷６１號１、２樓,121.4813,25.08535,(02)22882400,羅氏家用新冠病毒抗原自我檢測套組,78,2022/05/09 14:50:34,快篩實名制，每天16:00開始販售，售完為止。
5931143319,大樹長榮藥局,新北市蘆洲區長榮路６１、６１－１號１樓,121.4624,25.0833,(02)28480567,羅氏家用新冠病毒抗原自我檢測套組,78,2022/05/09 14:50:34,快篩實名制，每天16:00開始販售，售完為止。
5931151615,陽光健保藥局,新北市五股區五福路５４號１樓,121.4335,25.08973,(02)22922400,羅氏家用新冠病毒抗原自我檢測套組,68,2022/05/09 14:50:34,5／9（一）預計15:00開始販售 若現場人數眾多 視情況調整販售時間
5931151713,五股藥局,新北市五股區成泰路１段２３５之２號（１樓）,121.4363,25.07968,(02)22951150,羅氏家用新冠病毒抗原自我檢測套組,77,2022/05/09 14:50:34,快篩實名制，每天16:00開始販售，售完為止。
5931160141,日泰藥局,新北市泰山區泰林路２段２２７號,121.4323,25.06194,(02)29095989,羅氏家用新冠病毒抗原自我檢測套組,22,2022/05/09 14:50:34,下午兩點開始販售。每日提供10份確診個案，詳情上臉書粉絲頁
5931161353,台灣藥局,新北市泰山區明志路１段２８２－２８６號,121.4319,25.06002,(02)22971969,羅氏家用新冠病毒抗原自我檢測套組,16,2022/05/09 14:50:34,下午2:20發號碼牌2:30販售實名制快篩試劑
5931161433,仁安藥局,新北市泰山區明志路３段１７４號１樓,121.4242,25.03906,(02)29015586,羅氏家用新冠病毒抗原自我檢測套組,9,2022/05/09 14:50:34,無
5931170165,龍點藥局,新北市林口區民族路６７號１樓,121.3655,25.07532,(02)26080636,羅氏家用新冠病毒抗原自我檢測套組,78,2022/05/09 14:50:34,5／9現場78份， 下午3:00開始代售. （代售實名制快篩時間: 星期二至星期日:9:00， 星期一:15:00）
5931171251,喜樂藥師藥局,新北市林口區麗林里公園路１５號１樓,121.3665,25.06762,(02)26005566,羅氏家用新冠病毒抗原自我檢測套組,3,2022/05/09 14:50:34,快篩實名制，每天14:00開始販售，售完為止，週日休息
5931171340,家欣藥師藥局,新北市林口區文化二路１段５６７號１樓,121.3748,25.0777,(02)26025368,羅氏家用新冠病毒抗原自我檢測套組,2,2022/05/09 14:50:34,5／2（一）17:00開始販售實名制快篩，不發號碼牌，每日發放時間不同，請至粉專看
5931171813,力行藥局,新北市林口區文化３路１段４２３、４２５號１、２樓,121.3653,25.07438,(02)26080711,羅氏家用新冠病毒抗原自我檢測套組,78,2022/05/09 14:50:34,快篩實名制，每天16:00開始販售，售完為止。
5931171831,沐霖藥局,新北市林口區文化三路２段２８６號１樓,121.3775,25.08304,(02)26032086,羅氏家用新冠病毒抗原自我檢測套組,156,2022/05/09 14:50:34,5／9 （一） 17:30 發放號碼牌
5931250015,松南藥局,新北市雙溪區中華路２９號,121.8658,25.03728,(02)24931085,羅氏家用新冠病毒抗原自我檢測套組,22,2022/05/09 14:50:34,實名制快篩12點半發號碼牌並販售，​但若排隊人數已超過數量，將視情況提早發放。週日快篩無販售。
5931250042,信芳藥局,新北市雙溪區中華路５０號,121.866,25.03761,(02)24931301,羅氏家用新冠病毒抗原自我檢測套組,17,2022/05/09 14:50:34,無
5932010631,新華興清溪藥局,桃園市桃園區東門里中山東路１０號１樓,121.3136,24.99548,(03)3330011,羅氏家用新冠病毒抗原自我檢測套組,37,2022/05/09 14:50:34,實名制快篩週一~週日14:30，不發號碼牌請依序排隊購買
5932011370,家福聯合藥局,桃園市桃園區中山路６２３號,121.2939,24.99093,(03)2289492,羅氏家用新冠病毒抗原自我檢測套組,12,2022/05/09 14:50:34,0503人數已滿，1點發快篩
5932011638,明光藥局,桃園市桃園區中山東路１１７之１號,121.317,24.9968,(03)3380427,羅氏家用新冠病毒抗原自我檢測套組,62,2022/05/09 14:50:34,口罩販賣時段：0900-1200--1400-1800
5932011870,永祥大藥局,桃園市桃園區永安路５２８號,121.2986,25.00181,(03)3337161,羅氏家用新冠病毒抗原自我檢測套組,4,2022/05/09 14:50:34,口罩販賣時段：週一至週六早上9點
5932012359,長鴻藥師藥局,桃園市桃園區中興里永安路２７７之５號,121.3018,24.99898,(03)3324728,羅氏家用新冠病毒抗原自我檢測套組,11,2022/05/09 14:50:34,營業時間 星期1~6  9:00~22:30  星期日 13:00~22:30 快篩實名制 下午2:00開始販售
5932012573,悅藥坊人文藥局,桃園市桃園區桃智路６號,121.2948,24.96505,(03)3761688,羅氏家用新冠病毒抗原自我檢測套組,1,2022/05/09 14:50:34,快篩若有到貨，販售時段為：（一）~（六）17:00-19:00；（日）中午12:30
5932013123,桃康藥局,桃園市桃園區桃鶯路２０３號,121.3184,24.98495,(03)3641815,羅氏家用新冠病毒抗原自我檢測套組,1,2022/05/09 14:50:34,實名制快篩：早上10點發號碼牌，每日78份
5932013392,桃園中正藥局,桃園市桃園區中正路３７３號,121.3079,24.99955,(03)3381600,羅氏家用新冠病毒抗原自我檢測套組,91,2022/05/09 14:50:34,快篩實名制，每天16:00開始販售，售完為止。
5932013436,和康藥局,桃園市桃園區三民路三段５６９號１樓,121.3076,24.98395,(03)3672399,羅氏家用新冠病毒抗原自我檢測套組,27,2022/05/09 14:50:34,下午2點販售實名制快篩
5932013687,桃園春日藥局,桃園市桃園區春日路８７８號,121.3096,25.01561,(03)3580101,羅氏家用新冠病毒抗原自我檢測套組,78,2022/05/09 14:50:34,快篩實名制，每天16:00開始販售，售完為止。
5932013721,桃園民光藥局,桃園市桃園區中正路５６９號,121.3049,25.0041,(03)3364888,羅氏家用新冠病毒抗原自我檢測套組,78,2022/05/09 14:50:34,快篩實名制，每天16:00開始販售，售完為止。
5932013749,桃園寶山藥局,桃園市桃園區寶山街７２號,121.3175,25.01291,(03)3250562,羅氏家用新冠病毒抗原自我檢測套組,78,2022/05/09 14:50:34,快篩實名制，每天16:00開始販售，售完為止。
5932013883,桃園大有藥局,桃園市桃園區大有路５５６號,121.3181,25.01393,(03)3460793,羅氏家用新冠病毒抗原自我檢測套組,1,2022/05/09 14:50:34,快篩星期一到星期日下午1:50發號碼牌；販賣時段：14:00~15:00
5932013972,合祥藥局,桃園市桃園區國際路二段８號１樓,121.2886,24.99044,(03)3703010,羅氏家用新冠病毒抗原自我檢測套組,55,2022/05/09 14:50:34,無
5932013990,福澤大業藥局,桃園市桃園區大業路１段４２２號１樓,121.3118,25.01473,(03)3563865,羅氏家用新冠病毒抗原自我檢測套組,71,2022/05/09 14:50:34,家用快篩販賣時段15:30至售完為止
5932014004,同德辰安藥局,桃園市桃園區同德十街２５號,121.294,25.01835,(03)3012028,羅氏家用新冠病毒抗原自我檢測套組,78,2022/05/09 14:50:34,實名制快篩試劑於下午4點開始販售，現場排隊，沒有發放號碼牌。
5932014059,桃園南平藥局,桃園市桃園區南平路３０２－１號１樓,121.2989,25.01855,(03)3165222,羅氏家用新冠病毒抗原自我檢測套組,78,2022/05/09 14:50:34,快篩實名制，每天16:00開始販售，售完為止。
5932014102,小飛象藥局,桃園市桃園區慈文路１９２號,121.3041,25.00907,(03)3552771,羅氏家用新冠病毒抗原自我檢測套組,78,2022/05/09 14:50:34,5／8完售，5／9[21:30]開賣78份，再打來問就掛電話。不發號碼牌請自行計算人數。即起調劑確診者視訊處方，請自保。
5932014111,鴻發藥師藥局,桃園市桃園區大有路５４３號,121.3171,25.0149,(03)3582468,羅氏家用新冠病毒抗原自我檢測套組,115,2022/05/09 14:50:34,實聯快篩:早上09:30發放號碼牌，限當日下午2~4點憑牌購買，逾時不候請見諒
5932014273,藝文藥局,桃園市桃園區大興西路１段１６５號,121.3049,25.01414,(03)3261789,羅氏家用新冠病毒抗原自我檢測套組,77,2022/05/09 14:50:34,快篩實名制，每天16:00開始販售，售完為止。
5932014291,躍獅民生藥局,桃園市桃園區民生路２２８號１樓,121.313,24.99472,(03)3362359,羅氏家用新冠病毒抗原自我檢測套組,5,2022/05/09 14:50:34,下午1點開始販售，會發號碼牌，購買權保留至下午6點
5932014326,闔新藥局,桃園市桃園區中正路５７６號１樓,121.3054,25.00388,(03)3317279,羅氏家用新冠病毒抗原自我檢測套組,27,2022/05/09 14:50:34,營業時間:9:00-21:00，實名制快篩領取時間14:30開始，現場排隊
5932014399,澄心藥局,桃園市桃園區桃鶯路３０５號１樓,121.3193,24.98265,(03)3771468,羅氏家用新冠病毒抗原自我檢測套組,57,2022/05/09 14:50:34,營業時間:8:00-22:00
5932014415,多多藥局,桃園市桃園區南平路１８３號１樓,121.3022,25.01946,(03)3162133,羅氏家用新冠病毒抗原自我檢測套組,78,2022/05/09 14:50:34,實名制快篩販售時段［下午3:00~3:30］
5932014460,桃鶯藥局,桃園市桃園區桃鶯路１０２號,121.318,24.98516,(03)3675100,羅氏家用新冠病毒抗原自我檢測套組,78,2022/05/09 14:50:34,快篩實名制，每天16:00開始販售，售完為止。
5932018593,品一藥局,桃園市桃園區建新街７６號,121.3118,24.98261,(03)3638510,羅氏家用新冠病毒抗原自我檢測套組,8,2022/05/09 14:50:34,快篩販賣時間：週一至週五早上9：30；週六下午1：00（星期天休息），會發號碼牌（今天已發完）
5932019143,弘光藥師藥局,桃園市桃園區國際路一段１１３５號,121.2891,24.98774,(03)2170167,羅氏家用新冠病毒抗原自我檢測套組,75,2022/05/09 14:50:34,快篩劑15點開賣.不發號碼牌.請依序排隊.星期日不販售快篩
593201A695,安祐藥局,桃園市桃園區南平路516之1號,121.2937,25.01633,(03)3166889,羅氏家用新冠病毒抗原自我檢測套組,1,2022/05/09 14:50:34,快篩販賣時間 每日下午 13:45-17:00，現場排隊
5932020360,日進藥局,桃園市中壢區中山東路二段１５６號,121.2394,24.95276,(03)4569132,羅氏家用新冠病毒抗原自我檢測套組,8,2022/05/09 14:50:34,政府實名制快篩販售時間:每日早上08:00~售完為止！
5932020548,生富藥師藥局,桃園市中壢區新明里中央西路二段７６號,121.2162,24.95848,(03)4941475,羅氏家用新冠病毒抗原自我檢測套組,1,2022/05/09 14:50:34,快篩時段8：30發號碼牌，10：00以後領快筛劑
5932021036,廣怡藥局,桃園市中壢區華勛街２５６號,121.2603,24.94865,(03)4366885,羅氏家用新冠病毒抗原自我檢測套組,3,2022/05/09 14:50:34,口罩販賣時段：開賣時間周一~周六13:30~17:30 、  周日8:30~11:30
5932021269,優良藥局,桃園市中壢區長春路２０號,121.2499,24.97907,(03)4612336,羅氏家用新冠病毒抗原自我檢測套組,1,2022/05/09 14:50:34,快篩販售時間10:00
5932022051,正翰藥師藥局,桃園市中壢區龍東路４９８號,121.2569,24.93482,(03)4664171,羅氏家用新冠病毒抗原自我檢測套組,54,2022/05/09 14:50:34,週一至週五下午2:30現場排隊銷售實名制快篩（週六，週日中午12:00）上述均以實際到貨為主
5932022159,躍獅新明藥局,桃園市中壢區新明路６６號１樓,121.215,24.95868,(03)2813361,羅氏家用新冠病毒抗原自我檢測套組,23,2022/05/09 14:50:34,快篩販賣時段：14:00~售完為止，現場排隊 ， 星期天沒有販售快篩
5932022257,星康生活藥局,桃園市中壢區中美路二段94號,121.2218,24.96005,(03)4252869,羅氏家用新冠病毒抗原自我檢測套組,2,2022/05/09 14:50:34,5／7-5／9 實名制快篩14:00販售  5／10之後另行公佈販賣時間
5932022346,宜美大藥局,桃園市中壢區莊敬路７１６號,121.2569,24.96642,(03)4637687,羅氏家用新冠病毒抗原自我檢測套組,1,2022/05/09 14:50:34,無
5932022631,中壢中正藥局,桃園市中壢區中正路３６３、３６５號,121.2163,24.95532,(03)4014100,羅氏家用新冠病毒抗原自我檢測套組,78,2022/05/09 14:50:34,快篩實名制，每天16:00開始販售，售完為止。
5932023281,裕翔藥局,桃園市中壢區榮民路４８號１樓,121.2606,24.96956,(03)4355499,羅氏家用新冠病毒抗原自我檢測套組,58,2022/05/09 14:50:34,快篩下午五點販售
5932023647,樂謙藥師藥局,桃園市中壢區龍東路１３４號,121.2522,24.92929,(03)4662775,羅氏家用新冠病毒抗原自我檢測套組,86,2022/05/09 14:50:34,實名快篩每日下午2點、晚上6點 各發39份
5932023683,祥合藥局,桃園市中壢區中北路二段４３１號,121.2321,24.95431,(03)2841880,羅氏家用新冠病毒抗原自我檢測套組,65,2022/05/09 14:50:34,快篩販賣時段:如果有空星期一到五三點半 星期六日一點半 原則上本店家保有隨時更改發放時間之權利
5932023772,佑全中壢中正藥局,桃園市中壢區中正路１０８號１、２樓,121.2229,24.95498,(03)2807899,羅氏家用新冠病毒抗原自我檢測套組,11,2022/05/09 14:50:34,實名制快篩販售時間：下午1400-售完為止
5932023889,華勛藥局,桃園市中壢區華勛街１１２、１１４號,121.2597,24.95065,(03)4161881,羅氏家用新冠病毒抗原自我檢測套組,1,2022/05/09 14:50:34,快篩實名制，每天16:00開始販售，售完為止。
5932023898,美康中壢藥局,桃園市中壢區龍岡路二段１１７號、後興路二段５５１巷３號、４號,121.2295,24.94529,(03)4590668,羅氏家用新冠病毒抗原自我檢測套組,78,2022/05/09 14:50:34,實名制快篩15:00發放
5932023914,內壢忠孝藥局,桃園市中壢區忠孝路３６號,121.2566,24.97338,(03)4636641,羅氏家用新冠病毒抗原自我檢測套組,78,2022/05/09 14:50:34,快篩實名制，每天16:00開始販售，售完為止。
5932023932,龍東藥局,桃園市中壢區龍東路２０５號,121.2523,24.92966,(03)4383088,羅氏家用新冠病毒抗原自我檢測套組,78,2022/05/09 14:50:34,快篩實名制，每天16:00開始販售，售完為止。
593202A931,佳佑藥局,桃園市中壢區環中東路二四一號,121.2573,24.96345,(03)4356190,羅氏家用新冠病毒抗原自我檢測套組,27,2022/05/09 14:50:34,口罩販賣時段：09:00以後發號碼牌，售完為止
593202B447,榮善堂藥局,桃園市中壢區前龍街九號,121.2535,24.9298,(03)4564946,羅氏家用新冠病毒抗原自我檢測套組,66,2022/05/09 14:50:34,全台第一自助快篩領取系統，快篩販賣星期一至四：晚上七點。星期五至六：下午二點。星期天：早上八點
5932031747,欣康藥局,桃園市大溪區員林路２段３９０－６號,121.2677,24.88412,(03)3076310,羅氏家用新冠病毒抗原自我檢測套組,78,2022/05/09 14:50:34,快篩販賣時段：15:30
5932031881,大溪藥局,桃園市大溪區康莊路１６０號,121.2886,24.8808,(03)3873873,羅氏家用新冠病毒抗原自我檢測套組,78,2022/05/09 14:50:34,快篩實名制，每天16:00開始販售，售完為止。
5932031890,福生藥局,桃園市大溪區民權東路１０３號１樓,121.2919,24.88209,(03)3873533,羅氏家用新冠病毒抗原自我檢測套組,2,2022/05/09 14:50:34,早上八點開始發放快篩試劑
5932040246,龍泰藥局,桃園市楊梅區民族路五段１４７巷２號,121.1736,24.9586,(03)4901525,羅氏家用新冠病毒抗原自我檢測套組,2,2022/05/09 14:50:34,快篩販售時間:早上7:30領號碼牌下午2點至4點領快篩（當日有效） 六日中午10點至12點領快篩
5932040308,弘大藥局,桃園市楊梅區大華街十三號,121.1452,24.9076,(03)4751858,羅氏家用新冠病毒抗原自我檢測套組,16,2022/05/09 14:50:34,實名制快篩 14:00發放號碼牌後開始販售至16:00為止逾時不候，禮拜天無販售實名制快篩。
5932042679,得康美藥局,桃園市楊梅區環南路１２８號１樓,121.1466,24.90164,(03)4788128,羅氏家用新冠病毒抗原自我檢測套組,1,2022/05/09 14:50:34,快篩領取規則~中午:12:00-12:30發號碼牌 ／下午時段發快篩A:14:00-15:00 B:20:00-21:00
5932052013,誠心藥局,桃園市蘆竹區中山路一四五號一樓,121.2976,25.05671,(03)2127369,羅氏家用新冠病毒抗原自我檢測套組,47,2022/05/09 14:50:34,實名制快篩，周一至周日下午2:30開始販售，現場排隊，不發號碼牌，售完為止
5932052200,樺生藥師藥局,桃園市蘆竹區南崁路９６號,121.2957,25.04585,(03)3121821,羅氏家用新冠病毒抗原自我檢測套組,60,2022/05/09 14:50:34,快篩試劑販賣時段：15:00-17:00（周一至周六）
5932052228,大竹藥師藥局,桃園市蘆竹區南竹路五段二五九號,121.2594,25.02454,(03)3232508,羅氏家用新冠病毒抗原自我檢測套組,21,2022/05/09 14:50:34,快篩販賣時段：14:30起可購買至售完為止
5932052479,宜家藥局,桃園市蘆竹區大竹里大新路１０３號,121.2561,25.02469,(03)3236008,羅氏家用新冠病毒抗原自我檢測套組,18,2022/05/09 14:50:34,快篩販賣時段：14:30開始（週日休息）
5932052826,青新藥師藥局,桃園市蘆竹區南竹路五段２５１之１號,121.2597,25.0247,(03)3134328,羅氏家用新冠病毒抗原自我檢測套組,1,2022/05/09 14:50:34,無
5932052835,悅兒藥局,桃園市蘆竹區忠孝西路１８６號,121.2892,25.04011,(03)3126967,羅氏家用新冠病毒抗原自我檢測套組,46,2022/05/09 14:50:34,快篩販賣時段：週一到週日 14:30 開賣
5932052853,奇安藥局,桃園市蘆竹區南昌路２６９號,121.2921,25.03999,(03)2120207,羅氏家用新冠病毒抗原自我檢測套組,44,2022/05/09 14:50:34,無
5932052924,青青藥師藥局,桃園市蘆竹區南山路三段３１３號１樓,121.2861,25.08533,(03)3240338,羅氏家用新冠病毒抗原自我檢測套組,1,2022/05/09 14:50:34,口罩販賣時段：週一至週日09:00起
5932052933,天康南崁藥局,桃園市蘆竹區南崁路２４５號,121.2933,25.04894,(03)2122569,羅氏家用新冠病毒抗原自我檢測套組,5,2022/05/09 14:50:34,快篩販賣：週一~日14:00開賣通常30分鐘就售完不用再打電話問
5932052979,南崁藥局,桃園市蘆竹區中正路２５１、２５３、２５５號,121.2921,25.04695,(03)3522022,羅氏家用新冠病毒抗原自我檢測套組,157,2022/05/09 14:50:34,快篩實名制，每天16:00開始販售，售完為止。
5932053065,民生藥局,桃園市蘆竹區南昌路４５號,121.2876,25.04245,(03)3216784,羅氏家用新冠病毒抗原自我檢測套組,78,2022/05/09 14:50:34,快篩開賣時間:星期一到五16點. 星期六10:30. 星期日休息.
5932062046,家宏藥局,桃園市大園區祰林里三民路二段４６６號,121.2587,25.07888,(03)3838866,羅氏家用新冠病毒抗原自我檢測套組,78,2022/05/09 14:50:34,快篩販賣時段： 15:.00-17:00
5932062484,園正藥局,桃園市大園區中正東路７５號,121.2003,25.06315,(03)3865250,羅氏家用新冠病毒抗原自我檢測套組,78,2022/05/09 14:50:34,快篩實名制，每天16:00開始販售，售完為止。
5932071009,德佑藥局,桃園市龜山區大崗里新興街２９３號,121.3558,25.04531,(03)3283556,羅氏家用新冠病毒抗原自我檢測套組,121,2022/05/09 14:50:34,快篩試劑販賣時段為每日晚上07:30開始（星期日暫停販售）
5932076255,安得福藥局,桃園市龜山區萬壽路一段２８１號,121.4035,25.01723,(02)82001467,羅氏家用新冠病毒抗原自我檢測套組,4,2022/05/09 14:50:34,口罩販賣時段：13：00開始發號碼牌排隊領取過號重排
5932077056,桃園龜山藥局,桃園市龜山區萬壽路二段８９６號,121.3394,24.99586,(03)3203312,羅氏家用新冠病毒抗原自我檢測套組,78,2022/05/09 14:50:34,快篩實名制，每天16:00開始販售，售完為止。
5932077118,文青藥局,桃園市龜山區文青路２０２號,121.3878,25.04034,(03)3270581,羅氏家用新冠病毒抗原自我檢測套組,1,2022/05/09 14:50:34,快篩販賣時段：上午10點到12點。（星期一下午2點開始），快篩無每日配送
5932077430,長庚藥局,桃園市龜山區文化三路８１巷２８號,121.3637,25.05847,(03)3181679,羅氏家用新冠病毒抗原自我檢測套組,77,2022/05/09 14:50:34,快篩發放時間下午 2:50~4:00
5932077510,左外野藥局,桃園市龜山區文光街６號１樓,121.3802,25.05471,(03)3271503,羅氏家用新冠病毒抗原自我檢測套組,72,2022/05/09 14:50:34,快篩販售:晚上19:30至20:30（週五公休）*不發號碼牌 請直接排隊購買
5932077529,泰麟大藥局,桃園市龜山區自強西路２３８號１樓,121.3325,24.99625,(03)2133728,羅氏家用新冠病毒抗原自我檢測套組,76,2022/05/09 14:50:34,無
5932077627,文興藥局,桃園市龜山區復興一路１０２號１、２、３樓,121.368,25.0592,(03)3285330,羅氏家用新冠病毒抗原自我檢測套組,78,2022/05/09 14:50:34,快篩實名制，每天16:00開始販售，售完為止。
5932080455,日鴻藥局,桃園市八德區義勇街１７５號,121.3065,24.96335,(03)3763304,羅氏家用新冠病毒抗原自我檢測套組,74,2022/05/09 14:50:34,口罩販賣時段：早上9:00 發號碼牌下午4:00~6:00領取
5932083509,上方藥局,桃園市八德區廣褔路一八八號,121.279,24.96204,(03)3635902,羅氏家用新冠病毒抗原自我檢測套組,78,2022/05/09 14:50:34,販賣快篩:於午間12:30~1:30發號碼牌，開賣時間下午3:00~4:30，賣完為止
5932083670,保健藥局,桃園市八德區介壽路一段８３３號２樓,121.3,24.96168,(03)3669486,羅氏家用新冠病毒抗原自我檢測套組,183,2022/05/09 14:50:34,無
5932083974,晨鴻藥師藥局,桃園市八德區桃鶯路７號１樓,121.3265,24.97179,(03)3764299,羅氏家用新冠病毒抗原自我檢測套組,56,2022/05/09 14:50:34,快篩為早上8:30跟晚上6:00領取號碼牌，星期六早上一次發78份，快篩地圖數量參考就好，請勿再打電話詢問 謝謝
5932084248,佑兒康藥局,桃園市八德區永豐路５７０號,121.2718,24.97541,(03)3709680,羅氏家用新冠病毒抗原自我檢測套組,45,2022/05/09 14:50:34,快篩販售時間:  每週一.二.四.五.六 下午2:30 開始 ； 每週三.日 晚上8:50開始
5932084319,新寶樹藥局,桃園市八德區介壽路一段９６６號,121.2991,24.95818,(03)3770000,羅氏家用新冠病毒抗原自我檢測套組,21,2022/05/09 14:50:34,快篩試劑  禮拜一至六 1430開始販售，週日1500開始販售
5932084462,興豐丁丁藥局,桃園市八德區興豐路４３５號,121.2895,24.92983,(03)3689287,羅氏家用新冠病毒抗原自我檢測套組,4,2022/05/09 14:50:34,無
5932084828,阿爾富山藥局,桃園市八德區桃鶯路４號１樓,121.3261,24.97167,(03)3763350,羅氏家用新冠病毒抗原自我檢測套組,1,2022/05/09 14:50:34,本藥局實名制快篩於每日晚間7點以實際到貨數量發放，唯保留可視現場排隊人數額滿情況.酌情提前發號碼牌並受理購買!
5932084864,阿寶藥局,桃園市八德區東勇一路６號,121.3064,24.96452,(03)3750060,羅氏家用新冠病毒抗原自我檢測套組,44,2022/05/09 14:50:34,實名制快篩詳細公告請參閱阿寶藥局官方臉書
5932099516,１Ｏ１藥師聯合藥局,桃園市龍潭區中正路４４號,121.2144,24.86893,(03)4708593,羅氏家用新冠病毒抗原自我檢測套組,2,2022/05/09 14:50:34,快篩販售時間: 週一至週六 14:00準時販售，週日藥局休息  快篩停售
5932099927,大心聯合藥局,桃園市龍潭區中興路３９０號,121.2313,24.87337,(03)4897998,羅氏家用新冠病毒抗原自我檢測套組,78,2022/05/09 14:50:34,快篩實名制：週一至週日下午15:30開始販售
5932100185,德聯藥師藥局,桃園市平鎮區龍南路３１號,121.2452,24.92473,(03)4603613,羅氏家用新冠病毒抗原自我檢測套組,6,2022/05/09 14:50:34,快篩 5月9日 下午2點開始賣
5932100809,福澤民族藥局,桃園市平鎮區民族路二段１３９號１樓,121.2048,24.95706,(03)4014747,羅氏家用新冠病毒抗原自我檢測套組,141,2022/05/09 14:50:34,家用快篩販賣時段15:30至售完為止
5932100934,崴皓藥師藥局,桃園市平鎮區平東路１３２號,121.2506,24.91727,(03)4500915,羅氏家用新冠病毒抗原自我檢測套組,42,2022/05/09 14:50:34,實名制快篩販售時間『下午14:30開始』，一人一張健保卡，請自備500元，不收銅板。售完為止
5932101146,景賀藥局,桃園市平鎮區金陵路三段６６號之６,121.2272,24.92883,(03)4570991,羅氏家用新冠病毒抗原自我檢測套組,78,2022/05/09 14:50:34,下午三點開始販售實名制快篩，無法早中晚三個時段分流，請見諒
5932101208,和安藥局,桃園市平鎮區廣泰路１２６號,121.2045,24.94594,(03)4911227,羅氏家用新冠病毒抗原自我檢測套組,36,2022/05/09 14:50:34,快篩星期一~六，下午2點半開始販售，星期日停售。現場排隊領取，無發放號碼牌。自備500元
5932120098,金永生藥局,桃園市觀音區觀音里甘泉街７號,121.0814,25.03696,(03)4732072,羅氏家用新冠病毒抗原自我檢測套組,7,2022/05/09 14:50:34,全年無休，口罩販賣時段：週一至週日14:00起17:00
5933010064,明德藥局,新竹縣關西鎮中山路１８號,121.1778,24.79152,(03)5874335,羅氏家用新冠病毒抗原自我檢測套組,2,2022/05/09 14:50:34,無
5933010144,佳仁藥局,新竹縣關西鎮中興路１２號,121.1771,24.79227,(035)872298,羅氏家用新冠病毒抗原自我檢測套組,2,2022/05/09 14:50:34,全年無休（星期日不定期）
5933011196,高平堂藥局,新竹縣關西鎮正義路66號,121.1762,24.79269,(03)5872263,羅氏家用新冠病毒抗原自我檢測套組,67,2022/05/09 14:50:34,相關公告 請搜尋FB【高平堂藥局】
5933011267,關西藥局,新竹縣關西鎮中山路６８號,121.1764,24.79148,(03)5171121,羅氏家用新冠病毒抗原自我檢測套組,78,2022/05/09 14:50:34,快篩實名制，每天16:00開始販售，售完為止。
5933020104,廣和藥局,新竹縣新埔鎮中正路２９２號,121.0807,24.82769,(035)885959,羅氏家用新冠病毒抗原自我檢測套組,68,2022/05/09 14:50:34,實名制快篩 下午15:00開始販售
5933030066,鄧藥局,新竹縣竹東鎮榮樂里大同路４３號,121.0882,24.73841,(03)5952908,羅氏家用新冠病毒抗原自我檢測套組,1,2022/05/09 14:50:34,快篩販售時間14:00起
5933031643,能安西藥局,新竹縣竹東鎮東峰路13號,121.0966,24.72171,(03)5950515,羅氏家用新冠病毒抗原自我檢測套組,6,2022/05/09 14:50:34,下午2點，星期日不販售
5933031723,日榮堂藥局,新竹縣竹東鎮長春路一段２８１號,121.0892,24.73607,(03)5962335,羅氏家用新冠病毒抗原自我檢測套組,46,2022/05/09 14:50:34,快篩代售：W1-W6於14:30-18:00排隊過卡售完為止。星期日08:00開始販售，售完為止。
5933031769,竹東朝陽藥局,新竹縣竹東鎮朝陽路１號１、２樓,121.0852,24.74199,(03)5111166,羅氏家用新冠病毒抗原自我檢測套組,78,2022/05/09 14:50:34,快篩實名制，每天16:00開始販售，售完為止。
5933031821,新月藥局,新竹縣竹東鎮永康街８１號１樓,121.0818,24.74841,(03)5960501,羅氏家用新冠病毒抗原自我檢測套組,39,2022/05/09 14:50:34,快篩代售時間 14:00（39份） 19:00（39份）
5933031885,東林藥局,新竹縣竹東鎮東林路８０號,121.0913,24.73683,(03)5961321,羅氏家用新冠病毒抗原自我檢測套組,78,2022/05/09 14:50:34,快篩實名制，每天16:00開始販售，售完為止。
5933052053,真善美藥局,新竹縣竹北市勝利五路１７６號,121.0286,24.82322,(03)6589478,羅氏家用新冠病毒抗原自我檢測套組,11,2022/05/09 14:50:34,實名制快篩販賣:星期一 ~ 六 下午14:30開始， 星期日無販售
5933052517,振元藥師藥局,新竹縣竹北市自強南路２０１號,121.0238,24.81364,(03)6587052,羅氏家用新冠病毒抗原自我檢測套組,13,2022/05/09 14:50:34,下午14:00銷售快篩，周日不販售.
5933053407,方米藥局,新竹縣竹北市博愛街５１１號,121.0106,24.8393,(03)5510015,羅氏家用新冠病毒抗原自我檢測套組,17,2022/05/09 14:50:34,實名制快篩，下午兩點發號碼牌並開賣
5933053489,十興藥局,新竹縣竹北市莊敬五街７５號,121.0268,24.82346,(03)6684889,羅氏家用新冠病毒抗原自我檢測套組,78,2022/05/09 14:50:34,快篩實名制，每天16:00開始販售，售完為止。
5933053596,中華藥局,新竹縣竹北市中華路２２６號１、２樓,121.0028,24.83118,(03)5513031,羅氏家用新冠病毒抗原自我檢測套組,78,2022/05/09 14:50:34,快篩實名制，每天16:00開始販售，售完為止。
5933053603,竹北光明藥局,新竹縣竹北市光明一路１３７號,121.0157,24.83023,(03)5584545,羅氏家用新冠病毒抗原自我檢測套組,78,2022/05/09 14:50:34,快篩實名制，每天16:00開始販售，售完為止。
5933061570,湖口藥局,新竹縣湖口鄉民族路４５號,121.0472,24.90602,(03)5991842,羅氏家用新冠病毒抗原自我檢測套組,77,2022/05/09 14:50:34,實名制快篩販賣時段：星期一~六14:30開賣
5933061712,湖山藥局,新竹縣湖口鄉中山路二段１２７號,121.0439,24.90198,(03)5904999,羅氏家用新冠病毒抗原自我檢測套組,78,2022/05/09 14:50:34,快篩實名制，每天16:00開始販售，售完為止。
5933081607,新豐藥局,新竹縣新豐鄉中興路２０８、２１０號,120.9949,24.87571,(03)5575005,羅氏家用新冠病毒抗原自我檢測套組,78,2022/05/09 14:50:34,快篩實名制，每天16:00開始販售，售完為止。
5934011958,栢心藥局,宜蘭縣宜蘭市宜興路１段１１１號,121.7561,24.7514,(03)9357277,羅氏家用新冠病毒抗原自我檢測套組,4,2022/05/09 14:50:34,週一~週六14:00發號碼牌，下午14:30開始販售.（週四下午17:30發號碼牌，18:00開賣）
5934012026,博安藥局,宜蘭縣宜蘭市民族路４１８號,121.7431,24.74978,(03)9320866,羅氏家用新冠病毒抗原自我檢測套組,38,2022/05/09 14:50:34,快篩販售時間，星期一到六:1430開始販售。星期天公休。現場排隊。一人藥局忙碌時無法接聽電話，抱歉
5934012044,富康新民藥局,宜蘭縣宜蘭市新民路１１３號,121.7551,24.75717,(03)9366060,羅氏家用新冠病毒抗原自我檢測套組,19,2022/05/09 14:50:34,下午兩點開賣現場排隊不發號碼牌（星期天休息）*5／7停電-停售一次*
5934012473,宜蘭藥局,宜蘭縣宜蘭市泰山路３６號,121.7485,24.75524,(03)9365168,羅氏家用新冠病毒抗原自我檢測套組,78,2022/05/09 14:50:34,快篩實名制，每天16:00開始販售，售完為止。
5934021990,成功藥局,宜蘭縣羅東鎮興東南路２３５號,121.7672,24.67253,(03)9577550,羅氏家用新冠病毒抗原自我檢測套組,23,2022/05/09 14:50:34,平日下午2:30開賣，星期六下午1:00開賣
5934022175,公正藥局,宜蘭縣羅東鎮興東路１３７、１３９號,121.769,24.6802,(03)9560543,羅氏家用新冠病毒抗原自我檢測套組,78,2022/05/09 14:50:34,快篩實名制，每天16:00開始販售，售完為止。
5934051274,樂多藥局,宜蘭縣礁溪鄉中山路２段７２號１樓,121.7721,24.82459,(03)9368600,羅氏家用新冠病毒抗原自我檢測套組,64,2022/05/09 14:50:34,健保實名制快篩試紙-下午3點販售-售完為止
5934081129,義成藥局,宜蘭縣冬山鄉義成路二段３７３號１樓,121.7639,24.65465,(03)9588775,羅氏家用新冠病毒抗原自我檢測套組,20,2022/05/09 14:50:34,快篩實名制販售時間：5／9星期一下午2：30開賣。5／10星期二下午2：30開賣。現場排隊，售完為止。
5934081147,康佑藥局,宜蘭縣冬山鄉冬山路１３２號,121.7914,24.63455,(03)9591994,羅氏家用新冠病毒抗原自我檢測套組,33,2022/05/09 14:50:34,快篩實名制：週一至週五 下午2:30／週六休／周日加班服務鄉親一樣下午2:30
5934091090,平安藥局,宜蘭縣五結鄉五結中路２段２３號,121.7977,24.68561,(03)9603265,羅氏家用新冠病毒抗原自我檢測套組,30,2022/05/09 14:50:34,實名制快篩販售時間為：星期（一、二、三、五）下午2:30。星期（四、六）早上8點。現排現領
5935011523,天恩藥局,苗栗縣苗栗市中正路49號,120.8246,24.5688,(037)277285,羅氏家用新冠病毒抗原自我檢測套組,45,2022/05/09 14:50:34,快篩實名制，不發號碼牌，5／9起每日下午14:30販售，週日預約制。
5935011738,佳禾藥局,苗栗縣苗栗市青苗里建台街7號,120.821,24.55742,(037)373041,羅氏家用新冠病毒抗原自我檢測套組,8,2022/05/09 14:50:34,快篩試劑7：30發號碼牌8：00開始販賣，販賣時段：營業時間至售完為止
5935011783,芳鄰國際連鎖藥局,苗栗縣苗栗市中山路５６７號,120.8201,24.55826,(037)330580,羅氏家用新冠病毒抗原自我檢測套組,51,2022/05/09 14:50:34,快篩販賣時段：14:00開始發放號碼牌 16:00-18:00領取快篩
5935011916,吉利康藥局,苗栗縣苗栗市中正路340號,120.8232,24.56243,(037)370529,羅氏家用新冠病毒抗原自我檢測套組,17,2022/05/09 14:50:34,快篩販售時間：星期一~六  下午14:30~18:00
5935021421,苑裡啄木鳥藥局,苗栗縣苑裡鎮世界路一段２５號,120.6561,24.44071,(037)854589,羅氏家用新冠病毒抗原自我檢測套組,50,2022/05/09 14:50:34,快篩實名制每日14:30開始販售。各醫院診所慢性處方箋、牙科處方皆可領，全年無休。
5935021430,苑裡藥局,苗栗縣苑裡鎮為公路３２－１號,120.6541,24.44247,(037)851331,羅氏家用新冠病毒抗原自我檢測套組,78,2022/05/09 14:50:34,快篩實名制，每天16:00開始販售，售完為止。
5935030171,立安藥局,苗栗縣通霄鎮信義路１０７號,120.6804,24.48877,(037)760100,羅氏家用新冠病毒抗原自我檢測套組,74,2022/05/09 14:50:34,快篩實名制 週一到週六下午15:00開始販售  售完為止
5935030180,通霄藥局,苗栗縣通霄鎮中山路１３１號,120.678,24.48903,(037)755155,羅氏家用新冠病毒抗原自我檢測套組,78,2022/05/09 14:50:34,快篩實名制，每天16:00開始販售，售完為止。
5935042091,好心健保藥局,苗栗縣竹南鎮中華路１５７號,120.9236,24.71002,(037)687088,羅氏家用新冠病毒抗原自我檢測套組,4,2022/05/09 14:50:34,快篩販售時間:下午01:00
5935052006,懷恩中西藥局,苗栗縣頭份市建國路１２８號１樓,120.9099,24.69584,(037)683981,羅氏家用新冠病毒抗原自我檢測套組,5,2022/05/09 14:50:34,營業時間:7:00-23:00
5935061452,後龍藥局,苗栗縣後龍鎮中山路２０９號１樓,120.7931,24.6127,(037)723660,羅氏家用新冠病毒抗原自我檢測套組,78,2022/05/09 14:50:34,快篩實名制，每天16:00開始販售，售完為止。
5935071172,健安藥局,苗栗縣卓蘭鎮上新里上新七之１１號,120.8297,24.30834,(04)25899617,羅氏家用新冠病毒抗原自我檢測套組,77,2022/05/09 14:50:34,每日 15:00開賣快篩試劑
5935090015,永信藥局,苗栗縣公館鄉館中村榮光街１６號,120.8271,24.50226,(037)223597,羅氏家用新冠病毒抗原自我檢測套組,50,2022/05/09 14:50:34,每日下午3點開始販售快篩
5935091245,芳鄰藥局,苗栗縣公館鄉玉泉村玉泉３６８之１１號,120.8267,24.50749,(037)223727,羅氏家用新冠病毒抗原自我檢測套組,3,2022/05/09 14:50:34,口罩販賣時段：13:00~售完
5936031583,日南藥局,臺中市大甲區通天路１７８之１號,120.6547,24.38114,(04)26816949,羅氏家用新冠病毒抗原自我檢測套組,2,2022/05/09 14:50:34,快篩試劑（星期一至 星期六）每日下午2點， 開始販賣
5936051389,康裕藥局,臺中市沙鹿區中山路２８０號１樓,120.5603,24.23822,(04)26633758,羅氏家用新冠病毒抗原自我檢測套組,75,2022/05/09 14:50:34,每日下午3:00開賣
5936081243,安麗兒藥局神岡店,臺中市神岡區中山路１４５８號,120.6612,24.25898,(04)25629649,羅氏家用新冠病毒抗原自我檢測套組,1,2022/05/09 14:50:34,快篩領取一律現場排隊.販售時間星期一至星期五下午14:00 星期六早上9:00 售完為止.星期日無販售
5936090224,海源大藥局,臺中市潭子區潭秀里中山路２段４８７號,120.705,24.216,(04)25312187,羅氏家用新冠病毒抗原自我檢測套組,78,2022/05/09 14:50:34,快篩試劑下午3點開始販賣。
5936102998,妙昌藥局學府店,臺中市大雅區學府路２９９號,120.6491,24.22479,(04)25689841,羅氏家用新冠病毒抗原自我檢測套組,55,2022/05/09 14:50:34,無
5936111148,荷仕康藥局,臺中市新社區興安路１８－３３號,120.8078,24.24042,(04)25826258,羅氏家用新冠病毒抗原自我檢測套組,13,2022/05/09 14:50:34,快篩下午2點開始販售
5936150305,吳藥局,臺中市烏日區烏日里中山路二段２２４號,120.6219,24.1066,(04)23381148,羅氏家用新冠病毒抗原自我檢測套組,11,2022/05/09 14:50:34,早上如有配送 下午2:00販售
5936151393,辰采藥局,臺中市烏日區學田路５８８號,120.6073,24.12307,(04)23372207,羅氏家用新冠病毒抗原自我檢測套組,6,2022/05/09 14:50:34,5／9快篩試劑開賣時間14:00~售完
5936171386,國際大藥局,臺中市龍井區藝術街６號,120.5954,24.18751,(04)26522118,羅氏家用新冠病毒抗原自我檢測套組,1,2022/05/09 14:50:34,無
5936171402,上華藥局,臺中市龍井區新興路３７號,120.5882,24.18084,(04)26320433,羅氏家用新冠病毒抗原自我檢測套組,8,2022/05/09 14:50:34,周一至周日快篩販賣時間下午2點開始販售，賣完為止
5936180152,祥暘藥局,臺中市霧峰區中正路１１６２號,120.6996,24.07068,(04)23391346,羅氏家用新冠病毒抗原自我檢測套組,78,2022/05/09 14:50:34,快篩實名制，每天16:00開始販售，售完為止。
5936191913,興明健保藥局,臺中市太平區樹德路９７－６號,120.7113,24.15324,(04)23955521,羅氏家用新冠病毒抗原自我檢測套組,38,2022/05/09 14:50:34,週一至週六下午2:30開始販售實名制快篩劑.週日早上10:00至12:00販售
5936192267,和康中西藥局,臺中市太平區新城里樹孝路１３１號,120.7177,24.15301,(04)23937297,羅氏家用新冠病毒抗原自我檢測套組,34,2022/05/09 14:50:34,快篩星期一至六 每日下午2 點 （發號碼牌）至庫存無貨停止販售。（星期日門口另行公告販售時間）
5936192312,安麗兒藥局太平店,臺中市太平區太平路１９０號,120.7204,24.12088,(04)22798819,羅氏家用新冠病毒抗原自我檢測套組,72,2022/05/09 14:50:34,快篩販售時間下午3點（15:00）開始.售完為止
5936209287,德芳大藥局,臺中市大里區益民路二段３０４號１、２樓,120.684,24.11183,(04)24815932,羅氏家用新冠病毒抗原自我檢測套組,60,2022/05/09 14:50:34,快篩販售時間:下午3點~6點
593620B138,聯生中西健保藥局,臺中市大里區現岱路１５８巷１１號,120.6919,24.10295,(04)24834058,羅氏家用新冠病毒抗原自我檢測套組,9,2022/05/09 14:50:34,早上八點半領號碼牌下午四點到六點領口罩W6W日早七點
5937010426,正忠藥局,彰化縣彰化市福安里福鎮街１６號,120.5427,24.07324,(04)7244669,羅氏家用新冠病毒抗原自我檢測套組,16,2022/05/09 14:50:34,5月9日起周一~周六下午2:00~9:00販售快篩，售完為止.
5937010462,杏全藥局,彰化縣彰化市忠權里彰美路一段１８５號,120.5377,24.08868,(04)7240547,羅氏家用新冠病毒抗原自我檢測套組,70,2022/05/09 14:50:34,快篩販售：下午3點
5937010533,范藥局,彰化縣彰化市東興里公園路１段２９２號,120.5512,24.07501,(04)7271540,羅氏家用新冠病毒抗原自我檢測套組,1,2022/05/09 14:50:34,每日賣快篩劑時間恢復九點開賣
5937010819,日榮堂藥局,彰化縣彰化市光華里和平路５０號,120.5406,24.08,(04)7222396,羅氏家用新冠病毒抗原自我檢測套組,51,2022/05/09 14:50:34,每日15:30開始販售
5937012117,媽咪藥局,彰化縣彰化市彰南路２段１１５號,120.5793,24.08538,(04)7321517,羅氏家用新冠病毒抗原自我檢測套組,60,2022/05/09 14:50:34,實名制快篩:周一至周六下午3:00，週日早上9:00開始販售，售完為止
5937013365,正光藥局民族店,彰化縣彰化市彰安里民族路２１１號,120.5389,24.07076,(04)7234876,羅氏家用新冠病毒抗原自我檢測套組,9,2022/05/09 14:50:34,每天下午1點30分開始\現場發號碼牌依序販售快篩試劑
5937013436,大埔藥局,彰化縣彰化市大埔路４０６、４０８、４１０、４１２號,120.5439,24.06298,(04)7117511,羅氏家用新冠病毒抗原自我檢測套組,78,2022/05/09 14:50:34,快篩實名制，每天16:00開始販售，售完為止。
5937013570,彰化藥局,彰化縣彰化市永安街２７８、２８０號,120.5438,24.08977,(04)7287877,羅氏家用新冠病毒抗原自我檢測套組,78,2022/05/09 14:50:34,暫停販售
5937013687,丁丁藥局彰鹿店,彰化縣彰化市彰鹿路１５０號,120.5146,24.05913,(04)7531110,羅氏家用新冠病毒抗原自我檢測套組,5,2022/05/09 14:50:34,無
5937013730,佳漾藥局,彰化縣彰化市延平路５８８號１樓,120.5374,24.06301,(04)7135518,羅氏家用新冠病毒抗原自我檢測套組,78,2022/05/09 14:50:34,實名制快篩販售時間為下午5點-售完為止，週六，週日及國定假日藥局休息．
5937013749,中央啄木鳥藥局,彰化縣彰化市中央路２０６號,120.5285,24.06637,(04)7639581,羅氏家用新冠病毒抗原自我檢測套組,5,2022/05/09 14:50:34,13:30開始販售，若未收到配送，則以收到時間開始
5937013767,民族藥局,彰化縣彰化市民族路２１２號１樓,120.5393,24.071,(04)7261221,羅氏家用新冠病毒抗原自我檢測套組,78,2022/05/09 14:50:34,快篩實名制，每天16:00開始販售，售完為止。
5937021849,大樹鹿港藥局,彰化縣鹿港鎮中正路１９３號,120.4405,24.05491,(04)7772226,羅氏家用新冠病毒抗原自我檢測套組,78,2022/05/09 14:50:34,快篩實名制，每天16:00開始販售，售完為止。
5937031381,春生藥局新庄店,彰化縣和美鎮彰新路二段５２７、５２９號,120.533,24.10492,(04)7330458,羅氏家用新冠病毒抗原自我檢測套組,21,2022/05/09 14:50:34,平日下午兩點半販售 六日停售
5937031747,大樹和美藥局,彰化縣和美鎮道周路５０１號,120.494,24.10896,(04)7550090,羅氏家用新冠病毒抗原自我檢測套組,80,2022/05/09 14:50:34,快篩實名制，每天16:00開始販售，售完為止。
5937041369,北斗福倫藥局,彰化縣北斗鎮西德里斗苑路１段４２５、４２７號,120.5177,23.87305,(04)8886618,羅氏家用新冠病毒抗原自我檢測套組,78,2022/05/09 14:50:34,星期一~星期日每天下午3:00開始販售.人多同時間於2:50發號碼牌.取牌後保留10分鐘
5937041421,惠生大藥局,彰化縣北斗鎮西德里中華路２９１號,120.521,23.87288,(04)8874041,羅氏家用新冠病毒抗原自我檢測套組,1,2022/05/09 14:50:34,販售時間 : 週一 ~ 週日，每日下午1:50~2點後至販售完畢
5937050135,信昇藥局,彰化縣員林市大同路二段１８２－１號,120.575,23.96908,(04)8358827,羅氏家用新冠病毒抗原自我檢測套組,18,2022/05/09 14:50:34,快篩試劑販售時間-每日下午2點半開始.售完為止
5937051794,愛康生活保健中西藥局,彰化縣員林市靜修東路３４號,120.5753,23.96302,(04)8328826,羅氏家用新冠病毒抗原自我檢測套組,44,2022/05/09 14:50:34,星期一到星期日~下午2:30開始販售政府快篩，售完為止。（全年無休）
5937051981,康美藥局,彰化縣員林市南平里南平街２６號,120.5646,23.96301,(04)8395172,羅氏家用新冠病毒抗原自我檢測套組,73,2022/05/09 14:50:34,無
5937052264,醫聯藥師藥局,彰化縣員林市三條里員東路二段４１０號１樓,120.5811,23.95898,(04)8360617,羅氏家用新冠病毒抗原自我檢測套組,2,2022/05/09 14:50:34,無
5937052273,員林鼎澄藥局,彰化縣員林市仁愛里三民東街２５２號,120.58,23.95997,(04)8330918,羅氏家用新冠病毒抗原自我檢測套組,75,2022/05/09 14:50:34,實名制快篩，星期一-六每日下午2點開始依現場排隊販售
5937052335,大樹三民藥局,彰化縣員林市三民東街３５６號,120.5825,23.96065,(04)8372837,羅氏家用新冠病毒抗原自我檢測套組,78,2022/05/09 14:50:34,快篩實名制，每天16:00開始販售，售完為止。
5937052433,迪迪連鎖藥局員林店,彰化縣員林市林森路１６３號１樓,120.5777,23.95715,(04)8312898,羅氏家用新冠病毒抗原自我檢測套組,7,2022/05/09 14:50:34,快篩實名制販售時間：每日十點發放，依物流配送時間為準。
5937052479,莒光藥局,彰化縣員林市莒光路３１６號１樓,120.5669,23.95942,(04)8361388,羅氏家用新冠病毒抗原自我檢測套組,78,2022/05/09 14:50:34,快篩實名制，每天16:00開始販售，售完為止。
5937052488,大樹員林藥局,彰化縣員林市大同路二段２０７號,120.5745,23.96891,(04)8331353,羅氏家用新冠病毒抗原自我檢測套組,78,2022/05/09 14:50:34,快篩實名制，每天16:00開始販售，售完為止。
5937061432,康健藥局,彰化縣溪湖鎮光平里彰水路３段３８８號,120.4802,23.96206,(04)8822549,羅氏家用新冠病毒抗原自我檢測套組,1,2022/05/09 14:50:34,每天8:30開門即開始配售防疫口罩及快篩試劑（星期日休）
5937061718,東環藥局,彰化縣溪湖鎮湖東街８１巷７０－３、７０－４、７０－５號,120.4833,23.95861,(04)8820001,羅氏家用新冠病毒抗原自我檢測套組,78,2022/05/09 14:50:34,快篩實名制，每天16:00開始販售，售完為止。
5937061727,溪湖藥局,彰化縣溪湖鎮西環路３６５、３７１號１樓,120.4771,23.96099,(04)8818617,羅氏家用新冠病毒抗原自我檢測套組,87,2022/05/09 14:50:34,5／8今日實名制快篩因電腦系統關係以發放號碼牌方式，目前號碼牌已經發放完畢
5937061736,平和藥局,彰化縣溪湖鎮彰水路三段２７７、２７９號１樓,120.4801,23.95959,(04)8816880,羅氏家用新冠病毒抗原自我檢測套組,78,2022/05/09 14:50:34,快篩實名制，每天16:00開始販售，售完為止。
5937071474,田中藥局,彰化縣田中鎮新生街１５０巷２號,120.5862,23.8621,(04)8761988,羅氏家用新冠病毒抗原自我檢測套組,78,2022/05/09 14:50:34,快篩實名制，每天16:00開始販售，售完為止。
5937081596,二林藥局,彰化縣二林鎮斗苑路五段３９號,120.3709,23.89951,(04)8950010,羅氏家用新冠病毒抗原自我檢測套組,78,2022/05/09 14:50:34,快篩實名制，每天16:00開始販售，售完為止。
5937121184,伸豐藥局,彰化縣秀水鄉福安村彰水路二段６６３號,120.4977,24.03204,(04)7697482,羅氏家用新冠病毒抗原自我檢測套組,30,2022/05/09 14:50:34,5／1起因物流當日到貨時間不定，販售時間請查詢伸豐藥局FB公告
5937121317,彰水藥局,彰化縣秀水鄉彰水路二段４２５、４２７、４２９號１樓,120.4943,24.02791,(04)7685880,羅氏家用新冠病毒抗原自我檢測套組,78,2022/05/09 14:50:34,快篩實名制，每天16:00開始販售，售完為止。
5937181279,佳恩藥局,彰化縣永靖鄉永西村瑚璉路３０２號,120.547,23.92421,(04)8235753,羅氏家用新冠病毒抗原自我檢測套組,42,2022/05/09 14:50:34,快篩實名制 :電話預約制，當日早上9點開始預約（已額滿）
5937201061,長春藥局,彰化縣二水鄉文化村光文路１０３號,120.6167,23.81189,(04)8795289,羅氏家用新冠病毒抗原自我檢測套組,26,2022/05/09 14:50:34,早上8:00發放號碼牌，13:00開始販售至17:00止
5937201105,安利藥局,彰化縣二水鄉光化村員集路４段３號,120.6159,23.81147,(04)8794933,羅氏家用新冠病毒抗原自我檢測套組,66,2022/05/09 14:50:34,快篩下午3點現場販售 不發號碼牌 身障.醫護可優先購買
5938010420,弘昌藥局,南投縣南投市三興里南崗一路８５號,120.6834,23.90096,(049)2228902,羅氏家用新冠病毒抗原自我檢測套組,50,2022/05/09 14:50:34,週一至週六早防疫家用快篩試劑 早上發號碼.下午3點至4點領快篩.超過4點視同放棄.
5938011838,愛馨藥局,南投縣南投市中山街１４巷１５號,120.687,23.90573,(049)2206006,羅氏家用新冠病毒抗原自我檢測套組,30,2022/05/09 14:50:34,周一至周六14:30開始販售，周日9:00販售
5938011909,彰南藥局,南投縣南投市彰南路二段２１號,120.6845,23.90847,(049)2230005,羅氏家用新冠病毒抗原自我檢測套組,78,2022/05/09 14:50:34,無
5938021683,埔里啄木鳥藥局,南投縣埔里鎮中山路三段４６７號,120.9537,23.96959,(049)2914510,羅氏家用新冠病毒抗原自我檢測套組,78,2022/05/09 14:50:34,實名制快篩 當天下午3點開賣＜請排隊購買＞5／11及5／25提早下午2點賣
5938022064,大樹埔里藥局,南投縣埔里鎮中正路４３８號,120.9632,23.97263,(049)2980805,羅氏家用新冠病毒抗原自我檢測套組,78,2022/05/09 14:50:34,快篩實名制，每天16:00開始販售，售完為止。
5938032480,草屯藥局,南投縣草屯鎮碧山路１４５、１４７號,120.6834,23.9778,(049)2362992,羅氏家用新冠病毒抗原自我檢測套組,78,2022/05/09 14:50:34,快篩實名制，每天16:00開始販售，售完為止。
5938032515,草屯丁丁藥局,南投縣草屯鎮太平路二段１７９號,120.6831,23.97335,(049)2330058,羅氏家用新冠病毒抗原自我檢測套組,16,2022/05/09 14:50:34,每日早上9點發號碼牌，05／09今日號碼牌已發放完畢
5938032560,祥陽藥局,南投縣草屯鎮中正路８２２、８２４號,120.6854,23.98276,(049)2353393,羅氏家用新冠病毒抗原自我檢測套組,78,2022/05/09 14:50:34,快篩實名制，每天16:00開始販售，售完為止。
5938041916,大明藥局,南投縣竹山鎮大明路４８２號,120.6798,23.759,(049)2652500,羅氏家用新冠病毒抗原自我檢測套組,78,2022/05/09 14:50:34,快篩實名制，每天16:00開始販售，售完為止。
5938050120,家禾藥局,南投縣集集鎮民生路２３７號,120.779,23.82647,(049)2760565,羅氏家用新冠病毒抗原自我檢測套組,3,2022/05/09 14:50:34,快篩代售：w1~w5 下午2：00（當場發放號碼牌，而後當場代售）
5938110023,杏仁藥局,南投縣水里鄉新城村民權路２３６號,120.8526,23.81758,(049)2776008,羅氏家用新冠病毒抗原自我檢測套組,34,2022/05/09 14:50:34,周一到周六，下午2:30販售快篩，售完為止，星期日休息
5939010399,東京大藥局,雲林縣斗六市文化路７９號,120.5486,23.71107,(05)5348073,羅氏家用新冠病毒抗原自我檢測套組,78,2022/05/09 14:50:34,快篩試劑每天下午4點販賣（售完為止）
5939010504,桂賓藥局,雲林縣斗六市信義里鎮北路３號,120.5432,23.71143,(05)5332138,羅氏家用新冠病毒抗原自我檢測套組,75,2022/05/09 14:50:34,週五.六.日 休息 沒售快篩
5939012400,陽光藥局,雲林縣斗六市永安路６９號,120.548,23.70923,(05)5362097,羅氏家用新冠病毒抗原自我檢測套組,70,2022/05/09 14:50:34,快篩16:00開賣~現場排隊，請勿電話詢問
5939012526,世明中西藥局,雲林縣斗六市文化路３２４－１號,120.5532,23.71162,(05)5333109,羅氏家用新冠病毒抗原自我檢測套組,50,2022/05/09 14:50:34,口罩販售:於周一到周日營業時間9:00~售完為止，快篩試劑販售:於周一到周六營業時間14:00開賣~售完為止
5939012599,斗六藥局,雲林縣斗六市雲林路二段１１３號,120.534,23.70477,(05)5372300,羅氏家用新冠病毒抗原自我檢測套組,78,2022/05/09 14:50:34,快篩實名制，每天16:00開始販售，售完為止。
5939012615,佑全斗六慶生藥局,雲林縣斗六市慶生路２６號,120.5402,23.71281,(05)5372736,羅氏家用新冠病毒抗原自我檢測套組,4,2022/05/09 14:50:34,快篩實名制，下午兩點販售。
5939020082,惠生大藥局,雲林縣斗南鎮中天里文元街５０號,120.4776,23.67544,(05)5972478,羅氏家用新冠病毒抗原自我檢測套組,3,2022/05/09 14:50:34,每天下午2點開始販售，售完為止。
5939021490,庚辛藥局,雲林縣斗南鎮中正路１３９－１號,120.478,23.67642,(05)5953776,羅氏家用新冠病毒抗原自我檢測套組,20,2022/05/09 14:50:34,因為配送時間不一定，以當日配送到店時間安排販售時段。
5939021543,惠宏藥局,雲林縣斗南鎮延平路２段２６４號,120.4786,23.67841,(05)5953727,羅氏家用新冠病毒抗原自我檢測套組,10,2022/05/09 14:50:34,快篩販售時間為下午2:00
5939021614,斗南藥局,雲林縣斗南鎮南昌路１１２號,120.4791,23.67321,(05)5960102,羅氏家用新冠病毒抗原自我檢測套組,78,2022/05/09 14:50:34,無
5939030364,勝泰中西藥局,雲林縣虎尾鎮林森路一段４２７號,120.4353,23.71068,(05)6329479,羅氏家用新冠病毒抗原自我檢測套組,61,2022/05/09 14:50:34,無
5939031996,端發藥局,雲林縣虎尾鎮林森路一段３２９號,120.4368,23.71237,(05)6314168,羅氏家用新冠病毒抗原自我檢測套組,15,2022/05/09 14:50:34,販賣快篩時間:每日14:30-售完為止請提早排隊
5939032724,虎尾藥局,雲林縣虎尾鎮林森路二段１１７、１１９號,120.4298,23.70595,(05)6336330,羅氏家用新冠病毒抗原自我檢測套組,78,2022/05/09 14:50:34,新開業， 5／4網路建置完成 每日下午16:00開始販售
5939040164,一元藥局,雲林縣西螺鎮福興路１７５號,120.4605,23.80032,(05)5879987,羅氏家用新冠病毒抗原自我檢測套組,26,2022/05/09 14:50:34,販賣快篩試劑時間14:00~售完為止
5939041705,祐祐藥局,雲林縣西螺鎮光復西路３６２號,120.4547,23.79624,(05)5878758,羅氏家用新冠病毒抗原自我檢測套組,48,2022/05/09 14:50:34,每日14:00開始販售，星期六、星期日沒有（無）販快篩試劑
5939041849,西螺藥局,雲林縣西螺鎮光復西路１２３、１２５號,120.4612,23.79675,(05)5872112,羅氏家用新冠病毒抗原自我檢測套組,78,2022/05/09 14:50:34,快篩實名制，每天16:00開始販售，售完為止。
5939051185,土庫台丞藥局,雲林縣土庫鎮中正路１１２號,120.3901,23.67548,(05)6626677,羅氏家用新冠病毒抗原自我檢測套組,41,2022/05/09 14:50:34,實名制快篩販售時間下午14:30 ~售完為止
5939051238,天愛藥局,雲林縣土庫鎮中山路８０號,120.3903,23.6749,(05)6629923,羅氏家用新冠病毒抗原自我檢測套組,11,2022/05/09 14:50:34,無
5939061850,北港家源藥局,雲林縣北港鎮大同路３０３號,120.2983,23.57261,(05)7832104,羅氏家用新冠病毒抗原自我檢測套組,24,2022/05/09 14:50:34,以健保卡購買快篩實名制，每天下午13:00開賣，現場排隊，售完為止。
5939061949,大樹北港藥局,雲林縣北港鎮華勝路９９號,120.2986,23.57559,(05)7830783,羅氏家用新冠病毒抗原自我檢測套組,78,2022/05/09 14:50:34,快篩實名制，每天16:00開始販售，售完為止。
5939111220,台丞藥局,雲林縣二崙鄉中山路１２１號,120.4126,23.76987,(05)5985599,羅氏家用新冠病毒抗原自我檢測套組,26,2022/05/09 14:50:34,週日公休 實名制快篩下午2:30開賣，售完為止
5939121271,崙背台丞藥局,雲林縣崙背鄉建國路５６號,120.3548,23.76012,(05)6966789,羅氏家用新冠病毒抗原自我檢測套組,27,2022/05/09 14:50:34,週日公休，下午２：３０開賣，售完為止。
5939131400,正鴻健保藥局,雲林縣麥寮鄉表福路３５號,120.255,23.74769,(05)6938786,羅氏家用新冠病毒抗原自我檢測套組,1,2022/05/09 14:50:34,周一至周五早上八點到晚上八點，星期六早上八點到下午四點
5939131482,麥津藥局,雲林縣麥寮鄉中山路３１３、３１５號,120.2527,23.74947,(05)6932258,羅氏家用新冠病毒抗原自我檢測套組,78,2022/05/09 14:50:34,快篩實名制，每天16:00開始販售，售完為止。
5939140061,義和堂中西藥局,雲林縣東勢鄉東南村東勢東路１２號,120.2536,23.67503,(05)6991028,羅氏家用新冠病毒抗原自我檢測套組,3,2022/05/09 14:50:34,快篩試劑貨到就開賣
5940011777,朴子啄木鳥藥局,嘉義縣朴子市永和里應菜埔２９－３號,120.2323,23.46336,(05)3208028,羅氏家用新冠病毒抗原自我檢測套組,32,2022/05/09 14:50:34,平日13:00販售快篩.六日14:00販售快篩
5940031359,家寶藥局,嘉義縣大林鎮平林里中興路２６４號,120.4613,23.60269,(05)2649000,羅氏家用新冠病毒抗原自我檢測套組,52,2022/05/09 14:50:34,08:00~售罄
5940031386,大樹大林藥局,嘉義縣大林鎮祥和路１９２號,120.4527,23.60447,(05)2641800,羅氏家用新冠病毒抗原自我檢測套組,78,2022/05/09 14:50:34,快篩實名制，每天16:00開始販售，售完為止。
5940040349,正道藥局,嘉義縣民雄鄉中樂村復興路３８號,120.4304,23.55706,(05)2268345,羅氏家用新冠病毒抗原自我檢測套組,62,2022/05/09 14:50:34,周一~周六 15:00-售罄周日 視人力彈性發放08:30-12:00
5940041739,民雄藥局,嘉義縣民雄鄉東榮村００５鄰建國路一段１１７號,120.4333,23.55681,(05)2264566,羅氏家用新冠病毒抗原自我檢測套組,78,2022/05/09 14:50:34,快篩實名制，每天16:00開始販售，售完為止。
5940041784,福興瑞安藥局,嘉義縣民雄鄉東榮村東榮路１０號,120.4332,23.55743,(05)2265396,羅氏家用新冠病毒抗原自我檢測套組,33,2022/05/09 14:50:34,因物流配送時間不確定，每日實名制快篩販售時間請見Facebook粉絲專頁或goole maps貼文公告
5940041800,棋德藥局,嘉義縣民雄鄉建國路一段１９９號,120.4336,23.5584,(05)2060121,羅氏家用新冠病毒抗原自我檢測套組,13,2022/05/09 14:50:34,無
5940121394,水上藥局,嘉義縣水上鄉水頭村中興路２６６號,120.4029,23.43014,(05)2601121,羅氏家用新冠病毒抗原自我檢測套組,78,2022/05/09 14:50:34,快篩實名制，每天16:00開始販售，售完為止。
5941040049,安安藥局,臺南市麻豆區興中路８８號,120.2507,23.18354,(06)5727475,羅氏家用新冠病毒抗原自我檢測套組,9,2022/05/09 14:50:34,營業時間：上午8:00-晚上10:00
5941041322,紘信藥局,臺南市麻豆區民生路３６之７號１樓,120.2541,23.18173,(06)5711289,羅氏家用新冠病毒抗原自我檢測套組,76,2022/05/09 14:50:34,早上8~12點 下午 3~9點  周六下午 3~5:30   周日 下午 5~9點
5941050045,佳晟藥局,臺南市佳里區安西里光復路２６５號,120.1746,23.16169,(06)7220732,羅氏家用新冠病毒抗原自我檢測套組,44,2022/05/09 14:50:34,禮拜一~六08:00-12；00 14:30-21:00   星期日08:00-10:00
5941070074,弘松健保藥局,臺南市善化區中興路１０８號,120.2913,23.13166,(06)5819146,羅氏家用新冠病毒抗原自我檢測套組,52,2022/05/09 14:50:34,週一~週六 下午15：00
5941070154,嘉展藥師藥局,臺南市善化區坐駕里建國路４５號,120.2972,23.12766,(06)5839112,羅氏家用新冠病毒抗原自我檢測套組,65,2022/05/09 14:50:34,快篩販售一～五:（下午3:00）六（上午9 :00）
5941201161,安麗兒藥局新市店,臺南市新市區新和里中正路２６０號,120.2919,23.07716,(06)5012699,羅氏家用新冠病毒抗原自我檢測套組,9,2022/05/09 14:50:34,星期一至星期日下午2:00後至售完
5941270109,振裕藥局,臺南市仁德區二行里二行一路１６５號,120.2251,22.91949,(06)2661478,羅氏家用新冠病毒抗原自我檢測套組,27,2022/05/09 14:50:34,快篩販售時間14:30~16:30
5941270163,太子藥局,臺南市仁德區太子里太子路３３８號,120.2577,22.99146,(06)2729906,羅氏家用新冠病毒抗原自我檢測套組,1,2022/05/09 14:50:34,5／9快篩.已售完.
5941281362,安麗兒藥局,臺南市歸仁區辜厝里中山路二段７１號,120.2923,22.96681,(06)2399212,羅氏家用新冠病毒抗原自我檢測套組,15,2022/05/09 14:50:34,兩點開始
