醫事機構代碼,醫事機構名稱,醫事機構地址,經度,緯度,醫事機構電話,廠牌項目,快篩試劑截至目前結餘存貨數量,來源資料時間,備註
2340170016,嘉義縣大埔鄉衛生所,嘉義縣大埔鄉大埔村５３－１號,120.5928,23.29397,(05)2521214,羅氏家用新冠病毒抗原自我檢測套組,78,2022/05/08 14:58:02,無
2342270019,高雄市那瑪夏區衛生所,高雄市那瑪夏區瑪雅里６鄰平和巷２５２號,120.7024,23.24708,(07)6701142,羅氏家用新冠病毒抗原自我檢測套組,61,2022/05/08 14:58:02,春節期間正常門診
2343320018,屏東縣獅子鄉衛生所,屏東縣獅子鄉楓林村楓林二巷３１號,120.7057,22.18402,(08)8771324,羅氏家用新冠病毒抗原自我檢測套組,1,2022/05/08 14:58:02,特休日：每年農曆除夕、初一
2344011036,澎湖縣馬公市第三衛生所,澎湖縣馬公市西文里１１８之２號,119.5836,23.56813,(06)9211723,羅氏家用新冠病毒抗原自我檢測套組,109,2022/05/08 14:58:02,本所快篩試劑只提供離島衛生室（虎井、桶盤）販售，時間週一至週五08:30-17:00售完為止，星期六、日國定假日09:00-12:00。
2344030022,澎湖縣白沙鄉鳥嶼衛生所,澎湖縣白沙鄉鳥嶼村漁港新村３號,119.6599,23.66008,(06)9916092,羅氏家用新冠病毒抗原自我檢測套組,62,2022/05/08 14:58:02,非上班時間提供急診服務
2344030031,澎湖縣白沙鄉吉貝衛生所,澎湖縣白沙鄉吉貝村８－１３號,119.6138,23.74056,(06)9911430,羅氏家用新冠病毒抗原自我檢測套組,189,2022/05/08 14:58:02,無
2344050024,澎湖縣望安鄉將軍衛生所,澎湖縣望安鄉將軍村１２鄰將軍澳１之３號,119.5216,23.3615,(06)9902066,羅氏家用新冠病毒抗原自我檢測套組,77,2022/05/08 14:58:02,24小時急診
2344060011,澎湖縣七美鄉衛生所,澎湖縣七美鄉中和村埔內５４號,119.431,23.2041,(06)9971005,羅氏家用新冠病毒抗原自我檢測套組,1,2022/05/08 14:58:02,無
2345080017,衛生福利部花蓮醫院豐濱原住民分院,花蓮縣豐濱鄉豐濱村光豐路４１號,121.5215,23.60195,(03)8358141,羅氏家用新冠病毒抗原自我檢測套組,78,2022/05/08 14:58:02,*本院口罩每天販售，時間自上午8點至晚上9點  *本院週一至週五上下午皆有門診，星期六隔週提供門診，及24小時急診。
5901010076,榮星藥局,臺北市松山區南京東路４段１３３巷５弄１號,121.5552,25.05214,(02)27124696,羅氏家用新冠病毒抗原自我檢測套組,21,2022/05/08 14:58:02,無
5901013200,專品南京藥局,臺北市松山區南京東路４段７３號,121.5532,25.05185,(02)25147685,羅氏家用新冠病毒抗原自我檢測套組,74,2022/05/08 14:58:02,無
5901013380,澄馨藥局,臺北市松山區三民路３７號,121.5635,25.0558,(02)27420159,羅氏家用新冠病毒抗原自我檢測套組,34,2022/05/08 14:58:02,無
5901013399,一安正昇藥局,臺北市松山區南京東路５段３０９號,121.5667,25.05155,(02)27680993,羅氏家用新冠病毒抗原自我檢測套組,43,2022/05/08 14:58:02,快篩發放時間  下午14:30
5901013700,杏一台北台安藥局,臺北市松山區八德路２段３９９號１樓,121.5465,25.04833,(02)87728295,羅氏家用新冠病毒抗原自我檢測套組,78,2022/05/08 14:58:02,快篩實名制販售時間為每天下午15:00，開賣前10分鐘發放號碼牌，售完為止
5901013719,大樹松山藥局,臺北市松山區民生東路５段１０７號１樓,121.5601,25.05878,(02)27562226,羅氏家用新冠病毒抗原自我檢測套組,78,2022/05/08 14:58:02,快篩實名制，每天16:00開始販售，售完為止。
5901013737,全欣藥局,臺北市松山區復興北路７３號２樓,121.5442,25.05104,(02)87729066,羅氏家用新冠病毒抗原自我檢測套組,26,2022/05/08 14:58:02,9:00am開始販售30人份15:00販售30人份:18:00販售17人份；週六:9:00販售39人份；週日:15:00販售39人份....排隊人數滿會先發號碼
5901024472,忠孝康承健保藥局,臺北市大安區復興南路１段１０７巷４號,121.5444,25.04357,(02)87733378,羅氏家用新冠病毒抗原自我檢測套組,78,2022/05/08 14:58:02,周一公休
5901024678,大安健康人生藥局,臺北市大安區信義路４段３４號,121.5447,25.03316,(02)27025553,羅氏家用新冠病毒抗原自我檢測套組,78,2022/05/08 14:58:02,快篩發放時間:下午3點開始發放號碼牌，並依序入場購買，請協助自備紙鈔
5901025059,博醫仁愛藥局,臺北市大安區仁愛路４段８巷２號１樓,121.5443,25.0375,(02)27019107,羅氏家用新冠病毒抗原自我檢測套組,1,2022/05/08 14:58:02,每天11:30發號碼牌，12:00~15:00憑號碼牌與健保卡購買實名制快篩
5901025077,敦南春天藥局,臺北市大安區敦化南路２段８１巷６３號１樓,121.5513,25.03002,(02)27553266,羅氏家用新冠病毒抗原自我檢測套組,55,2022/05/08 14:58:02,快篩待售時間:週一至週日15:00現場排隊購買，售完為止。（物流配送不及則例外，以門市公告為主）
5901092112,酒泉春天藥局,臺北市大同區酒泉街９４號、９４號２樓,121.5146,25.07193,(02)25977932,羅氏家用新冠病毒抗原自我檢測套組,50,2022/05/08 14:58:02,無
5901092130,大同民生藥局,臺北市大同區民生西路１２８號１樓、２樓及１３０號１樓、２樓,121.5191,25.05734,(02)25558886,羅氏家用新冠病毒抗原自我檢測套組,78,2022/05/08 14:58:02,快篩實名制，每天16:00開始販售，售完為止。
5901100155,大信藥局,臺北市中山區林森北路１５９巷６號,121.5255,25.0517,(02)25719080,羅氏家用新冠病毒抗原自我檢測套組,1,2022/05/08 14:58:02,無
5901100333,明美藥局,臺北市中山區長春路６９號,121.5266,25.05502,(02)25365419,羅氏家用新冠病毒抗原自我檢測套組,8,2022/05/08 14:58:02,口罩周一至周五，16:30-18:30販售
5901100440,優豐藥局,臺北市中山區民生東路１段３２號,121.5242,25.05794,(02)25602565,羅氏家用新冠病毒抗原自我檢測套組,78,2022/05/08 14:58:02,下午3點現場作業不分發號碼牌
5901102855,錦西春天生活藥局,臺北市中山區錦西街１０號,121.5216,25.06024,(02)25312658,羅氏家用新冠病毒抗原自我檢測套組,78,2022/05/08 14:58:02,快篩14:40領號碼牌 15:00開始販售
5901103423,農安藥局,臺北市中山區農安街１８之１號,121.5248,25.06483,(02)25959293,羅氏家用新冠病毒抗原自我檢測套組,8,2022/05/08 14:58:02,快篩2點發號碼牌 3點後來拿
5901103629,十二願藥局,臺北市中山區林森北路３０９號,121.5256,25.05588,(02)25311223,羅氏家用新冠病毒抗原自我檢測套組,75,2022/05/08 14:58:02,快篩晚上8點開始發放.營業時間下午1點至凌晨3點
5901103745,吉林藥局,臺北市中山區吉林路３７１號（１樓）,121.5305,25.06511,(02)25865990,羅氏家用新冠病毒抗原自我檢測套組,78,2022/05/08 14:58:02,快篩實名制，每天16:00開始販售，售完為止。
5901103807,專品龍江藥局,臺北市中山區龍江路３１１號１樓,121.5409,25.06127,(02)25178870,羅氏家用新冠病毒抗原自我檢測套組,78,2022/05/08 14:58:02,實名制快篩下午三點開始發號碼牌販售
5901112995,昇龍藥局,臺北市內湖區東湖路１５１號,121.6174,25.0681,(02)26316783,羅氏家用新冠病毒抗原自我檢測套組,2,2022/05/08 14:58:02,營業時間為早上8點到晚上10點；實名制快篩於每日下午一點前領取，​但若排隊人數已超過數量，將視情況提早發放。
5901113018,桔子藥局,臺北市內湖區內湖路２段３３３號,121.5917,25.08319,(02)27930052,羅氏家用新冠病毒抗原自我檢測套組,78,2022/05/08 14:58:02,早0900-1200，午1400-1700，晚1900-2100
5901113723,杏一港墘藥局,臺北市內湖區港墘路８３號（１樓）,121.5781,25.08078,(02)87978746,羅氏家用新冠病毒抗原自我檢測套組,63,2022/05/08 14:58:02,無
5901121985,勝安藥局,臺北市南港區舊莊街１段１６５號,121.6211,25.03949,(02)27828450,羅氏家用新冠病毒抗原自我檢測套組,36,2022/05/08 14:58:02,實名制快篩晚上21:00提供，倘提早額滿且經現場排隊者全體同意，則即時銷售 5／8正常
5901122080,成福大藥局,臺北市南港區成福路８號,121.5859,25.04578,(02)27859221,羅氏家用新冠病毒抗原自我檢測套組,79,2022/05/08 14:58:02,無
5901150342,士林三安藥局,臺北市士林區大南路１１號,121.526,25.08898,(02)28812631,羅氏家用新冠病毒抗原自我檢測套組,1,2022/05/08 14:58:02,無
5901150548,田倉藥局,臺北市士林區士東路１２４號,121.5302,25.11219,(02)88662188,羅氏家用新冠病毒抗原自我檢測套組,78,2022/05/08 14:58:02,每日19:00（傍晚7點）開始販售.
5901152453,家赫藥局,臺北市士林區忠義街８０號１樓,121.5317,25.10614,(02)28346453,羅氏家用新冠病毒抗原自我檢測套組,35,2022/05/08 14:58:02,每日下午2:40開始發號碼牌販售實名制快篩
5901152471,得安藥局,臺北市士林區文林路１４０號,121.5267,25.08878,(02)28836336,羅氏家用新冠病毒抗原自我檢測套組,78,2022/05/08 14:58:02,星期三五六下午3:30---10:00   星期二 四日下午5:00--10:00
5901153432,大南春天生活藥局,臺北市士林區大南路３１７、３１９號,121.518,25.08888,(02)28882196,羅氏家用新冠病毒抗原自我檢測套組,56,2022/05/08 14:58:02,本藥局可領慢箋 快篩是下午3點開始販售 售完為止（物流無配送&配送不及例外）
5901153521,天母台安藥局,臺北市士林區天母西路３４號,121.5262,25.11835,(02)28728017,羅氏家用新冠病毒抗原自我檢測套組,12,2022/05/08 14:58:02,有配送→每日下午2:30開始販售實
5901153567,華齡春天生活藥局,臺北市士林區華齡街３６、３８號,121.5195,25.08359,(02)28882156,羅氏家用新冠病毒抗原自我檢測套組,77,2022/05/08 14:58:02,快篩代售時間周一至周日15:00現場排隊購買售完為止（物流配送不及則例外，以門市公告為主）
5901153585,德行春天生活藥局,臺北市士林區德行東路７６號,121.5275,25.1073,(02)28380306,羅氏家用新冠病毒抗原自我檢測套組,52,2022/05/08 14:58:02,下午2點40持健保卡領號碼牌販售快篩到晚上10點售完為止
5901153825,太和堂中西藥局,臺北市士林區大東路７４號（實際使用：１樓）,121.5257,25.09037,(02)28814122,羅氏家用新冠病毒抗原自我檢測套組,1,2022/05/08 14:58:02,上午8:30現場領號碼牌。週日公休
5901153941,士東藥局,臺北市士林區士東路９１巷３號,121.5291,25.11256,(02)28760588,羅氏家用新冠病毒抗原自我檢測套組,78,2022/05/08 14:58:02,快篩實名制，每天16:00開始販售，售完為止。
5901154000,文昌大藥局,臺北市士林區文昌路７２號１樓,121.5213,25.09634,(02)28376196,羅氏家用新冠病毒抗原自我檢測套組,51,2022/05/08 14:58:02,1.周一至周日下午15:00販售實名制快篩，請自備零錢 2.每日提供18份，讓醫護警消憑證購買，請pm14:30前來
5901154055,天母盛康藥局,臺北市士林區天母東路８巷８４號１樓,121.5304,25.11483,(02)28720208,羅氏家用新冠病毒抗原自我檢測套組,70,2022/05/08 14:58:02,實名制快篩每日14:00開始，賣完為止。
5901163394,致遠春天藥局,臺北市北投區致遠一路１段１３２號１、２樓,121.5149,25.11051,(02)28253258,羅氏家用新冠病毒抗原自我檢測套組,46,2022/05/08 14:58:02,15:30開始發放號碼牌15:30開始販售口罩
5901172240,德康大藥局,臺北市信義區松山路５４１巷２１號,121.579,25.03794,(02)27272502,羅氏家用新冠病毒抗原自我檢測套組,30,2022/05/08 14:58:02,每日下午3點販售
5901173694,洪暘藥局,臺北市信義區富陽街８６號,121.5564,25.02127,(02)27337099,羅氏家用新冠病毒抗原自我檢測套組,1,2022/05/08 14:58:02,下午2點開始販售，限一人持一張健保卡。
5901173710,專品光復藥局,臺北市信義區光復南路４６７之１號,121.5577,25.03384,(02)27586682,羅氏家用新冠病毒抗原自我檢測套組,75,2022/05/08 14:58:02,禮拜一到六下午三點販售口罩
5901173783,北一健康人生藥局,臺北市信義區吳興街２５５號,121.5637,25.02715,(02)27583945,羅氏家用新冠病毒抗原自我檢測套組,78,2022/05/08 14:58:02,下午3點開始販售實名制快篩
5901173872,柏愛藥局,臺北市信義區基隆路２段１３１之９號,121.5567,25.02788,(02)27325472,羅氏家用新冠病毒抗原自我檢測套組,1,2022/05/08 14:58:02,國定假日營業時間為09:30-17:30；實名制快篩09:30開賣
5901174002,吳興春天藥局,臺北市信義區吳興街１３７號１樓,121.5618,25.02947,(02)27585618,羅氏家用新冠病毒抗原自我檢測套組,36,2022/05/08 14:58:02,下午2:40發號碼牌
5901174084,市政藥局,臺北市信義區忠孝東路５段１６９號１樓、１７１號１樓,121.5688,25.0412,(02)27560050,羅氏家用新冠病毒抗原自我檢測套組,78,2022/05/08 14:58:02,快篩實名制，每天16:00開始販售，售完為止。
5901184366,宏越藥局,臺北市中正區中華路２段３１３巷４號,121.5061,25.02813,(02)23050880,羅氏家用新冠病毒抗原自我檢測套組,30,2022/05/08 14:58:02,代售實名制快篩時間 每日下午14:30開始  售完即停止  可關注FB公告當日是否代售
5901184642,康呈安藥局,臺北市中正區汀州路２段１８７號１樓,121.522,25.02403,(02)23672215,羅氏家用新冠病毒抗原自我檢測套組,78,2022/05/08 14:58:02,每天下午3點才發放快篩
5901184660,南昌春天藥局,臺北市中正區南昌路１段１５７號１樓,121.5188,25.02927,(02)23972886,羅氏家用新冠病毒抗原自我檢測套組,78,2022/05/08 14:58:02,若有配發到政府實名制快篩試劑，將於每日下午2:40發號碼牌、下午3:00開始販售。
5901184679,汀州藥局,臺北市中正區汀州路１段１８７、１８９、１９１號（１樓）,121.5112,25.02704,(02)23090705,羅氏家用新冠病毒抗原自我檢測套組,78,2022/05/08 14:58:02,快篩實名制，每天16:00開始販售，售完為止。
5901201835,巧康藥局,臺北市文山區木新路３段２６２、２６４號,121.5585,24.98132,(02)29372061,羅氏家用新冠病毒抗原自我檢測套組,1,2022/05/08 14:58:02,每日下午2點發放號碼牌，2點15進行快篩販售。請勿離場，離場視同放棄。
5901203062,大樹文山藥局,臺北市文山區興隆路３段１３號（１、２、３樓）,121.555,25.00088,(02)29342226,羅氏家用新冠病毒抗原自我檢測套組,78,2022/05/08 14:58:02,快篩實名制，每天16:00開始販售，售完為止。
5901203295,專品政大藥局,臺北市文山區指南路２段８號,121.5742,24.98784,(02)22343010,羅氏家用新冠病毒抗原自我檢測套組,78,2022/05/08 14:58:02,無
5901203366,大樹木柵藥局,臺北市文山區木柵路３段１０８號、１１０號（１樓、２樓）,121.5676,24.98866,(02)22340110,羅氏家用新冠病毒抗原自我檢測套組,78,2022/05/08 14:58:02,快篩實名制，每天16:00開始販售，售完為止。
5901203375,大樹景美藥局,臺北市文山區羅斯福路６段２３４之１號,121.5404,24.99244,(02)29322951,羅氏家用新冠病毒抗原自我檢測套組,78,2022/05/08 14:58:02,快篩實名制，每天16:00開始販售，售完為止。
5901203446,景華盛康藥局,臺北市文山區景華街６９號１樓,121.545,24.99524,(02)29310188,羅氏家用新冠病毒抗原自我檢測套組,77,2022/05/08 14:58:02,快篩販售時間:下午3點開賣，現場發送號碼牌
5901203482,健康家藥局,臺北市文山區興隆路２段１３３號１樓,121.5481,25.00011,(02)29330858,羅氏家用新冠病毒抗原自我檢測套組,1,2022/05/08 14:58:02,實名制快篩下午一點開始販售，5／1店休
5902020012,永松藥局,高雄市鼓山區鼓山三路１３０－１５號,120.2802,22.66454,(07)5810657,羅氏家用新冠病毒抗原自我檢測套組,53,2022/05/08 14:58:02,無
5902030643,新高橋藥局,高雄市左營區民族一路１０２８號,120.3201,22.68255,(07)3100696,羅氏家用新冠病毒抗原自我檢測套組,17,2022/05/08 14:58:02,依快篩配送時間滾動式調整（5／6早10:00），請備妥當日可領買之健保卡與現金500元購買，不找零，0號是雙號，謝謝配合
5902040087,世詠藥局,高雄市楠梓區楠都東街１３８號,120.3262,22.72532,(07)3539869,羅氏家用新冠病毒抗原自我檢測套組,55,2022/05/08 14:58:02,快篩周一~周五早上15:00-21:30周六.日下午15:00-21:30，售完為止
5902050565,澄和藥局,高雄市三民區澄和路６６號,120.3445,22.64474,(07)3923111,羅氏家用新冠病毒抗原自我檢測套組,2,2022/05/08 14:58:02,快篩試劑- 販售時間自下午14:00起至售完為止
5902051240,明皇藥局,高雄市三民區寶國里義華路１８１號,120.3399,22.64276,(07)3860121,羅氏家用新冠病毒抗原自我檢測套組,77,2022/05/08 14:58:02,藥局販售口罩時間，依藥局門口公告時間為主（售完為止）
5902080545,柏松藥局,高雄市苓雅區輔仁路１７５號,120.3332,22.63065,(07)7119786,羅氏家用新冠病毒抗原自我檢測套組,72,2022/05/08 14:58:02,實名制快篩試劑.5／4.起.16:00開賣......售完為止!!
5902085308,幸福藥師藥局,高雄市苓雅區青年一路１６７－３號,120.3079,22.62172,(07)5368701,羅氏家用新冠病毒抗原自我檢測套組,1,2022/05/08 14:58:02,1: 自111／5／1起：快篩販售時間為14:00開始。2: 販售方式依現場公告為主，售完為止。
5902092910,健家藥局,高雄市前鎮區二聖二路４５號,120.3165,22.61293,(07)3389986,羅氏家用新冠病毒抗原自我檢測套組,1,2022/05/08 14:58:02,早上9:30營業，售完為止
5903010485,大樹圓環藥局,臺中市豐原區圓環東路６１７號１樓,120.7283,24.25084,(04)25122212,羅氏家用新冠病毒抗原自我檢測套組,78,2022/05/08 14:58:02,口罩販售時間：14:00 - 16:00
5903010556,升禾和大藥局,臺中市豐原區育英路２６號１樓,120.7163,24.24346,(04)25293099,羅氏家用新冠病毒抗原自我檢測套組,78,2022/05/08 14:58:02,快篩試劑18:00領取.採現場排隊.售完為止
5903050274,鹿寮藥局,臺中市沙鹿區中山路４６１、４６１－１號１、２樓,120.5615,24.24387,(04)26630677,羅氏家用新冠病毒抗原自我檢測套組,78,2022/05/08 14:58:02,快篩實名制，每天16:00開始販售，售完為止。
5903100046,躍獅佑仁藥局,臺中市大雅區雅環路２段２８７號,120.6488,24.22919,(04)25608256,羅氏家用新冠病毒抗原自我檢測套組,78,2022/05/08 14:58:02,家用快篩販售-星期一~星期五 晚上7點（19:00）開始.時間更新異動請參閱粉專
5903100206,民生藥局,臺中市大雅區民生路一段２２１號１樓,120.6512,24.22789,(04)25662229,羅氏家用新冠病毒抗原自我檢測套組,78,2022/05/08 14:58:02,快篩實名制，每天16:00開始販售，售完為止。
5903150153,溪南藥局,臺中市烏日區溪南路一段５６５號１樓,120.6431,24.07523,(04)23353666,羅氏家用新冠病毒抗原自我檢測套組,78,2022/05/08 14:58:02,快篩實名制，每天16:00開始販售，售完為止。
5903150180,九德藥局,臺中市烏日區中山路一段４３８、４４０號１樓,120.6365,24.10748,(04)23385456,羅氏家用新冠病毒抗原自我檢測套組,78,2022/05/08 14:58:02,快篩實名制，每天16:00開始販售，售完為止。
5903160088,必安藥局,臺中市大肚區沙田路二段６３４號,120.5455,24.15084,(04)26992116,羅氏家用新冠病毒抗原自我檢測套組,79,2022/05/08 14:58:02,**限購1份**早上8點販售**每天固定78份，非156**
5903170119,開心果藥局,臺中市龍井區新興路１１２號１樓,120.5835,24.18225,(04)26315252,羅氏家用新冠病毒抗原自我檢測套組,66,2022/05/08 14:58:02,週一到週六: 晚上6點半開賣，週日: 下午3點開賣，現場排隊。
5903180142,峰正藥局,臺中市霧峰區中正路８３０號１樓,120.6987,24.06244,(04)23303353,羅氏家用新冠病毒抗原自我檢測套組,78,2022/05/08 14:58:02,快篩實名制，每天16:00開始販售，售完為止。
5903190148,亞洲藥師連鎖大藥局,臺中市太平區中山路２段４５８號,120.7253,24.14984,(04)23921681,羅氏家用新冠病毒抗原自我檢測套組,20,2022/05/08 14:58:02,實名制快篩，每天14:30開賣，一人一卡，請自備500元
5903190362,太平中山藥局,臺中市太平區中山路４段１１號,120.7139,24.14931,(04)23959200,羅氏家用新冠病毒抗原自我檢測套組,78,2022/05/08 14:58:02,快篩實名制，每天16:00開始販售，售完為止。
5903200229,信元藥局,臺中市大里區益民路２段３７２號１樓,120.684,24.11545,(04)24876051,羅氏家用新冠病毒抗原自我檢測套組,38,2022/05/08 14:58:02,下午5點發號碼牌並依序販賣
5903200596,大樹大里藥局,臺中市大里區中興路二段１０１號,120.6885,24.10305,(04)24861133,羅氏家用新冠病毒抗原自我檢測套組,78,2022/05/08 14:58:02,快篩實名制，每天16:00開始販售，售完為止。
5903200621,德芳東榮藥局,臺中市大里區東榮路８號,120.6893,24.1102,(04)24863898,羅氏家用新冠病毒抗原自我檢測套組,72,2022/05/08 14:58:02,快篩販售時間：下午3點~6點，現場排隊，完售即停
5903200685,塗城藥局,臺中市大里區中興路一段１８７、１８９、１９１號１樓,120.6933,24.09008,(04)24967234,羅氏家用新冠病毒抗原自我檢測套組,78,2022/05/08 14:58:02,快篩實名制，每天16:00開始販售，售完為止。
5903200701,大益藥局,臺中市大里區益民路二段３３５號１、２樓,120.6837,24.11311,(04)24811551,羅氏家用新冠病毒抗原自我檢測套組,78,2022/05/08 14:58:02,快篩實名制，每天16:00開始販售，售完為止。
5903230192,康是美藥局東英店,臺中市東區十甲路４５０號１樓,120.7097,24.14406,(04)22139034,羅氏家用新冠病毒抗原自我檢測套組,78,2022/05/08 14:58:02,無
5903240447,大樹五權藥局,臺中市西區五權路９７－１號１樓,120.6717,24.14626,(04)22022910,羅氏家用新冠病毒抗原自我檢測套組,78,2022/05/08 14:58:02,快篩實名制，每天16:00開始販售，售完為止。
5903240483,名華藥局,臺中市西區中華路一段７號１樓,120.6732,24.14209,(04)22231187,羅氏家用新冠病毒抗原自我檢測套組,78,2022/05/08 14:58:02,實名制快篩，5／8 PM3:00開售
5903250381,大樹美村藥局,臺中市南區美村南路１２４號,120.667,24.11499,(04)22621113,羅氏家用新冠病毒抗原自我檢測套組,78,2022/05/08 14:58:02,口罩販售時間：14:00 - 16:00
5903250443,千美台安藥局,臺中市南區美村南路２６３號,120.6666,24.11426,(04)22602101,羅氏家用新冠病毒抗原自我檢測套組,20,2022/05/08 14:58:02,周一到周日，下午2:30開始販售居家快篩
5903261008,台中大樹藥局,臺中市北區漢口路三段２６１號,120.6726,24.16703,(04)22981113,羅氏家用新冠病毒抗原自我檢測套組,78,2022/05/08 14:58:02,快篩實名制，每天16:00開始販售，售完為止。
5903270310,弘福藥師藥局,臺中市西屯區西屯路３段１６６－２１號１樓,120.6159,24.18918,(04)24611916,羅氏家用新冠病毒抗原自我檢測套組,78,2022/05/08 14:58:02,每日15:00發放號碼牌，發完即開始販售（全年無休）
5903270749,大墩藥局,臺中市西屯區大墩１９街６８號１樓,120.6518,24.15734,(04)23209602,羅氏家用新冠病毒抗原自我檢測套組,73,2022/05/08 14:58:02,每天下午三點開賣，請提早來排隊（視排隊狀況會提早發售）
5903270883,祥和大藥局,臺中市西屯區青海路二段２４０－９號,120.6418,24.17323,(04)27000122,羅氏家用新冠病毒抗原自我檢測套組,2,2022/05/08 14:58:02,快篩下午1:00發放
5903271022,西屯藥局,臺中市西屯區西屯路三段１５０－４５號１樓,120.621,24.18716,(04)24621822,羅氏家用新冠病毒抗原自我檢測套組,78,2022/05/08 14:58:02,快篩實名制，每天16:00開始販售，售完為止。
5903271175,維康中榮藥局,臺中市西屯區東大路一段１３號１樓,120.6022,24.18315,(04)23593195,羅氏家用新冠病毒抗原自我檢測套組,10,2022/05/08 14:58:02,無
5903271193,何安藥局,臺中市西屯區西屯路二段１０１號Ｂ棟１樓,120.6531,24.16616,(04)23161110,羅氏家用新冠病毒抗原自我檢測套組,78,2022/05/08 14:58:02,快篩實名制，每天16:00開始販售，售完為止。
5903271291,西屯長安藥局,臺中市西屯區成都路３６８號１樓,120.6641,24.17322,(04)22981221,羅氏家用新冠病毒抗原自我檢測套組,78,2022/05/08 14:58:02,快篩實名制，每天16:00開始販售，售完為止。
5903280521,百康健保藥局,臺中市南屯區黎明路二段３６３號,120.6353,24.15033,(04)22547776,羅氏家用新冠病毒抗原自我檢測套組,36,2022/05/08 14:58:02,營業每日上午8:30到晚上22:30!實名制快篩販售下午三點開始
5903280585,康得藥局,臺中市南屯區向上路三段４５號,120.6354,24.14623,(04)23820981,羅氏家用新冠病毒抗原自我檢測套組,63,2022/05/08 14:58:02,.5／8（日）下午3點開始販售實名制快篩試劑
5903280807,大樹南屯藥局,臺中市南屯區向上路一段６４３號１樓,120.6486,24.14659,(04)24758887,羅氏家用新冠病毒抗原自我檢測套組,77,2022/05/08 14:58:02,快篩實名制，每天16:00開始販售，售完為止。
5903290661,康博中西健保藥局,臺中市北屯區后庄一街７號１樓,120.6644,24.1865,(04)24252468,羅氏家用新冠病毒抗原自我檢測套組,1,2022/05/08 14:58:02,快篩下午01:00發售53份；晚上06:00銷售25份.週六.日及假日下午06:30開始依配送滾動調整
5903290876,北屯軍功藥局,臺中市北屯區軍功路一段７５２號,120.7193,24.17513,(04)24375111,羅氏家用新冠病毒抗原自我檢測套組,78,2022/05/08 14:58:02,快篩實名制，每天16:00開始販售，售完為止。
5903290992,益川健保藥局,臺中市北屯區昌平路二段４７－１號１樓,120.6829,24.1917,(04)24213696,羅氏家用新冠病毒抗原自我檢測套組,56,2022/05/08 14:58:02,快篩試劑下午2點20現場販售，售完為止，星期日下午3點開始販售
5903291042,全成北屯藥局,臺中市北屯區北屯路４３９－１１號１樓,120.7004,24.17913,(04)22463518,羅氏家用新冠病毒抗原自我檢測套組,73,2022/05/08 14:58:02,快篩每日下午3:00開始販售
5903291060,大樹北屯藥局,臺中市北屯區松竹路二段４１１號１樓,120.6895,24.18192,(04)22422262,羅氏家用新冠病毒抗原自我檢測套組,78,2022/05/08 14:58:02,快篩實名制，每天16:00開始販售，售完為止。
5903291140,興安藥局,臺中市北屯區興安路二段５２號１、２樓,120.6949,24.1762,(04)22460369,羅氏家用新冠病毒抗原自我檢測套組,78,2022/05/08 14:58:02,快篩實名制，每天16:00開始販售，售完為止。
5903291220,佑全台中四平藥局,臺中市北屯區四平路３６０號１樓,120.682,24.19324,(04)24212792,羅氏家用新冠病毒抗原自我檢測套組,55,2022/05/08 14:58:02,無
5905010250,大樹新營藥局,臺南市新營區民權路７４、７６、７８號１樓,120.3127,23.30615,(06)6328300,羅氏家用新冠病毒抗原自我檢測套組,78,2022/05/08 14:58:02,快篩實名制，每天16:00開始販售，售完為止。
5905030092,大樹白河藥局,臺南市白河區中山路１５３號１樓,120.417,23.35255,(06)6830006,羅氏家用新冠病毒抗原自我檢測套組,78,2022/05/08 14:58:02,快篩實名制，每天16:00開始販售，售完為止。
5905040141,大樹麻豆藥局,臺南市麻豆區中山路４８、５０號１樓,120.2469,23.18382,(06)5716556,羅氏家用新冠病毒抗原自我檢測套組,78,2022/05/08 14:58:02,快篩實名制，每天16:00開始販售，售完為止。
5905050165,德昌藥局佳里店,臺南市佳里區光復路２３３號,120.1746,23.16095,(06)7232388,羅氏家用新冠病毒抗原自我檢測套組,1,2022/05/08 14:58:02,固定周一至周六14:30開始販售口罩，售完為止
5905050209,大樹佳里藥局,臺南市佳里區延平路２３７號１樓,120.1783,23.1599,(06)7231323,羅氏家用新冠病毒抗原自我檢測套組,78,2022/05/08 14:58:02,快篩實名制，每天16:00開始販售，售完為止。
5905060161,和德藥局新化店,臺南市新化區清水里中山路４２０號１樓,120.3047,23.0359,(06)5802518,羅氏家用新冠病毒抗原自我檢測套組,78,2022/05/08 14:58:02,快篩販售時間:星期一~星期日 一人限2 張卡下午3點~售完
5905060198,大樹新化藥局,臺南市新化區中正路５３１號１樓,120.3072,23.03764,(06)5901331,羅氏家用新冠病毒抗原自我檢測套組,78,2022/05/08 14:58:02,快篩實名制，每天16:00開始販售，售完為止。
5905070121,大樹善化藥局,臺南市善化區民權路５４、５６、５８號１樓,120.3034,23.1322,(06)5830550,羅氏家用新冠病毒抗原自我檢測套組,78,2022/05/08 14:58:02,快篩實名制，每天16:00開始販售，售完為止。
5905080056,大樹學甲藥局,臺南市學甲區中正路１３５號１樓,120.1793,23.23029,(06)7820001,羅氏家用新冠病毒抗原自我檢測套組,78,2022/05/08 14:58:02,快篩實名制，每天16:00開始販售，售完為止。
5905140039,安安藥局隆田店,臺南市官田區中山路一段１５號１樓,120.3186,23.1927,(06)5795705,羅氏家用新冠病毒抗原自我檢測套組,28,2022/05/08 14:58:02,全日口罩販賣
5905200085,大樹新市藥局,臺南市新市區中正路４９、５１號１樓,120.2916,23.07223,(06)5892552,羅氏家用新冠病毒抗原自我檢測套組,78,2022/05/08 14:58:02,快篩實名制，每天16:00開始販售，售完為止。
5905270176,大樹仁德藥局,臺南市仁德區中正路二段１１５２號１樓,120.2519,22.97062,(06)2797466,羅氏家用新冠病毒抗原自我檢測套組,78,2022/05/08 14:58:02,快篩實名制，每天16:00開始販售，售完為止。
5905290034,大樹關廟藥局,臺南市關廟區中央路２６３號１樓,120.3272,22.96109,(06)5965889,羅氏家用新冠病毒抗原自我檢測套組,78,2022/05/08 14:58:02,快篩實名制，每天16:00開始販售，售完為止。
5905310755,德昌藥局永康店,臺南市永康區中華路４６２號,120.2327,23.01082,(06)3020628,羅氏家用新冠病毒抗原自我檢測套組,9,2022/05/08 14:58:02,快篩販售時間：星期一~星期日14:30~16:00
5905310979,復華藥師藥局,臺南市永康區復興里復華一街１３１號１樓,120.2422,23.00531,(06)3123597,羅氏家用新冠病毒抗原自我檢測套組,78,2022/05/08 14:58:02,營業時間7:00~22:30   防疫快篩試劑 下午3:00統一開放購買
5905311074,中華長億藥局,臺南市永康區中華路７３４、７３６號１樓,120.2288,23.0167,(06)3022322,羅氏家用新冠病毒抗原自我檢測套組,78,2022/05/08 14:58:02,快篩實名制，每天16:00開始販售，售完為止。
5905311127,台南永康藥局,臺南市永康區中山南路８１６、８１６─１、２、３號１樓,120.2471,23.02099,(06)2020201,羅氏家用新冠病毒抗原自我檢測套組,78,2022/05/08 14:58:02,快篩實名制，每天16:00開始販售，售完為止。
5905320635,晉大藥局,臺南市東區東平路１３４號１樓,120.2298,22.99522,(06)2092580,羅氏家用新冠病毒抗原自我檢測套組,29,2022/05/08 14:58:02,快篩實名制下午3點開始販售
5905320706,悅橙藥局,臺南市東區崇明路４５９號１樓,120.2247,22.97311,(06)2605168,羅氏家用新冠病毒抗原自我檢測套組,66,2022/05/08 14:58:02,快篩每日實際販售時間為下午3點整
5905320797,大樹自由藥局,臺南市東區自由路三段３８２號１樓,120.2373,22.98241,(06)2890800,羅氏家用新冠病毒抗原自我檢測套組,78,2022/05/08 14:58:02,快篩實名制，每天16:00開始販售，售完為止。
5905320804,大樹大同藥局,臺南市東區大同路二段２２７、２２９號１樓,120.2143,22.97567,(06)2158700,羅氏家用新冠病毒抗原自我檢測套組,78,2022/05/08 14:58:02,快篩實名制，每天16:00開始販售，售完為止。
5905320868,大樹東寧藥局,臺南市東區東寧路４３６號１樓,120.2291,22.9895,(06)2360006,羅氏家用新冠病毒抗原自我檢測套組,78,2022/05/08 14:58:02,快篩實名制，每天16:00開始販售，售完為止。
5905320886,中華崇德藥局,臺南市東區中華東路三段１８１、１８３號１樓,120.2259,22.97667,(06)2880800,羅氏家用新冠病毒抗原自我檢測套組,78,2022/05/08 14:58:02,快篩實名制，每天16:00開始販售，售完為止。
5905320911,大樹崇道藥局,臺南市東區崇道路６３號１樓,120.2272,22.97227,(06)2680456,羅氏家用新冠病毒抗原自我檢測套組,78,2022/05/08 14:58:02,快篩實名制，每天16:00開始販售，售完為止。
5905330284,大樹佳華藥局,臺南市南區金華路二段１２９號１樓,120.1911,22.98035,(06)2641238,羅氏家用新冠病毒抗原自我檢測套組,78,2022/05/08 14:58:02,快篩實名制，每天16:00開始販售，售完為止。
5905350133,大昌藥局,臺南市北區北安路１段１３２號１樓,120.2127,23.01481,(06)2519121,羅氏家用新冠病毒抗原自我檢測套組,51,2022/05/08 14:58:02,下午3點開賣快篩
5905370233,弘昇藥局,臺南市安南區鳳凰里安中路一段７００巷３２號１樓,120.1974,23.04387,(06)2567605,羅氏家用新冠病毒抗原自我檢測套組,58,2022/05/08 14:58:02,快篩販售時間會公告在臉書粉絲團（好藥坊-弘昇藥局）及門口看板上
5905370304,大樹安南藥局,臺南市安南區安和路四段５５７號１樓,120.2185,23.06181,(06)3563370,羅氏家用新冠病毒抗原自我檢測套組,78,2022/05/08 14:58:02,快篩實名制，每天16:00開始販售，售完為止。
5905370466,大樹北安藥局,臺南市安南區北安路三段１５８號１樓,120.2036,23.04256,(06)2553633,羅氏家用新冠病毒抗原自我檢測套組,78,2022/05/08 14:58:02,快篩實名制，每天16:00開始販售，售完為止。
5907011095,鳳山五甲藥局,高雄市鳳山區正義里五甲二路１３９號１樓,120.3409,22.6014,(07)7269899,羅氏家用新冠病毒抗原自我檢測套組,78,2022/05/08 14:58:02,快篩實名制，每天16:00開始販售，售完為止。
5907011148,大樹國泰藥局,高雄市鳳山區興仁里五甲一路２９２號,120.3539,22.61698,(07)7407234,羅氏家用新冠病毒抗原自我檢測套組,78,2022/05/08 14:58:02,快篩實名制，每天16:00開始販售，售完為止。
5907011228,鳳山青年藥局,高雄市鳳山區文德里青年路二段３９９號１樓,120.3513,22.64292,(07)7678383,羅氏家用新冠病毒抗原自我檢測套組,78,2022/05/08 14:58:02,口罩販售時間：14:00 - 16:00
5907011291,桂林活力藥師藥局鳳山店,高雄市鳳山區中正里瑞興路４８８號１樓,120.3719,22.63089,(07)7012827,羅氏家用新冠病毒抗原自我檢測套組,4,2022/05/08 14:58:02,早上9點發放號碼牌，發完號碼牌即售完
5907011317,凱旋藥局,高雄市鳳山區國隆里新富路３７３號１樓,120.3475,22.61494,(07)7671181,羅氏家用新冠病毒抗原自我檢測套組,78,2022/05/08 14:58:02,快篩實名制，每天16:00開始販售，售完為止。
5907011371,大樹五甲藥局,高雄市鳳山區福祥里五甲三路２４號１－２樓．２６號１－２樓,120.3278,22.59317,(07)8224926,羅氏家用新冠病毒抗原自我檢測套組,79,2022/05/08 14:58:02,快篩實名制，每天16:00開始販售，售完為止。
5907020085,大德藥局,高雄市岡山區大德一路９８號,120.3025,22.79689,(07)6221456,羅氏家用新冠病毒抗原自我檢測套組,78,2022/05/08 14:58:02,快篩實名制，每天16:00開始販售，售完為止。
5907020094,大樹岡山藥局,高雄市岡山區岡山路１３６號,120.2967,22.78913,(07)6219477,羅氏家用新冠病毒抗原自我檢測套組,78,2022/05/08 14:58:02,快篩實名制，每天16:00開始販售，售完為止。
5907030152,旗山藥局,高雄市旗山區中華路２３號,120.4841,22.88027,(07)6621158,羅氏家用新冠病毒抗原自我檢測套組,78,2022/05/08 14:58:02,快篩實名制，每天16:00開始販售，售完為止。
5907050109,林園藥局,高雄市林園區仁愛路１３號１樓,120.3928,22.50418,(07)6425855,羅氏家用新冠病毒抗原自我檢測套組,78,2022/05/08 14:58:02,快篩實名制，每天16:00開始販售，售完為止。
5907080189,德昌藥局仁雄店,高雄市仁武區灣內里仁雄路３８、３８－１、３８－２號,120.3506,22.68074,(07)3749166,羅氏家用新冠病毒抗原自我檢測套組,4,2022/05/08 14:58:02,固定週一至週日14:30~16:00開始發放號碼牌並依序販售快篩.售完為止
5907080269,興德昌藥局,高雄市仁武區文武里中華路２３２號,120.3516,22.69985,(07)3757005,羅氏家用新冠病毒抗原自我檢測套組,12,2022/05/08 14:58:02,固定週一至週日14:30~16:00開始發放號碼牌並依序販售快篩.售完為止
5907090087,安泰專業藥師藥局,高雄市大社區中山路２６７號１樓,120.3492,22.73194,(07)3553715,羅氏家用新冠病毒抗原自我檢測套組,1,2022/05/08 14:58:02,快篩每日14:20發號碼牌，14:30準時發放 請準備現金500元 不找錢
5907090167,大樹大社藥局,高雄市大社區中山路３０８號１樓,120.3503,22.73145,(07)3531682,羅氏家用新冠病毒抗原自我檢測套組,78,2022/05/08 14:58:02,快篩實名制，每天16:00開始販售，售完為止。
5907100088,本館藥局,高雄市鳥松區大華里本館路１９０號１樓,120.3361,22.65556,(07)3707655,羅氏家用新冠病毒抗原自我檢測套組,56,2022/05/08 14:58:02,營業時間每日09:00-22:00  實名制快篩販賣時間15:00-20:00
5907110048,和德藥局橋頭店,高雄市橋頭區橋南路１１６－１號,120.3125,22.75441,(07)6113580,羅氏家用新冠病毒抗原自我檢測套組,78,2022/05/08 14:58:02,因天氣炎熱 排隊冗長 阻礙交通 提早14:45開賣   售完為止
5907140108,德昌藥局阿蓮店,高雄市阿蓮區阿蓮里中正路４５６號,120.3321,22.88075,(07)6318868,羅氏家用新冠病毒抗原自我檢測套組,12,2022/05/08 14:58:02,固定周一至周日14:30-16:00販售快篩，售完為止
5907150220,天德藥局路竹店,高雄市路竹區忠孝路２６－２、２６－３號１樓,120.2601,22.86059,(07)6975656,羅氏家用新冠病毒抗原自我檢測套組,74,2022/05/08 14:58:02,下午三點發放快篩
5907150257,大樹大立藥局,高雄市路竹區國昌路５１號,120.26,22.85409,(07)6961663,羅氏家用新冠病毒抗原自我檢測套組,78,2022/05/08 14:58:02,快篩實名制，每天16:00開始販售，售完為止。
5907160093,保生藥局,高雄市湖內區葉厝里保生路３４０．３４２號,120.2195,22.90733,(07)6990800,羅氏家用新冠病毒抗原自我檢測套組,79,2022/05/08 14:58:02,快篩實名制，每天16:00開始販售，售完為止。
5907280036,七賢藥局,高雄市鹽埕區七賢三路１６２號１樓,120.2829,22.62712,(07)5330616,羅氏家用新冠病毒抗原自我檢測套組,78,2022/05/08 14:58:02,快篩實名制，每天16:00開始販售，售完為止。
5907290023,明倫藥局,高雄市鼓山區明倫路１５０號１樓,120.2979,22.66507,(07)5520736,羅氏家用新冠病毒抗原自我檢測套組,7,2022/05/08 14:58:02,無
5907290112,新高橋藥局華榮店,高雄市鼓山區華榮路２８７號１樓,120.2967,22.66616,(07)5534727,羅氏家用新冠病毒抗原自我檢測套組,72,2022/05/08 14:58:02,無
5907300239,左野藥局,高雄市左營區崇德路２２２號,120.3052,22.675,(07)3486883,羅氏家用新冠病毒抗原自我檢測套組,61,2022/05/08 14:58:02,每日9時開始營業．實名制快篩販售時間15:00-20:00售完為止! 14:50發號碼牌
5907300613,新高橋藥局河堤店,高雄市左營區裕誠路１４４號１樓及地下１樓,120.3095,22.66423,(07)5582806,羅氏家用新冠病毒抗原自我檢測套組,10,2022/05/08 14:58:02,下午1:30開始販售口罩至下午5:30
5907300631,大樹孟子藥局,高雄市左營區孟子路２２６、２２８號,120.3112,22.67415,(07)3461772,羅氏家用新冠病毒抗原自我檢測套組,78,2022/05/08 14:58:02,快篩實名制，每天16:00開始販售，售完為止。
5907300784,新高橋藥局博正店,高雄市左營區忠言路１８０號,120.3038,22.65841,(07)5509810,羅氏家用新冠病毒抗原自我檢測套組,16,2022/05/08 14:58:02,下午2:30開始販售口罩
5907300800,元大藥師健保藥局,高雄市左營區榮德街３２７號,120.3211,22.68636,(07)3507531,羅氏家用新冠病毒抗原自我檢測套組,3,2022/05/08 14:58:02,無
5907300926,高鐵藥局,高雄市左營區華夏路１３２２．１３２６號,120.312,22.68587,(07)3452797,羅氏家用新冠病毒抗原自我檢測套組,78,2022/05/08 14:58:02,快篩實名制，每天16:00開始販售，售完為止。
5907300980,大路藥局,高雄市左營區左營大路５５－２號１樓,120.2877,22.6813,(07)5851001,羅氏家用新冠病毒抗原自我檢測套組,78,2022/05/08 14:58:02,快篩實名制，每天16:00開始販售，售完為止。
5907310262,大樹楠梓藥局,高雄市楠梓區軍校路９０８號,120.2919,22.71246,(07)3632322,羅氏家用新冠病毒抗原自我檢測套組,78,2022/05/08 14:58:02,快篩實名制，每天16:00開始販售，售完為止。
5907310404,藍田藥局,高雄市楠梓區藍田路１號,120.2953,22.72643,(07)3601236,羅氏家用新冠病毒抗原自我檢測套組,78,2022/05/08 14:58:02,快篩實名制，每天16:00開始販售，售完為止。
5907320259,明誠藥局,高雄市三民區明誠一路１７２號,120.3273,22.65994,(07)3108636,羅氏家用新冠病毒抗原自我檢測套組,45,2022/05/08 14:58:02,星期一到星期六不限時辰，有庫存就售快篩.星期日下午3點售快篩
5907320428,東京藥局,高雄市三民區建工路６８５號,120.3173,22.6478,(07)3874567,羅氏家用新冠病毒抗原自我檢測套組,57,2022/05/08 14:58:02,實名制快篩販售時間: 每日15:00-晚上20:00
5907321069,桂林活力藥局九如店,高雄市三民區懷安街１１２號１樓,120.3176,22.64095,(07)3981009,羅氏家用新冠病毒抗原自我檢測套組,78,2022/05/08 14:58:02,每天15:30發號碼牌，於18:00前兌換完畢，逾期棄權，剩餘則繼續發放
5907321103,自由藥局,高雄市三民區自由一路７８號,120.3089,22.64422,(07)3223113,羅氏家用新冠病毒抗原自我檢測套組,78,2022/05/08 14:58:02,快篩實名制，每天16:00開始販售，售完為止。
5907350499,鑫美健保特約藥局,高雄市苓雅區光華一路１４８－５８號１樓,120.3158,22.62389,(07)7715088,羅氏家用新冠病毒抗原自我檢測套組,9,2022/05/08 14:58:02,14:00開賣實名制快篩，馨田診所配合公費快篩，慢箋免費領藥，防疫物資特賣
5907350506,大樹苓雅藥局,高雄市苓雅區中華四路１５３號,120.3001,22.61783,(07)5353111,羅氏家用新冠病毒抗原自我檢測套組,78,2022/05/08 14:58:02,快篩實名制，每天16:00開始販售，售完為止。
5907350631,三多藥局,高雄市苓雅區三多二路２９２號１樓,120.3173,22.61838,(07)3365889,羅氏家用新冠病毒抗原自我檢測套組,78,2022/05/08 14:58:02,快篩實名制，每天16:00開始販售，售完為止。
5907360664,忠純藥局,高雄市前鎮區中華五路１００９號１樓,120.3056,22.60341,(07)3366886,羅氏家用新冠病毒抗原自我檢測套組,78,2022/05/08 14:58:02,快篩實名制，每天16:00開始販售，售完為止。
5907380264,大樹孔鳳藥局,高雄市小港區孔鳳路５１９、５２１號,120.3587,22.5828,(07)7918521,羅氏家用新冠病毒抗原自我檢測套組,78,2022/05/08 14:58:02,快篩實名制，每天16:00開始販售，售完為止。
5907380424,大樹小港藥局,高雄市小港區康莊路７５號１樓,120.3559,22.56853,(07)8068328,羅氏家用新冠病毒抗原自我檢測套組,78,2022/05/08 14:58:02,快篩實名制，每天16:00開始販售，售完為止。
5911010168,承泰藥局,基隆市中正區新豐街４４２號,121.786,25.13568,(02)24601316,羅氏家用新冠病毒抗原自我檢測套組,44,2022/05/08 14:58:02,實名制快篩販售時間於下午3點開始領取
5911011638,中正藥局,基隆市中正區新豐街３８５號１、２樓,121.7856,25.13537,(02)24690660,羅氏家用新冠病毒抗原自我檢測套組,78,2022/05/08 14:58:02,快篩實名制，每天16:00開始販售，售完為止。
5911061272,立登藥局,基隆市安樂區麥金路１９７號１樓,121.7216,25.12079,(02)24334477,羅氏家用新冠病毒抗原自我檢測套組,73,2022/05/08 14:58:02,藥局快篩劑代售15:00開始販售 現場排隊
5911071590,基隆藥局,基隆市信義區東信路１６６、１６８號１、２樓,121.7646,25.12821,(02)24680955,羅氏家用新冠病毒抗原自我檢測套組,78,2022/05/08 14:58:02,快篩實名制，每天16:00開始販售，售完為止。
5912013494,田美藥局,新竹市東區田美三街３５之１號１樓,120.9767,24.81572,(03)5350233,羅氏家用新冠病毒抗原自我檢測套組,78,2022/05/08 14:58:02,快篩實名制，每天16:00開始販售，售完為止。
5912013672,關東藥局,新竹市東區光復路１段３３２、３３４號１至２樓,121.0187,24.78289,(03)5777077,羅氏家用新冠病毒抗原自我檢測套組,78,2022/05/08 14:58:02,快篩實名制，每天16:00開始販售，售完為止。
5912013681,仁春藥局,新竹市東區慈濟路２５２號１樓,121.0153,24.79245,(03)6686718,羅氏家用新冠病毒抗原自我檢測套組,78,2022/05/08 14:58:02,5／8 實名制快篩 於16:00開始販售
5912042940,新竹北門藥局,新竹市北區中正路３６０、３６２號１樓,120.9629,24.81414,(03)5333234,羅氏家用新冠病毒抗原自我檢測套組,78,2022/05/08 14:58:02,快篩實名制，每天16:00開始販售，售完為止。
5917010082,仁壽藥局,臺中市中區東墩里三民路三段１號,120.6817,24.14482,(04)22228058,羅氏家用新冠病毒抗原自我檢測套組,1,2022/05/08 14:58:02,週一至週日上午9時30分起販售快篩劑
5917011945,正三吉藥局,臺中市中區臺灣大道一段９５號,120.6831,24.13911,(04)22207700,羅氏家用新冠病毒抗原自我檢測套組,78,2022/05/08 14:58:02,快篩販售時間 14:00~17:00
5917030995,麗新健保大藥局,臺中市西區向上路一段１６２號,120.6612,24.1469,(04)23017100,羅氏家用新冠病毒抗原自我檢測套組,47,2022/05/08 14:58:02,週一至週日下午15:00至售完為止
5917032640,幸福大藥局,臺中市西區向上路一段１９４號１樓,120.6605,24.14684,(04)23026149,羅氏家用新冠病毒抗原自我檢測套組,78,2022/05/08 14:58:02,每日下午3:00開始販售實名制快篩，售完為止（5／7改為上午8點））
5917063350,天立專業藥師藥局,臺中市西屯區太原路１段２０７號１樓,120.6617,24.16318,(04)23160455,羅氏家用新冠病毒抗原自我檢測套組,15,2022/05/08 14:58:02,週一~週六快篩9:00售完為止，週日中午12：00售完為止
5917072724,百芳大藥局,臺中市南屯區向上路二段４２１號,120.6377,24.1469,(04)23818307,羅氏家用新冠病毒抗原自我檢測套組,78,2022/05/08 14:58:02,晚上7:00開始販賣快篩，不發號碼牌。
5921060385,樂成藥局,臺南市安南區安和路一段１５９巷８３號,120.2115,23.03032,(06)2568576,羅氏家用新冠病毒抗原自我檢測套組,5,2022/05/08 14:58:02,無
5922012178,聖心藥局,嘉義市東區大雅路二段５７７號,120.4676,23.47718,(05)2777189,羅氏家用新冠病毒抗原自我檢測套組,53,2022/05/08 14:58:02,每日下午3點領號碼牌
5922012945,大明藥局,嘉義市東區大雅路二段６８２號,120.4663,23.47719,(05)2760958,羅氏家用新冠病毒抗原自我檢測套組,3,2022/05/08 14:58:02,5／8（日）號碼牌已經分發完畢
5922013102,後庄藥局,嘉義市東區吳鳳南路６４９號,120.4594,23.45511,(05)2391233,羅氏家用新冠病毒抗原自我檢測套組,78,2022/05/08 14:58:02,快篩實名制，每天16:00開始販售，售完為止。
5922013184,軍輝啄木鳥藥局,嘉義市東區軍輝路２２２號,120.4588,23.455,(05)2395963,羅氏家用新冠病毒抗原自我檢測套組,78,2022/05/08 14:58:02,週一~日下午4:00開始
5922013193,民權藥局,嘉義市東區民權路１５５號１樓、１５７號１樓,120.4604,23.48374,(05)2775322,羅氏家用新冠病毒抗原自我檢測套組,78,2022/05/08 14:58:02,快篩實名制，每天16:00開始販售，售完為止。
5922021006,竹圍藥局,嘉義市西區友愛路２７０、２７２號,120.4339,23.4837,(05)2811233,羅氏家用新冠病毒抗原自我檢測套組,78,2022/05/08 14:58:02,快篩實名制，每天16:00開始販售，售完為止。
5931010011,埔墘藥局,新北市板橋區中山路２段２２７號,121.477,25.01741,(02)29646705,羅氏家用新冠病毒抗原自我檢測套組,23,2022/05/08 14:58:02,實名制快篩每天14:30發放號碼牌
5931014635,健全藥局,新北市板橋區實踐路１２５號１樓,121.4642,25.00488,(02)89533330,羅氏家用新冠病毒抗原自我檢測套組,78,2022/05/08 14:58:02,無
5931015301,利安中西藥局,新北市板橋區板新路１４３號,121.4702,25.01544,(02)29644745,羅氏家用新冠病毒抗原自我檢測套組,78,2022/05/08 14:58:02,快篩每日下午三點開賣
5931015981,立安中西藥局,新北市板橋區後埔街８３號１樓,121.4607,25.00523,(02)29582241,羅氏家用新冠病毒抗原自我檢測套組,15,2022/05/08 14:58:02,無
5931016273,湯明藥局,新北市板橋區中山路２段３１９號１樓,121.479,25.01866,(02)29571980,羅氏家用新冠病毒抗原自我檢測套組,67,2022/05/08 14:58:02,週一到週五 下午四點  六日時間未定 排隊不發號碼
5931016880,漢民藥局,新北市板橋區漢生東路３４６號（１樓）,121.472,25.00734,(02)29598168,羅氏家用新冠病毒抗原自我檢測套組,1,2022/05/08 14:58:02,暫定1400實名制快篩（依配送滾動式調整╮（╯_╰）╭）
5931017047,永欣藥師藥局,新北市板橋區龍興街４６號１樓,121.4433,25.00094,(02)29687120,羅氏家用新冠病毒抗原自我檢測套組,75,2022/05/08 14:58:02,無
5931017636,福澤藥局,新北市板橋區南雅南路１段８５號（１樓）,121.4556,25.00543,(02)29690013,羅氏家用新冠病毒抗原自我檢測套組,33,2022/05/08 14:58:02,口罩代售9:00-23:00
5931017789,明翠藥局,新北市板橋區四維路１４６、１４８號１、２樓,121.4651,25.02555,(02)22550201,羅氏家用新冠病毒抗原自我檢測套組,78,2022/05/08 14:58:02,快篩實名制，每天16:00開始販售，售完為止。
5931017832,躍獅莒光藥局,新北市板橋區莒光路５８號１樓,121.4709,25.02421,(02)22556743,羅氏家用新冠病毒抗原自我檢測套組,60,2022/05/08 14:58:02,5／7  78份已售完，5／8   下午2:50發號碼    請勿打電話詢問。
5931017841,莊敬健康人生藥局,新北市板橋區莊敬路８７號１樓,121.4728,25.02645,(02)22570028,羅氏家用新冠病毒抗原自我檢測套組,37,2022/05/08 14:58:02,實名快篩下午2:30發放號碼牌及販售，營業時間10:00-21:00
5931017985,松柏藥局,新北市板橋區松柏街９４號（１樓）,121.4767,25.03065,(02)82585223,羅氏家用新冠病毒抗原自我檢測套組,78,2022/05/08 14:58:02,快篩實名制，每天16:00開始販售，售完為止。
5931017994,後埔藥局,新北市板橋區華興街９號（１樓）,121.459,25.00457,(02)89510306,羅氏家用新冠病毒抗原自我檢測套組,15,2022/05/08 14:58:02,5／8 快篩試劑今日已完售*確保作業流暢請自備500元*每天 78 份晚上10 點以前領取完畢（過卡時間差異剩餘數量僅供參考）
5931018115,振昌藥局,新北市板橋區溪崑二街１４號１樓,121.4288,24.99175,(02)26862119,羅氏家用新冠病毒抗原自我檢測套組,62,2022/05/08 14:58:02,快篩實名制14:50發放號碼牌，15:00開始憑號碼牌販售
5931020044,唯安藥局,新北市三重區五華街１３０號,121.4916,25.08358,(02)29875750,羅氏家用新冠病毒抗原自我檢測套組,72,2022/05/08 14:58:02,無
5931024088,美滿藥局,新北市三重區中華路１６號,121.4834,25.0606,(02)89824272,羅氏家用新冠病毒抗原自我檢測套組,78,2022/05/08 14:58:02,滾動式調整
5931024971,欽勝藥局,新北市三重區重陽路４段６號２樓,121.4906,25.06894,(02)29857389,羅氏家用新冠病毒抗原自我檢測套組,73,2022/05/08 14:58:02,販售快篩需現場排隊，無預約無號碼牌，販售時間依到貨時間為主。
5931025567,閎安藥局,新北市三重區重新路２段８５號１樓、２樓,121.4962,25.06181,(02)29881968,羅氏家用新冠病毒抗原自我檢測套組,67,2022/05/08 14:58:02,快篩代售時間:每日14:00發號碼牌（以在場者為主），15:00發快篩，當日領取至21:00
5931025825,美康中正北藥局,新北市三重區中正北路１４９號１樓２樓,121.4826,25.06755,(02)29882836,羅氏家用新冠病毒抗原自我檢測套組,4,2022/05/08 14:58:02,無
5931025914,仁美藥局,新北市三重區慈愛街５１號１、２樓,121.4861,25.07908,(02)22805150,羅氏家用新冠病毒抗原自我檢測套組,78,2022/05/08 14:58:02,快篩實名制，每天16:00開始販售，售完為止。
5931025987,忠孝德榮藥局,新北市三重區忠孝路２段９７號１樓,121.4842,25.07005,(02)29800297,羅氏家用新冠病毒抗原自我檢測套組,78,2022/05/08 14:58:02,現場排隊不發號碼牌*實名制快篩* 週一至週日晚間19:00開始代售.
5931026064,五華春天生活藥局,新北市三重區五華街７３號１、２樓,121.4925,25.08291,(02)29876838,羅氏家用新冠病毒抗原自我檢測套組,78,2022/05/08 14:58:02,快篩代售時間：週一至週日15：00，現場排隊購買，售完為止。（物流配送不及則例外，以門市公告為主）
5931026073,重陽藥局,新北市三重區重陽路４段３６、３８號１樓,121.4913,25.06975,(02)29880456,羅氏家用新冠病毒抗原自我檢測套組,78,2022/05/08 14:58:02,快篩實名制，每天16:00開始販售，售完為止。
5931026082,大有藥局,新北市三重區中正北路２１３號１、２樓及２１５號１、２樓,121.4763,25.07013,(02)29885771,羅氏家用新冠病毒抗原自我檢測套組,78,2022/05/08 14:58:02,快篩實名制，每天16:00開始販售，售完為止。
5931026091,重新藥局,新北市三重區重新路４段１２號１樓,121.4888,25.05775,(02)29742700,羅氏家用新冠病毒抗原自我檢測套組,78,2022/05/08 14:58:02,快篩實名制，每天16:00開始販售，售完為止。
5931032759,友辰藥局,新北市永和區中正路３８０號１樓,121.5177,25.00123,(02)29267131,羅氏家用新冠病毒抗原自我檢測套組,2,2022/05/08 14:58:02,無
5931033087,康宏安藥局,新北市永和區保福路２段７８號１樓,121.5106,25.01331,(02)29288118,羅氏家用新冠病毒抗原自我檢測套組,78,2022/05/08 14:58:02,無
5931033890,康杏安藥局,新北市永和區保平路９９號１樓,121.5114,25.00686,(02)29298968,羅氏家用新冠病毒抗原自我檢測套組,78,2022/05/08 14:58:02,快篩14:55發號碼牌，15:00開始販售，共78份
5931034146,亮點藥局,新北市永和區竹林路７１號１樓,121.5186,25.01355,(02)89253895,羅氏家用新冠病毒抗原自我檢測套組,133,2022/05/08 14:58:02,快篩發放時段 下午16:30-18:00
5931040297,信隆大藥局,新北市中和區安樂路６號１至２樓,121.5118,24.99168,(02)29426196,羅氏家用新冠病毒抗原自我檢測套組,76,2022/05/08 14:58:02,無
5931040680,博健藥局,新北市中和區忠孝街３７巷４號,121.5112,24.98368,(02)29402107,羅氏家用新冠病毒抗原自我檢測套組,75,2022/05/08 14:58:02,無
5931042648,恩溢藥局,新北市中和區復興路７９號１樓.２樓,121.5035,24.9902,(02)22452450,羅氏家用新冠病毒抗原自我檢測套組,2,2022/05/08 14:58:02,無
5931044884,壹品藥局,新北市中和區福祥路５５號１樓,121.4992,25.00474,(02)22481818,羅氏家用新冠病毒抗原自我檢測套組,4,2022/05/08 14:58:02,實名制快篩下午1點發放號碼牌
5931045470,富康活力永禎藥局,新北市中和區永貞路２５４號１樓,121.5141,25.00377,(02)29215999,羅氏家用新冠病毒抗原自我檢測套組,10,2022/05/08 14:58:02,無
5931052251,昇育健康藥局,新北市新店區中正路７６巷１８號１樓,121.5443,24.97085,(02)86679631,羅氏家用新冠病毒抗原自我檢測套組,78,2022/05/08 14:58:02,每日 16:00 販售 請依序排隊 無發號碼牌
5931052751,新康藥局,新北市新店區北新路１段１９５號１樓、２樓,121.5402,24.9648,(02)29178179,羅氏家用新冠病毒抗原自我檢測套組,32,2022/05/08 14:58:02,無
5931060342,十安藥局,新北市新莊區中港路３１６號,121.4524,25.04544,(02)29922859,羅氏家用新冠病毒抗原自我檢測套組,80,2022/05/08 14:58:02,自111／04／01起不再販賣實名制口罩
5931060557,一安藥局,新北市新莊區立德里新泰路２６８號,121.446,25.04029,(02)29941618,羅氏家用新冠病毒抗原自我檢測套組,74,2022/05/08 14:58:02,實名制快篩發放時間為15:00  其他詳情請上FB查詢
5931060619,蘇藥局,新北市新莊區中平路６巷３７號,121.446,25.04284,(02)29917818,羅氏家用新冠病毒抗原自我檢測套組,65,2022/05/08 14:58:02,販售快篩時間  固定每日下午3點發放!!!售完為止
5931067565,豐年藥局,新北市新莊區中正路３７７巷１６號,121.4462,25.03395,(02)22071182,羅氏家用新冠病毒抗原自我檢測套組,78,2022/05/08 14:58:02,無
5931068819,東京大藥局,新北市新莊區民安路１７６號１樓,121.4251,25.02392,(02)22063806,羅氏家用新冠病毒抗原自我檢測套組,63,2022/05/08 14:58:02,口罩代售時間為9:30開始現場排隊販售
5931069505,陽光連鎖藥局,新北市新莊區中信街４０號１樓,121.4498,25.05089,(02)22774300,羅氏家用新冠病毒抗原自我檢測套組,68,2022/05/08 14:58:02,周一到週六下午三點賣快篩
5931069792,宏泰藥局,新北市新莊區自信街３７號１樓,121.4543,25.04863,(02)29964649,羅氏家用新冠病毒抗原自我檢測套組,24,2022/05/08 14:58:02,無
593106A566,一心春天藥局,新北市新莊區中和街１３號１樓、地下室,121.4481,25.04342,(02)89929482,羅氏家用新冠病毒抗原自我檢測套組,49,2022/05/08 14:58:02,快篩代售時間:週一至週日15:00現場排隊購買，售完為止。（物流配送不及則例外，以門市公告為主）
593106A931,建安藥局,新北市新莊區建安街１１７號、１１９號１樓,121.4262,25.02406,(02)22051969,羅氏家用新冠病毒抗原自我檢測套組,78,2022/05/08 14:58:02,快篩實名制，每天16:00開始販售，售完為止。
593106B036,家嘉藥局,新北市新莊區自立街１０３號（１樓）,121.4553,25.04549,(02)89926488,羅氏家用新冠病毒抗原自我檢測套組,48,2022/05/08 14:58:02,今天號碼牌都已發放完畢
5931071970,保康藥局,新北市樹林區保安街１段３６４號,121.4176,24.99856,(02)86875503,羅氏家用新冠病毒抗原自我檢測套組,75,2022/05/08 14:58:02,無
5931072431,樹林大樹藥局,新北市樹林區育英街５４號１－２樓,121.4213,24.98928,(02)26815488,羅氏家用新冠病毒抗原自我檢測套組,78,2022/05/08 14:58:02,快篩實名制，每天16:00開始販售，售完為止。
5931081289,唯新示範藥局,新北市鶯歌區建國路１６１號１樓,121.3503,24.95345,(02)86775363,羅氏家用新冠病毒抗原自我檢測套組,78,2022/05/08 14:58:02,實名制快篩購買時段下午2:50-4:00
5931081510,鶯歌藥局,新北市鶯歌區鶯桃路２段１１號１樓,121.3258,24.97205,(02)86778778,羅氏家用新冠病毒抗原自我檢測套組,78,2022/05/08 14:58:02,快篩實名制，每天16:00開始販售，售完為止。
5931091892,三峽藥局,新北市三峽區介壽路１段２７號１樓,121.3757,24.93321,(02)26738868,羅氏家用新冠病毒抗原自我檢測套組,79,2022/05/08 14:58:02,快篩實名制，每天16:00開始販售，售完為止。
5931092219,北大藥局,新北市三峽區大義路９號１樓,121.3788,24.94372,(02)26738535,羅氏家用新冠病毒抗原自我檢測套組,48,2022/05/08 14:58:02,快篩發放依政府實際到貨時間為主會公告在臉書粉專
5931102407,躍獅淡水長照藥局,新北市淡水區學府路７７號１樓,121.4484,25.17003,(02)26295603,羅氏家用新冠病毒抗原自我檢測套組,78,2022/05/08 14:58:02,無
5931102434,西雅圖聯合藥局,新北市淡水區新市一路３段１０１巷１６弄２０號１樓,121.4471,25.18403,(02)26200910,羅氏家用新冠病毒抗原自我檢測套組,41,2022/05/08 14:58:02,無
5931102452,池慶藥局,新北市淡水區中山北路２段５號１樓,121.4443,25.18344,(02)26238852,羅氏家用新冠病毒抗原自我檢測套組,78,2022/05/08 14:58:02,快篩販售14:50到16:00
5931112645,健成藥局,新北市汐止區新興路２０號１樓,121.6564,25.06456,(02)26428989,羅氏家用新冠病毒抗原自我檢測套組,1,2022/05/08 14:58:02,無
5931113071,蒲公英藥局,新北市汐止區連興街１２６號（１樓）,121.6538,25.06188,(02)26907770,羅氏家用新冠病毒抗原自我檢測套組,78,2022/05/08 14:58:02,實名制快篩銷售時間:下午17:00-19:00（無發放號碼牌）
5931113160,社后藥局,新北市汐止區康寧街４２４號１樓,121.6307,25.06801,(02)26956321,羅氏家用新冠病毒抗原自我檢測套組,78,2022/05/08 14:58:02,快篩實名制，每天16:00開始販售，售完為止。
5931113188,汐止藥局,新北市汐止區福德二路７０號１樓,121.6331,25.06651,(02)86932587,羅氏家用新冠病毒抗原自我檢測套組,78,2022/05/08 14:58:02,快篩實名制，每天16:00開始販售，售完為止。
5931121466,瑞芳藥局,新北市瑞芳區明燈路３段５９之１及５９之２號,121.8057,25.10812,(02)24966588,羅氏家用新冠病毒抗原自我檢測套組,78,2022/05/08 14:58:02,快篩實名制，每天16:00開始販售，售完為止。
5931132405,小倉藥局,新北市土城區青雲路１９０號１樓,121.4591,24.98221,(02)22744257,羅氏家用新冠病毒抗原自我檢測套組,36,2022/05/08 14:58:02,快篩發放早上八點領號碼牌，一人卡限一張號碼牌，隨即憑號碼牌購買快篩，賣完為止。
5931132538,宏奇藥局,新北市土城區延吉街１２６號１樓,121.4695,24.98586,(02)82619585,羅氏家用新冠病毒抗原自我檢測套組,10,2022/05/08 14:58:02,無
5931132727,順儷藥師藥局,新北市土城區延和路１６之３號１樓,121.4644,24.98813,(02)22648655,羅氏家用新冠病毒抗原自我檢測套組,53,2022/05/08 14:58:02,春節期間看診時段請電洽
5931133064,城康藥局,新北市土城區中央路２段２號１、２樓,121.4429,24.98091,(02)22628171,羅氏家用新冠病毒抗原自我檢測套組,39,2022/05/08 14:58:02,無
5931133395,順儷金城藥局,新北市土城區金城路３段１４７號１樓,121.4685,24.98831,(02)22621590,羅氏家用新冠病毒抗原自我檢測套組,78,2022/05/08 14:58:02,無
5931143275,集賢藥局,新北市蘆洲區信義路２２２巷６１號１、２樓,121.4813,25.08535,(02)22882400,羅氏家用新冠病毒抗原自我檢測套組,78,2022/05/08 14:58:02,快篩實名制，每天16:00開始販售，售完為止。
5931151302,宏安藥局,新北市五股區成泰路２段１３６號,121.4382,25.08369,(02)22915932,羅氏家用新冠病毒抗原自我檢測套組,156,2022/05/08 14:58:02,口罩販售時間:每日08:15~23:00售完為止 星期日如果前一日還有庫存，當日照常販售
5931151713,五股藥局,新北市五股區成泰路１段２３５之２號（１樓）,121.4363,25.07968,(02)22951150,羅氏家用新冠病毒抗原自我檢測套組,78,2022/05/08 14:58:02,快篩實名制，每天16:00開始販售，售完為止。
5931171706,榮新藥局,新北市林口區忠孝路３８３號１樓,121.3695,25.0713,(02)26089789,羅氏家用新冠病毒抗原自我檢測套組,41,2022/05/08 14:58:02,快篩發放時間  14:50發放號碼牌下午15:00開賣（直至賣完）
5931171822,榮昌藥局,新北市林口區仁愛路１段４１０號１樓,121.3867,25.07683,(02)26011312,羅氏家用新冠病毒抗原自我檢測套組,63,2022/05/08 14:58:02,實名制快篩15:00開賣唷！
5931231323,佑全八里中山藥局,新北市八里區中山路２段２７８號、２８０號１樓,121.405,25.15099,(02)86301613,羅氏家用新冠病毒抗原自我檢測套組,78,2022/05/08 14:58:02,實名制快篩代售時間：週一至週日15:00開始販售，現場排隊購買，售完為止。（物流配送不及則例外，以門市公告為主）
5931250042,信芳藥局,新北市雙溪區中華路５０號,121.866,25.03761,(02)24931301,羅氏家用新冠病毒抗原自我檢測套組,2,2022/05/08 14:58:02,無
5932011638,明光藥局,桃園市桃園區中山東路１１７之１號,121.317,24.9968,(03)3380427,羅氏家用新冠病毒抗原自我檢測套組,60,2022/05/08 14:58:02,口罩販賣時段：0900-1200--1400-1800
5932012813,桃園大興藥局,桃園市桃園區大興西路二段７６巷３號,121.2984,25.01183,(03)3013222,羅氏家用新冠病毒抗原自我檢測套組,96,2022/05/08 14:58:02,快篩實名制，每天16:00開始販售，售完為止。
5932012902,天濟堂藥局,桃園市桃園區桃鶯路３８８之８號,121.3231,24.97623,(03)3614983,羅氏家用新冠病毒抗原自我檢測套組,70,2022/05/08 14:58:02,快篩下午三點開賣 每月最後一個週日固定公休
5932013392,桃園中正藥局,桃園市桃園區中正路３７３號,121.3079,24.99955,(03)3381600,羅氏家用新冠病毒抗原自我檢測套組,91,2022/05/08 14:58:02,快篩實名制，每天16:00開始販售，售完為止。
5932013687,桃園春日藥局,桃園市桃園區春日路８７８號,121.3096,25.01561,(03)3580101,羅氏家用新冠病毒抗原自我檢測套組,80,2022/05/08 14:58:02,快篩實名制，每天16:00開始販售，售完為止。
5932013721,桃園民光藥局,桃園市桃園區中正路５６９號,121.3049,25.0041,(03)3364888,羅氏家用新冠病毒抗原自我檢測套組,78,2022/05/08 14:58:02,快篩實名制，每天16:00開始販售，售完為止。
5932013749,桃園寶山藥局,桃園市桃園區寶山街７２號,121.3175,25.01291,(03)3250562,羅氏家用新冠病毒抗原自我檢測套組,78,2022/05/08 14:58:02,快篩實名制，每天16:00開始販售，售完為止。
5932013918,益壽藥局,桃園市桃園區中山路８２８、８３０、８３２、８３４、８３６號,121.2902,24.99093,(03)3693100,羅氏家用新冠病毒抗原自我檢測套組,78,2022/05/08 14:58:02,快篩實名制，每天16:00開始販售，售完為止。
5932013990,福澤大業藥局,桃園市桃園區大業路１段４２２號１樓,121.3118,25.01473,(03)3563865,羅氏家用新冠病毒抗原自我檢測套組,77,2022/05/08 14:58:02,家用快篩販賣時段15:30至售完為止
5932014040,奇美大藥局,桃園市桃園區中正五街１８５號,121.3014,25.00513,(03)3587727,羅氏家用新冠病毒抗原自我檢測套組,78,2022/05/08 14:58:02,營業時間:9:00-22:00
5932014059,桃園南平藥局,桃園市桃園區南平路３０２－１號１樓,121.2989,25.01855,(03)3165222,羅氏家用新冠病毒抗原自我檢測套組,78,2022/05/08 14:58:02,快篩實名制，每天16:00開始販售，售完為止。
5932014273,藝文藥局,桃園市桃園區大興西路１段１６５號,121.3049,25.01414,(03)3261789,羅氏家用新冠病毒抗原自我檢測套組,78,2022/05/08 14:58:02,快篩實名制，每天16:00開始販售，售完為止。
5932014415,多多藥局,桃園市桃園區南平路１８３號１樓,121.3022,25.01946,(03)3162133,羅氏家用新冠病毒抗原自我檢測套組,78,2022/05/08 14:58:02,實名制快篩販售時段［下午3:00~3:30］
5932014424,桃園中山藥局,桃園市桃園區中山路７０７號,121.2914,24.99079,(03)2207168,羅氏家用新冠病毒抗原自我檢測套組,78,2022/05/08 14:58:02,快篩實名制，每天16:00開始販售，售完為止。
5932014460,桃鶯藥局,桃園市桃園區桃鶯路１０２號,121.318,24.98516,(03)3675100,羅氏家用新冠病毒抗原自我檢測套組,78,2022/05/08 14:58:02,快篩實名制，每天16:00開始販售，售完為止。
5932022631,中壢中正藥局,桃園市中壢區中正路３６３、３６５號,121.2163,24.95532,(03)4014100,羅氏家用新冠病毒抗原自我檢測套組,78,2022/05/08 14:58:02,快篩實名制，每天16:00開始販售，售完為止。
5932023058,福澤健行藥局,桃園市中壢區健行路１３９號,121.2275,24.94943,(03)4681988,羅氏家用新冠病毒抗原自我檢測套組,78,2022/05/08 14:58:02,家用快篩販賣時段15:30至售完為止
5932023656,思琁藥師藥局,桃園市中壢區中北路二段４３０號,121.2331,24.95448,(03)4162189,羅氏家用新冠病毒抗原自我檢測套組,1,2022/05/08 14:58:02,週一~週五早上10:30發快篩..週六公休..週日看到貨狀況再另行公告
5932023889,華勛藥局,桃園市中壢區華勛街１１２、１１４號,121.2597,24.95065,(03)4161881,羅氏家用新冠病毒抗原自我檢測套組,1,2022/05/08 14:58:02,快篩實名制，每天16:00開始販售，售完為止。
5932023898,美康中壢藥局,桃園市中壢區龍岡路二段１１７號、後興路二段５５１巷３號、４號,121.2295,24.94529,(03)4590668,羅氏家用新冠病毒抗原自我檢測套組,78,2022/05/08 14:58:02,實名制快篩15:00發放
5932023923,朝日藥局,桃園市中壢區新生路１２９號,121.2227,24.96044,(03)2805882,羅氏家用新冠病毒抗原自我檢測套組,51,2022/05/08 14:58:02,實名快篩:週一至周日下午3點發號碼牌，下午3點30分發放試劑
5932024126,民生藥師藥局,桃園市中壢區興仁路２段２８９號１樓,121.2649,24.96438,(03)3555008,羅氏家用新冠病毒抗原自我檢測套組,58,2022/05/08 14:58:02,每日下午3點開始販售實名制快篩
5932024260,新資生福州大藥局,桃園市中壢區福州二街４０９號,121.232,24.96789,(03)3606180,羅氏家用新冠病毒抗原自我檢測套組,12,2022/05/08 14:58:02,營業時間：星期六 日 上午0900至下午1000
5932024279,中壢環東藥局,桃園市中壢區中山東路２段１９３號,121.2404,24.95171,(03)4562345,羅氏家用新冠病毒抗原自我檢測套組,78,2022/05/08 14:58:02,快篩實名制，每天16:00開始販售，售完為止。
593202B394,永豐藥局,桃園市中壢區民族路五段四六Ｏ號,121.167,24.95824,(03)4205339,羅氏家用新冠病毒抗原自我檢測套組,78,2022/05/08 14:58:02,快篩販賣時段：下午3:00開賣 請直接排隊購買
5932031729,德安堂藥局,桃園市大溪區介壽路８９２號,121.2837,24.90016,(03)3808173,羅氏家用新冠病毒抗原自我檢測套組,78,2022/05/08 14:58:02,快篩實名制，每天16:00開始販售，售完為止。
5932031907,福澤大溪藥局,桃園市大溪區復興路１０５號１樓,121.2911,24.87917,(03)3884886,羅氏家用新冠病毒抗原自我檢測套組,1,2022/05/08 14:58:02,家用快篩販賣時段15:30至售完為止
5932043336,楊梅藥局,桃園市楊梅區大成路１４８、１５０號,121.1458,24.91148,(03)4880776,羅氏家用新冠病毒抗原自我檢測套組,78,2022/05/08 14:58:02,快篩實名制，每天16:00開始販售，售完為止。
5932052764,禾泰藥局,桃園市蘆竹區中山路９１號１樓,121.2985,25.05526,(03)3530297,羅氏家用新冠病毒抗原自我檢測套組,5,2022/05/08 14:58:02,營業時間0830到1200    1500到2130（週日到1750  ） 快篩 試劑1500開始販售（週一到 週日 均有販售）
5932052853,奇安藥局,桃園市蘆竹區南昌路２６９號,121.2921,25.03999,(03)2120207,羅氏家用新冠病毒抗原自我檢測套組,18,2022/05/08 14:58:02,無
5932052979,南崁藥局,桃園市蘆竹區中正路２５１、２５３、２５５號,121.2921,25.04695,(03)3522022,羅氏家用新冠病毒抗原自我檢測套組,157,2022/05/08 14:58:02,快篩實名制，每天16:00開始販售，售完為止。
5932076862,和信藥局,桃園市龜山區南祥路５８號１樓,121.2979,25.04629,(03)2124028,羅氏家用新冠病毒抗原自我檢測套組,2,2022/05/08 14:58:02,快篩販賣時段：每日中午12點，5／8（日）母親節公休一日。
5932077056,桃園龜山藥局,桃園市龜山區萬壽路二段８９６號,121.3394,24.99586,(03)3203312,羅氏家用新冠病毒抗原自我檢測套組,78,2022/05/08 14:58:02,快篩實名制，每天16:00開始販售，售完為止。
5932077305,全興藥局,桃園市龜山區光峰路１５３號１樓,121.3427,25.0026,(03)3597901,羅氏家用新冠病毒抗原自我檢測套組,2,2022/05/08 14:58:02,上午8:30開始販售實名制快篩試劑，禮拜日公休。
5932077510,左外野藥局,桃園市龜山區文光街６號１樓,121.3802,25.05471,(03)3271503,羅氏家用新冠病毒抗原自我檢測套組,75,2022/05/08 14:58:02,快篩販售:晚上19:30至20:30（週五公休）*不發號碼牌 請直接排隊購買
5932077565,文新藥局,桃園市龜山區文化二路７１－１號１樓,121.3682,25.05596,(03)3978659,羅氏家用新冠病毒抗原自我檢測套組,61,2022/05/08 14:58:02,實名制快篩於14：50發放號碼牌，售完為止。
5932077627,文興藥局,桃園市龜山區復興一路１０２號１、２、３樓,121.368,25.0592,(03)3285330,羅氏家用新冠病毒抗原自我檢測套組,78,2022/05/08 14:58:02,快篩實名制，每天16:00開始販售，售完為止。
5932080455,日鴻藥局,桃園市八德區義勇街１７５號,121.3065,24.96335,(03)3763304,羅氏家用新冠病毒抗原自我檢測套組,46,2022/05/08 14:58:02,口罩販賣時段：早上9:00 發號碼牌下午4:00~6:00領取
5932083714,佳美大藥局,桃園市八德區介壽路一段六八八號,121.3006,24.96636,(03)3772239,羅氏家用新冠病毒抗原自我檢測套組,1,2022/05/08 14:58:02,營業時間:9:00-22:00，快篩14:00販售
5932084319,新寶樹藥局,桃園市八德區介壽路一段９６６號,121.2991,24.95818,(03)3770000,羅氏家用新冠病毒抗原自我檢測套組,75,2022/05/08 14:58:02,快篩試劑  禮拜一至六 1430開始販售，週日1500開始販售
5932099927,大心聯合藥局,桃園市龍潭區中興路３９０號,121.2313,24.87337,(03)4897998,羅氏家用新冠病毒抗原自我檢測套組,78,2022/05/08 14:58:02,快篩實名制：週一至週日下午15:30開始販售
5932099936,康是美藥局龍潭店,桃園市龍潭區中正路１８０、１８２號,121.2168,24.86538,(03)4991093,羅氏家用新冠病毒抗原自我檢測套組,72,2022/05/08 14:58:02,無
5932100685,閤家康聯合藥局,桃園市平鎮區中豐路山頂段２５６號,121.2108,24.89805,(03)4194550,羅氏家用新冠病毒抗原自我檢測套組,71,2022/05/08 14:58:02,快篩販賣時段:15:00
5932100934,崴皓藥師藥局,桃園市平鎮區平東路１３２號,121.2506,24.91727,(03)4500915,羅氏家用新冠病毒抗原自我檢測套組,15,2022/05/08 14:58:02,實名制快篩販售時間『下午14:30開始』，一人一張健保卡，請自備500元，不收銅板。售完為止
5932101137,平鎮延平藥局,桃園市平鎮區延平路二段４３０巷７９—１６號,121.206,24.94458,(03)4918187,羅氏家用新冠病毒抗原自我檢測套組,166,2022/05/08 14:58:02,周一~周六，下午1點~3點販售公費快篩，12:58發放號碼牌，每日30份，請自備500元，不找零
5932101146,景賀藥局,桃園市平鎮區金陵路三段６６號之６,121.2272,24.92883,(03)4570991,羅氏家用新冠病毒抗原自我檢測套組,70,2022/05/08 14:58:02,下午三點開始販售實名制快篩，無法早中晚三個時段分流，請見諒
5933021254,梁藥局,新竹縣新埔鎮中正路２３３號,121.0798,24.82761,(03)5885439,羅氏家用新冠病毒抗原自我檢測套組,69,2022/05/08 14:58:02,快篩實名制，每天15:00開始販售，售完為止。
5933031769,竹東朝陽藥局,新竹縣竹東鎮朝陽路１號１、２樓,121.0852,24.74199,(03)5111166,羅氏家用新冠病毒抗原自我檢測套組,78,2022/05/08 14:58:02,快篩實名制，每天16:00開始販售，售完為止。
5933031885,東林藥局,新竹縣竹東鎮東林路８０號,121.0913,24.73683,(03)5961321,羅氏家用新冠病毒抗原自我檢測套組,78,2022/05/08 14:58:02,快篩實名制，每天16:00開始販售，售完為止。
5933053489,十興藥局,新竹縣竹北市莊敬五街７５號,121.0268,24.82346,(03)6684889,羅氏家用新冠病毒抗原自我檢測套組,78,2022/05/08 14:58:02,快篩實名制，每天16:00開始販售，售完為止。
5933053550,六家藥局,新竹縣竹北市六家一路一段１６３號,121.0289,24.80958,(03)6578456,羅氏家用新冠病毒抗原自我檢測套組,78,2022/05/08 14:58:02,快篩實名制，每天16:00開始販售，售完為止。
5933053596,中華藥局,新竹縣竹北市中華路２２６號１、２樓,121.0028,24.83118,(03)5513031,羅氏家用新冠病毒抗原自我檢測套組,78,2022/05/08 14:58:02,快篩實名制，每天16:00開始販售，售完為止。
5933053603,竹北光明藥局,新竹縣竹北市光明一路１３７號,121.0157,24.83023,(03)5584545,羅氏家用新冠病毒抗原自我檢測套組,78,2022/05/08 14:58:02,快篩實名制，每天16:00開始販售，售完為止。
5933081536,昌昌藥局,新竹縣新豐鄉新市路１９３號,120.9846,24.90465,(03)5598077,羅氏家用新冠病毒抗原自我檢測套組,7,2022/05/08 14:58:02,5／8（日）取得號碼牌者→隨時取貨。5／9（一）上午8:00開始發放號碼牌。
5933081607,新豐藥局,新竹縣新豐鄉中興路２０８、２１０號,120.9949,24.87571,(03)5575005,羅氏家用新冠病毒抗原自我檢測套組,78,2022/05/08 14:58:02,快篩實名制，每天16:00開始販售，售完為止。
5934012473,宜蘭藥局,宜蘭縣宜蘭市泰山路３６號,121.7485,24.75524,(03)9365168,羅氏家用新冠病毒抗原自我檢測套組,78,2022/05/08 14:58:02,快篩實名制，每天16:00開始販售，售完為止。
5934022175,公正藥局,宜蘭縣羅東鎮興東路１３７、１３９號,121.769,24.6802,(03)9560543,羅氏家用新冠病毒抗原自我檢測套組,78,2022/05/08 14:58:02,快篩實名制，每天16:00開始販售，售完為止。
5934051274,樂多藥局,宜蘭縣礁溪鄉中山路２段７２號１樓,121.7721,24.82459,(03)9368600,羅氏家用新冠病毒抗原自我檢測套組,41,2022/05/08 14:58:02,健保實名制快篩試紙-下午3點販售-售完為止
5935011783,芳鄰國際連鎖藥局,苗栗縣苗栗市中山路５６７號,120.8201,24.55826,(037)330580,羅氏家用新冠病毒抗原自我檢測套組,25,2022/05/08 14:58:02,快篩販賣時段：14:00開始發放號碼牌 16:00-18:00領取快篩
5935012413,苗栗藥局,苗栗縣苗栗市光復路５５號,120.8165,24.5532,(037)360789,羅氏家用新冠病毒抗原自我檢測套組,78,2022/05/08 14:58:02,快篩實名制，每天16:00開始販售，售完為止。
5935021412,信和大心藥局,苗栗縣苑裡鎮為公路３４－３號,120.654,24.44252,(037)861352,羅氏家用新冠病毒抗原自我檢測套組,78,2022/05/08 14:58:02,本周開賣時間 下午三點整
5935021430,苑裡藥局,苗栗縣苑裡鎮為公路３２－１號,120.6541,24.44247,(037)851331,羅氏家用新冠病毒抗原自我檢測套組,78,2022/05/08 14:58:02,快篩實名制，每天16:00開始販售，售完為止。
5935030171,立安藥局,苗栗縣通霄鎮信義路１０７號,120.6804,24.48877,(037)760100,羅氏家用新冠病毒抗原自我檢測套組,1,2022/05/08 14:58:02,快篩實名制 週一到週六下午15:00開始販售  售完為止
5935030180,通霄藥局,苗栗縣通霄鎮中山路１３１號,120.678,24.48903,(037)755155,羅氏家用新冠病毒抗原自我檢測套組,64,2022/05/08 14:58:02,快篩實名制，每天16:00開始販售，售完為止。
5935041914,合康連鎖藥局,苗栗縣竹南鎮博愛街２７０號,120.8725,24.68724,(037)474987,羅氏家用新冠病毒抗原自我檢測套組,78,2022/05/08 14:58:02,販售快篩時間為下午17:00開始販售
5935061452,後龍藥局,苗栗縣後龍鎮中山路２０９號１樓,120.7931,24.6127,(037)723660,羅氏家用新冠病毒抗原自我檢測套組,78,2022/05/08 14:58:02,快篩實名制，每天16:00開始販售，售完為止。
5935090015,永信藥局,苗栗縣公館鄉館中村榮光街１６號,120.8271,24.50226,(037)223597,羅氏家用新冠病毒抗原自我檢測套組,9,2022/05/08 14:58:02,每日下午3點開始販售快篩
5936010628,協安大藥局,臺中市豐原區府前街６３號,120.7184,24.24957,(04)25200808,羅氏家用新冠病毒抗原自我檢測套組,4,2022/05/08 14:58:02,實名制快篩販售時間為每日下午兩點。
5936051389,康裕藥局,臺中市沙鹿區中山路２８０號１樓,120.5603,24.23822,(04)26633758,羅氏家用新冠病毒抗原自我檢測套組,71,2022/05/08 14:58:02,每日下午3:00開賣
5936090224,海源大藥局,臺中市潭子區潭秀里中山路２段４８７號,120.705,24.216,(04)25312187,羅氏家用新冠病毒抗原自我檢測套組,78,2022/05/08 14:58:02,快篩試劑下午3點開始販賣。
5936102998,妙昌藥局學府店,臺中市大雅區學府路２９９號,120.6491,24.22479,(04)25689841,羅氏家用新冠病毒抗原自我檢測套組,17,2022/05/08 14:58:02,無
5936171386,國際大藥局,臺中市龍井區藝術街６號,120.5954,24.18751,(04)26522118,羅氏家用新冠病毒抗原自我檢測套組,57,2022/05/08 14:58:02,無
5936180152,祥暘藥局,臺中市霧峰區中正路１１６２號,120.6996,24.07068,(04)23391346,羅氏家用新冠病毒抗原自我檢測套組,78,2022/05/08 14:58:02,快篩實名制，每天16:00開始販售，售完為止。
5936192312,安麗兒藥局太平店,臺中市太平區太平路１９０號,120.7204,24.12088,(04)22798819,羅氏家用新冠病毒抗原自我檢測套組,39,2022/05/08 14:58:02,快篩販售時間下午3點（15:00）開始.售完為止
5936209287,德芳大藥局,臺中市大里區益民路二段３０４號１、２樓,120.684,24.11183,(04)24815932,羅氏家用新冠病毒抗原自我檢測套組,3,2022/05/08 14:58:02,快篩販售時間:下午3點~6點
593620B138,聯生中西健保藥局,臺中市大里區現岱路１５８巷１１號,120.6919,24.10295,(04)24834058,羅氏家用新冠病毒抗原自我檢測套組,9,2022/05/08 14:58:02,早上八點半領號碼牌下午四點到六點領口罩W6W日早七點
593620B307,仁一藥局,臺中市大里區仁化路４９７號,120.7005,24.09618,(04)24913610,羅氏家用新冠病毒抗原自我檢測套組,53,2022/05/08 14:58:02,星期1~星期日每天下午2點50分開始排隊~3點開始賣~
5937010462,杏全藥局,彰化縣彰化市忠權里彰美路一段１８５號,120.5377,24.08868,(04)7240547,羅氏家用新冠病毒抗原自我檢測套組,57,2022/05/08 14:58:02,快篩販售：下午3點
5937013436,大埔藥局,彰化縣彰化市大埔路４０６、４０８、４１０、４１２號,120.5439,24.06298,(04)7117511,羅氏家用新冠病毒抗原自我檢測套組,78,2022/05/08 14:58:02,快篩實名制，每天16:00開始販售，售完為止。
5937013570,彰化藥局,彰化縣彰化市永安街２７８、２８０號,120.5438,24.08977,(04)7287877,羅氏家用新冠病毒抗原自我檢測套組,78,2022/05/08 14:58:02,快篩實名制，每天16:00開始販售，售完為止。
5937013767,民族藥局,彰化縣彰化市民族路２１２號１樓,120.5393,24.071,(04)7261221,羅氏家用新冠病毒抗原自我檢測套組,78,2022/05/08 14:58:02,快篩實名制，每天16:00開始販售，售完為止。
5937021849,大樹鹿港藥局,彰化縣鹿港鎮中正路１９３號,120.4405,24.05491,(04)7772226,羅氏家用新冠病毒抗原自我檢測套組,78,2022/05/08 14:58:02,快篩實名制，每天16:00開始販售，售完為止。
5937031747,大樹和美藥局,彰化縣和美鎮道周路５０１號,120.494,24.10896,(04)7550090,羅氏家用新冠病毒抗原自我檢測套組,78,2022/05/08 14:58:02,快篩實名制，每天16:00開始販售，售完為止。
5937041369,北斗福倫藥局,彰化縣北斗鎮西德里斗苑路１段４２５、４２７號,120.5177,23.87305,(04)8886618,羅氏家用新冠病毒抗原自我檢測套組,54,2022/05/08 14:58:02,星期一~星期日每天下午3:00開始販售.人多同時間於2:50發號碼牌.取牌後保留10分鐘
5937051794,愛康生活保健中西藥局,彰化縣員林市靜修東路３４號,120.5753,23.96302,(04)8328826,羅氏家用新冠病毒抗原自我檢測套組,11,2022/05/08 14:58:02,星期一到星期日~下午2:30開始販售政府快篩，售完為止。（全年無休）
5937052264,醫聯藥師藥局,彰化縣員林市三條里員東路二段４１０號１樓,120.5811,23.95898,(04)8360617,羅氏家用新冠病毒抗原自我檢測套組,9,2022/05/08 14:58:02,無
5937052335,大樹三民藥局,彰化縣員林市三民東街３５６號,120.5825,23.96065,(04)8372837,羅氏家用新冠病毒抗原自我檢測套組,76,2022/05/08 14:58:02,快篩實名制，每天16:00開始販售，售完為止。
5937052479,莒光藥局,彰化縣員林市莒光路３１６號１樓,120.5669,23.95942,(04)8361388,羅氏家用新冠病毒抗原自我檢測套組,79,2022/05/08 14:58:02,快篩實名制，每天16:00開始販售，售完為止。
5937052488,大樹員林藥局,彰化縣員林市大同路二段２０７號,120.5745,23.96891,(04)8331353,羅氏家用新冠病毒抗原自我檢測套組,78,2022/05/08 14:58:02,快篩實名制，每天16:00開始販售，售完為止。
5937061718,東環藥局,彰化縣溪湖鎮湖東街８１巷７０－３、７０－４、７０－５號,120.4833,23.95861,(04)8820001,羅氏家用新冠病毒抗原自我檢測套組,78,2022/05/08 14:58:02,快篩實名制，每天16:00開始販售，售完為止。
5937061727,溪湖藥局,彰化縣溪湖鎮西環路３６５、３７１號１樓,120.4771,23.96099,(04)8818617,羅氏家用新冠病毒抗原自我檢測套組,68,2022/05/08 14:58:02,無
5937070191,仁春藥局,彰化縣田中鎮員集路二段４５３、４５５號,120.5861,23.86559,(04)8742409,羅氏家用新冠病毒抗原自我檢測套組,24,2022/05/08 14:58:02,5月1日起下午兩點開始發放號碼牌販售快篩劑
5937071474,田中藥局,彰化縣田中鎮新生街１５０巷２號,120.5862,23.8621,(04)8761988,羅氏家用新冠病毒抗原自我檢測套組,78,2022/05/08 14:58:02,快篩實名制，每天16:00開始販售，售完為止。
5937081596,二林藥局,彰化縣二林鎮斗苑路五段３９號,120.3709,23.89951,(04)8950010,羅氏家用新冠病毒抗原自我檢測套組,78,2022/05/08 14:58:02,快篩實名制，每天16:00開始販售，售完為止。
5937101253,佑全伸港新港藥局,彰化縣伸港鄉新港路１６６、１６８號,120.487,24.1459,(04)7980979,羅氏家用新冠病毒抗原自我檢測套組,15,2022/05/08 14:58:02,疫情期間營業時間改為早上9點至晚上9點，快篩試劑如果有貨，下午2點開賣
5937121317,彰水藥局,彰化縣秀水鄉彰水路二段４２５、４２７、４２９號１樓,120.4943,24.02791,(04)7685880,羅氏家用新冠病毒抗原自我檢測套組,78,2022/05/08 14:58:02,快篩實名制，每天16:00開始販售，售完為止。
5937181304,永靖藥局,彰化縣永靖鄉瑚璉路１１６號,120.5505,23.92624,(04)8230220,羅氏家用新冠病毒抗原自我檢測套組,78,2022/05/08 14:58:02,快篩實名制，每天16:00開始販售，售完為止。
5937201105,安利藥局,彰化縣二水鄉光化村員集路４段３號,120.6159,23.81147,(04)8794933,羅氏家用新冠病毒抗原自我檢測套組,48,2022/05/08 14:58:02,快篩下午3點現場販售 不發號碼牌 身障.醫護可優先購買
5938011909,彰南藥局,南投縣南投市彰南路二段２１號,120.6845,23.90847,(049)2230005,羅氏家用新冠病毒抗原自我檢測套組,78,2022/05/08 14:58:02,無
5938021683,埔里啄木鳥藥局,南投縣埔里鎮中山路三段４６７號,120.9537,23.96959,(049)2914510,羅氏家用新冠病毒抗原自我檢測套組,78,2022/05/08 14:58:02,實名制快篩 當天下午3點開賣＜請排隊購買＞5／11及5／25提早下午2點賣
5938021781,幸福藥局,南投縣埔里鎮中正路５４８號,120.9643,23.96946,(049)2999800,羅氏家用新冠病毒抗原自我檢測套組,1,2022/05/08 14:58:02,無
5938022064,大樹埔里藥局,南投縣埔里鎮中正路４３８號,120.9632,23.97263,(049)2980805,羅氏家用新冠病毒抗原自我檢測套組,78,2022/05/08 14:58:02,快篩實名制，每天16:00開始販售，售完為止。
5938032480,草屯藥局,南投縣草屯鎮碧山路１４５、１４７號,120.6834,23.9778,(049)2362992,羅氏家用新冠病毒抗原自我檢測套組,78,2022/05/08 14:58:02,快篩實名制，每天16:00開始販售，售完為止。
5938032560,祥陽藥局,南投縣草屯鎮中正路８２２、８２４號,120.6854,23.98276,(049)2353393,羅氏家用新冠病毒抗原自我檢測套組,78,2022/05/08 14:58:02,快篩實名制，每天16:00開始販售，售完為止。
5938041916,大明藥局,南投縣竹山鎮大明路４８２號,120.6798,23.759,(049)2652500,羅氏家用新冠病毒抗原自我檢測套組,78,2022/05/08 14:58:02,快篩實名制，每天16:00開始販售，售完為止。
5938110078,立特藥局,南投縣水里鄉中央村中正路６８號,120.8543,23.81587,(049)2775837,羅氏家用新冠病毒抗原自我檢測套組,2,2022/05/08 14:58:02,每天早上8點現場排隊持健保卡領號碼牌，中午12點至晚上9點半持號碼牌領快篩劑.
5939011850,明真西藥局,雲林縣斗六市自由路１號,120.5447,23.70513,(05)5321605,羅氏家用新冠病毒抗原自我檢測套組,9,2022/05/08 14:58:02,口罩販售:早上0800-1200中午1200-1400休息下午1400到2100賣完為止
5939012240,究安藥局,雲林縣斗六市雲林路二段２０２號,120.5311,23.70307,(05)5375697,羅氏家用新冠病毒抗原自我檢測套組,22,2022/05/08 14:58:02,5／7星期六快篩早上九點發貨，請到現場拿貨.，不要電話諮詢，人力不夠
5939012599,斗六藥局,雲林縣斗六市雲林路二段１１３號,120.534,23.70477,(05)5372300,羅氏家用新冠病毒抗原自我檢測套組,78,2022/05/08 14:58:02,快篩實名制，每天16:00開始販售，售完為止。
5939021614,斗南藥局,雲林縣斗南鎮南昌路１１２號,120.4791,23.67321,(05)5960102,羅氏家用新冠病毒抗原自我檢測套組,78,2022/05/08 14:58:02,無
5939031576,良方藥局,雲林縣虎尾鎮中山路５７號,120.4344,23.70764,(05)6312106,羅氏家用新冠病毒抗原自我檢測套組,78,2022/05/08 14:58:02,周日休息.5／9（一）上午8點開賣78份，另下午2點半開賣78份.現場排隊!!
5939041849,西螺藥局,雲林縣西螺鎮光復西路１２３、１２５號,120.4612,23.79675,(05)5872112,羅氏家用新冠病毒抗原自我檢測套組,78,2022/05/08 14:58:02,快篩實名制，每天16:00開始販售，售完為止。
5939051238,天愛藥局,雲林縣土庫鎮中山路８０號,120.3903,23.6749,(05)6629923,羅氏家用新冠病毒抗原自我檢測套組,72,2022/05/08 14:58:02,無
5939061949,大樹北港藥局,雲林縣北港鎮華勝路９９號,120.2986,23.57559,(05)7830783,羅氏家用新冠病毒抗原自我檢測套組,78,2022/05/08 14:58:02,快篩實名制，每天16:00開始販售，售完為止。
5939071276,慈生藥局,雲林縣古坑鄉麻園村平和２２號,120.5203,23.6351,(05)5828222,羅氏家用新冠病毒抗原自我檢測套組,15,2022/05/08 14:58:02,週三.四.六.日下午3-5點販售實名制快篩
5939131482,麥津藥局,雲林縣麥寮鄉中山路３１３、３１５號,120.2527,23.74947,(05)6932258,羅氏家用新冠病毒抗原自我檢測套組,78,2022/05/08 14:58:02,快篩實名制，每天16:00開始販售，售完為止。
5939171093,和平藥局,雲林縣元長鄉下寮村東興路３３號,120.334,23.61849,(05)7862551,羅氏家用新冠病毒抗原自我檢測套組,15,2022/05/08 14:58:02,販賣口罩時間：0800開賣，賣完為止
5940031386,大樹大林藥局,嘉義縣大林鎮祥和路１９２號,120.4527,23.60447,(05)2641800,羅氏家用新冠病毒抗原自我檢測套組,78,2022/05/08 14:58:02,快篩實名制，每天16:00開始販售，售完為止。
5940041739,民雄藥局,嘉義縣民雄鄉東榮村００５鄰建國路一段１１７號,120.4333,23.55681,(05)2264566,羅氏家用新冠病毒抗原自我檢測套組,78,2022/05/08 14:58:02,快篩實名制，每天16:00開始販售，售完為止。
5940121394,水上藥局,嘉義縣水上鄉水頭村中興路２６６號,120.4029,23.43014,(05)2601121,羅氏家用新冠病毒抗原自我檢測套組,78,2022/05/08 14:58:02,快篩實名制，每天16:00開始販售，售完為止。
5940131283,一心藥局,嘉義縣中埔鄉富收村頂中下街３１、３１－１號１樓,120.4885,23.45077,(05)2303553,羅氏家用新冠病毒抗原自我檢測套組,60,2022/05/08 14:58:02,無
5940141305,東義藥局,嘉義縣竹崎鄉獅埜村東義２０－１８號,120.4898,23.51273,(05)2110957,羅氏家用新冠病毒抗原自我檢測套組,5,2022/05/08 14:58:02,無
5941080016,世酆藥局,臺南市學甲區仁得里成功路１１－１號,120.1805,23.23176,(06)7838779,羅氏家用新冠病毒抗原自我檢測套組,49,2022/05/08 14:58:02,口罩販售時間：07:30-120 份  15:00-80份
5941270163,太子藥局,臺南市仁德區太子里太子路３３８號,120.2577,22.99146,(06)2729906,羅氏家用新冠病毒抗原自我檢測套組,1,2022/05/08 14:58:02,5／8快篩.已售完.
5941281488,德昌藥師藥局,臺南市歸仁區中山路一段５１６、５１８號,120.2951,22.96743,(06)3303533,羅氏家用新冠病毒抗原自我檢測套組,3,2022/05/08 14:58:02,14:30~售完
5943010432,億泰藥局,屏東縣屏東市勝利里自由路５８２號,120.4857,22.68355,(08)7324005,羅氏家用新冠病毒抗原自我檢測套組,63,2022/05/08 14:58:02,實名制快篩每日下午3點販售（周日也有）
5943013362,福安新藥局,屏東縣屏東市華山里大連路４０－１５號,120.5051,22.68312,(08)7377999,羅氏家用新冠病毒抗原自我檢測套組,59,2022/05/08 14:58:02,實名制快篩販售時間週一至週日 下午3:00開始 售完為止
5943014145,廣東藥局,屏東縣屏東市廣東路６８２－２．６８４號,120.4966,22.68527,(08)7362210,羅氏家用新冠病毒抗原自我檢測套組,78,2022/05/08 14:58:02,快篩實名制，每天16:00開始販售，售完為止。
5943014332,千甲台安藥局,屏東縣屏東市武廟里逢甲路９２號,120.4867,22.67045,(08)7330663,羅氏家用新冠病毒抗原自我檢測套組,67,2022/05/08 14:58:02,因政府物流不穩定 每日塊篩販售時間公告於LINE社群https:／／reurl.cc／M0b5VX
5943021604,葉錦霖藥局,屏東縣潮州鎮新榮里中山五巷３－４號,120.5391,22.54882,(08)7885629,羅氏家用新冠病毒抗原自我檢測套組,42,2022/05/08 14:58:02,藥局販售口罩時間，依藥局門口公告時間為主（售完為止）
5943021720,潮州藥局,屏東縣潮州鎮介壽路１－１號,120.536,22.54448,(08)7894000,羅氏家用新冠病毒抗原自我檢測套組,78,2022/05/08 14:58:02,快篩實名制，每天16:00開始販售，售完為止。
5943031851,大眾藥局,屏東縣東港鎮朝隆路７６號,120.4463,22.46862,(08)8354752,羅氏家用新冠病毒抗原自我檢測套組,52,2022/05/08 14:58:02,實名制快篩下午三點開始販售
5943031897,欣大眾藥局,屏東縣東港鎮中正路一段９２號,120.4569,22.47272,(08)8351177,羅氏家用新冠病毒抗原自我檢測套組,65,2022/05/08 14:58:02,無
5943041357,西門藥局,屏東縣恆春鎮西門路１０８號,120.7437,22.00793,(08)8896980,羅氏家用新冠病毒抗原自我檢測套組,78,2022/05/08 14:58:02,快篩實名制，每天16:00開始販售，販售完為止
5943061091,瑞安藥局,屏東縣長治鄉瑞源路１１號,120.5117,22.66511,(08)7237236,羅氏家用新冠病毒抗原自我檢測套組,9,2022/05/08 14:58:02,營業日08；00開始.12點到2點休息
5943110044,宏順藥局,屏東縣高樹鄉長榮村南昌路２－２號,120.5963,22.81845,(08)7962136,羅氏家用新冠病毒抗原自我檢測套組,66,2022/05/08 14:58:02,營業日下午3點開始販售家用快篩，售完為止。
5945012229,富康大藥局,花蓮縣花蓮市中美路７３－２號一樓,121.6234,23.98877,(03)8227396,羅氏家用新冠病毒抗原自我檢測套組,78,2022/05/08 14:58:02,快篩實名制販售時間下午3:00~4:00，下午2:45發號碼牌
5945021086,安康鳳林藥局,花蓮縣鳳林鎮仁愛街１０號１樓,121.4503,23.74937,(03)8762227,羅氏家用新冠病毒抗原自我檢測套組,4,2022/05/08 14:58:02,快篩發放時間，依現場公告為主，售完為止。
5945050069,富一藥局,花蓮縣吉安鄉宜昌村中華路２段２０１號,121.5809,23.97329,(03)8531432,羅氏家用新冠病毒抗原自我檢測套組,52,2022/05/08 14:58:02,口罩販售時間為上午8:30售完為止
5945051646,花蓮建國藥局,花蓮縣吉安鄉建國路１段１３７－１號,121.5915,23.98574,(03)8461699,羅氏家用新冠病毒抗原自我檢測套組,4,2022/05/08 14:58:02,快篩實名制，每天16:00開始販售，售完為止。
5990010695,百泰藥局,金門縣金城鎮西海路１段１號,118.2864,24.41566,(082)312832,羅氏家用新冠病毒抗原自我檢測套組,156,2022/05/08 14:58:02,快篩實名制，每天16:00開始販售，售完為止。
