醫事機構代碼,醫事機構名稱,醫事機構地址,經度,緯度,醫事機構電話,廠牌項目,快篩試劑截至目前結餘存貨數量,來源資料時間,備註
2335140015,苗栗縣西湖鄉衛生所,苗栗縣西湖鄉龍洞村１鄰１６號,120.7577,24.5578,(037)921211,羅氏家用新冠病毒抗原自我檢測套組,59,2022/05/10 14:04:02,無
2340170016,嘉義縣大埔鄉衛生所,嘉義縣大埔鄉大埔村５３－１號,120.5928,23.29397,(05)2521214,羅氏家用新冠病毒抗原自我檢測套組,59,2022/05/10 14:04:02,無
2341300018,臺南市龍崎區衛生所,臺南市龍崎區崎頂里新市子１５８號,120.3618,22.96521,(06)5941397,羅氏家用新冠病毒抗原自我檢測套組,55,2022/05/10 14:04:02,無
2342260013,高雄市桃源區衛生所,高雄市桃源區桃源里南進巷１８８－１號,120.7642,23.15845,(07)6861126,羅氏家用新冠病毒抗原自我檢測套組,43,2022/05/10 14:04:02,IDS提供24小時服務
2344011036,澎湖縣馬公市第三衛生所,澎湖縣馬公市西文里１１８之２號,119.5836,23.56813,(06)9211723,羅氏家用新冠病毒抗原自我檢測套組,83,2022/05/10 14:04:02,本所快篩試劑只提供離島衛生室（虎井、桶盤）販售，時間週一至週五08:30-17:00售完為止，星期六、日國定假日09:00-12:00。
2344030022,澎湖縣白沙鄉鳥嶼衛生所,澎湖縣白沙鄉鳥嶼村漁港新村３號,119.6599,23.66008,(06)9916092,羅氏家用新冠病毒抗原自我檢測套組,124,2022/05/10 14:04:02,非上班時間提供急診服務
2344030031,澎湖縣白沙鄉吉貝衛生所,澎湖縣白沙鄉吉貝村８－１３號,119.6138,23.74056,(06)9911430,羅氏家用新冠病毒抗原自我檢測套組,247,2022/05/10 14:04:02,無
2344050015,澎湖縣望安鄉衛生所,澎湖縣望安鄉西安村３６－７號,119.4972,23.36161,(06)9991036,羅氏家用新冠病毒抗原自我檢測套組,51,2022/05/10 14:04:02,夜間急診。快篩試劑販售時間為:每日08:00-12:00、13:30-17:30售完為止，如有餘數為離島未售出（東嶼坪、花嶼）。
2344050024,澎湖縣望安鄉將軍衛生所,澎湖縣望安鄉將軍村１２鄰將軍澳１之３號,119.5216,23.3615,(06)9902066,羅氏家用新冠病毒抗原自我檢測套組,44,2022/05/10 14:04:02,24小時急診
2345120016,花蓮縣萬榮鄉衛生所,花蓮縣萬榮鄉萬榮村１鄰１６號,121.4092,23.71558,(03)8751651,羅氏家用新冠病毒抗原自我檢測套組,113,2022/05/10 14:04:02,快篩試劑代售時間：週一至週五下午2點至下午4點，販售為止。
2346070015,臺東縣東河鄉衛生所,臺東縣東河鄉東河村南東河路１０鄰３００號,121.3031,22.96846,(089)896289,羅氏家用新冠病毒抗原自我檢測套組,1,2022/05/10 14:04:02,快篩試劑販售時間:◆平日（星期一三四五）上午9-11時販售，星期二下午13-15時販售售完為止。
2346140012,台東縣達仁鄉衛生所,臺東縣達仁鄉安朔村復興路１２２號,120.8836,22.29488,(089)702209,羅氏家用新冠病毒抗原自我檢測套組,1,2022/05/10 14:04:02,12／31 元旦連假
2391020010,連江縣北竿鄉衛生所,連江縣北竿鄉塘岐村２８１－６號,119.9991,26.22617,(083)655592,羅氏家用新冠病毒抗原自我檢測套組,25,2022/05/10 14:04:02,新冠快篩試劑販售於週一至周六每日上午08:30-12:00開放購買。
2391030016,連江縣莒光鄉西莒衛生所,連江縣莒光鄉青帆村１４－１號,119.9331,25.97157,(083)689122,羅氏家用新冠病毒抗原自我檢測套組,182,2022/05/10 14:04:02,防疫口罩星期一至五09:00-17:00、（六）09:00-12:00現場購買
2391030026,連江縣莒光鄉東莒衛生所,連江縣莒光鄉大坪村３０－１號,119.9731,25.96113,(083)689038,羅氏家用新冠病毒抗原自我檢測套組,460,2022/05/10 14:04:02,防疫口罩星期一至星期日上午10:00-12:00收取健保卡，下午3:30至本所領取口罩。
2391040012,連江縣東引鄉衛生所,連江縣東引鄉中柳村１２３號,120.4904,26.36701,(083)677206,羅氏家用新冠病毒抗原自我檢測套組,3,2022/05/10 14:04:02,防疫口罩每日10:00-12:00現場購買
5901010165,傑安藥局,臺北市松山區八德路２段４３７巷７弄８號１樓,121.5473,25.04914,(02)27524155,羅氏家用新冠病毒抗原自我檢測套組,2,2022/05/10 14:04:02,9:30開始發號碼牌
5901010192,益華藥局,臺北市松山區民生東路５段１３８巷６號,121.5615,25.05827,(02)27624898,羅氏家用新冠病毒抗原自我檢測套組,1,2022/05/10 14:04:02,無
5901012203,博荃藥局,臺北市松山區敦化北路４巷５１號,121.5447,25.05006,(02)27316736,羅氏家用新冠病毒抗原自我檢測套組,22,2022/05/10 14:04:02,快篩銷售時間為下午2點憑健保卡開始取號碼牌購買，星期日及連續假期公休 !
5901012516,惠登藥局,臺北市松山區民生東路３段１３０巷３４號,121.5461,25.0562,(02)25472432,羅氏家用新冠病毒抗原自我檢測套組,20,2022/05/10 14:04:02,實名制快篩週一到週五下午2點販售
5901012570,予志藥局,臺北市松山區富錦街５２１號,121.5649,25.06119,(02)27623522,羅氏家用新冠病毒抗原自我檢測套組,45,2022/05/10 14:04:02,實名制快篩星期一到三下午2點、星期四到六晚上8點、星期日停售
5901012598,婕登藥局,臺北市松山區八德路４段６９９號,121.5766,25.05021,(02)27482893,羅氏家用新冠病毒抗原自我檢測套組,1,2022/05/10 14:04:02,今天快篩已經發送完畢（電腦庫存不準）
5901012749,躍獅松和藥局,臺北市松山區八德路四段６６６－１號,121.5761,25.04979,(02)27492569,羅氏家用新冠病毒抗原自我檢測套組,78,2022/05/10 14:04:02,實名制快篩販售時段，每日下午4點販售，售完為止
5901013095,康采藥局,臺北市松山區南京東路５段２９１巷１７－２號,121.5663,25.05236,(02)27670271,羅氏家用新冠病毒抗原自我檢測套組,17,2022/05/10 14:04:02,（已完售，庫存不準）快篩試劑每日16點販售，週日沒有販售
5901013308,立赫敦北藥局,臺北市松山區敦化北路２２２巷２０號,121.5477,25.05945,(02)27199277,羅氏家用新冠病毒抗原自我檢測套組,4,2022/05/10 14:04:02,5／10（二）早上9:30發放號碼牌販售
5901013442,松山八德藥局,臺北市松山區八德路２段４００號,121.5466,25.04804,(02)27782773,羅氏家用新冠病毒抗原自我檢測套組,78,2022/05/10 14:04:02,快篩實名制，每天16:00開始販售，售完為止。
5901013648,慶昌藥局,臺北市松山區延吉街２９號１樓,121.5537,25.04595,(02)25770820,羅氏家用新冠病毒抗原自我檢測套組,54,2022/05/10 14:04:02,下午14:00開始發放
5901013693,民生盛康藥局,臺北市松山區民生東路５段２０４號１樓,121.5648,25.05826,(02)27460758,羅氏家用新冠病毒抗原自我檢測套組,87,2022/05/10 14:04:02,【每日70分】星期一~六9:00發號碼牌，11:00~20:00拿號碼牌回來領取，每人限1張號碼牌，逾時不候
5901013719,大樹松山藥局,臺北市松山區民生東路５段１０７號１樓,121.5601,25.05878,(02)27562226,羅氏家用新冠病毒抗原自我檢測套組,78,2022/05/10 14:04:02,快篩實名制，每天16:00開始販售，售完為止。
5901013737,全欣藥局,臺北市松山區復興北路７３號２樓,121.5442,25.05104,(02)87729066,羅氏家用新冠病毒抗原自我檢測套組,47,2022/05/10 14:04:02,9:00am開始販售30人份15:00販售30人份:18:00販售17人份；週六:9:00販售39人份；週日:15:00販售39人份....排隊人數滿會先發號碼
5901020303,宏恩藥局,臺北市大安區大安路１段１８１號,121.5461,25.03619,(02)27000956,羅氏家用新冠病毒抗原自我檢測套組,2,2022/05/10 14:04:02,實名制快篩每周一~六，10:00發放號碼牌， 後於12:00~21:00自由擇時，持號碼牌領取快篩並收費
5901020376,靜園藥局,臺北市大安區和平東路２段１１８巷５７之１號,121.5429,25.02254,(02)27336390,羅氏家用新冠病毒抗原自我檢測套組,65,2022/05/10 14:04:02,每日下午2:00販賣實名制快篩
5901022898,永康藥局,臺北市大安區麗水街６之２號,121.529,25.03289,(02)23279362,羅氏家用新冠病毒抗原自我檢測套組,60,2022/05/10 14:04:02,下午2點開賣快篩，  請自行排隊沒有發號碼牌
5901023215,大愛健康藥局,臺北市大安區敦化南路２段６３巷６５號,121.552,25.03103,(02)27092156,羅氏家用新冠病毒抗原自我檢測套組,74,2022/05/10 14:04:02,無
5901023331,佑安藥局,臺北市大安區延吉街２３３巷９號,121.5561,25.03708,(02)27069339,羅氏家用新冠病毒抗原自我檢測套組,46,2022/05/10 14:04:02,營業時間為下午兩點開始，週六暫定賣快篩，人數不多時會取消
5901023653,信安健康藥局,臺北市大安區仁愛路４段１２２巷５８號,121.5501,25.03392,(02)27084858,羅氏家用新冠病毒抗原自我檢測套組,68,2022/05/10 14:04:02,快篩實聯制每天下午2:00開始 （沒有發號碼牌）
5901024007,古亭健康人生藥局,臺北市大安區羅斯福路２段８３號,121.5237,25.02572,(02)23660895,羅氏家用新冠病毒抗原自我檢測套組,73,2022/05/10 14:04:02,快篩僅販售14:00-16:00。營業時間9:30-21:55。
5901024098,杏一瑞安藥局,臺北市大安區瑞安街２０８巷１１弄１號,121.5406,25.02866,(02)27096710,羅氏家用新冠病毒抗原自我檢測套組,78,2022/05/10 14:04:02,3點發快篩，前5分鐘發牌
5901024114,好安心藥局,臺北市大安區和平東路２段９８之２號,121.5415,25.02493,(02)23772166,羅氏家用新冠病毒抗原自我檢測套組,66,2022/05/10 14:04:02,快篩發放: 週一至週六 15:30現場開始販售（人滿提早發售），不發號碼牌。
5901024347,博大藥局,臺北市大安區安和路２段６５號,121.5526,25.03063,(02)27027858,羅氏家用新冠病毒抗原自我檢測套組,75,2022/05/10 14:04:02,若有配給．下午兩點開始販售。
5901024516,博昱師大藥局,臺北市大安區羅斯福路３段１８９號,121.5281,25.02109,(02)23696966,羅氏家用新冠病毒抗原自我檢測套組,66,2022/05/10 14:04:02,實名制快篩販售時間為下午14:00~15:30
5901024669,百岳藥局,臺北市大安區和平東路２段３１１巷１１號,121.5452,25.02514,(02)27551037,羅氏家用新冠病毒抗原自我檢測套組,13,2022/05/10 14:04:02,快篩試劑販售時間:周一至周五10:30~12:00止
5901024678,大安健康人生藥局,臺北市大安區信義路４段３４號,121.5447,25.03316,(02)27025553,羅氏家用新冠病毒抗原自我檢測套組,78,2022/05/10 14:04:02,快篩發放時間:下午3點開始發放號碼牌，並依序入場購買，請協助自備紙鈔
5901024838,昶青藥局,臺北市大安區濟南路３段２２之１號,121.5346,25.04008,(02)27515678,羅氏家用新冠病毒抗原自我檢測套組,2,2022/05/10 14:04:02,每天下午13:00販售快篩實名制
5901024865,沛林東區生活藥粧藥局,臺北市大安區忠孝東路４段１８１巷７弄５號,121.551,25.04219,(02)27763759,羅氏家用新冠病毒抗原自我檢測套組,33,2022/05/10 14:04:02,每日早上11:00營業，若快篩有到貨，每日發放時間為下午2:00開始
5901024892,太醫藥局,臺北市大安區師大路１２號,121.5283,25.02568,(02)23685125,羅氏家用新冠病毒抗原自我檢測套組,14,2022/05/10 14:04:02,快篩發放時間:周一至周五13:30，無發放號碼牌
5901024918,康祥藥局,臺北市大安區忠孝東路４段２１６巷２１號,121.5531,25.04025,(02)27817891,羅氏家用新冠病毒抗原自我檢測套組,1,2022/05/10 14:04:02,星期天11:00-19:00
5901025022,躍獅敦和藥局,臺北市大安區和平東路３段１０號,121.547,25.02453,(02)23785767,羅氏家用新冠病毒抗原自我檢測套組,58,2022/05/10 14:04:02,無
5901025031,中力信義藥局,臺北市大安區信義路４段５１號（１樓）,121.545,25.03354,(02)23250266,羅氏家用新冠病毒抗原自我檢測套組,7,2022/05/10 14:04:02,下午一點到三點販售實名制快篩（周日不販售）
5901025059,博醫仁愛藥局,臺北市大安區仁愛路４段８巷２號１樓,121.5443,25.0375,(02)27019107,羅氏家用新冠病毒抗原自我檢測套組,25,2022/05/10 14:04:02,每天11:30發號碼牌，12:00~15:00憑號碼牌與健保卡購買實名制快篩
5901091473,快安藥局,臺北市大同區南京西路２８２、２８４號,121.5146,25.05349,(02)25561925,羅氏家用新冠病毒抗原自我檢測套組,71,2022/05/10 14:04:02,下午兩點開放快篩試劑購買
5901092103,新聖安藥局,臺北市大同區昌吉街１３０號,121.5143,25.06584,(02)25977877,羅氏家用新冠病毒抗原自我檢測套組,17,2022/05/10 14:04:02,每日下午2點開賣 （前10分鐘發號碼牌）
5901092112,酒泉春天藥局,臺北市大同區酒泉街９４號、９４號２樓,121.5146,25.07193,(02)25977932,羅氏家用新冠病毒抗原自我檢測套組,78,2022/05/10 14:04:02,無
5901092130,大同民生藥局,臺北市大同區民生西路１２８號１樓、２樓及１３０號１樓、２樓,121.5191,25.05734,(02)25558886,羅氏家用新冠病毒抗原自我檢測套組,78,2022/05/10 14:04:02,快篩實名制，每天16:00開始販售，售完為止。
5901100057,百源堂大藥局,臺北市中山區長安東路２段４７－５號,121.5322,25.04857,(02)25364362,羅氏家用新冠病毒抗原自我檢測套組,29,2022/05/10 14:04:02,週休2 日及國定假日休營業時間上午8時30分至晚間7點
5901100333,明美藥局,臺北市中山區長春路６９號,121.5266,25.05502,(02)25365419,羅氏家用新冠病毒抗原自我檢測套組,61,2022/05/10 14:04:02,口罩周一至周五，16:30-18:30販售
5901100422,滿順藥局,臺北市中山區伊通街５４號１樓,121.5347,25.05145,(02)25075283,羅氏家用新冠病毒抗原自我檢測套組,3,2022/05/10 14:04:02,快篩服務時間 AM 8:30 起 售完為止
5901101321,文德藥局,臺北市中山區龍江路３５６巷１９號１樓,121.5401,25.06607,(02)25181178,羅氏家用新冠病毒抗原自我檢測套組,74,2022/05/10 14:04:02,無
5901101509,永直藥局,臺北市中山區北安路５９５巷２弄６號,121.5483,25.08192,(02)85098059,羅氏家用新冠病毒抗原自我檢測套組,230,2022/05/10 14:04:02,周一至周六早上8點發號碼牌，下午2點到晚上8點販售（拿號碼牌來買），周日不販售
5901101910,嘉恩藥局,臺北市中山區錦州街３２１號,121.5385,25.06033,(02)25181418,羅氏家用新冠病毒抗原自我檢測套組,2,2022/05/10 14:04:02,週一至週六下午一點販售快篩試劑
5901102015,久大藥局,臺北市中山區林森北路４８０號,121.5255,25.06127,(02)25111594,羅氏家用新冠病毒抗原自我檢測套組,2,2022/05/10 14:04:02,即日起周一至周六下午1:00-4:00領取口罩。 周日休息
5901102560,龍江藥局,臺北市中山區龍江路３５６巷１４號,121.5403,25.06591,(02)25023724,羅氏家用新冠病毒抗原自我檢測套組,65,2022/05/10 14:04:02,無
5901103192,昶青林森藥局,臺北市中山區林森北路１１９巷５２號,121.5269,25.05018,(02)25639939,羅氏家用新冠病毒抗原自我檢測套組,32,2022/05/10 14:04:02,口罩代售平日10:30-20:00，例假日13:30-18:00 售完為止
5901103325,仁一藥局,臺北市中山區林森北路５２０號,121.5255,25.06232,(02)25711742,羅氏家用新冠病毒抗原自我檢測套組,63,2022/05/10 14:04:02,快篩發放時間每日下午2點
5901103629,十二願藥局,臺北市中山區林森北路３０９號,121.5256,25.05588,(02)25311223,羅氏家用新冠病毒抗原自我檢測套組,76,2022/05/10 14:04:02,快篩晚上8點開始發放.營業時間下午1點至凌晨3點
5901103656,大樹龍江藥局,臺北市中山區龍江路２４２號,121.5406,25.05889,(02)25035666,羅氏家用新冠病毒抗原自我檢測套組,78,2022/05/10 14:04:02,快篩實名制，每天16:00開始販售，售完為止。
5901103727,盛康藥局,臺北市中山區吉林路３９９號１樓,121.5305,25.06587,(02)25969580,羅氏家用新冠病毒抗原自我檢測套組,52,2022/05/10 14:04:02,國定假日仍執行調劑業務
5901103745,吉林藥局,臺北市中山區吉林路３７１號（１樓）,121.5305,25.06511,(02)25865990,羅氏家用新冠病毒抗原自我檢測套組,78,2022/05/10 14:04:02,快篩實名制，每天16:00開始販售，售完為止。
5901103790,可康藥局,臺北市中山區林森北路３７３號（１樓）,121.5257,25.05826,(02)25361078,羅氏家用新冠病毒抗原自我檢測套組,2,2022/05/10 14:04:02,快篩實名制晚上9點開始發放
5901110311,永安藥局,臺北市內湖區文德路２１０巷３０弄４８號,121.5852,25.07723,(02)26586658,羅氏家用新冠病毒抗原自我檢測套組,7,2022/05/10 14:04:02,口罩販售時間早上10點開始發號碼牌  同時販售
5901110446,清白藥局,臺北市內湖區東湖路１０８號,121.6157,25.06828,(02)26305743,羅氏家用新冠病毒抗原自我檢測套組,69,2022/05/10 14:04:02,無
5901111890,安康藥局,臺北市內湖區安康路４８２號,121.6158,25.06785,(02)26327675,羅氏家用新冠病毒抗原自我檢測套組,14,2022/05/10 14:04:02,無
5901112682,富康東湖藥局,臺北市內湖區東湖路１１９巷４９弄１６號,121.617,25.06988,(02)26323222,羅氏家用新冠病毒抗原自我檢測套組,50,2022/05/10 14:04:02,視快篩實際到貨時間販售；LINE社群搜尋「富康藥局東湖店」會有第一線消息
5901112879,壹零捌藥局,臺北市內湖區成功路４段３４４號,121.5996,25.08488,(02)27910061,羅氏家用新冠病毒抗原自我檢測套組,1,2022/05/10 14:04:02,快篩晚上7:30開始販售（星期一至星期六）
5901112977,瑞光藥局,臺北市內湖區瑞光路２１２號,121.5763,25.07525,(02)87513365,羅氏家用新冠病毒抗原自我檢測套組,68,2022/05/10 14:04:02,實名制快篩每日PM14:00開賣
5901113018,桔子藥局,臺北市內湖區內湖路２段３３３號,121.5917,25.08319,(02)27930052,羅氏家用新冠病毒抗原自我檢測套組,78,2022/05/10 14:04:02,早0900-1200，午1400-1700，晚1900-2100
5901113081,宜昇優良藥局,臺北市內湖區康寧路３段１６５巷１０號,121.6118,25.07081,(02)26327817,羅氏家用新冠病毒抗原自我檢測套組,42,2022/05/10 14:04:02,快篩代售時間: 下午14:00
5901113198,傑昇藥局,臺北市內湖區內湖路２段２２７號,121.589,25.0818,(02)27925957,羅氏家用新冠病毒抗原自我檢測套組,50,2022/05/10 14:04:02,快篩代售時間:星期一~星期六 下午02:00
5901113385,躍獅康成藥局,臺北市內湖區成功路４段６１巷１１號,121.5928,25.0814,(02)87922031,羅氏家用新冠病毒抗原自我檢測套組,64,2022/05/10 14:04:02,如有收到政府配送，實名制快篩13:40發號碼牌，14:00開賣。實名制口罩已無販售。
5901113438,晶龍藥局,臺北市內湖區成功路４段２１８號,121.5961,25.08456,(02)27956255,羅氏家用新冠病毒抗原自我檢測套組,78,2022/05/10 14:04:02,快篩試劑販售時間:星期一~六下午2:30 售完為止
5901113456,佑全內湖康寧藥局,臺北市內湖區康寧路３段３９號、３９號２樓、４１號、４３號,121.6078,25.07264,(02)26346578,羅氏家用新冠病毒抗原自我檢測套組,63,2022/05/10 14:04:02,實名制快篩14:00販售 13:50發號碼牌
5901113643,博昱東福藥局,臺北市內湖區東湖路１４７號,121.6172,25.06815,(02)26308599,羅氏家用新冠病毒抗原自我檢測套組,55,2022/05/10 14:04:02,無
5901113661,內湖藥局,臺北市內湖區康寧路１段１１６號１樓,121.5934,25.07948,(02)27940545,羅氏家用新冠病毒抗原自我檢測套組,78,2022/05/10 14:04:02,快篩實名制，每天16:00開始販售，售完為止。
5901113723,杏一港墘藥局,臺北市內湖區港墘路８３號（１樓）,121.5781,25.08078,(02)87978746,羅氏家用新冠病毒抗原自我檢測套組,78,2022/05/10 14:04:02,無
5901121823,儀安健保藥局,臺北市南港區同德路７４號,121.5853,25.0457,(02)27859893,羅氏家用新冠病毒抗原自我檢測套組,78,2022/05/10 14:04:02,實名制快篩下午三點開賣，無發放號碼牌（只有週日為晚上六點）
5901122080,成福大藥局,臺北市南港區成福路８號,121.5859,25.04578,(02)27859221,羅氏家用新冠病毒抗原自我檢測套組,70,2022/05/10 14:04:02,無
5901150235,杏城藥局,臺北市士林區天母東路２４號,121.5322,25.11764,(02)28725144,羅氏家用新冠病毒抗原自我檢測套組,54,2022/05/10 14:04:02,週一至週五下午2:00 週六上午10:00販售實名制快篩試劑 週日公休 每人限一卡
5901150548,田倉藥局,臺北市士林區士東路１２４號,121.5302,25.11219,(02)88662188,羅氏家用新冠病毒抗原自我檢測套組,78,2022/05/10 14:04:02,每日19:00（傍晚7點）開始販售.
5901152079,資生堂藥局,臺北市士林區承德路４段４０巷１７號１Ｆ,121.522,25.08107,(02)28857588,羅氏家用新冠病毒抗原自我檢測套組,78,2022/05/10 14:04:02,今日快篩已售完
5901152453,家赫藥局,臺北市士林區忠義街８０號１樓,121.5317,25.10614,(02)28346453,羅氏家用新冠病毒抗原自我檢測套組,78,2022/05/10 14:04:02,每日下午2:40開始發號碼牌販售實名制快篩
5901153263,健揚藥局,臺北市士林區延平北路５段２５１號,121.5097,25.08483,(02)28163698,羅氏家用新冠病毒抗原自我檢測套組,9,2022/05/10 14:04:02,每日下午13:30開始販售
5901153432,大南春天生活藥局,臺北市士林區大南路３１７、３１９號,121.518,25.08888,(02)28882196,羅氏家用新冠病毒抗原自我檢測套組,77,2022/05/10 14:04:02,本藥局可領慢箋 快篩是下午3點開始販售 售完為止（物流無配送&配送不及例外）
5901153496,躍獅忠誠藥局,臺北市士林區忠義街７０號,121.5314,25.10594,(02)28387948,羅氏家用新冠病毒抗原自我檢測套組,66,2022/05/10 14:04:02,快篩下午兩點販售，現場排隊沒有發號碼牌（週日販售視到貨情況決定）
5901153674,愛佳藥局,臺北市士林區承德路４段２２２之１號,121.5215,25.0885,(02)28811199,羅氏家用新冠病毒抗原自我檢測套組,78,2022/05/10 14:04:02,實名制快篩平日一~五下午5:00販售，假日（六、日）不販售
5901153941,士東藥局,臺北市士林區士東路９１巷３號,121.5291,25.11256,(02)28760588,羅氏家用新冠病毒抗原自我檢測套組,78,2022/05/10 14:04:02,快篩實名制，每天16:00開始販售，售完為止。
5901153969,杏一士林延平藥局,臺北市士林區延平北路５段２５０號（１樓）、２５２號１樓,121.51,25.08468,(02)28112937,羅氏家用新冠病毒抗原自我檢測套組,3,2022/05/10 14:04:02,周一至周六中午12點販售實名制快篩試劑
5901154019,忠義台安藥局,臺北市士林區忠義街７２號１樓,121.5315,25.106,(02)28380685,羅氏家用新冠病毒抗原自我檢測套組,64,2022/05/10 14:04:02,下午2點開始販售快篩試劑
5901154028,向宇藥局,臺北市士林區德行東路２１７號１樓,121.5328,25.10935,(02)88661101,羅氏家用新冠病毒抗原自我檢測套組,109,2022/05/10 14:04:02,無
5901154082,德行盛康藥局,臺北市士林區德行東路２０６之１號１樓,121.532,25.1089,(02)28348756,羅氏家用新冠病毒抗原自我檢測套組,60,2022/05/10 14:04:02,無
5901154108,藥本家藥局,臺北市士林區中山北路７段１４巷２６號１樓,121.5328,25.11884,(02)28766682,羅氏家用新冠病毒抗原自我檢測套組,9,2022/05/10 14:04:02,無
5901154135,誠泰中西藥局,臺北市士林區永平街１３號１樓,121.5051,25.08996,(02)88112352,羅氏家用新冠病毒抗原自我檢測套組,75,2022/05/10 14:04:02,周一到周六晚上7:00開始販賣，   周日上午10:00開賣到下午1:00
5901160062,丸三大藥局,臺北市北投區自強街１０５號,121.5153,25.11086,(02)28230637,羅氏家用新冠病毒抗原自我檢測套組,1,2022/05/10 14:04:02,實名制快篩試劑13:30開始販售
5901160099,進春藥局,臺北市北投區明德路１５１號,121.5206,25.11086,(02)28216938,羅氏家用新冠病毒抗原自我檢測套組,1,2022/05/10 14:04:02,無休 上午九點開始販售，現場排隊。（依現場公告為主）
5901160197,川秀藥局,臺北市北投區石牌路２段９９巷９號１樓,121.5166,25.11792,(02)28270702,羅氏家用新冠病毒抗原自我檢測套組,55,2022/05/10 14:04:02,每日14:00開賣
5901160222,新祥藥局,臺北市北投區知行路２０８號－１,121.4668,25.11935,(02)28582551,羅氏家用新冠病毒抗原自我檢測套組,16,2022/05/10 14:04:02,實名制快篩下午1:30分發放號碼牌，隨後依照號碼牌發售，周日休息
5901160428,九福藥局,臺北市北投區公館路２３６號,121.5081,25.12612,(02)28953009,羅氏家用新冠病毒抗原自我檢測套組,17,2022/05/10 14:04:02,★週日店休未營業. 快篩下午1點發號碼牌
5901160517,弘安藥局,臺北市北投區懷德街３３號１樓,121.5193,25.11219,(02)28206390,羅氏家用新冠病毒抗原自我檢測套組,22,2022/05/10 14:04:02,快篩每日下午2:00開賣，現場購買售完為止
5901160802,美康藥局,臺北市北投區明德路９０號１樓,121.5196,25.1094,(02)28281176,羅氏家用新冠病毒抗原自我檢測套組,20,2022/05/10 14:04:02,營業時間:10:30~22:00；13:30開始販售快篩
5901161934,康揚藥局,臺北市北投區中和街３２２號,121.4998,25.14108,(02)28946520,羅氏家用新冠病毒抗原自我檢測套組,77,2022/05/10 14:04:02,（ 實名制快篩發放時間: 14:00~售完為止）
5901162477,長宜藥局,臺北市北投區自強街１１２號,121.5155,25.11074,(02)28216605,羅氏家用新冠病毒抗原自我檢測套組,61,2022/05/10 14:04:02,實名制快篩試劑發放時間:14:00~售完為止，會依政府配送狀況調整
5901163250,關渡松藥局,臺北市北投區知行路２４７號,121.4671,25.12074,(02)28584824,羅氏家用新冠病毒抗原自我檢測套組,73,2022/05/10 14:04:02,（更新囉!!）5／10午2點開賣    郵局可配送時間：週一至週五正常配送週六13：00-17：00配送周日店休。
5901163269,佳祈健保藥局,臺北市北投區明德路１４４號,121.5208,25.11047,(02)28232535,羅氏家用新冠病毒抗原自我檢測套組,36,2022/05/10 14:04:02,無
5901163509,吉利春天生活藥局,臺北市北投區吉利街１２０號,121.5068,25.11851,(02)28253256,羅氏家用新冠病毒抗原自我檢測套組,78,2022/05/10 14:04:02,無
5901163527,理得藥局,臺北市北投區石牌路１段１５０號,121.5131,25.11426,(02)28289680,羅氏家用新冠病毒抗原自我檢測套組,64,2022/05/10 14:04:02,每日13:30發放號碼牌 14:00開賣，售完為止。
5901163616,江南育仁大藥局,臺北市北投區育仁路５５號１樓,121.4981,25.13361,(02)28981850,羅氏家用新冠病毒抗原自我檢測套組,71,2022/05/10 14:04:02,下午2點販售實名制快篩，假日視政府配發情況調整
5901163643,致遠盛康藥局,臺北市北投區致遠二路１４１號１樓,121.5128,25.1173,(02)28263580,羅氏家用新冠病毒抗原自我檢測套組,64,2022/05/10 14:04:02,快篩試劑下午2點開始發放號碼牌
5901170059,必欣藥局,臺北市信義區松仁路２６４號,121.5696,25.02425,(02)27225060,羅氏家用新冠病毒抗原自我檢測套組,42,2022/05/10 14:04:02,實名制快篩販售時間：星期一至星期六下午13：30開始
5901170139,福華藥局,臺北市信義區吳興街２８１巷３號１樓,121.5643,25.02656,(02)27208527,羅氏家用新冠病毒抗原自我檢測套組,37,2022/05/10 14:04:02,現階段下午1:30配合政府發售快篩試劑
5901170406,鼎泰藥局,臺北市信義區基隆路１段１５５號１樓,121.5653,25.04222,(02)27620617,羅氏家用新冠病毒抗原自我檢測套組,65,2022/05/10 14:04:02,周一至周五 9：30-21：30 （9:30 開始發快篩） 5／1 有營業
5901172508,好康藥局,臺北市信義區莊敬路４１４號,121.5662,25.02716,(02)27232979,羅氏家用新冠病毒抗原自我檢測套組,9,2022/05/10 14:04:02,無
5901172820,安心藥局,臺北市信義區永吉路３０巷１４８弄４之１號,121.5685,25.04266,(02)27474992,羅氏家用新冠病毒抗原自我檢測套組,47,2022/05/10 14:04:02,快篩代售時間14:00起現場排隊
5901172924,躍獅松仁藥局,臺北市信義區松仁路２３３號（實際營業地址：１樓）,121.5688,25.02617,(02)27238626,羅氏家用新冠病毒抗原自我檢測套組,30,2022/05/10 14:04:02,快篩販售時段:下午13:30開始售完至晚上19:00前
5901173041,皇昇大藥局,臺北市信義區松山路２１０號１樓,121.5776,25.04509,(02)27663488,羅氏家用新冠病毒抗原自我檢測套組,76,2022/05/10 14:04:02,周一至週五下午3點開始販售實名制快篩
5901173238,正和藥局,臺北市信義區吳興街２２５巷６號,121.5634,25.02782,(02)23455186,羅氏家用新冠病毒抗原自我檢測套組,54,2022/05/10 14:04:02,下午2點半發放快篩，週日無發放
5901173390,馨馨藥局,臺北市信義區虎林街８２巷１９號,121.5764,25.04336,(02)27491208,羅氏家用新冠病毒抗原自我檢測套組,1,2022/05/10 14:04:02,無
5901173587,新興健保藥局,臺北市信義區永吉路３０巷１１３號,121.5689,25.04324,(02)27494892,羅氏家用新冠病毒抗原自我檢測套組,77,2022/05/10 14:04:02,快篩試劑下午二點開始販售
5901173694,洪暘藥局,臺北市信義區富陽街８６號,121.5564,25.02127,(02)27337099,羅氏家用新冠病毒抗原自我檢測套組,63,2022/05/10 14:04:02,下午2點開始販售，限一人持一張健保卡。
5901173710,專品光復藥局,臺北市信義區光復南路４６７之１號,121.5577,25.03384,(02)27586682,羅氏家用新冠病毒抗原自我檢測套組,73,2022/05/10 14:04:02,禮拜一到六下午三點販售口罩
5901173818,博亞藥局,臺北市信義區莊敬路４６２號,121.5677,25.02672,(02)27580506,羅氏家用新冠病毒抗原自我檢測套組,39,2022/05/10 14:04:02,平日早上8:30、晚上8:00；假日早上8:30，發放號碼牌，持號碼牌購買!
5901173943,躍獅興雅藥局,臺北市信義區松德路１２８號,121.5745,25.03734,(02)87808429,羅氏家用新冠病毒抗原自我檢測套組,78,2022/05/10 14:04:02,14:00發號碼牌且同步開賣快篩，販賣至15:00或售完為止，週日無販售。
5901173961,北一忠孝藥局,臺北市信義區忠孝東路５段５２４巷１弄１６號１樓,121.5802,25.04133,(02)23464588,羅氏家用新冠病毒抗原自我檢測套組,3,2022/05/10 14:04:02,實名制快篩一~六販早上10點販售，周日不販售
5901174057,詠晴中西藥局,臺北市信義區松山路４８４之４號（１樓含夾層）,121.5778,25.0389,(02)27266890,羅氏家用新冠病毒抗原自我檢測套組,84,2022/05/10 14:04:02,實名制快篩 - 16:30領號碼牌.當天取貨即可.避免群聚風險
5901174066,愛維喜藥局,臺北市信義區莊敬路２７８號１樓,121.5627,25.02882,(02)27586989,羅氏家用新冠病毒抗原自我檢測套組,77,2022/05/10 14:04:02,快篩周一至五15:30.周六8:30開賣.約30分前收健保卡現金500元1張.發號碼牌
5901174075,信義盛康藥局,臺北市信義區永吉路２８６號（１樓）,121.5744,25.04538,(02)23460521,羅氏家用新冠病毒抗原自我檢測套組,1,2022/05/10 14:04:02,無
5901174084,市政藥局,臺北市信義區忠孝東路５段１６９號１樓、１７１號１樓,121.5688,25.0412,(02)27560050,羅氏家用新冠病毒抗原自我檢測套組,78,2022/05/10 14:04:02,快篩實名制，每天16:00開始販售，售完為止。
5901183985,正康藥局,臺北市中正區漢口街１段２２號,121.5142,25.04507,(02)23712831,羅氏家用新冠病毒抗原自我檢測套組,1,2022/05/10 14:04:02,快篩13:30發號碼牌，14:00發放快篩
5901184080,活力健康藥妝藥局,臺北市中正區中華路２段３１５巷１號,121.5062,25.02795,(02)23392625,羅氏家用新冠病毒抗原自我檢測套組,41,2022/05/10 14:04:02,快篩14:00-15:00， 建議提早排隊
5901184366,宏越藥局,臺北市中正區中華路２段３１３巷４號,121.5061,25.02813,(02)23050880,羅氏家用新冠病毒抗原自我檢測套組,3,2022/05/10 14:04:02,代售實名制快篩時間 每日下午14:30開始  售完即停止  可關注FB公告當日是否代售
5901184535,桐心藥局,臺北市中正區金華街１８之６號１樓,121.5202,25.03175,(02)23581663,羅氏家用新冠病毒抗原自我檢測套組,6,2022/05/10 14:04:02,無
5901184553,珍忻藥局,臺北市中正區南昌路１段６５號,121.5174,25.03107,(02)23965115,羅氏家用新冠病毒抗原自我檢測套組,42,2022/05/10 14:04:02,健保快篩發放:13:20及18:20分兩梯次發號碼牌
5901190033,世欣藥局,臺北市萬華區東園街１７３號１Ｆ,121.4973,25.02419,(02)23074263,羅氏家用新冠病毒抗原自我檢測套組,60,2022/05/10 14:04:02,防疫快篩劑服務時間週一至五14:00-16:00週六10:00-12:00
5901190426,皇祥藥局,臺北市萬華區萬青街１６５號１樓,121.5016,25.02279,(02)23375676,羅氏家用新冠病毒抗原自我檢測套組,33,2022/05/10 14:04:02,有貨時每天下午2點販售 五份醫護人員
5901190668,聯慶大藥局,臺北市萬華區萬大路３０６號１樓,121.5003,25.02495,(02)23039850,羅氏家用新冠病毒抗原自我檢測套組,38,2022/05/10 14:04:02,無
5901192180,康之友藥局,臺北市萬華區青年路２０號,121.5055,25.02592,(02)23011598,羅氏家用新冠病毒抗原自我檢測套組,42,2022/05/10 14:04:02,下午兩點發號碼牌
5901192546,躍獅西園藥局,臺北市萬華區西園路２段２６０號,121.4946,25.02784,(02)23094063,羅氏家用新冠病毒抗原自我檢測套組,71,2022/05/10 14:04:02,快篩販售時段：下午2點至售完為止（政府正常配貨的情況下，現場排隊）
5901192822,專品藥局,臺北市萬華區長沙街２段７１－１號,121.5051,25.04062,(02)23718892,羅氏家用新冠病毒抗原自我檢測套組,1,2022/05/10 14:04:02,快篩實名制下午3點發放
5901192975,萬華藥局,臺北市萬華區萬大路２４８號實際營業地址１樓、２樓,121.5003,25.02626,(02)23012221,羅氏家用新冠病毒抗原自我檢測套組,78,2022/05/10 14:04:02,快篩實名制，每天16:00開始販售，售完為止。
5901193070,榮勝藥局,臺北市萬華區萬大路２３３號,121.5006,25.02649,(02)23331121,羅氏家用新冠病毒抗原自我檢測套組,1,2022/05/10 14:04:02,每日快篩早上十一點開始販售
5901193123,千誠北護藥局,臺北市萬華區內江街１１４號,121.5034,25.04152,(02)23123530,羅氏家用新冠病毒抗原自我檢測套組,2,2022/05/10 14:04:02,快篩一開門就發號碼牌，故網路庫存不準。
5901193221,正盛藥局,臺北市萬華區中華路２段４３４－１號,121.5064,25.02708,(02)23050386,羅氏家用新冠病毒抗原自我檢測套組,73,2022/05/10 14:04:02,【5／9自費快篩+血氧機到貨!!】1.一~六20點，周日不賣 2.排隊人潮多，建議7點左右提前候位 3.詳情看公告或板橋正康臉書
5901193230,啟仁藥局,臺北市萬華區環河南路２段１７７號,121.492,25.03259,(02)23362771,羅氏家用新冠病毒抗原自我檢測套組,50,2022/05/10 14:04:02,六日沒配送就停售（有配就有），一般時間下午2點開始發號碼牌， 發完為止
5901193338,艾米力藥師藥局,臺北市萬華區西藏路１０７－２號１樓,121.5035,25.02955,(02)23036583,羅氏家用新冠病毒抗原自我檢測套組,72,2022/05/10 14:04:02,實名制快篩：周一~周五【晚上】7:00販售；周末（六日）早上9:00販售
5901193365,企鵝藥局,臺北市萬華區西昌街１７５號（１樓）,121.5007,25.03886,(02)23884691,羅氏家用新冠病毒抗原自我檢測套組,65,2022/05/10 14:04:02,公費快篩試劑，下午2點發號碼牌
5901200114,健群藥局,臺北市文山區景興路４１號,121.5448,24.99717,(02)29328898,羅氏家用新冠病毒抗原自我檢測套組,1,2022/05/10 14:04:02,無
5901201568,康宜庭生活藥局,臺北市文山區興隆路４段６４號,121.5613,24.98514,(02)29385363,羅氏家用新冠病毒抗原自我檢測套組,67,2022/05/10 14:04:02,實名快篩14:00開賣 現場排隊
5901201835,巧康藥局,臺北市文山區木新路３段２６２、２６４號,121.5585,24.98132,(02)29372061,羅氏家用新冠病毒抗原自我檢測套組,74,2022/05/10 14:04:02,每日下午2點發放號碼牌，2點15進行快篩販售。請勿離場，離場視同放棄。
5901202627,杏隆藥局,臺北市文山區羅斯福路５段２６１號,121.5395,25.00115,(02)29313151,羅氏家用新冠病毒抗原自我檢測套組,226,2022/05/10 14:04:02,快篩實名制採預約登記，至5／14已登記額滿。
5901202654,康宜庭萬隆藥局,臺北市文山區羅斯福路５段２０２號,121.5384,25.00322,(02)29348662,羅氏家用新冠病毒抗原自我檢測套組,70,2022/05/10 14:04:02,實名快篩中午才到貨   每日下午14:00準時開賣（建議13:00來排隊）
5901202681,振大藥局,臺北市文山區永安街２２巷１６號,121.5697,24.98683,(02)29393385,羅氏家用新冠病毒抗原自我檢測套組,50,2022/05/10 14:04:02,無
5901202841,欣安景美藥局,臺北市文山區景文街７７號,121.5414,24.99126,(02)29316008,羅氏家用新冠病毒抗原自我檢測套組,64,2022/05/10 14:04:02,今日快篩劑PM:14:00販賣售完為止
5901202949,萬隆大藥局,臺北市文山區羅斯福路５段２１８巷１５號,121.538,25.00203,(02)29334580,羅氏家用新冠病毒抗原自我檢測套組,145,2022/05/10 14:04:02,9：00~23：00
5901202958,杏一萬安藥局,臺北市文山區萬安街１５號,121.5706,25.00139,(02)22302126,羅氏家用新冠病毒抗原自我檢測套組,42,2022/05/10 14:04:02,營業時間0900-2200
5901203062,大樹文山藥局,臺北市文山區興隆路３段１３號（１、２、３樓）,121.555,25.00088,(02)29342226,羅氏家用新冠病毒抗原自我檢測套組,78,2022/05/10 14:04:02,快篩實名制，每天16:00開始販售，售完為止。
5901203106,光明大藥局,臺北市文山區忠順街１段６６號,121.5607,24.98426,(02)29390275,羅氏家用新冠病毒抗原自我檢測套組,76,2022/05/10 14:04:02,無
5901203124,福興藥局,臺北市文山區福興路５６號,121.5505,25.00345,(02)89313868,羅氏家用新冠病毒抗原自我檢測套組,39,2022/05/10 14:04:02,領快篩時間:周一到周六，下午2點開放購買快篩，1人1卡1份
5901203295,專品政大藥局,臺北市文山區指南路２段８號,121.5742,24.98784,(02)22343010,羅氏家用新冠病毒抗原自我檢測套組,77,2022/05/10 14:04:02,無
5901203366,大樹木柵藥局,臺北市文山區木柵路３段１０８號、１１０號（１樓、２樓）,121.5676,24.98866,(02)22340110,羅氏家用新冠病毒抗原自我檢測套組,78,2022/05/10 14:04:02,快篩實名制，每天16:00開始販售，售完為止。
5901203375,大樹景美藥局,臺北市文山區羅斯福路６段２３４之１號,121.5404,24.99244,(02)29322951,羅氏家用新冠病毒抗原自我檢測套組,78,2022/05/10 14:04:02,快篩實名制，每天16:00開始販售，售完為止。
5901203393,躍獅景新藥局,臺北市文山區羅斯福路６段３０號１樓,121.5396,24.99978,(02)29356221,羅氏家用新冠病毒抗原自我檢測套組,76,2022/05/10 14:04:02,無
5901203428,康宜庭景文藥局,臺北市文山區景文街９７號１樓,121.5413,24.99093,(02)29302801,羅氏家用新冠病毒抗原自我檢測套組,66,2022/05/10 14:04:02,營業時間為08:30-22:30；14:00開始發放快篩實名制號碼牌並立即販售，謝謝您的配合
5901203446,景華盛康藥局,臺北市文山區景華街６９號１樓,121.545,24.99524,(02)29310188,羅氏家用新冠病毒抗原自我檢測套組,78,2022/05/10 14:04:02,快篩販售時間:下午3點開賣，現場發送號碼牌
5901203482,健康家藥局,臺北市文山區興隆路２段１３３號１樓,121.5481,25.00011,(02)29330858,羅氏家用新冠病毒抗原自我檢測套組,10,2022/05/10 14:04:02,實名制快篩下午一點開始販售，5／1店休
5902030643,新高橋藥局,高雄市左營區民族一路１０２８號,120.3201,22.68255,(07)3100696,羅氏家用新冠病毒抗原自我檢測套組,74,2022/05/10 14:04:02,依快篩配送時間滾動式調整5／9下午14:30，請備妥當日可領買之健保卡與現金500元購買，不找零，0號是雙號，謝謝配合
5902042661,元春中西藥師藥局,高雄市楠梓區後昌路８３７巷３７號,120.294,22.71109,(07)3605656,羅氏家用新冠病毒抗原自我檢測套組,78,2022/05/10 14:04:02,周1~周6下午16:00開賣快篩，售完為止
5902050565,澄和藥局,高雄市三民區澄和路６６號,120.3445,22.64474,(07)3923111,羅氏家用新冠病毒抗原自我檢測套組,64,2022/05/10 14:04:02,快篩試劑- 販售時間自下午14:00起至售完為止
5902050636,嘉益藥局,高雄市三民區重慶街３０號,120.302,22.64223,(07)3110157,羅氏家用新冠病毒抗原自我檢測套組,47,2022/05/10 14:04:02,快篩實名制下午15：00開始販售.
5902050903,皇安藥局,高雄市三民區九如一路４６１號,120.3296,22.63865,(07)3866779,羅氏家用新冠病毒抗原自我檢測套組,4,2022/05/10 14:04:02,營業日0900可先領取號碼牌，上午9:00-12:00及下午3:00~10:.00為販賣快篩時間，售完為止
5902051268,上正藥師藥局,高雄市三民區憲政路２５５號,120.3185,22.63647,(07)2223355,羅氏家用新冠病毒抗原自我檢測套組,26,2022/05/10 14:04:02,周一至周五下午2點販售實名制快篩試劑，周末六日早上8點半至10點販售實名制快篩試劑
5902061540,長青藥局,高雄市新興區六合路１１４號,120.3159,22.63223,(07)2223969,羅氏家用新冠病毒抗原自我檢測套組,42,2022/05/10 14:04:02,快篩下午2點
5902071528,岩生藥局,高雄市前金區自立一路１５－１號,120.2975,22.63437,(07)2863608,羅氏家用新冠病毒抗原自我檢測套組,7,2022/05/10 14:04:02,營業時間為24小時 過年期間正常營業
5902085308,幸福藥師藥局,高雄市苓雅區青年一路１６７－３號,120.3079,22.62172,(07)5368701,羅氏家用新冠病毒抗原自我檢測套組,76,2022/05/10 14:04:02,1: 自111／5／1起：快篩販售時間為14:00開始。2: 販售方式依現場公告為主，售完為止。
5902090827,博平藥局,高雄市前鎮區草衙二路３７７號,120.3224,22.57808,(07)8311814,羅氏家用新冠病毒抗原自我檢測套組,54,2022/05/10 14:04:02,下午2點開始販售快篩.售完為止
5902091128,北京藥局,高雄市前鎮區公正路３１號,120.3322,22.60291,(07)7113100,羅氏家用新冠病毒抗原自我檢測套組,78,2022/05/10 14:04:02,發放方式，下午15；00現場過卡
5902092410,旺盛藥局,高雄市前鎮區永豐路１０８號,120.3337,22.6065,(07)7512899,羅氏家用新冠病毒抗原自我檢測套組,1,2022/05/10 14:04:02,過年期間 111／01／31下午至111／02／03  休診
5902092554,協和藥局,高雄市前鎮區中華五路９８３號,120.306,22.60221,(07)5377769,羅氏家用新冠病毒抗原自我檢測套組,48,2022/05/10 14:04:02,快篩代售:除星期天休息 周一至周五下午2:00 周六:晚上7點
5903010127,友誠藥局,臺中市豐原區豐東路４０１號１樓,120.7336,24.25457,(04)25132371,羅氏家用新冠病毒抗原自我檢測套組,74,2022/05/10 14:04:02,禮拜一至禮拜日快篩發放時間下午兩點開始販售，售完為止。
5903010261,豐原西勢藥局,臺中市豐原區西勢路２００號１樓,120.7067,24.24379,(04)25262330,羅氏家用新冠病毒抗原自我檢測套組,67,2022/05/10 14:04:02,今日快篩下午2:00開賣，1:50發號碼牌，因疫情無法店內排隊，不便之處敬請見諒。
5903010485,大樹圓環藥局,臺中市豐原區圓環東路６１７號１樓,120.7283,24.25084,(04)25122212,羅氏家用新冠病毒抗原自我檢測套組,78,2022/05/10 14:04:02,口罩販售時間：14:00 - 16:00
5903010501,佑全豐原圓環東藥局,臺中市豐原區圓環東路５４８、５５０、５５２、５５４號１樓,120.7275,24.24948,(04)25246069,羅氏家用新冠病毒抗原自我檢測套組,68,2022/05/10 14:04:02,營業時間9:00-21:00，今日實名制1:50發號碼牌2:00開賣，售完為止
5903010547,佑全豐原中正藥局,臺中市豐原區中正路２２３、２２５號１、２樓,120.7175,24.25179,(04)25152886,羅氏家用新冠病毒抗原自我檢測套組,70,2022/05/10 14:04:02,實名制快篩販售時間:下午2點開始（13:50發號碼牌）
5903010556,升禾和大藥局,臺中市豐原區育英路２６號１樓,120.7163,24.24346,(04)25293099,羅氏家用新冠病毒抗原自我檢測套組,78,2022/05/10 14:04:02,快篩試劑18:00領取.採現場排隊.售完為止
5903010583,林居藥局,臺中市豐原區源豐路１１４號１樓,120.7173,24.25367,(04)25159168,羅氏家用新冠病毒抗原自我檢測套組,75,2022/05/10 14:04:02,快篩依當天物流送貨時間， 會在 FB林居藥局 公告販售時間， 謝謝
5903020034,國良豐藥局,臺中市東勢區豐勢路２１號１樓,120.8318,24.24779,(04)25885778,羅氏家用新冠病毒抗原自我檢測套組,61,2022/05/10 14:04:02,快篩試劑下午2:00開始
5903040036,得康藥局,臺中市清水區高美路１１７號,120.5753,24.27879,(04)26260622,羅氏家用新冠病毒抗原自我檢測套組,78,2022/05/10 14:04:02,5／10下午14:40開始販售
5903050274,鹿寮藥局,臺中市沙鹿區中山路４６１、４６１－１號１、２樓,120.5615,24.24387,(04)26630677,羅氏家用新冠病毒抗原自我檢測套組,78,2022/05/10 14:04:02,快篩實名制，每天16:00開始販售，售完為止。
5903060010,大芳藥局,臺中市梧棲區中央路１段９０７號,120.5381,24.24742,(04)26561755,羅氏家用新冠病毒抗原自我檢測套組,43,2022/05/10 14:04:02,快篩試劑.下午兩點開始販售.
5903060038,梧棲玖裕藥局,臺中市梧棲區中和街８５號,120.5316,24.25545,(04)26583909,羅氏家用新冠病毒抗原自我檢測套組,47,2022/05/10 14:04:02,快篩代售星期一~五 下午2點.星期六早上10:30點 星期休假
5903060092,佑全梧棲文化藥局,臺中市梧棲區文化路二段１５０號１樓,120.531,24.25526,(04)26566433,羅氏家用新冠病毒抗原自我檢測套組,74,2022/05/10 14:04:02,實名快篩下午1：50發號碼牌；14：00開始販售
5903070025,得安藥局,臺中市后里區四村路７８號,120.7129,24.30469,(04)25585333,羅氏家用新冠病毒抗原自我檢測套組,146,2022/05/10 14:04:02,快篩販賣時間 14:00~15:00（售完為止）
5903070169,佑全后里甲后藥局,臺中市后里區甲后路一段７２８號１、２樓,120.7193,24.30951,(04)25583116,羅氏家用新冠病毒抗原自我檢測套組,67,2022/05/10 14:04:02,實名制快篩每日14:00販售。13:50發放號碼牌。
5903080138,佑全神岡中山藥局,臺中市神岡區中山路５４９、５４９之１、５４９之２號１樓,120.6842,24.24638,(04)25634677,羅氏家用新冠病毒抗原自我檢測套組,61,2022/05/10 14:04:02,每日下午1點50分發號碼牌2點開賣
5903090189,名方藥局,臺中市潭子區勝利路２８５號１樓,120.7004,24.21321,(04)25341777,羅氏家用新冠病毒抗原自我檢測套組,78,2022/05/10 14:04:02,快篩販售  （一）~（五） 下午6點    週（六）早上9點  週日不販售
5903090429,佑全潭子中山藥局,臺中市潭子區中山路一段９之１號,120.7023,24.18847,(04)25356140,羅氏家用新冠病毒抗原自我檢測套組,72,2022/05/10 14:04:02,營業時間:09:00-21:00／健保實聯制購買時間:14:00開始販售，13:50開始發號碼牌，售完為止。
5903100055,大詮藥師藥局,臺中市大雅區民生路３段４３２號,120.6655,24.23441,(04)25682767,羅氏家用新冠病毒抗原自我檢測套組,65,2022/05/10 14:04:02,實名制快篩，5／5起改下午2點賣。平時營業時間；週一到週五11:30至22:00，週六晚上9點打烊，周日固定公休。
5903100135,大雅安德藥局,臺中市大雅區中清東路２２９號１樓,120.6469,24.22459,(04)25604133,羅氏家用新冠病毒抗原自我檢測套組,63,2022/05/10 14:04:02,5／10（二）。實名制快篩13:30領取號碼牌，14:00販賣，不找零，每張卡隔一個月買一次，限每人一卡一份
5903100180,杏一大雅中清藥局,臺中市大雅區中清路四段３１、３３、３５號１樓,120.6448,24.22615,(04)25601791,羅氏家用新冠病毒抗原自我檢測套組,87,2022/05/10 14:04:02,週一~週六14:00販售（13:50發號碼牌）每人每卡限定1份500元!週日無販售!
5903100215,佑全大雅雅環藥局,臺中市大雅區雅環路二段８８號１樓,120.653,24.22634,(04)25605942,羅氏家用新冠病毒抗原自我檢測套組,76,2022/05/10 14:04:02,營業時間:09:00~21:00；實名制快篩於每日13:50發放號碼牌，14:00開始販售。
5903150135,全品藥局,臺中市烏日區公園路２４０之１號１樓,120.6254,24.10234,(04)23362690,羅氏家用新冠病毒抗原自我檢測套組,60,2022/05/10 14:04:02,週一 ~ 週五  下午2:00 & 週六 早上9點 販售 ，售完為止
5903150144,佑全台中烏日藥局,臺中市烏日區中山路一段３５４號１樓,120.6386,24.10816,(04)23367756,羅氏家用新冠病毒抗原自我檢測套組,69,2022/05/10 14:04:02,實名制快篩販售時間：下午2點（請準備剛好500元，謝謝配合）
5903150153,溪南藥局,臺中市烏日區溪南路一段５６５號１樓,120.6431,24.07523,(04)23353666,羅氏家用新冠病毒抗原自我檢測套組,78,2022/05/10 14:04:02,快篩實名制，每天16:00開始販售，售完為止。
5903170119,開心果藥局,臺中市龍井區新興路１１２號１樓,120.5835,24.18225,(04)26315252,羅氏家用新冠病毒抗原自我檢測套組,72,2022/05/10 14:04:02,週一到週六: 晚上6點半開賣，週日: 下午3點開賣，現場排隊。
5903180062,霧峰安德藥局,臺中市霧峰區中正路１１３５號１樓,120.6992,24.07002,(04)23300365,羅氏家用新冠病毒抗原自我檢測套組,59,2022/05/10 14:04:02,快篩代售時間14:00。13:40發號碼牌，過號即代表放棄。售完為止。
5903180142,峰正藥局,臺中市霧峰區中正路８３０號１樓,120.6987,24.06244,(04)23303353,羅氏家用新冠病毒抗原自我檢測套組,78,2022/05/10 14:04:02,快篩實名制，每天16:00開始販售，售完為止。
5903190228,中山德侑藥局,臺中市太平區中山路３段２之２號１樓,120.7222,24.14942,(04)23920682,羅氏家用新冠病毒抗原自我檢測套組,34,2022/05/10 14:04:02,每日下午13:30開始販售，但遇特殊情況快篩販售時間會調整
5903190273,太平小林健保藥局,臺中市太平區育賢路５１８號,120.7133,24.15883,(04)23954436,羅氏家用新冠病毒抗原自我檢測套組,17,2022/05/10 14:04:02,每天早上8點發號碼牌，下午4:30販售口罩
5903190362,太平中山藥局,臺中市太平區中山路４段１１號,120.7139,24.14931,(04)23959200,羅氏家用新冠病毒抗原自我檢測套組,78,2022/05/10 14:04:02,快篩實名制，每天16:00開始販售，售完為止。
5903190497,太平惠民藥師藥局,臺中市太平區東平路３６８號１樓,120.7267,24.13433,(04)22768799,羅氏家用新冠病毒抗原自我檢測套組,68,2022/05/10 14:04:02,實名制快篩:每日下午2點開賣，一人一卡，請自備500元，不找零
5903190700,佑全太平藥局,臺中市太平區樹德路１２１號１樓,120.712,24.15444,(04)23910016,羅氏家用新冠病毒抗原自我檢測套組,73,2022/05/10 14:04:02,每天下午1點40發號碼牌.2點開始販售
5903200229,信元藥局,臺中市大里區益民路２段３７２號１樓,120.684,24.11545,(04)24876051,羅氏家用新冠病毒抗原自我檢測套組,55,2022/05/10 14:04:02,下午5點發號碼牌並依序販賣
5903200318,廣信藥局,臺中市大里區益民路１段１６４號１樓,120.6924,24.10673,(04)24829981,羅氏家用新冠病毒抗原自我檢測套組,17,2022/05/10 14:04:02,周一至周六，下午13:30~售完為止
5903200514,大明永欣藥局,臺中市大里區大明路５３９號１樓、５４１號１樓,120.6735,24.11478,(04)24068864,羅氏家用新冠病毒抗原自我檢測套組,72,2022/05/10 14:04:02,實名制快篩每天下午2點開始發號碼牌
5903200541,大里康媞藥局,臺中市大里區塗城路４９４號,120.7024,24.08867,(04)24966627,羅氏家用新冠病毒抗原自我檢測套組,66,2022/05/10 14:04:02,快篩下午兩點開始
5903200596,大樹大里藥局,臺中市大里區中興路二段１０１號,120.6885,24.10305,(04)24861133,羅氏家用新冠病毒抗原自我檢測套組,78,2022/05/10 14:04:02,快篩實名制，每天16:00開始販售，售完為止。
5903200658,德芳成功藥局,臺中市大里區成功路５３５－３號１樓,120.7033,24.0913,(04)24920298,羅氏家用新冠病毒抗原自我檢測套組,80,2022/05/10 14:04:02,快篩販售時間:下午3點~6點
5903200685,塗城藥局,臺中市大里區中興路一段１８７、１８９、１９１號１樓,120.6933,24.09008,(04)24967234,羅氏家用新冠病毒抗原自我檢測套組,78,2022/05/10 14:04:02,快篩實名制，每天16:00開始販售，售完為止。
5903200701,大益藥局,臺中市大里區益民路二段３３５號１、２樓,120.6837,24.11311,(04)24811551,羅氏家用新冠病毒抗原自我檢測套組,78,2022/05/10 14:04:02,快篩實名制，每天16:00開始販售，售完為止。
5903200756,佑全大里大明藥局,臺中市大里區大明路３６０、３６２號,120.6787,24.11511,(04)24818633,羅氏家用新冠病毒抗原自我檢測套組,71,2022/05/10 14:04:02,實名制快篩，開賣時間:下午14:00，售完為止
5903220150,老順安大藥局,臺中市中區中華路二段６３號、６５號１樓,120.6794,24.14801,(04)22016306,羅氏家用新冠病毒抗原自我檢測套組,112,2022/05/10 14:04:02,實名制快篩銷售時間:周一至周六下午兩點至三點
5903220169,公園大藥局,臺中市中區公園路９５號１樓,120.6796,24.1462,(04)22062682,羅氏家用新冠病毒抗原自我檢測套組,2,2022/05/10 14:04:02,每日上午8點至下午11點59分
5903220178,佑全台中中華藥局,臺中市中區中華路一段１６２號１樓,120.6779,24.14605,(04)22291556,羅氏家用新冠病毒抗原自我檢測套組,70,2022/05/10 14:04:02,下午01:40開始發放號碼牌!! 售完為止!! 一人一卡一盒
5903230209,東京藥師藥局,臺中市東區復興路五段１４９號１樓,120.6893,24.14543,(04)22132278,羅氏家用新冠病毒抗原自我檢測套組,27,2022/05/10 14:04:02,無
5903230227,東區小林健保藥局,臺中市東區十甲路４８５號１樓,120.7104,24.14464,(04)22135148,羅氏家用新冠病毒抗原自我檢測套組,39,2022/05/10 14:04:02,無
5903230236,佳境藥局,臺中市東區大智路１－１號１樓,120.6881,24.13635,(04)22211395,羅氏家用新冠病毒抗原自我檢測套組,20,2022/05/10 14:04:02,下午14:00開始販售實名制快篩
5903240205,捷登藥局,臺中市西區公益路１０６號,120.6613,24.15105,(04)23191929,羅氏家用新冠病毒抗原自我檢測套組,68,2022/05/10 14:04:02,實名制快篩 每日下午 2:00 準時開賣，售完為止 .
5903240429,神農藥局,臺中市西區公益路１９０之１號１樓,120.6567,24.15103,(04)23103335,羅氏家用新冠病毒抗原自我檢測套組,23,2022/05/10 14:04:02,下午13:30開始販賣快篩試劑，售完為止
5903240492,好好誠美藥局,臺中市西區向上北路１８６號１樓,120.6611,24.14797,(04)23022838,羅氏家用新冠病毒抗原自我檢測套組,72,2022/05/10 14:04:02,快篩販售時間下午兩點
5903250381,大樹美村藥局,臺中市南區美村南路１２４號,120.667,24.11499,(04)22621113,羅氏家用新冠病毒抗原自我檢測套組,78,2022/05/10 14:04:02,口罩販售時間：14:00 - 16:00
5903260270,冠安藥局,臺中市北區進化路５１０、５１２號,120.6946,24.16047,(04)22335770,羅氏家用新冠病毒抗原自我檢測套組,28,2022/05/10 14:04:02,快篩 13:30 開賣--5／4日後 14：00開賣
5903260341,台中漢口藥局,臺中市北區漢口路３段１８３號,120.6711,24.16703,(04)22936166,羅氏家用新冠病毒抗原自我檢測套組,52,2022/05/10 14:04:02,實名制快篩販售時間每天下午2點~售完為止
5903260449,喜樂藥局,臺中市北區中清路１段３１號,120.677,24.1529,(04)22060423,羅氏家用新冠病毒抗原自我檢測套組,4,2022/05/10 14:04:02,快篩實名制，每日早上9:30開始販售，售完為止。
5903260476,康媞藥局,臺中市北區北平路二段１２８號１樓,120.6774,24.17124,(04)22925388,羅氏家用新冠病毒抗原自我檢測套組,63,2022/05/10 14:04:02,無
5903260627,明曜藥局,臺中市北區北平路二段１９０號１樓,120.6784,24.17117,(04)22916775,羅氏家用新冠病毒抗原自我檢測套組,32,2022/05/10 14:04:02,快篩下午2點開始販售，現場直接排不發號碼牌。
5903260663,佑全台中五權藥局,臺中市北區五權路４９６號,120.6833,24.15329,(04)22080702,羅氏家用新冠病毒抗原自我檢測套組,45,2022/05/10 14:04:02,因政府配貨時間不一，依照門市現場公告時間為主
5903260707,新藥林藥局,臺中市北區健行路４４５－５號１樓,120.6803,24.15896,(04)22053458,羅氏家用新冠病毒抗原自我檢測套組,78,2022/05/10 14:04:02,.快篩:星期一~星期五 下午3點開始，星期六下午一點，星期三.日公休，現場排隊
5903260958,健康達人藥局,臺中市北區北平路２段５６號１樓,120.6735,24.17153,(04)22994866,羅氏家用新冠病毒抗原自我檢測套組,45,2022/05/10 14:04:02,快篩實名制，每天中午2:00開始販售，售完為止。
5903270721,舒健藥局,臺中市西屯區西屯路二段２５５號２樓,120.6459,24.17179,(04)27077858,羅氏家用新冠病毒抗原自我檢測套組,76,2022/05/10 14:04:02,公費快篩試劑於周一至周六晚上7點現場排隊購買，週日公休。
5903270749,大墩藥局,臺中市西屯區大墩１９街６８號１樓,120.6518,24.15734,(04)23209602,羅氏家用新冠病毒抗原自我檢測套組,78,2022/05/10 14:04:02,每天下午三點開賣，請提早來排隊（視排隊狀況會提早發售）
5903270801,榮友藥局,臺中市西屯區臺灣大道四段１７４２號,120.6024,24.18286,(04)23508392,羅氏家用新冠病毒抗原自我檢測套組,29,2022/05/10 14:04:02,05／10實名快篩下午13:30開賣謝謝
5903270865,尚禾藥局,臺中市西屯區青海路一段６５號,120.6548,24.16438,(04)23147688,羅氏家用新冠病毒抗原自我檢測套組,39,2022/05/10 14:04:02,實名制快篩發放：時段一中午12:30~14:00。時段二20：30~22：30。時段一若未發完，餘量將遞延至時段二發放。周日停售。
5903270883,祥和大藥局,臺中市西屯區青海路二段２４０－９號,120.6418,24.17323,(04)27000122,羅氏家用新冠病毒抗原自我檢測套組,21,2022/05/10 14:04:02,快篩下午1:00發放
5903270927,河南小林健保藥局,臺中市西屯區河南路二段２９８號１樓,120.6485,24.17477,(04)24512830,羅氏家用新冠病毒抗原自我檢測套組,1,2022/05/10 14:04:02,固定每日早上8點發放口罩號碼牌，下午4點半開始販售。
5903271022,西屯藥局,臺中市西屯區西屯路三段１５０－４５號１樓,120.621,24.18716,(04)24621822,羅氏家用新冠病毒抗原自我檢測套組,78,2022/05/10 14:04:02,快篩實名制，每天16:00開始販售，售完為止。
5903271031,美十樂中科藥局,臺中市西屯區西屯路三段１６６－６５號１樓,120.6129,24.19035,(04)24610219,羅氏家用新冠病毒抗原自我檢測套組,468,2022/05/10 14:04:02,醫事人員卡片損壞，暫時無法販賣快篩
5903271059,安德藥局,臺中市西屯區福康路１７號１樓,120.6165,24.1833,(04)24638302,羅氏家用新冠病毒抗原自我檢測套組,70,2022/05/10 14:04:02,實名制快篩下午2:00開始販售（請排隊自備現金不找零）
5903271193,何安藥局,臺中市西屯區西屯路二段１０１號Ｂ棟１樓,120.6531,24.16616,(04)23161110,羅氏家用新冠病毒抗原自我檢測套組,78,2022/05/10 14:04:02,快篩實名制，每天16:00開始販售，售完為止。
5903271246,柏醫藥局,臺中市西屯區上安路５６號１樓,120.6412,24.17052,(04)24526391,羅氏家用新冠病毒抗原自我檢測套組,78,2022/05/10 14:04:02,因應到貨時間不定，統一晚上7點開放78組（5／10已到貨 09:46）
5903280101,成記大藥局,臺中市南屯區大墩１７街１２３號１樓,120.648,24.15557,(04)23288877,羅氏家用新冠病毒抗原自我檢測套組,8,2022/05/10 14:04:02,快篩實名制下午一點開始販售，現場排隊售完為止。（恕不找零）
5903280325,亞洲連鎖大藥局,臺中市南屯區黎明路２段１３３、１３５號,120.6336,24.15977,(04)23812886,羅氏家用新冠病毒抗原自我檢測套組,61,2022/05/10 14:04:02,下午2:00 開始發放快篩， 售完為止! 從 5月11日（星期三）開始， 改下午五點開始販售快篩
5903280576,佑全黎明藥局,臺中市南屯區黎明路２段２６６號,120.6359,24.14816,(04)23805560,羅氏家用新冠病毒抗原自我檢測套組,71,2022/05/10 14:04:02,實名制快篩販售時間為每日下午兩點，一點50分發放號碼牌
5903280585,康得藥局,臺中市南屯區向上路三段４５號,120.6354,24.14623,(04)23820981,羅氏家用新冠病毒抗原自我檢測套組,78,2022/05/10 14:04:02,.5／10（二）下午3點開始販售實名制快篩試劑
5903280781,美十樂藥局,臺中市南屯區東興路二段２７９號１樓,120.6528,24.1437,(04)24710219,羅氏家用新冠病毒抗原自我檢測套組,62,2022/05/10 14:04:02,政府快篩目前採當天配送到貨，當天販售，歡迎至門市加入群組，統一公告發放時間
5903280807,大樹南屯藥局,臺中市南屯區向上路一段６４３號１樓,120.6486,24.14659,(04)24758887,羅氏家用新冠病毒抗原自我檢測套組,78,2022/05/10 14:04:02,快篩實名制，每天16:00開始販售，售完為止。
5903280898,佑全台中忠勇藥局,臺中市南屯區忠勇路５１－８號１樓,120.614,24.14376,(04)23803282,羅氏家用新冠病毒抗原自我檢測套組,69,2022/05/10 14:04:02,每週一到週六實名制快篩販售14:00（限量78份）不發號碼牌售完為止
5903280914,豐樹藥局,臺中市南屯區黎明路一段６３號１樓,120.6258,24.11362,(04)24792098,羅氏家用新冠病毒抗原自我檢測套組,38,2022/05/10 14:04:02,無
5903290607,敦化小林健保藥局,臺中市北屯區敦化路１段６６８號,120.6643,24.18593,(04)24261881,羅氏家用新冠病毒抗原自我檢測套組,35,2022/05/10 14:04:02,每日早上8:00領號碼牌，16:30再回藥局領口罩（全年無休）
5903290803,英全藥局,臺中市北屯區北平路三段３４號,120.6803,24.17105,(04)22345179,羅氏家用新冠病毒抗原自我檢測套組,62,2022/05/10 14:04:02,營業時間早上8點到晚上11點  快篩試劑購買時間下午14點
5903290849,新盛藥局,臺中市北屯區松竹路二段１５７號１樓,120.6959,24.18312,(04)22467779,羅氏家用新冠病毒抗原自我檢測套組,67,2022/05/10 14:04:02,下午2:30至8:30賣快篩試劑週一至週六
5903290876,北屯軍功藥局,臺中市北屯區軍功路一段７５２號,120.7193,24.17513,(04)24375111,羅氏家用新冠病毒抗原自我檢測套組,78,2022/05/10 14:04:02,快篩實名制，每天16:00開始販售，售完為止。
5903290965,崇德藥局,臺中市北屯區崇德路二段３１號,120.685,24.16962,(04)22361331,羅氏家用新冠病毒抗原自我檢測套組,78,2022/05/10 14:04:02,快篩實名制，每天16:00開始販售，售完為止。
5903291042,全成北屯藥局,臺中市北屯區北屯路４３９－１１號１樓,120.7004,24.17913,(04)22463518,羅氏家用新冠病毒抗原自我檢測套組,70,2022/05/10 14:04:02,快篩每日下午3:00開始販售
5903291060,大樹北屯藥局,臺中市北屯區松竹路二段４１１號１樓,120.6895,24.18192,(04)22422262,羅氏家用新冠病毒抗原自我檢測套組,78,2022/05/10 14:04:02,快篩實名制，每天16:00開始販售，售完為止。
5903291131,兩隻老虎藥局,臺中市北屯區崇德路２段１２號１樓,120.6855,24.16869,(04)22364635,羅氏家用新冠病毒抗原自我檢測套組,71,2022/05/10 14:04:02,營業時間早上九點到晚上九點半（快篩下午兩點開賣）
5903291140,興安藥局,臺中市北屯區興安路二段５２號１、２樓,120.6949,24.1762,(04)22460369,羅氏家用新冠病毒抗原自我檢測套組,78,2022/05/10 14:04:02,快篩實名制，每天16:00開始販售，售完為止。
5905010143,啄木鳥藥師藥局,臺南市新營區新南里民治路２４２號,120.3041,23.30767,(06)6590248,羅氏家用新冠病毒抗原自我檢測套組,78,2022/05/10 14:04:02,每天下午4:00開始販售，售完為止
5905010250,大樹新營藥局,臺南市新營區民權路７４、７６、７８號１樓,120.3127,23.30615,(06)6328300,羅氏家用新冠病毒抗原自我檢測套組,78,2022/05/10 14:04:02,快篩實名制，每天16:00開始販售，售完為止。
5905010330,新進啄木鳥藥局,臺南市新營區新進路２段２５４號１樓,120.3056,23.30074,(06)6565303,羅氏家用新冠病毒抗原自我檢測套組,2,2022/05/10 14:04:02,5／10已售完.2個是系統錯誤
5905020023,大樹鹽水藥局,臺南市鹽水區朝琴路１２６－３號１樓,120.271,23.32228,(06)6520432,羅氏家用新冠病毒抗原自我檢測套組,78,2022/05/10 14:04:02,快篩實名制，每天16:00開始販售，售完為止。
5905030092,大樹白河藥局,臺南市白河區中山路１５３號１樓,120.417,23.35255,(06)6830006,羅氏家用新冠病毒抗原自我檢測套組,78,2022/05/10 14:04:02,快篩實名制，每天16:00開始販售，售完為止。
5905040141,大樹麻豆藥局,臺南市麻豆區中山路４８、５０號１樓,120.2469,23.18382,(06)5716556,羅氏家用新冠病毒抗原自我檢測套組,78,2022/05/10 14:04:02,快篩實名制，每天16:00開始販售，售完為止。
5905050058,佳里啄木鳥藥局,臺南市佳里區延平路７６號１樓,120.1795,23.15507,(06)7236396,羅氏家用新冠病毒抗原自我檢測套組,67,2022/05/10 14:04:02,下午2點-售完為止（若當天配送延誤，時間另行公布）
5905050209,大樹佳里藥局,臺南市佳里區延平路２３７號１樓,120.1783,23.1599,(06)7231323,羅氏家用新冠病毒抗原自我檢測套組,78,2022/05/10 14:04:02,快篩實名制，每天16:00開始販售，售完為止。
5905060198,大樹新化藥局,臺南市新化區中正路５３１號１樓,120.3072,23.03764,(06)5901331,羅氏家用新冠病毒抗原自我檢測套組,78,2022/05/10 14:04:02,快篩實名制，每天16:00開始販售，售完為止。
5905070112,健登藥局,臺南市善化區大成路２１２號１樓,120.3004,23.13021,(06)5831133,羅氏家用新冠病毒抗原自我檢測套組,72,2022/05/10 14:04:02,快篩實名制販售 : 週一~六 下午兩點開始 週日不販售
5905070121,大樹善化藥局,臺南市善化區民權路５４、５６、５８號１樓,120.3034,23.1322,(06)5830550,羅氏家用新冠病毒抗原自我檢測套組,78,2022/05/10 14:04:02,快篩實名制，每天16:00開始販售，售完為止。
5905080056,大樹學甲藥局,臺南市學甲區中正路１３５號１樓,120.1793,23.23029,(06)7820001,羅氏家用新冠病毒抗原自我檢測套組,78,2022/05/10 14:04:02,快篩實名制，每天16:00開始販售，售完為止。
5905200085,大樹新市藥局,臺南市新市區中正路４９、５１號１樓,120.2916,23.07223,(06)5892552,羅氏家用新冠病毒抗原自我檢測套組,78,2022/05/10 14:04:02,快篩實名制，每天16:00開始販售，售完為止。
5905270176,大樹仁德藥局,臺南市仁德區中正路二段１１５２號１樓,120.2519,22.97062,(06)2797466,羅氏家用新冠病毒抗原自我檢測套組,78,2022/05/10 14:04:02,快篩實名制，每天16:00開始販售，售完為止。
5905280109,大樹青青藥局,臺南市歸仁區中山路三段１２號,120.2875,22.96765,(06)2300301,羅氏家用新冠病毒抗原自我檢測套組,78,2022/05/10 14:04:02,快篩實名制，每天16:00開始販售，售完為止。
5905290034,大樹關廟藥局,臺南市關廟區中央路２６３號１樓,120.3272,22.96109,(06)5965889,羅氏家用新冠病毒抗原自我檢測套組,78,2022/05/10 14:04:02,快篩實名制，每天16:00開始販售，售完為止。
5905310817,永大啄木鳥藥局,臺南市永康區永大路二段３９７號１樓,120.2632,23.01227,(06)2071575,羅氏家用新冠病毒抗原自我檢測套組,54,2022/05/10 14:04:02,快篩販售星期一~星期日14:00~售完（當天配送若延誤，時間另行公佈）
5905311074,中華長億藥局,臺南市永康區中華路７３４、７３６號１樓,120.2288,23.0167,(06)3022322,羅氏家用新冠病毒抗原自我檢測套組,78,2022/05/10 14:04:02,快篩實名制，每天16:00開始販售，售完為止。
5905311127,台南永康藥局,臺南市永康區中山南路８１６、８１６─１、２、３號１樓,120.2471,23.02099,(06)2020201,羅氏家用新冠病毒抗原自我檢測套組,78,2022/05/10 14:04:02,快篩實名制，每天16:00開始販售，售完為止。
5905320466,佑全中華藥局,臺南市東區中華東路三段２１５號,120.2253,22.97603,(06)2906386,羅氏家用新冠病毒抗原自我檢測套組,68,2022/05/10 14:04:02,星期一-六08:00-21:00
5905320797,大樹自由藥局,臺南市東區自由路三段３８２號１樓,120.2373,22.98241,(06)2890800,羅氏家用新冠病毒抗原自我檢測套組,78,2022/05/10 14:04:02,快篩實名制，每天16:00開始販售，售完為止。
5905320804,大樹大同藥局,臺南市東區大同路二段２２７、２２９號１樓,120.2143,22.97567,(06)2158700,羅氏家用新冠病毒抗原自我檢測套組,78,2022/05/10 14:04:02,快篩實名制，每天16:00開始販售，售完為止。
5905320840,信霖藥局,臺南市東區崇明路１２３號１樓,120.2179,22.97946,(06)3364699,羅氏家用新冠病毒抗原自我檢測套組,62,2022/05/10 14:04:02,週日公休 快篩販售時間為下午兩點
5905320868,大樹東寧藥局,臺南市東區東寧路４３６號１樓,120.2291,22.9895,(06)2360006,羅氏家用新冠病毒抗原自我檢測套組,78,2022/05/10 14:04:02,快篩實名制，每天16:00開始販售，售完為止。
5905320886,中華崇德藥局,臺南市東區中華東路三段１８１、１８３號１樓,120.2259,22.97667,(06)2880800,羅氏家用新冠病毒抗原自我檢測套組,78,2022/05/10 14:04:02,快篩實名制，每天16:00開始販售，售完為止。
5905320911,大樹崇道藥局,臺南市東區崇道路６３號１樓,120.2272,22.97227,(06)2680456,羅氏家用新冠病毒抗原自我檢測套組,78,2022/05/10 14:04:02,快篩實名制，每天16:00開始販售，售完為止。
5905320948,崇明台安藥局,臺南市東區崇明路３０４號１樓,120.2198,22.97762,(06)2900350,羅氏家用新冠病毒抗原自我檢測套組,15,2022/05/10 14:04:02,快篩下午2點開始販售
5905330024,聖安健保藥局,臺南市南區健康路二段１７３號１樓,120.193,22.98142,(06)2916898,羅氏家用新冠病毒抗原自我檢測套組,4,2022/05/10 14:04:02,因人手不足，快篩販售時間滾動式調整，造成不便還請見諒!週日店休!
5905330159,勝一藥局,臺南市南區省躬里灣裡路９０號１樓,120.1807,22.93114,(06)2626168,羅氏家用新冠病毒抗原自我檢測套組,65,2022/05/10 14:04:02,快篩實名制時間:下午2點~售完
5905330284,大樹佳華藥局,臺南市南區金華路二段１２９號１樓,120.1911,22.98035,(06)2641238,羅氏家用新冠病毒抗原自我檢測套組,78,2022/05/10 14:04:02,快篩實名制，每天16:00開始販售，售完為止。
5905330337,千薏台安藥局,臺南市南區金華路二段２號１樓,120.1912,22.97556,(06)2638265,羅氏家用新冠病毒抗原自我檢測套組,17,2022/05/10 14:04:02,快篩試劑每天下午兩點開始銷售
5905340173,賜安大藥局,臺南市中西區光賢里武聖路９號,120.1932,23.00517,(06)3589600,羅氏家用新冠病毒抗原自我檢測套組,74,2022/05/10 14:04:02,快篩 代售時段 星期一-六 下午2點~6點
5905350259,樂森藥局,臺南市北區和緯路二段３３６號１樓,120.2048,23.01259,(06)2511338,羅氏家用新冠病毒抗原自我檢測套組,70,2022/05/10 14:04:02,九天玄女唯一指定領取時間為每日下午兩點
5905350393,和緯啄木鳥藥局,臺南市北區和緯路２段１７６號,120.2074,23.01231,(06)2519805,羅氏家用新冠病毒抗原自我檢測套組,66,2022/05/10 14:04:02,實名快篩販售時間：周一~周五14:00，周六11:00，周日停售（若有變更，敬請見諒）門市另有販售非實名制快篩，歡迎洽詢
5905370180,安南啄木鳥藥局,臺南市安南區安和路一段１０７號,120.2143,23.02826,(06)2821265,羅氏家用新冠病毒抗原自我檢測套組,52,2022/05/10 14:04:02,快篩販售時間 一~五:14:00 ／ 六~日:9:00 （依政府配貨狀況調整時間）
5905370224,上振藥局,臺南市安南區安中路三段４３號１樓,120.1828,23.04721,(06)2551061,羅氏家用新冠病毒抗原自我檢測套組,57,2022/05/10 14:04:02,星期一~星期六 14:00~售完
5905370304,大樹安南藥局,臺南市安南區安和路四段５５７號１樓,120.2185,23.06181,(06)3563370,羅氏家用新冠病毒抗原自我檢測套組,78,2022/05/10 14:04:02,快篩實名制，每天16:00開始販售，售完為止。
5905370466,大樹北安藥局,臺南市安南區北安路三段１５８號１樓,120.2036,23.04256,(06)2553633,羅氏家用新冠病毒抗原自我檢測套組,78,2022/05/10 14:04:02,快篩實名制，每天16:00開始販售，售完為止。
5907010141,維安社區藥局,高雄市鳳山區國富路２５-１號,120.3497,22.61517,(07)7630980,羅氏家用新冠病毒抗原自我檢測套組,72,2022/05/10 14:04:02,代售口罩及快篩試劑開始時間為下午2點.現場排隊，售完為止
5907011095,鳳山五甲藥局,高雄市鳳山區正義里五甲二路１３９號１樓,120.3409,22.6014,(07)7269899,羅氏家用新冠病毒抗原自我檢測套組,77,2022/05/10 14:04:02,快篩實名制，每天16:00開始販售，售完為止。
5907011148,大樹國泰藥局,高雄市鳳山區興仁里五甲一路２９２號,120.3539,22.61698,(07)7407234,羅氏家用新冠病毒抗原自我檢測套組,78,2022/05/10 14:04:02,快篩實名制，每天16:00開始販售，售完為止。
5907011184,肉豆公藥局南榮店,高雄市鳳山區善美里南榮路１６９號１樓,120.3366,22.60186,(07)7278385,羅氏家用新冠病毒抗原自我檢測套組,54,2022/05/10 14:04:02,現場領藥優先處理，快篩實名制下午2點開始販售，售完為止!!
5907011362,佑全鳳山藥局,高雄市鳳山區文德里青年路二段４６３號１－２樓,120.3498,22.64513,(07)7801568,羅氏家用新冠病毒抗原自我檢測套組,67,2022/05/10 14:04:02,實名制快篩14:00~18:00
5907011371,大樹五甲藥局,高雄市鳳山區福祥里五甲三路２４號１－２樓．２６號１－２樓,120.3278,22.59317,(07)8224926,羅氏家用新冠病毒抗原自我檢測套組,78,2022/05/10 14:04:02,快篩實名制，每天16:00開始販售，售完為止。
5907020030,鑫德昌藥局,高雄市岡山區溪東路３８號１樓,120.2915,22.79249,(07)6233338,羅氏家用新冠病毒抗原自我檢測套組,78,2022/05/10 14:04:02,實名制快篩 販售時間 14:30-16:00
5907020085,大德藥局,高雄市岡山區大德一路９８號,120.3025,22.79689,(07)6221456,羅氏家用新冠病毒抗原自我檢測套組,78,2022/05/10 14:04:02,快篩實名制，每天16:00開始販售，售完為止。
5907020094,大樹岡山藥局,高雄市岡山區岡山路１３６號,120.2967,22.78913,(07)6219477,羅氏家用新冠病毒抗原自我檢測套組,78,2022/05/10 14:04:02,快篩實名制，每天16:00開始販售，售完為止。
5907030072,旗美藥局,高雄市旗山區東平里延平二路４１號,120.4933,22.882,(07)6629839,羅氏家用新冠病毒抗原自我檢測套組,70,2022/05/10 14:04:02,實名制快篩劑購買時間為下午14:00~20:00，星期日店休無配送快篩，請至鄰近藥局購買
5907030090,睛好活力藥局,高雄市旗山區湄洲里中山路１２７號,120.482,22.88873,(07)6625119,羅氏家用新冠病毒抗原自我檢測套組,8,2022/05/10 14:04:02,無
5907030152,旗山藥局,高雄市旗山區中華路２３號,120.4841,22.88027,(07)6621158,羅氏家用新冠病毒抗原自我檢測套組,78,2022/05/10 14:04:02,快篩實名制，每天16:00開始販售，售完為止。
5907050092,林園啄木鳥藥局,高雄市林園區鳳林路二段８０３號１樓,120.3957,22.5135,(07)6414772,羅氏家用新冠病毒抗原自我檢測套組,66,2022/05/10 14:04:02,快篩實名制領取時間下午2點（若當天配送延誤，時間另行公布）
5907050109,林園藥局,高雄市林園區仁愛路１３號１樓,120.3928,22.50418,(07)6425855,羅氏家用新冠病毒抗原自我檢測套組,78,2022/05/10 14:04:02,快篩實名制，每天16:00開始販售，售完為止。
5907070012,舒康藥師藥局,高雄市大樹區久堂路１２９號,120.4167,22.65781,(07)6520268,羅氏家用新冠病毒抗原自我檢測套組,61,2022/05/10 14:04:02,14:00~18:00若提前售完，銷售時間提前結束。
5907080232,大樹仁武藥局,高雄市仁武區赤山里仁雄路８０－９號,120.3469,22.67811,(07)3744777,羅氏家用新冠病毒抗原自我檢測套組,78,2022/05/10 14:04:02,快篩實名制，每天16:00開始販售，售完為止。
5907080250,仁同藥局,高雄市仁武區八卦里永仁街７０６號１樓,120.3313,22.69072,(07)3736142,羅氏家用新冠病毒抗原自我檢測套組,156,2022/05/10 14:04:02,可購買快篩試劑時間每日早上7:30到8:30
5907080303,群邦藥局,高雄市仁武區八德東路１８０號１樓,120.3422,22.68538,(07)3745985,羅氏家用新冠病毒抗原自我檢測套組,68,2022/05/10 14:04:02,每日下午2:00開始販售公費快篩（售完為止），星期日藥局早上8:30-9:30賣公費快篩
5907080330,文武藥局,高雄市仁武區文武里中華路３５３號,120.3535,22.7011,(07)3733551,羅氏家用新冠病毒抗原自我檢測套組,78,2022/05/10 14:04:02,快篩實名制，每天16:00開始販售，售完為止。
5907090167,大樹大社藥局,高雄市大社區中山路３０８號１樓,120.3503,22.73145,(07)3531682,羅氏家用新冠病毒抗原自我檢測套組,78,2022/05/10 14:04:02,快篩實名制，每天16:00開始販售，售完為止。
5907140108,德昌藥局阿蓮店,高雄市阿蓮區阿蓮里中正路４５６號,120.3321,22.88075,(07)6318868,羅氏家用新冠病毒抗原自我檢測套組,78,2022/05/10 14:04:02,固定周一至周日14:30-16:00販售快篩，售完為止
5907150257,大樹大立藥局,高雄市路竹區國昌路５１號,120.26,22.85409,(07)6961663,羅氏家用新冠病毒抗原自我檢測套組,78,2022/05/10 14:04:02,快篩實名制，每天16:00開始販售，售完為止。
5907160093,保生藥局,高雄市湖內區葉厝里保生路３４０．３４２號,120.2195,22.90733,(07)6990800,羅氏家用新冠病毒抗原自我檢測套組,79,2022/05/10 14:04:02,快篩實名制，每天16:00開始販售，售完為止。
5907290309,鼓山藥局,高雄市鼓山區華榮路１０號,120.2973,22.66156,(07)5520017,羅氏家用新冠病毒抗原自我檢測套組,78,2022/05/10 14:04:02,快篩實名制，每天16:00開始販售，售完為止。
5907300042,育安健保藥局,高雄市左營區富國路３３９號１樓,120.3071,22.66643,(07)5508862,羅氏家用新冠病毒抗原自我檢測套組,57,2022/05/10 14:04:02,如果有來貨？快篩實名制下午2:00開始販售，售完為止。自備現金500元，無刷卡無刷卡無刷卡。周日公休
5907300168,金元藥局,高雄市左營區重愛路２２０號,120.3156,22.68562,(07)3458378,羅氏家用新冠病毒抗原自我檢測套組,2,2022/05/10 14:04:02,快篩試劑郵差配送，約10點至11點左右會送到藥局，即開始販售，星期四，六營業時間至中午12點
5907300239,左野藥局,高雄市左營區崇德路２２２號,120.3052,22.675,(07)3486883,羅氏家用新冠病毒抗原自我檢測套組,73,2022/05/10 14:04:02,每日9時開始營業．實名制快篩販售時間15:00-20:00售完為止! 14:50發號碼牌
5907300711,富元聯合健康藥局,高雄市左營區博愛三路３７號,120.3038,22.67145,(07)3488585,羅氏家用新冠病毒抗原自我檢測套組,72,2022/05/10 14:04:02,快篩於下午兩點販售
5907300926,高鐵藥局,高雄市左營區華夏路１３２２．１３２６號,120.312,22.68587,(07)3452797,羅氏家用新冠病毒抗原自我檢測套組,78,2022/05/10 14:04:02,快篩實名制，每天16:00開始販售，售完為止。
5907300980,大路藥局,高雄市左營區左營大路５５－２號１樓,120.2877,22.6813,(07)5851001,羅氏家用新冠病毒抗原自我檢測套組,78,2022/05/10 14:04:02,快篩實名制，每天16:00開始販售，售完為止。
5907310173,安健藥局,高雄市楠梓區鳳楠路２５０號,120.3296,22.72617,(07)3520167,羅氏家用新冠病毒抗原自我檢測套組,71,2022/05/10 14:04:02,2／06起營業日早上8點開始販賣，周六日早上8:30 .售完為止
5907310262,大樹楠梓藥局,高雄市楠梓區軍校路９０８號,120.2919,22.71246,(07)3632322,羅氏家用新冠病毒抗原自我檢測套組,78,2022/05/10 14:04:02,快篩實名制，每天16:00開始販售，售完為止。
5907310342,楠梓久億藥局,高雄市楠梓區德祥路２２１號,120.3075,22.72657,(07)3657099,羅氏家用新冠病毒抗原自我檢測套組,39,2022/05/10 14:04:02,每日78份實名制快篩販售時間2:00PM-4:30PM，提早售完即截止。
5907310404,藍田藥局,高雄市楠梓區藍田路１號,120.2953,22.72643,(07)3601236,羅氏家用新冠病毒抗原自我檢測套組,78,2022/05/10 14:04:02,快篩實名制，每天16:00開始販售，售完為止。
5907320428,東京藥局,高雄市三民區建工路６８５號,120.3173,22.6478,(07)3874567,羅氏家用新冠病毒抗原自我檢測套組,54,2022/05/10 14:04:02,實名制快篩販售時間: 每日15:00-晚上20:00
5907320697,鄰好藥師藥局,高雄市三民區褒揚街２８７號,120.3398,22.64097,(07)3909589,羅氏家用新冠病毒抗原自我檢測套組,66,2022/05/10 14:04:02,購買實名制快篩時間下午14:00-16:00，各類防疫用品販售中
5907320893,大樹天祥藥局,高雄市三民區天祥一路１６７號,120.3191,22.66737,(07)3429902,羅氏家用新冠病毒抗原自我檢測套組,78,2022/05/10 14:04:02,快篩實名制，每天16:00開始販售，售完為止。
5907320919,心寬福藥局,高雄市三民區大順二路７１８號一樓,120.3193,22.65359,(07)3832366,羅氏家用新冠病毒抗原自我檢測套組,52,2022/05/10 14:04:02,快篩販售因人力有限，週一、四上午9:00其餘下午2:00，週日公休。
5907320982,康圓藥局,高雄市三民區大豐二路３５９．３６１號１樓,120.3343,22.6468,(07)3909978,羅氏家用新冠病毒抗原自我檢測套組,73,2022/05/10 14:04:02,快篩試劑下午2點開賣
5907321032,三民明誠藥局,高雄市三民區明誠一路５００號１－２Ｆ及５０２號,120.3223,22.66046,(07)3493137,羅氏家用新冠病毒抗原自我檢測套組,70,2022/05/10 14:04:02,快篩試劑下午2:00販售
5907321069,桂林活力藥局九如店,高雄市三民區懷安街１１２號１樓,120.3176,22.64095,(07)3981009,羅氏家用新冠病毒抗原自我檢測套組,78,2022/05/10 14:04:02,每天15:30發號碼牌，於18:00前兌換完畢，逾期棄權，剩餘則繼續發放
5907321103,自由藥局,高雄市三民區自由一路７８號,120.3089,22.64422,(07)3223113,羅氏家用新冠病毒抗原自我檢測套組,78,2022/05/10 14:04:02,快篩實名制，每天16:00開始販售，售完為止。
5907350346,武廟幸福藥局,高雄市苓雅區武廟路３５號,120.3316,22.62999,(07)7170085,羅氏家用新冠病毒抗原自我檢測套組,6,2022/05/10 14:04:02,1: 自111／5／1起：快篩販售時間為13:40開始。2: 販售方式依現場公告為主，售完為止。
5907350499,鑫美健保特約藥局,高雄市苓雅區光華一路１４８－５８號１樓,120.3158,22.62389,(07)7715088,羅氏家用新冠病毒抗原自我檢測套組,72,2022/05/10 14:04:02,14:00開賣實名制快篩，馨田診所配合公費快篩，慢箋免費領藥，防疫物資特賣
5907350506,大樹苓雅藥局,高雄市苓雅區中華四路１５３號,120.3001,22.61783,(07)5353111,羅氏家用新冠病毒抗原自我檢測套組,78,2022/05/10 14:04:02,快篩實名制，每天16:00開始販售，售完為止。
5907350551,大樹武廟藥局,高雄市苓雅區武廟路４３、４５號１樓,120.3314,22.63005,(07)7222268,羅氏家用新冠病毒抗原自我檢測套組,78,2022/05/10 14:04:02,快篩實名制，每天16:00開始販售，售完為止。
5907350631,三多藥局,高雄市苓雅區三多二路２９２號１樓,120.3173,22.61838,(07)3365889,羅氏家用新冠病毒抗原自我檢測套組,78,2022/05/10 14:04:02,快篩實名制，每天16:00開始販售，售完為止。
5907360379,金服安藥局,高雄市前鎮區鎮興路１９１號,120.3115,22.59249,(07)8150061,羅氏家用新冠病毒抗原自我檢測套組,43,2022/05/10 14:04:02,每日下午2-4點販賣快篩試劑
5907360413,益源藥局,高雄市前鎮區草衙二路４１８號,120.3226,22.57903,(07)8412120,羅氏家用新冠病毒抗原自我檢測套組,49,2022/05/10 14:04:02,無
5907360520,大樹瑞福藥局,高雄市前鎮區瑞隆路１７０號１樓、２樓,120.3357,22.60598,(07)7271170,羅氏家用新冠病毒抗原自我檢測套組,78,2022/05/10 14:04:02,快篩實名制，每天16:00開始販售，售完為止。
5907360664,忠純藥局,高雄市前鎮區中華五路１００９號１樓,120.3056,22.60341,(07)3366886,羅氏家用新冠病毒抗原自我檢測套組,78,2022/05/10 14:04:02,快篩實名制，每天16:00開始販售，售完為止。
5907360673,前鎮大樹藥局,高雄市前鎮區瑞隆路４７２號１樓,120.3291,22.60547,(07)7137171,羅氏家用新冠病毒抗原自我檢測套組,78,2022/05/10 14:04:02,快篩實名制，每天16:00開始販售，售完為止。
5907380255,安安藥師藥局,高雄市小港區孔鳳路５６５號１樓,120.3586,22.58393,(07)7915933,羅氏家用新冠病毒抗原自我檢測套組,53,2022/05/10 14:04:02,快篩實名制周一至周六下午14:00開始販售，售完為止
5907380264,大樹孔鳳藥局,高雄市小港區孔鳳路５１９、５２１號,120.3587,22.5828,(07)7918521,羅氏家用新冠病毒抗原自我檢測套組,78,2022/05/10 14:04:02,快篩實名制，每天16:00開始販售，售完為止。
5907380424,大樹小港藥局,高雄市小港區康莊路７５號１樓,120.3559,22.56853,(07)8068328,羅氏家用新冠病毒抗原自我檢測套組,78,2022/05/10 14:04:02,快篩實名制，每天16:00開始販售，售完為止。
5911010015,喬寶藥局,基隆市中正區義二路６６號１樓,121.7461,25.13187,(02)24202827,羅氏家用新冠病毒抗原自我檢測套組,73,2022/05/10 14:04:02,下午2點開賣
5911011478,天康新豐藥局,基隆市中正區新豐街２５１巷４弄９號１樓,121.7885,25.13594,(02)24695168,羅氏家用新冠病毒抗原自我檢測套組,50,2022/05/10 14:04:02,無
5911011512,八斗子東亞藥局,基隆市中正區北寧路３７８號,121.7958,25.13944,(02)24698829,羅氏家用新冠病毒抗原自我檢測套組,55,2022/05/10 14:04:02,中午12點鐘開賣實名制快篩，售完為止
5911011638,中正藥局,基隆市中正區新豐街３８５號１、２樓,121.7856,25.13537,(02)24690660,羅氏家用新冠病毒抗原自我檢測套組,78,2022/05/10 14:04:02,快篩實名制，每天16:00開始販售，售完為止。
5911021170,康蘋藥局,基隆市七堵區開元路５９－２號２樓,121.7139,25.09623,(02)24558150,羅氏家用新冠病毒抗原自我檢測套組,78,2022/05/10 14:04:02,快篩試劑週一至週五14 :30週六13:00週日07:30開賣，現場排隊
5911021438,正心藥局,基隆市七堵區南興路１０號１樓,121.7149,25.09755,(02)24563378,羅氏家用新冠病毒抗原自我檢測套組,32,2022/05/10 14:04:02,每日限量78盒， 星期一~六下午13:30發號碼牌，14:00開始販賣，星期日上午9:00發號碼牌，9:30開始販賣，12:00停止領取
5911030035,陸記藥局,基隆市暖暖區源遠路２４１號,121.7543,25.09882,(02)24576712,羅氏家用新冠病毒抗原自我檢測套組,71,2022/05/10 14:04:02,每日下午兩點販售快篩試劑
5911031096,東方藥局,基隆市暖暖區暖暖街１５３號１樓,121.7367,25.10013,(02)24574171,羅氏家用新冠病毒抗原自我檢測套組,51,2022/05/10 14:04:02,下午2點販售
5911040228,大田大藥局,基隆市仁愛區仁二路５號,121.7507,25.12744,(02)24258762,羅氏家用新冠病毒抗原自我檢測套組,65,2022/05/10 14:04:02,下午2:00發號碼牌並販售
5911040273,第一藥局,基隆市仁愛區愛三路１２０號３樓,121.7436,25.12963,(02)24292288,羅氏家用新冠病毒抗原自我檢測套組,3,2022/05/10 14:04:02,快篩試劑每天下午12點發號碼牌，12點20分到14點販售
5911050162,錦泰藥局,基隆市中山區中山二路４３號,121.7405,25.13786,(02)24228523,羅氏家用新冠病毒抗原自我檢測套組,78,2022/05/10 14:04:02,快篩販賣時間星期一至五晚上7點，星期六，星期日下午5點
5911051409,順豐藥局,基隆市中山區中華路４號,121.7388,25.14545,(02)24369176,羅氏家用新冠病毒抗原自我檢測套組,71,2022/05/10 14:04:02,家用快篩每日下午2點起隨到隨領售完為止。
5911051543,復興藥局,基隆市中山區復興路１２８、１３０、１３２、１３４號１、２樓,121.7262,25.1446,(02)24362566,羅氏家用新冠病毒抗原自我檢測套組,78,2022/05/10 14:04:02,快篩實名制，每天16:00開始販售，售完為止。
5911061370,佑全基隆麥金藥局,基隆市安樂區麥金路２０１號地下１樓之１,121.7211,25.12158,(02)24347816,羅氏家用新冠病毒抗原自我檢測套組,70,2022/05/10 14:04:02,實名制快篩下午兩點開買，營業時間09:00-21:00
5911071572,元登藥局,基隆市信義區深溪路１４９號,121.7826,25.13475,(02)24663826,羅氏家用新冠病毒抗原自我檢測套組,45,2022/05/10 14:04:02,無
5911071607,家安藥師藥局,基隆市信義區信二路２５７、２５９號１樓,121.7478,25.1301,(02)24223917,羅氏家用新冠病毒抗原自我檢測套組,49,2022/05/10 14:04:02,星期一 ~ 星期六14:00開始銷售。
5912012120,仁美藥局,新竹市東區振興里振興路５２號,120.9625,24.79493,(03)5625398,羅氏家用新冠病毒抗原自我檢測套組,78,2022/05/10 14:04:02,週一~週六晚上六點販售（週日店休），下雨天，就提早販售!
5912012433,安安大藥局,新竹市東區金山里光復路一段１６３巷２號,121.0223,24.78144,(03)5772655,羅氏家用新冠病毒抗原自我檢測套組,78,2022/05/10 14:04:02,快篩實名制  周一至周五14:30販售 週六.周日13:00販售
5912012979,哈佛藥局,新竹市東區北大路７２－１號,120.971,24.81178,(03)5326777,羅氏家用新冠病毒抗原自我檢測套組,75,2022/05/10 14:04:02,快篩販售時間：星期一至星期六14:50，星期日08:00，請準備好不用找的錢，感謝（12:00~1445休息中，您撥的電話無人接聽）
5912013207,明湖健保藥局,新竹市東區明湖路３９８號,120.9675,24.78555,(03)5191788,羅氏家用新冠病毒抗原自我檢測套組,56,2022/05/10 14:04:02,快篩來貨時間不一，請隨時注意FB發佈的動態消息
5912013501,倫洲藥局,新竹市東區食品路９７號１樓,120.9779,24.79801,(03)5744088,羅氏家用新冠病毒抗原自我檢測套組,78,2022/05/10 14:04:02,快篩開賣時間星期一到五為下午兩點，星期六早上八點半，星期日休息
5912013609,丁丁藥局,新竹市東區中華路二段９１號,120.9812,24.80794,(03)6117888,羅氏家用新冠病毒抗原自我檢測套組,1,2022/05/10 14:04:02,無
5912013672,關東藥局,新竹市東區光復路１段３３２、３３４號１至２樓,121.0187,24.78289,(03)5777077,羅氏家用新冠病毒抗原自我檢測套組,78,2022/05/10 14:04:02,快篩實名制，每天16:00開始販售，售完為止。
5912013681,仁春藥局,新竹市東區慈濟路２５２號１樓,121.0153,24.79245,(03)6686718,羅氏家用新冠病毒抗原自我檢測套組,78,2022/05/10 14:04:02,如有收到實名制快篩，於15:00開始販售，售完為止，請準備好現金，謝謝
5912013690,佑全新竹食品藥局,新竹市東區食品路１７０號,120.9764,24.79735,(03)5627307,羅氏家用新冠病毒抗原自我檢測套組,2,2022/05/10 14:04:02,實名制快篩下午2點開賣1點40分發號碼牌實際庫存依物流到貨時間滾動式調整
5912013707,信安藥師藥局,新竹市東區南大路８４２號１樓,120.9669,24.78819,(03)5623101,羅氏家用新冠病毒抗原自我檢測套組,75,2022/05/10 14:04:02,下午2點開賣快篩試劑  週日無販售實名制快篩
5912040222,保健藥局,新竹市北區中山路１５３號１樓,120.9635,24.80324,(03)5242088,羅氏家用新冠病毒抗原自我檢測套組,68,2022/05/10 14:04:02,快篩販賣時段：下午2:00現場排隊至售完為止。
5912042098,欣欣藥局,新竹市北區西大路736巷1號,120.9591,24.81011,(03)5351205,羅氏家用新冠病毒抗原自我檢測套組,1,2022/05/10 14:04:02,快篩代售周一~周六下午3點開始販售，售完為止  藥局營業時間上午8:00-12:00 ；下午15:00-18:00 ；晚上18:30-21:30
5912042897,立新藥師藥局,新竹市北區延平路一段２４５號１樓,120.9532,24.80494,(03)5228968,羅氏家用新冠病毒抗原自我檢測套組,73,2022/05/10 14:04:02,周一~周六PM2:00販售快篩。周日不販售。ps.請自備500元，不找錢
5912042940,新竹北門藥局,新竹市北區中正路３６０、３６２號１樓,120.9629,24.81414,(03)5333234,羅氏家用新冠病毒抗原自我檢測套組,1,2022/05/10 14:04:02,快篩實名制，每天16:00開始販售，售完為止。
5912042968,大樹新竹藥局,新竹市北區西大路５４０、５４２號１、２樓,120.9619,24.80676,(03)5250388,羅氏家用新冠病毒抗原自我檢測套組,78,2022/05/10 14:04:02,快篩實名制，每天16:00開始販售，售完為止。
5912051350,高晟藥師藥局,新竹市香山區大庄路59號,120.9279,24.78964,(03)5306645,羅氏家用新冠病毒抗原自我檢測套組,71,2022/05/10 14:04:02,下午2點銷售快篩
5912051430,三姓藥局,新竹市香山區中華路四段５７６號１、２樓,120.9297,24.78886,(03)5385886,羅氏家用新冠病毒抗原自我檢測套組,78,2022/05/10 14:04:02,快篩實名制，每天16:00開始販售，售完為止。
5917011934,一安堂藥局,臺中市中區臺灣大道一段２０號１樓,120.6847,24.13819,(04)22259616,羅氏家用新冠病毒抗原自我檢測套組,60,2022/05/10 14:04:02,14:00開始領取實名制快篩劑
5917011945,正三吉藥局,臺中市中區臺灣大道一段９５號,120.6831,24.13911,(04)22207700,羅氏家用新冠病毒抗原自我檢測套組,51,2022/05/10 14:04:02,快篩販售時間 14:00~17:00
5917020337,福生藥局,臺中市東區福仁街138號,120.6898,24.1444,(04)22119106,羅氏家用新冠病毒抗原自我檢測套組,5,2022/05/10 14:04:02,星期一~六.下午1:30開始販售實名制快篩.售完為止 星期日8:15~9:30
5917021549,福倫藥局,臺中市東區精武東路１９８號,120.71,24.14933,(04)22139918,羅氏家用新冠病毒抗原自我檢測套組,42,2022/05/10 14:04:02,快篩代售:每天下午02:00開始販售 售完為止.（口罩代售，售完為止）
5917030271,國良藥局,臺中市西區西屯路１段２２０號,120.6707,24.15344,(04)22018772,羅氏家用新冠病毒抗原自我檢測套組,71,2022/05/10 14:04:02,快篩試劑，下午2點開始販售，售完為止。星期日照常販售。
5917030995,麗新健保大藥局,臺中市西區向上路一段１６２號,120.6612,24.1469,(04)23017100,羅氏家用新冠病毒抗原自我檢測套組,69,2022/05/10 14:04:02,週一至週日下午15:00至售完為止
5917032800,壹藥局,臺中市西區美村路１段７７５號１樓,120.6618,24.13306,(04)23721998,羅氏家用新冠病毒抗原自我檢測套組,58,2022/05/10 14:04:02,星期一到星期日每天下午二點開始販售快篩試劑售完為止謝謝
5917040393,鴻儀大藥局,臺中市南區樹義里大慶街二段３－４號,120.6528,24.11405,(04)22611769,羅氏家用新冠病毒抗原自我檢測套組,2,2022/05/10 14:04:02,為避免排隊群聚05／09起周一至周六採取AM10:00寄健保卡PM14:00~PM17:00領回快篩及健保卡
5917040464,陳信安藥局,臺中市南區永興里高工路３４９號,120.6665,24.11425,(04)22619560,羅氏家用新冠病毒抗原自我檢測套組,63,2022/05/10 14:04:02,實名制快篩 周一至六14:00開賣，庫存依現場為準，周日依政府配送調整
5917041836,健康人生藥局,臺中市南區美村南路１３１號,120.6666,24.11725,(04)22633936,羅氏家用新冠病毒抗原自我檢測套組,70,2022/05/10 14:04:02,實名制快篩 14:00開賣!     因政府配貨時間不一，若貨運有延後配送，依照門市現場公告時間為主!
5917053649,博森藥局,臺中市北區健行路４９３號,120.6778,24.15905,(04)22068589,羅氏家用新冠病毒抗原自我檢測套組,73,2022/05/10 14:04:02,固定週一到週六，下午2:00到下午4:00以現場排隊方式販售防疫家用快篩。
5917060108,博新藥局,臺中市西屯區福安里中工三路２２０號,120.6153,24.17541,(04)23583412,羅氏家用新冠病毒抗原自我檢測套組,39,2022/05/10 14:04:02,星期一至六 下午2:30分 開始販賣快篩劑  無號碼牌 星期日休營
5917061150,裕和藥局,臺中市西屯區大墩路９５１號１Ｆ,120.652,24.15929,(04)23252629,羅氏家用新冠病毒抗原自我檢測套組,53,2022/05/10 14:04:02,實名制快篩W1-W6 14:00開始販售；星期日9:00開始
5917062988,廣安大藥局,臺中市西屯區青海路一段一Ｏ一、一Ｏ三號,120.6536,24.16485,(04)23118572,羅氏家用新冠病毒抗原自我檢測套組,57,2022/05/10 14:04:02,週一~日10AM販售口罩售完為止，無發放號碼牌.
5917063065,達康藥局,臺中市西屯區中工三路１３９號,120.6186,24.17779,(04)23586332,羅氏家用新冠病毒抗原自我檢測套組,63,2022/05/10 14:04:02,週一~周日下午2點販售快篩售完為止，無發放號碼牌.
5917070060,仁人藥局,臺中市南屯區南屯里黎明路一段１０８５號,120.6377,24.13922,(04)23890451,羅氏家用新冠病毒抗原自我檢測套組,69,2022/05/10 14:04:02,快篩銷售時間：14:00至22:00，售完為止。
5917070355,承諭藥局,臺中市南屯區黎明路２段１９９號,120.636,24.14698,(04)23849128,羅氏家用新冠病毒抗原自我檢測套組,11,2022/05/10 14:04:02,快篩實名制周一、二、四、五下午1:30；周三、六晚上7:00 ； 週日下午4:00
5917070382,得安藥局,臺中市南屯區溝墘里大墩路５９６號,120.6495,24.15136,(04)23234168,羅氏家用新冠病毒抗原自我檢測套組,61,2022/05/10 14:04:02,下午2:00開始現場購買快篩試劑，售完為止。
5917070462,長映藥局,臺中市南屯區黎明路二段４３２號１樓,120.6355,24.15166,(04)22510951,羅氏家用新冠病毒抗原自我檢測套組,70,2022/05/10 14:04:02,實名制快篩每日下午2點開賣，售完為止（庫存以現場為主）
5917072699,博仕健保藥局,臺中市南屯區大墩１１街４４５號,120.638,24.14862,(04)23817009,羅氏家用新冠病毒抗原自我檢測套組,63,2022/05/10 14:04:02,星期一至星期五14:00開賣，星期六11:00開賣，現場排隊販售
5917080119,李藥局,臺中市北屯區和順路３９８號,120.7227,24.17664,(04)22390950,羅氏家用新冠病毒抗原自我檢測套組,13,2022/05/10 14:04:02,快篩下午一點半販售，滾動調整時間，請見諒
5917080619,永佳藥局,臺中市北屯區昌平路１段１０５－５號１樓,120.6904,24.17362,(04)22438886,羅氏家用新冠病毒抗原自我檢測套組,70,2022/05/10 14:04:02,快篩下午2點販售
5921010107,榮泰藥局,臺南市東區崇誨里林森路２段１９２巷４９號,120.2256,22.98973,(06)2369095,羅氏家用新冠病毒抗原自我檢測套組,48,2022/05/10 14:04:02,實名制快篩: 14:00 開始販售（週日店休）
5921010223,王藥局,臺南市東區小東里小東路１９０－１號,120.2276,22.99976,(06)2378697,羅氏家用新冠病毒抗原自我檢測套組,52,2022/05/10 14:04:02,週一 至 週日，下午 2:00 ~ 晚上9:00 （ 需健保卡 ）
5921012085,台安藥局,臺南市東區大同路一段１６３號,120.2113,22.98503,(06)2150011,羅氏家用新冠病毒抗原自我檢測套組,45,2022/05/10 14:04:02,快篩下午四點開始銷售
5921012334,家庭藥局,臺南市東區崇文里生產路３６９─３號,120.2278,22.96502,(06)2607298,羅氏家用新冠病毒抗原自我檢測套組,32,2022/05/10 14:04:02,快篩於星期一~星期六下午2:00開始~售完為止
5921013073,太和藥師藥局,臺南市東區仁和路５１─１號,120.2297,22.98064,(06)2906063,羅氏家用新冠病毒抗原自我檢測套組,13,2022/05/10 14:04:02,實名制快篩.每週一至週六下午1:30販售，週日公休
5921030298,銘豐藥局,臺南市中西區西賢一街４５號１樓,120.1776,23.00011,(06)2592517,羅氏家用新冠病毒抗原自我檢測套組,78,2022/05/10 14:04:02,星期一-日09:00-22:00.快篩實名制每日下午3點開始販售，發號碼牌.
5921040301,永生藥局,臺南市北區六甲里公園路４８１號,120.2079,23.00898,(06)2813681,羅氏家用新冠病毒抗原自我檢測套組,4,2022/05/10 14:04:02,每日販賣快篩劑下午2時起至售完為止／星期日休息／5月10-15日暫停售
5921040623,惠光藥局,臺南市北區文亢里文賢路２３６號,120.1938,23.0042,(06)2586316,羅氏家用新冠病毒抗原自我檢測套組,78,2022/05/10 14:04:02,快篩販售:5／10下午4:00開始，星期日公休
5921061720,康悅健藥師藥局,臺南市安南區安和路５段１４９-２號,120.2179,23.0659,(06)3556382,羅氏家用新冠病毒抗原自我檢測套組,2,2022/05/10 14:04:02,快篩-星期一-五13:00-售完   星期六-日15:00-售完
5921071226,康活藥局,臺南市安平區健康三街１８６號,120.1686,22.98883,(06)2936483,羅氏家用新冠病毒抗原自我檢測套組,4,2022/05/10 14:04:02,快篩晚上18:00開賣.
5921071244,全家藥局,臺南市安平區華平路１７０號,120.1749,22.98882,(06)2939000,羅氏家用新冠病毒抗原自我檢測套組,76,2022/05/10 14:04:02,下午2:30 開賣快篩  到貨時間不確定  一進一出  請準備剛好金額 謝謝  星期日不營業
5922010281,上安中西藥局,嘉義市東區府路里延平街２３８號之１,120.4502,23.47683,(05)2231005,羅氏家用新冠病毒抗原自我檢測套組,24,2022/05/10 14:04:02,星期一至星期五:上午7點半至8點，下午2點至3點，星期六:上午7點半至9點（售完提前截止）
5922011966,源豪藥局,嘉義市東區光華路８２號,120.4529,23.4782,(05)2169696,羅氏家用新冠病毒抗原自我檢測套組,3,2022/05/10 14:04:02,周一至周六，售鑿為止。周日休
5922012383,振安藥局,嘉義市東區王田里林森東路３００號１樓,120.464,23.48889,(05)2756541,羅氏家用新冠病毒抗原自我檢測套組,46,2022/05/10 14:04:02,實名制快篩:周一至周日14:00開始販售，售完為止
5922012945,大明藥局,嘉義市東區大雅路二段６８２號,120.4663,23.47719,(05)2760958,羅氏家用新冠病毒抗原自我檢測套組,24,2022/05/10 14:04:02,5／10號碼牌已發完畢（星期一至六：11點發號碼牌12-14點開始販售）
5922013068,佑全嘉義吳鳳南藥局,嘉義市東區吳鳳南路５８５、５８７號,120.459,23.45639,(05)2399311,羅氏家用新冠病毒抗原自我檢測套組,57,2022/05/10 14:04:02,領取快篩14:00
5922013102,後庄藥局,嘉義市東區吳鳳南路６４９號,120.4594,23.45511,(05)2391233,羅氏家用新冠病毒抗原自我檢測套組,78,2022/05/10 14:04:02,快篩實名制，每天16:00開始販售，售完為止。
5922013111,富善藥局,嘉義市東區新生路２３４號,120.4609,23.48419,(05)2759559,羅氏家用新冠病毒抗原自我檢測套組,34,2022/05/10 14:04:02,5／13、14休假，實名制快篩早上9:30-12:00 號碼牌領取
5922013166,忠孝啄木鳥藥局,嘉義市東區忠孝北街１８５號,120.444,23.51618,(05)2204948,羅氏家用新冠病毒抗原自我檢測套組,72,2022/05/10 14:04:02,有收到配量即每日下午2:00販售
5922013193,民權藥局,嘉義市東區民權路１５５號１樓、１５７號１樓,120.4604,23.48374,(05)2775322,羅氏家用新冠病毒抗原自我檢測套組,78,2022/05/10 14:04:02,快篩實名制，每天16:00開始販售，售完為止。
5922020634,利安藥局,嘉義市西區番社里中山路３４４號１樓,120.4473,23.47984,(05)2225756,羅氏家用新冠病毒抗原自我檢測套組,28,2022/05/10 14:04:02,快篩星期一~六下午13:30販賣，星期日另行公告
5922020652,四維啄木鳥藥局,嘉義市西區德安路１６０號,120.4284,23.48403,(05)2810598,羅氏家用新冠病毒抗原自我檢測套組,63,2022/05/10 14:04:02,口罩：每天8:15，現場排隊
5922020821,明興藥局,嘉義市西區仁愛路２４７號１樓,120.4425,23.47149,(05)2365938,羅氏家用新冠病毒抗原自我檢測套組,56,2022/05/10 14:04:02,快篩 周一至周六下午2點開賣  週日無
5922020858,大統藥局,嘉義市西區慶安里北興街１３６號,120.4421,23.48389,(05)2330230,羅氏家用新冠病毒抗原自我檢測套組,7,2022/05/10 14:04:02,5月10日預約登記已滿.有預約的民眾請於上午9:00-12:00領取
5922020992,昭安藥局,嘉義市西區民生南路４７９號１樓,120.4437,23.45821,(05)2842240,羅氏家用新冠病毒抗原自我檢測套組,9,2022/05/10 14:04:02,無
5922021006,竹圍藥局,嘉義市西區友愛路２７０、２７２號,120.4339,23.4837,(05)2811233,羅氏家用新冠病毒抗原自我檢測套組,78,2022/05/10 14:04:02,快篩實名制，每天16:00開始販售，售完為止。
5922028596,一安藥局,嘉義市西區福民里興業西路３１１號,120.4387,23.4677,(05)2859275,羅氏家用新冠病毒抗原自我檢測套組,78,2022/05/10 14:04:02,周一至周日早上9點至晚上10點半依發放號碼排依序售完
5931010235,友祥藥局,新北市板橋區裕民街１０７號,121.4599,25.02773,(02)22544666,羅氏家用新冠病毒抗原自我檢測套組,76,2022/05/10 14:04:02,無
5931010315,優良藥局,新北市板橋區莊敬路９３號,121.4727,25.02628,(02)22550251,羅氏家用新冠病毒抗原自我檢測套組,1,2022/05/10 14:04:02,無
5931010342,宏達大藥局,新北市板橋區莒光路１７號,121.47,25.02478,(02)22572345,羅氏家用新冠病毒抗原自我檢測套組,78,2022/05/10 14:04:02,快篩 晚上20:00開始販售! 不要打電話來 問題這麼多就到現場 也不給你問
5931010459,欣民藥局,新北市板橋區雙十路３段３９號,121.4706,25.03168,(02)22545938,羅氏家用新冠病毒抗原自我檢測套組,56,2022/05/10 14:04:02,快篩星期一到六下午兩點發放（前提政府有配送）
5931011161,全國藥局,新北市板橋區四川路１段２３１號,121.4601,25.00297,(02)29511212,羅氏家用新冠病毒抗原自我檢測套組,70,2022/05/10 14:04:02,健保快篩發放時間:星期一到星期六下午2點發放號碼牌~歡迎大家來領喔!
5931011447,日生大藥局,新北市板橋區中正路１巷１６弄１６號,121.4551,25.01209,(02)29675261,羅氏家用新冠病毒抗原自我檢測套組,47,2022/05/10 14:04:02,快篩試劑販售時間:週一至週六14:00-20:30  售完為止，周日休假
5931012239,信昌藥局,新北市板橋區三民路２段２０２－９號,121.4789,25.0142,(02)29510784,羅氏家用新冠病毒抗原自我檢測套組,16,2022/05/10 14:04:02,防疫快篩依據每天到貨時間，另行公告
5931013389,谷全藥局,新北市板橋區裕民街４９號,121.4613,25.02851,(02)22561856,羅氏家用新冠病毒抗原自我檢測套組,2,2022/05/10 14:04:02,無
5931013478,富盛藥局,新北市板橋區四維路２９１巷４弄２４號１樓,121.4622,25.02879,(02)22596016,羅氏家用新冠病毒抗原自我檢測套組,40,2022/05/10 14:04:02,快篩試劑.下午2點販售.預防群聚 滾動式調整時間.請勿打電話詢問.謝謝
5931013781,佳和藥局,新北市板橋區文化路１段３８７巷５號１樓,121.4667,25.02193,(02)22589598,羅氏家用新冠病毒抗原自我檢測套組,38,2022/05/10 14:04:02,快篩週一 至五均分早上8:30 和下午3:00販售- 週六早上售完為止. 週日休
5931014555,廣益藥局,新北市板橋區自由路２１號,121.4654,25.02296,(02)22545726,羅氏家用新冠病毒抗原自我檢測套組,84,2022/05/10 14:04:02,下午3點50發號碼牌，4點開始賣
5931014831,詠濟藥局,新北市板橋區幸福路２３號,121.4618,25.02023,(02)22536951,羅氏家用新冠病毒抗原自我檢測套組,5,2022/05/10 14:04:02,無
5931015687,正康健保藥局,新北市板橋區大觀路２段６５號１樓,121.4467,25.00246,(02)22756681,羅氏家用新冠病毒抗原自我檢測套組,20,2022/05/10 14:04:02,下午13:30依現場順序開始販售快篩，快篩配送絮亂庫存不準!!
5931015909,向康藥局,新北市板橋區實踐路１４７號１樓,121.4643,25.00437,(02)29637248,羅氏家用新冠病毒抗原自我檢測套組,66,2022/05/10 14:04:02,下午2點開始販售實名制快篩
5931016237,幸福健保藥局,新北市板橋區四維路１０６號１樓,121.4657,25.02457,(02)22530009,羅氏家用新冠病毒抗原自我檢測套組,78,2022/05/10 14:04:02,無
5931016273,湯明藥局,新北市板橋區中山路２段３１９號１樓,121.479,25.01866,(02)29571980,羅氏家用新冠病毒抗原自我檢測套組,50,2022/05/10 14:04:02,週一到週五 下午四點  六日時間未定 排隊不發號碼
5931016433,利安社區藥局,新北市板橋區德興街３７巷１４號（１樓）,121.4538,24.99382,(02)89671551,羅氏家用新冠病毒抗原自我檢測套組,67,2022/05/10 14:04:02,無
5931016586,賜安藥局,新北市板橋區信義路６０號１樓,121.4571,24.99373,(02)29617483,羅氏家用新冠病毒抗原自我檢測套組,63,2022/05/10 14:04:02,4／28快篩每日配送到達公告於LINE@及FB粉絲專頁後開始銷售 售完為止 星期日公休
5931016611,民川藥局,新北市板橋區四川路１段９７號１樓,121.4598,25.00544,(02)29520090,羅氏家用新冠病毒抗原自我檢測套組,40,2022/05/10 14:04:02,星期一~星期六（快篩上午9:00販售38份下午3:00販售40份）
5931016808,正安健保藥局,新北市板橋區民族路２２４號（１樓）,121.4687,25.00733,(02)29526813,羅氏家用新冠病毒抗原自我檢測套組,74,2022/05/10 14:04:02,17時依現場順序開始販售.週六12點.電腦配送庫存不準..以現場數量為準
5931017092,康橋藥局,新北市板橋區文化路１段２７３號,121.4646,25.01848,(02)22532560,羅氏家用新冠病毒抗原自我檢測套組,63,2022/05/10 14:04:02,快篩試劑 每天下午2點販售 售完為止 周日公休
5931017261,正康新埔藥局,新北市板橋區介壽街４號（１樓）,121.467,25.02025,(02)82595882,羅氏家用新冠病毒抗原自我檢測套組,17,2022/05/10 14:04:02,下午2:30依現場順序開始販售快篩。週日無快篩!
5931017289,板橋大樹藥局,新北市板橋區忠孝路２８號（１樓）,121.4603,25.00176,(02)29555551,羅氏家用新冠病毒抗原自我檢測套組,78,2022/05/10 14:04:02,快篩實名制，每天16:00開始販售，售完為止。
5931017387,華安藥局,新北市板橋區永豐街３２號（１樓）,121.4746,25.01727,(02)29581608,羅氏家用新冠病毒抗原自我檢測套組,66,2022/05/10 14:04:02,快篩平日下午兩點／週六一點 現場開賣 無號碼牌
5931017494,佑全板橋四川藥局,新北市板橋區四川路１段４７１號１樓,121.4573,24.99744,(02)29559598,羅氏家用新冠病毒抗原自我檢測套組,66,2022/05/10 14:04:02,快篩販售時間：周一到周五1500開始，週六日公休，現場排隊
5931017618,新埔健保藥局,新北市板橋區自由路２號１樓,121.4654,25.02222,(02)22558878,羅氏家用新冠病毒抗原自我檢測套組,39,2022/05/10 14:04:02,無
5931017645,松立藥局,新北市板橋區四川路２段９９之１０號（１樓）,121.4521,24.99448,(02)89670100,羅氏家用新冠病毒抗原自我檢測套組,32,2022/05/10 14:04:02,無
5931017663,盛生藥局,新北市板橋區合宜路９９號（１樓）,121.4479,24.9984,(02)89697299,羅氏家用新冠病毒抗原自我檢測套組,72,2022/05/10 14:04:02,政府快篩下午1:50發放號碼牌.下午2:00準時銷售..假日視政府配量（銷售時間相同）
5931017770,光環藥局,新北市板橋區光環路２段１６號１樓,121.4822,25.01476,(02)89520920,羅氏家用新冠病毒抗原自我檢測套組,71,2022/05/10 14:04:02,無
5931017869,躍獅國慶藥局,新北市板橋區國慶路１７９號（１樓）,121.4626,24.99636,(02)29641548,羅氏家用新冠病毒抗原自我檢測套組,145,2022/05/10 14:04:02,快篩實名制，每天14:00開始販售，售完為止
5931017967,曉品中西藥局,新北市板橋區貴興路２４號（１樓）,121.4575,25.00389,(02)29586990,羅氏家用新冠病毒抗原自我檢測套組,8,2022/05/10 14:04:02,無
5931017994,後埔藥局,新北市板橋區華興街９號（１樓）,121.459,25.00457,(02)89510306,羅氏家用新冠病毒抗原自我檢測套組,76,2022/05/10 14:04:02,5／10 下午2點發放號碼牌*確保作業流暢請自備500元*每天 78 份晚上10 點以前領取完畢（過卡時間差異剩餘數量僅供參考）
5931018124,大楓藥師藥局,新北市板橋區懷仁街８４號（１樓）,121.4774,25.01819,(02)29560576,羅氏家用新冠病毒抗原自我檢測套組,5,2022/05/10 14:04:02,快篩販售時間  下午13:30開始，售完為止。
5931020848,吳廣隆藥局,新北市三重區長壽西街５－１號,121.498,25.06765,(02)29715020,羅氏家用新冠病毒抗原自我檢測套組,64,2022/05/10 14:04:02,每天下午2點開始販售防疫口罩
5931021532,龍門藥局,新北市三重區龍門路１８９號,121.4996,25.07322,(02)29756141,羅氏家用新冠病毒抗原自我檢測套組,78,2022/05/10 14:04:02,實名制快篩販售時間~星期一至星期六下午3點
5931023447,安泰藥局,新北市三重區正義北路３００－３號２樓,121.4953,25.06978,(02)89815379,羅氏家用新冠病毒抗原自我檢測套組,78,2022/05/10 14:04:02,5／2只有早上8:30--12:00營業下午.及晚上休息
5931024373,予康藥局,新北市三重區文化北路１９８號１樓,121.498,25.06794,(02)89858789,羅氏家用新冠病毒抗原自我檢測套組,64,2022/05/10 14:04:02,（星期日休息） 快篩14:30開始
5931024588,陽光藥師藥局,新北市三重區三和路２段１８２號１樓,121.4987,25.06886,(02)29788120,羅氏家用新冠病毒抗原自我檢測套組,78,2022/05/10 14:04:02,無
5931024677,博愛藥局,新北市三重區三民街２２０號１樓,121.4803,25.06712,(02)29711606,羅氏家用新冠病毒抗原自我檢測套組,76,2022/05/10 14:04:02,快篩實名制，如有貨都將於下午2點開始發放，不接受電話只能現場排隊領取，謝謝
5931024944,康希藥局,新北市三重區三和路２段８３號１樓,121.4999,25.0682,(02)89728298,羅氏家用新冠病毒抗原自我檢測套組,69,2022/05/10 14:04:02,每日下午2點依序販賣政府快篩試劑 不發號碼牌
5931024971,欽勝藥局,新北市三重區重陽路４段６號２樓,121.4906,25.06894,(02)29857389,羅氏家用新冠病毒抗原自我檢測套組,74,2022/05/10 14:04:02,販售快篩需現場排隊，無預約無號碼牌，販售時間15:00。
5931025263,鴻泰健保藥局,新北市三重區重新路１段９５號１樓,121.5009,25.06343,(02)29769055,羅氏家用新冠病毒抗原自我檢測套組,67,2022/05/10 14:04:02,每月第一個周日固定公休，防疫快篩下午兩點販售，現場排隊購買不預留
5931025290,康新藥局,新北市三重區正義北路１８５號２樓,121.4964,25.06783,(02)29865982,羅氏家用新冠病毒抗原自我檢測套組,76,2022/05/10 14:04:02,實名制代售時段：下午2點到4點。請自備零錢，恕不找零。.
5931025398,昌誠藥局,新北市三重區三和路４段１６１號１樓,121.4835,25.0785,(02)22876338,羅氏家用新冠病毒抗原自我檢測套組,5,2022/05/10 14:04:02,5／2 （休診）
5931025647,幸康藥局,新北市三重區正義北路２０５號２樓,121.4962,25.0684,(02)29816105,羅氏家用新冠病毒抗原自我檢測套組,115,2022/05/10 14:04:02,國定假日，如元旦，端午，中秋不執行調劑業務。政府快篩實名制於週一~週六的14:30開始販售。
5931025914,仁美藥局,新北市三重區慈愛街５１號１、２樓,121.4861,25.07908,(02)22805150,羅氏家用新冠病毒抗原自我檢測套組,78,2022/05/10 14:04:02,快篩實名制，每天16:00開始販售，售完為止。
5931025932,永吉藥局,新北市三重區車路頭街９１號１樓,121.4844,25.07422,(02)22860432,羅氏家用新冠病毒抗原自我檢測套組,78,2022/05/10 14:04:02,快篩實名制，每天16:00開始販售，售完為止。
5931026064,五華春天生活藥局,新北市三重區五華街７３號１、２樓,121.4925,25.08291,(02)29876838,羅氏家用新冠病毒抗原自我檢測套組,77,2022/05/10 14:04:02,快篩代售時間：週一至週日15：00，現場排隊購買，售完為止。（物流配送不及則例外，以門市公告為主）
5931026082,大有藥局,新北市三重區中正北路２１３號１、２樓及２１５號１、２樓,121.4763,25.07013,(02)29885771,羅氏家用新冠病毒抗原自我檢測套組,78,2022/05/10 14:04:02,快篩實名制，每天16:00開始販售，售完為止。
5931026091,重新藥局,新北市三重區重新路４段１２號１樓,121.4888,25.05775,(02)29742700,羅氏家用新冠病毒抗原自我檢測套組,78,2022/05/10 14:04:02,快篩實名制，每天16:00開始販售，售完為止。
5931030264,永達大藥局,新北市永和區大新街２號,121.5145,25.00853,(02)29213326,羅氏家用新冠病毒抗原自我檢測套組,7,2022/05/10 14:04:02,無
5931030568,仲景藥局,新北市永和區竹林路２１３巷１號,121.521,25.00893,(02)89281687,羅氏家用新冠病毒抗原自我檢測套組,25,2022/05/10 14:04:02,實名制快篩每日總量78份，下午2點現場排隊過卡，1人1卡每月限領1次，不發號碼牌；營業時間9:30-10:30
5931032133,宸安藥局,新北市永和區得和路３８５號１樓,121.5251,24.99943,(02)22328274,羅氏家用新冠病毒抗原自我檢測套組,59,2022/05/10 14:04:02,星期一至六 實名制快篩  PM2:00-3；00； 星期日公休
5931033032,弘光藥局,新北市永和區竹林路中興里６６巷１９號１樓,121.5201,25.01396,(02)29282000,羅氏家用新冠病毒抗原自我檢測套組,16,2022/05/10 14:04:02,早上9點至晚上10點 口罩代售號碼牌自1400開始發放
5931033461,常安中西藥局,新北市永和區保平路２６號１樓,121.5122,25.00749,(02)29283530,羅氏家用新冠病毒抗原自我檢測套組,7,2022/05/10 14:04:02,每日下午三點開始實名制快篩
5931033541,大欣安藥局,新北市永和區得和路３７０號１樓,121.5244,24.99928,(02)29450808,羅氏家用新冠病毒抗原自我檢測套組,70,2022/05/10 14:04:02,5／3起快篩試劑PAM14:00開始發號碼牌跟販售
5931033578,悅美保健藥局,新北市永和區保生路２２巷２１號１樓,121.5073,25.00839,(02)22323515,羅氏家用新冠病毒抗原自我檢測套組,13,2022/05/10 14:04:02,周一至周六 上午11點到晚上10點（一）快篩售完（二）下午1:30開賣
5931033774,台化藥局,新北市永和區勵行街１１９號１樓,121.5175,25.01202,(02)22318585,羅氏家用新冠病毒抗原自我檢測套組,69,2022/05/10 14:04:02,無
5931033863,欣安大藥局,新北市永和區福和路２２１號１樓,121.5189,25.00749,(02)22326685,羅氏家用新冠病毒抗原自我檢測套組,10,2022/05/10 14:04:02,快篩試劑pm13:30發號碼牌暨銷售，售完為止。
5931034057,佑全永和中山藥局,新北市永和區中山路１段２２７、２２９、２３１號１樓,121.508,25.00776,(02)22331546,羅氏家用新冠病毒抗原自我檢測套組,3,2022/05/10 14:04:02,實際配送時間不定，上午12:50現場開始發放號碼牌。
5931034119,仁愛陽光藥局,新北市永和區仁愛路１４３號１樓,121.5114,25.01293,(02)89213691,羅氏家用新冠病毒抗原自我檢測套組,73,2022/05/10 14:04:02,快篩代售時段14:00，售完為止...
5931034146,亮點藥局,新北市永和區竹林路７１號１樓,121.5186,25.01355,(02)89253895,羅氏家用新冠病毒抗原自我檢測套組,36,2022/05/10 14:04:02,快篩發放時段 下午16:30-18:00
5931034191,健生活藥局,新北市永和區得和路２３７號１樓,121.5203,25.00021,(02)29223222,羅氏家用新冠病毒抗原自我檢測套組,15,2022/05/10 14:04:02,無
5931034208,正銨藥局,新北市永和區得和路２４７－１號（１樓）,121.5206,25.00009,(02)29288100,羅氏家用新冠病毒抗原自我檢測套組,79,2022/05/10 14:04:02,星期1~6下午2:15發號碼牌.星期日休息
5931040215,華新藥局,新北市中和區華新街７３號,121.5082,24.98392,(02)29448345,羅氏家用新冠病毒抗原自我檢測套組,1,2022/05/10 14:04:02,無
5931042371,真成大藥局,新北市中和區光華街３８號,121.5048,25.00389,(02)22447008,羅氏家用新冠病毒抗原自我檢測套組,6,2022/05/10 14:04:02,實名快篩周一至周六下午1:30發放號碼牌 周日早上9:30點~12點前領完 週日無販售
5931043565,一安藥妝藥局,新北市中和區中和路９號１.２樓,121.4998,25.00221,(02)22483778,羅氏家用新冠病毒抗原自我檢測套組,78,2022/05/10 14:04:02,下午3點開始發號碼牌販售快篩
5931043798,永成藥局,新北市中和區景平路１５６號１樓,121.5176,24.99222,(02)29407619,羅氏家用新冠病毒抗原自我檢測套組,78,2022/05/10 14:04:02,實名制快篩，下午三點領取號碼並開始販售（每日78份）
5931043921,良安藥局,新北市中和區連城路４７７巷１號１樓,121.4833,24.99555,(02)22225798,羅氏家用新冠病毒抗原自我檢測套組,3,2022/05/10 14:04:02,週六日不開店，實名制快篩，晚上9:00開始販售
5931043976,詠邑藥局,新北市中和區南華路４３號１樓,121.5038,24.99671,(02)22445630,羅氏家用新冠病毒抗原自我檢測套組,71,2022/05/10 14:04:02,無
5931044642,貞心藥局,新北市中和區永貞路２８０之１號１樓,121.5133,25.00397,(02)29203865,羅氏家用新冠病毒抗原自我檢測套組,2,2022/05/10 14:04:02,領口罩時間為下午一點
5931044848,和霖生活藥局,新北市中和區復興路２８９號１樓,121.5018,24.99015,(02)22458227,羅氏家用新冠病毒抗原自我檢測套組,74,2022/05/10 14:04:02,無
5931045032,朝安藥局,新北市中和區復興路２６２號１樓,121.5035,24.99038,(02)31511269,羅氏家用新冠病毒抗原自我檢測套組,61,2022/05/10 14:04:02,實名制快篩下午2點過卡販售，每人限持一卡，不發號碼牌。（任何異動依現場公告為準）
5931045069,禾昌藥局,新北市中和區中安街１７８巷２號１樓,121.5109,24.99954,(02)29267330,羅氏家用新冠病毒抗原自我檢測套組,60,2022/05/10 14:04:02,實名制快篩14:00開始販售／醫護警消優先
5931045130,四維藥局,新北市中和區四維街３７巷２號１樓,121.5124,24.98679,(02)86681345,羅氏家用新冠病毒抗原自我檢測套組,78,2022/05/10 14:04:02,快篩實名制，每天16:00開始販售，售完為止。
5931045229,佑全中和景新藥局,新北市中和區景新街３９５號１樓,121.5126,24.98995,(02)29431408,羅氏家用新冠病毒抗原自我檢測套組,62,2022/05/10 14:04:02,實名制快篩試劑---14:00 開始販售78份
5931045345,芳碩藥局,新北市中和區連城路４７巷２號１樓,121.4982,25.00162,(02)82458816,羅氏家用新冠病毒抗原自我檢測套組,69,2022/05/10 14:04:02,販售時間星期一~星期六下午14:00-21:00 （星期日休息）
5931045416,信毅藥局,新北市中和區捷運路５６號１樓,121.5081,24.99078,(02)29423663,羅氏家用新冠病毒抗原自我檢測套組,17,2022/05/10 14:04:02,無
5931045452,安華藥局,新北市中和區圓通路２９３之２號２樓,121.4949,24.99236,(02)22426010,羅氏家用新冠病毒抗原自我檢測套組,77,2022/05/10 14:04:02,無
5931045470,富康活力永禎藥局,新北市中和區永貞路２５４號１樓,121.5141,25.00377,(02)29215999,羅氏家用新冠病毒抗原自我檢測套組,67,2022/05/10 14:04:02,無
5931045498,好意藥局,新北市中和區景新街４６７巷３號１樓,121.5136,24.98825,(02)89416598,羅氏家用新冠病毒抗原自我檢測套組,78,2022/05/10 14:04:02,週日無販售快篩試劑
5931045505,順儷民享藥局,新北市中和區民享街５３號１樓,121.4742,25.00265,(02)22222825,羅氏家用新冠病毒抗原自我檢測套組,24,2022/05/10 14:04:02,無
5931050211,耀生中西藥局,新北市新店區文化路２１巷６號,121.5432,24.97978,(02)29118598,羅氏家用新冠病毒抗原自我檢測套組,66,2022/05/10 14:04:02,下午2點開賣快篩，星期日休息
5931051601,昇旺藥局,新北市新店區建國路１０－１號１樓,121.5401,24.97361,(02)86659233,羅氏家用新冠病毒抗原自我檢測套組,66,2022/05/10 14:04:02,實名制快篩於下午14:00開始販售
5931051816,康宜庭北新藥局,新北市新店區北新路２段４３號１樓,121.5428,24.97285,(02)89147015,羅氏家用新冠病毒抗原自我檢測套組,72,2022/05/10 14:04:02,快篩代售時間為下午2點， 現場排隊
5931052091,康宜庭大坪林藥局,新北市新店區北新路３段１２７號１樓,121.5412,24.9826,(02)89116029,羅氏家用新冠病毒抗原自我檢測套組,70,2022/05/10 14:04:02,實名制快篩14:00發放號碼牌同步販售，每人限持1卡購買1份，請備妥零鈔
5931052215,三民藥局,新北市新店區三民路７８號１樓－１,121.5348,24.97257,(02)89146301,羅氏家用新冠病毒抗原自我檢測套組,66,2022/05/10 14:04:02,實名制快篩試劑下午2點開始現場販售並同步發號碼牌周日休息
5931052288,躍獅正新藥局,新北市新店區中正路５７之１號１樓,121.5443,24.96989,(02)89145930,羅氏家用新冠病毒抗原自我檢測套組,106,2022/05/10 14:04:02,星期一至六9:00為領取快篩號碼牌，20:00以前帶號碼牌來取快篩
5931052484,大河藥局,新北市新店區三民路１４０號１樓,121.5351,24.97502,(02)29140910,羅氏家用新冠病毒抗原自我檢測套組,58,2022/05/10 14:04:02,週一至週六下午2點開始發購實名制快篩試劑。限1人1卡購買1份。5／15週日不發購。
5931052984,北一藥師藥局,新北市新店區北新路２段１６０號１樓、２樓,121.5431,24.97563,(02)89115686,羅氏家用新冠病毒抗原自我檢測套組,6,2022/05/10 14:04:02,14:30發完號碼牌即發口罩，勿持號碼牌離開，叫號未到視同放棄
5931053034,康宜庭市公所藥局,新北市新店區北新路１段２８５號１樓,121.541,24.96707,(02)29151709,羅氏家用新冠病毒抗原自我檢測套組,69,2022/05/10 14:04:02,實名制快篩下午兩點開賣
5931053132,康宜庭碧潭藥局,新北市新店區北宜路１段４１號１樓,121.5384,24.95726,(02)29186266,羅氏家用新冠病毒抗原自我檢測套組,65,2022/05/10 14:04:02,14:00 發放號碼牌，同步販售
5931053169,貳品藥局,新北市新店區新和街７５號１樓,121.5205,24.98612,(02)89418890,羅氏家用新冠病毒抗原自我檢測套組,149,2022/05/10 14:04:02,實名制快篩下午一點半依排隊順序發售
5931053178,長照藥局,新北市新店區如意街１６號１樓,121.4944,24.94838,(02)22153325,羅氏家用新冠病毒抗原自我檢測套組,45,2022/05/10 14:04:02,請注意5／10快篩下午2:00開賣雙號 一人一 卡 自備500 （請勿再來電詢問了）現場自主排隊不發號碼牌
5931053285,北新212藥局,新北市新店區北新路３段２１２號（２樓）,121.5413,24.98429,(02)29183212,羅氏家用新冠病毒抗原自我檢測套組,67,2022/05/10 14:04:02,依照行一昌勳診所門診時間營業
5931053329,康宜庭民權藥局,新北市新店區民權路４８－２號１樓,121.5396,24.98307,(02)86655371,羅氏家用新冠病毒抗原自我檢測套組,8,2022/05/10 14:04:02,實名快篩星期一~六14:00開賣現場排隊
5931053347,健詮藥局,新北市新店區建國路１１９號１樓,121.5398,24.97777,(02)29116312,羅氏家用新冠病毒抗原自我檢測套組,17,2022/05/10 14:04:02,11點發號碼牌，12點半-3點過卡買快篩。最新消息會公佈在臉書「健詮藥局」
5931053365,十二願藥局,新北市新店區中正路６８２號１樓,121.5341,24.98998,(02)22181899,羅氏家用新冠病毒抗原自我檢測套組,69,2022/05/10 14:04:02,公費快篩每日下午2點販售~ 公費快篩每日下午2點販售
5931053383,大豐藥局,新北市新店區北新路３段５３號之１（１樓）,121.5417,24.9807,(02)89113196,羅氏家用新冠病毒抗原自我檢測套組,47,2022/05/10 14:04:02,每日下午2點發號碼牌同步販售實名制快篩試劑 請自備500元
5931060557,一安藥局,新北市新莊區立德里新泰路２６８號,121.446,25.04029,(02)29941618,羅氏家用新冠病毒抗原自我檢測套組,81,2022/05/10 14:04:02,實名制快篩發放時間為15:00  其他詳情請上FB查詢
5931060646,王藥局,新北市新莊區昌盛街３８號,121.4544,25.04988,(02)29922404,羅氏家用新冠病毒抗原自我檢測套組,34,2022/05/10 14:04:02,今天快篩試劑   下午2:00開始販售! 售完為止!
5931060682,勝安藥局,新北市新莊區中正路３３４巷２３號１樓,121.4456,25.03585,(02)29963394,羅氏家用新冠病毒抗原自我檢測套組,1,2022/05/10 14:04:02,無
5931060824,禮安藥師藥局,新北市新莊區自立街１０９號１樓,121.4555,25.0455,(02)29942891,羅氏家用新冠病毒抗原自我檢測套組,79,2022/05/10 14:04:02,無
5931068464,健安藥局,新北市新莊區光和里民安西路２０９號１樓,121.4261,25.0147,(02)22043765,羅氏家用新冠病毒抗原自我檢測套組,78,2022/05/10 14:04:02,無
5931068599,建昌藥局,新北市新莊區福營里中正路５５７號,121.435,25.03254,(02)29015422,羅氏家用新冠病毒抗原自我檢測套組,78,2022/05/10 14:04:02,快篩代售時間:週一至週日14:30現場排隊購買，售完為止。（物流配送不及則例外，以門市公告為主）
5931068819,東京大藥局,新北市新莊區民安路１７６號１樓,121.4251,25.02392,(02)22063806,羅氏家用新冠病毒抗原自我檢測套組,67,2022/05/10 14:04:02,口罩代售時間為9:30開始現場排隊販售
5931068875,旭生藥局,新北市新莊區裕民街４２號１樓,121.4188,25.02498,(02)29021289,羅氏家用新冠病毒抗原自我檢測套組,56,2022/05/10 14:04:02,無
5931069792,宏泰藥局,新北市新莊區自信街３７號１樓,121.4543,25.04863,(02)29964649,羅氏家用新冠病毒抗原自我檢測套組,73,2022/05/10 14:04:02,無
593106A771,新佑康健保藥局,新北市新莊區中華路１段３５號１樓,121.4519,25.03765,(02)29947490,羅氏家用新冠病毒抗原自我檢測套組,25,2022/05/10 14:04:02,無
593106A931,建安藥局,新北市新莊區建安街１１７號、１１９號１樓,121.4262,25.02406,(02)22051969,羅氏家用新冠病毒抗原自我檢測套組,78,2022/05/10 14:04:02,快篩實名制，每天16:00開始販售，售完為止。
593106A977,丹鳳藥局,新北市新莊區中正路７４５、７４７號（１樓）,121.4227,25.0288,(02)29065755,羅氏家用新冠病毒抗原自我檢測套組,78,2022/05/10 14:04:02,快篩實名制，每天16:00開始販售，售完為止。
593106B036,家嘉藥局,新北市新莊區自立街１０３號（１樓）,121.4553,25.04549,(02)89926488,羅氏家用新冠病毒抗原自我檢測套組,68,2022/05/10 14:04:02,今天號碼牌都已發放完畢
593106B090,依都勇藥局,新北市新莊區自信街６３號（１樓）,121.4554,25.04829,(02)29901516,羅氏家用新冠病毒抗原自我檢測套組,61,2022/05/10 14:04:02,無
593106B116,來福中西健保藥局,新北市新莊區中港路５１２號１樓,121.4518,25.05182,(02)29961615,羅氏家用新冠病毒抗原自我檢測套組,65,2022/05/10 14:04:02,無
593106B232,新康健保藥局,新北市新莊區自立街１７２號１樓,121.4557,25.04537,(02)29962558,羅氏家用新冠病毒抗原自我檢測套組,73,2022/05/10 14:04:02,早上9點發號碼牌，下午2-4點帶號碼牌來領快篩（逾時不候）
593106B241,善美藥局,新北市新莊區公園路８９號１樓,121.4546,25.04041,(02)29960979,羅氏家用新冠病毒抗原自我檢測套組,1,2022/05/10 14:04:02,無
593106B287,盛弘藥局,新北市新莊區中平路２９５號１樓,121.4447,25.05099,(02)22763336,羅氏家用新冠病毒抗原自我檢測套組,66,2022/05/10 14:04:02,政府快篩於平日下午13:50發放號碼牌，下午14:00準時販售，假日視政府配量（販售時間相同）
593106B321,大樹幸福藥局,新北市新莊區幸福路６７２號１樓,121.4509,25.0493,(02)29981066,羅氏家用新冠病毒抗原自我檢測套組,78,2022/05/10 14:04:02,快篩實名制，每天16:00開始販售，售完為止。
5931071658,大慶藥局,新北市樹林區鎮前街４２－１號,121.4258,24.99271,(02)26759212,羅氏家用新冠病毒抗原自我檢測套組,68,2022/05/10 14:04:02,實名制快篩每日下午2:00開始販售， 現場排隊， 帶500元鈔票／ 健保卡
5931071881,盛立藥局,新北市樹林區大雅路２８５號１樓,121.3795,24.94735,(02)35018218,羅氏家用新冠病毒抗原自我檢測套組,70,2022/05/10 14:04:02,政府快篩平日下午1:50發號碼牌，下午2:00準時販售，假日視政府配量（販售時間相同）
5931071934,樹新藥局,新北市樹林區樹新路３０－３號１樓,121.4272,24.99462,(02)26821080,羅氏家用新冠病毒抗原自我檢測套組,57,2022/05/10 14:04:02,無
5931072066,琉璃水藥師藥局,新北市樹林區龍興街２１號１樓,121.403,25.01614,(02)26764262,羅氏家用新冠病毒抗原自我檢測套組,12,2022/05/10 14:04:02,無
5931072351,瑪諾藥局,新北市樹林區復興路２０號,121.4225,24.99462,(02)26830304,羅氏家用新冠病毒抗原自我檢測套組,66,2022/05/10 14:04:02,無
5931072431,樹林大樹藥局,新北市樹林區育英街５４號１－２樓,121.4213,24.98928,(02)26815488,羅氏家用新冠病毒抗原自我檢測套組,78,2022/05/10 14:04:02,快篩實名制，每天16:00開始販售，售完為止。
5931072459,健康人生藥局,新北市樹林區博愛一街２６號１樓,121.4256,24.99091,(02)26814394,羅氏家用新冠病毒抗原自我檢測套組,73,2022/05/10 14:04:02,實名制快篩販售時間下午2點起.售完為止
5931072495,鄰康藥局,新北市樹林區日新街３９號１樓,121.4228,24.99211,(02)26855472,羅氏家用新冠病毒抗原自我檢測套組,69,2022/05/10 14:04:02,實名快篩下午2點開始販售
5931072575,永賀藥局,新北市樹林區中山路１段１２７號１樓,121.4227,24.99003,(02)26815801,羅氏家用新冠病毒抗原自我檢測套組,17,2022/05/10 14:04:02,無
5931080031,林政德西藥局,新北市鶯歌區建國路２５６號１樓,121.3477,24.95354,(02)26781412,羅氏家用新冠病毒抗原自我檢測套組,71,2022/05/10 14:04:02,春節期間看診時段請電洽
5931081234,文瑞藥局,新北市鶯歌區尖山路２９６號,121.3406,24.94437,(02)26780589,羅氏家用新冠病毒抗原自我檢測套組,47,2022/05/10 14:04:02,快篩下午14:00開始販售  假日販售時間前一天公告
5931081458,食在好健康藥局,新北市鶯歌區國慶街１６５號１樓,121.3512,24.95312,(02)26702559,羅氏家用新冠病毒抗原自我檢測套組,44,2022/05/10 14:04:02,實名制快篩販賣時間週一到週四19:00~20:00 （請自備散鈔）
5931081510,鶯歌藥局,新北市鶯歌區鶯桃路２段１１號１樓,121.3258,24.97205,(02)86778778,羅氏家用新冠病毒抗原自我檢測套組,78,2022/05/10 14:04:02,快篩實名制，每天16:00開始販售，售完為止。
5931081547,信義健保藥局,新北市鶯歌區信義街６３號１樓,121.3534,24.95571,(02)86775563,羅氏家用新冠病毒抗原自我檢測套組,39,2022/05/10 14:04:02,發放時間以現場公告為主
5931091481,盛加藥局,新北市三峽區民生街４９號,121.3755,24.9362,(02)26739797,羅氏家用新冠病毒抗原自我檢測套組,48,2022/05/10 14:04:02,政府快篩平日下午1:50發號碼牌，下午2:00準時販售，假日視政府配量（販售時間相同）
5931091696,祥祐藥局,新北市三峽區文化路１２５號１樓,121.3699,24.93598,(02)26738080,羅氏家用新冠病毒抗原自我檢測套組,51,2022/05/10 14:04:02,實名制快篩下午2點開始販售
5931091865,大新藥局,新北市三峽區大義路２５９號１樓,121.3774,24.94638,(02)86713204,羅氏家用新冠病毒抗原自我檢測套組,78,2022/05/10 14:04:02,實名制快篩下午2:50開始發號碼牌 3:00販售
5931091874,盛台藥局,新北市三峽區大學路１０８號１、２樓,121.375,24.9438,(02)26722730,羅氏家用新冠病毒抗原自我檢測套組,66,2022/05/10 14:04:02,政府快篩平日13:50發號碼牌，14:00準時販售。假日視政府配量販售（販售時間相同）。
5931091892,三峽藥局,新北市三峽區介壽路１段２７號１樓,121.3757,24.93321,(02)26738868,羅氏家用新冠病毒抗原自我檢測套組,79,2022/05/10 14:04:02,快篩實名制，每天16:00開始販售，售完為止。
5931091972,三峽大昌藥局,新北市三峽區民生街５６號１樓,121.3752,24.93635,(02)26711560,羅氏家用新冠病毒抗原自我檢測套組,63,2022/05/10 14:04:02,無
5931092120,進安大藥局,新北市三峽區民生街１７４號（１樓）,121.3713,24.93493,(02)26711125,羅氏家用新冠病毒抗原自我檢測套組,61,2022/05/10 14:04:02,原則下午2點開始販售快篩（實際販售時間，視到貨時間調整）
5931100074,邱藥局,新北市淡水區中山路２７號,121.444,25.17006,(02)26214255,羅氏家用新冠病毒抗原自我檢測套組,32,2022/05/10 14:04:02,無
5931100154,尚運藥局,新北市淡水區學府路５１巷１弄２０號,121.4473,25.16892,(02)26225149,羅氏家用新冠病毒抗原自我檢測套組,88,2022/05/10 14:04:02,無
5931101633,吉利安健保藥師藥局,新北市淡水區中山北路１段１００號１樓,121.4426,25.17639,(02)26295693,羅氏家用新冠病毒抗原自我檢測套組,76,2022/05/10 14:04:02,若有送貨則當日14:00準時開賣售完為止
5931102103,四季寶健保藥局,新北市淡水區新市一路３段１１７－１號（含夾層）,121.4468,25.18314,(02)26283199,羅氏家用新冠病毒抗原自我檢測套組,2,2022/05/10 14:04:02,無
5931102292,佑全淡水淡金藥局,新北市淡水區淡金路５５號、５７號１樓,121.4559,25.16127,(02)26228040,羅氏家用新冠病毒抗原自我檢測套組,73,2022/05/10 14:04:02,實名制快篩每日兩點開賣（售完為止）
5931102489,水源藥局,新北市淡水區水源街１段１３３號１樓,121.447,25.172,(02)26295233,羅氏家用新冠病毒抗原自我檢測套組,78,2022/05/10 14:04:02,快篩實名制，每天16:00開始販售，售完為止。
5931111586,品康藥局,新北市汐止區湖前街４７號１樓,121.632,25.07005,(02)26954441,羅氏家用新冠病毒抗原自我檢測套組,65,2022/05/10 14:04:02,下午2點販售實名制快篩
5931111737,廣誠藥師藥局,新北市汐止區建成路２２號１樓,121.6648,25.07268,(02)86916091,羅氏家用新冠病毒抗原自我檢測套組,12,2022/05/10 14:04:02,因應快篩到貨時間不定 請見每日公告
5931111988,滿益藥局,新北市汐止區仁愛路１３０號,121.6632,25.06397,(02)86421562,羅氏家用新冠病毒抗原自我檢測套組,66,2022/05/10 14:04:02,口罩代售時間自13:30 ， 現場排隊
5931112047,吉安康健保藥師藥局,新北市汐止區宜興街１１號１樓,121.6213,25.0416,(02)26405881,羅氏家用新冠病毒抗原自我檢測套組,14,2022/05/10 14:04:02,營業時間以現場公告為主
5931112145,汐止健康人生藥局,新北市汐止區忠孝東路２６９號,121.6633,25.06809,(02)86421820,羅氏家用新冠病毒抗原自我檢測套組,72,2022/05/10 14:04:02,快篩代售時間 14:00~售完為止 ；現場排隊
5931112510,汐興藥局,新北市汐止區中興路１１３號１樓、２樓,121.632,25.06494,(02)26927733,羅氏家用新冠病毒抗原自我檢測套組,67,2022/05/10 14:04:02,無
5931112645,健成藥局,新北市汐止區新興路２０號１樓,121.6564,25.06456,(02)26428989,羅氏家用新冠病毒抗原自我檢測套組,7,2022/05/10 14:04:02,無
5931113071,蒲公英藥局,新北市汐止區連興街１２６號（１樓）,121.6538,25.06188,(02)26907770,羅氏家用新冠病毒抗原自我檢測套組,78,2022/05/10 14:04:02,實名制快篩銷售時間:下午17:00-19:00（無發放號碼牌）
5931113160,社后藥局,新北市汐止區康寧街４２４號１樓,121.6307,25.06801,(02)26956321,羅氏家用新冠病毒抗原自我檢測套組,78,2022/05/10 14:04:02,快篩實名制，每天16:00開始販售，售完為止。
5931113188,汐止藥局,新北市汐止區福德二路７０號１樓,121.6331,25.06651,(02)86932587,羅氏家用新冠病毒抗原自我檢測套組,78,2022/05/10 14:04:02,快篩實名制，每天16:00開始販售，售完為止。
5931113204,富康活力忠孝藥局,新北市汐止區忠孝東路２７９號１樓,121.6638,25.06854,(02)26422666,羅氏家用新冠病毒抗原自我檢測套組,69,2022/05/10 14:04:02,無
5931120049,本平藥局,新北市瑞芳區瑞芳街４５號,121.8076,25.10913,(02)24972167,羅氏家用新冠病毒抗原自我檢測套組,2,2022/05/10 14:04:02,無
5931121466,瑞芳藥局,新北市瑞芳區明燈路３段５９之１及５９之２號,121.8057,25.10812,(02)24966588,羅氏家用新冠病毒抗原自我檢測套組,78,2022/05/10 14:04:02,快篩實名制，每天16:00開始販售，售完為止。
5931130152,博惠藥局,新北市土城區中央路１段２４９巷２０號,121.4463,24.98538,(02)22618337,羅氏家用新冠病毒抗原自我檢測套組,30,2022/05/10 14:04:02,14:00開始販售政府快篩，不發號碼牌
5931131908,璨鴻藥局,新北市土城區延和路１９１號,121.4692,24.99035,(02)82622588,羅氏家用新冠病毒抗原自我檢測套組,21,2022/05/10 14:04:02,快篩發放時間星期一至五
5931132263,立新藥局,新北市土城區光明街５號１樓,121.4421,24.97475,(02)82626111,羅氏家用新冠病毒抗原自我檢測套組,78,2022/05/10 14:04:02,快篩試劑下午3點開始銷售
5931132343,誠安藥局,新北市土城區中央路４段３６號１樓,121.4207,24.96088,(02)22677737,羅氏家用新冠病毒抗原自我檢測套組,79,2022/05/10 14:04:02,快篩代售時段：平日晚上8點，售完為止
5931132538,宏奇藥局,新北市土城區延吉街１２６號１樓,121.4695,24.98586,(02)82619585,羅氏家用新冠病毒抗原自我檢測套組,73,2022/05/10 14:04:02,無
5931133331,城安大藥局,新北市土城區金城路３段４０號,121.4656,24.98639,(02)22646561,羅氏家用新冠病毒抗原自我檢測套組,70,2022/05/10 14:04:02,快篩代售時間晚上8:30
5931133546,宏林保健藥局,新北市土城區裕民路１３４號（１樓）,121.4515,24.98622,(02)82615919,羅氏家用新冠病毒抗原自我檢測套組,63,2022/05/10 14:04:02,無
5931140121,大政藥局,新北市蘆洲區中山二路７５號１樓,121.4733,25.0819,(02)22811126,羅氏家用新冠病毒抗原自我檢測套組,12,2022/05/10 14:04:02,快篩上午8點開始販售
5931140229,天士藥局,新北市蘆洲區中正路３６號,121.4713,25.08237,(02)22818227,羅氏家用新冠病毒抗原自我檢測套組,4,2022/05/10 14:04:02,目前快篩政府配送不穩定  收到貨後將會盡快開賣
5931141726,松展多利日式連鎖藥粧藥局,新北市蘆洲區民族路１６１號,121.4793,25.08817,(02)22882586,羅氏家用新冠病毒抗原自我檢測套組,81,2022/05/10 14:04:02,防疫物資每日下午02:00開始販售
5931142634,華安大藥局,新北市蘆洲區長安街４８號１樓,121.4633,25.07973,(02)22881168,羅氏家用新冠病毒抗原自我檢測套組,72,2022/05/10 14:04:02,無
5931143131,杏一蘆洲長安藥局,新北市蘆洲區長安街１２２號１樓,121.4606,25.08179,(02)82854278,羅氏家用新冠病毒抗原自我檢測套組,69,2022/05/10 14:04:02,快篩周一至周六下午兩點購買
5931143275,集賢藥局,新北市蘆洲區信義路２２２巷６１號１、２樓,121.4813,25.08535,(02)22882400,羅氏家用新冠病毒抗原自我檢測套組,78,2022/05/10 14:04:02,快篩實名制，每天16:00開始販售，售完為止。
5931143300,大樹蘆洲藥局,新北市蘆洲區民族路２６５號１樓,121.4762,25.09063,(02)22810747,羅氏家用新冠病毒抗原自我檢測套組,78,2022/05/10 14:04:02,快篩實名制，每天16:00開始販售，售完為止。
5931143319,大樹長榮藥局,新北市蘆洲區長榮路６１、６１－１號１樓,121.4624,25.0833,(02)28480567,羅氏家用新冠病毒抗原自我檢測套組,78,2022/05/10 14:04:02,快篩實名制，每天16:00開始販售，售完為止。
5931151473,百成中西藥師藥局,新北市五股區五福里五福路２０號１樓,121.4343,25.08881,(02)22915531,羅氏家用新冠病毒抗原自我檢測套組,67,2022/05/10 14:04:02,口罩代售時間為09:10-22:00；如有餘額，週日亦有販售
5931151713,五股藥局,新北市五股區成泰路１段２３５之２號（１樓）,121.4363,25.07968,(02)22951150,羅氏家用新冠病毒抗原自我檢測套組,78,2022/05/10 14:04:02,快篩實名制，每天16:00開始販售，售完為止。
5931161353,台灣藥局,新北市泰山區明志路１段２８２－２８６號,121.4319,25.06002,(02)22971969,羅氏家用新冠病毒抗原自我檢測套組,70,2022/05/10 14:04:02,下午2:20發號碼牌2:30販售實名制快篩試劑
5931161460,紅葉藥局,新北市泰山區楓江路８號２樓,121.4335,25.06244,(02)22960328,羅氏家用新冠病毒抗原自我檢測套組,72,2022/05/10 14:04:02,無
5931170067,宏宇藥局,新北市林口區中正路２８８號１樓,121.3887,25.07776,(02)26031948,羅氏家用新冠病毒抗原自我檢測套組,60,2022/05/10 14:04:02,實名制快篩販售時間:周一至周六 下午兩點，售完為止
5931171251,喜樂藥師藥局,新北市林口區麗林里公園路１５號１樓,121.3665,25.06762,(02)26005566,羅氏家用新冠病毒抗原自我檢測套組,61,2022/05/10 14:04:02,快篩實名制，每天14:00開始販售，售完為止，週日休息
5931171340,家欣藥師藥局,新北市林口區文化二路１段５６７號１樓,121.3748,25.0777,(02)26025368,羅氏家用新冠病毒抗原自我檢測套組,62,2022/05/10 14:04:02,5／2（一）17:00開始販售實名制快篩，不發號碼牌，每日發放時間不同，請至粉專看
5931171582,綠園藥局,新北市林口區仁愛路２段１０５號１樓,121.3843,25.07507,(02)86012258,羅氏家用新冠病毒抗原自我檢測套組,3,2022/05/10 14:04:02,上午8:30-12:00、下午2:30-18:00、晚上18:00-21:30
5931171724,林康藥局,新北市林口區文化二路１段２２２號１樓,121.3695,25.07226,(02)26088869,羅氏家用新冠病毒抗原自我檢測套組,63,2022/05/10 14:04:02,快篩於下午2點販售，周日公休
5931171831,沐霖藥局,新北市林口區文化三路２段２８６號１樓,121.3775,25.08304,(02)26032086,羅氏家用新冠病毒抗原自我檢測套組,78,2022/05/10 14:04:02,5／10 （二） 17:30 發放號碼牌
5931171877,杏一林口仁愛藥局,新北市林口區仁愛路２段９１號１樓,121.3846,25.07532,(02)26016453,羅氏家用新冠病毒抗原自我檢測套組,71,2022/05/10 14:04:02,無
5931171886,林口辰安藥局,新北市林口區文化三路１段１９１巷５號１樓,121.3619,25.07016,(02)26099151,羅氏家用新冠病毒抗原自我檢測套組,78,2022/05/10 14:04:02,快篩1600開始販售，現場排隊領取
5931211045,三芝藥師藥局,新北市三芝區中正路１段４３號１樓,121.5032,25.25816,(02)86353982,羅氏家用新冠病毒抗原自我檢測套組,49,2022/05/10 14:04:02,無
5931250015,松南藥局,新北市雙溪區中華路２９號,121.8658,25.03728,(02)24931085,羅氏家用新冠病毒抗原自我檢測套組,19,2022/05/10 14:04:02,實名制快篩12點半發號碼牌並販售，​但若排隊人數已超過數量，將視情況提早發放。週日快篩無販售。
5931250042,信芳藥局,新北市雙溪區中華路５０號,121.866,25.03761,(02)24931301,羅氏家用新冠病毒抗原自我檢測套組,57,2022/05/10 14:04:02,無
5932011370,家福聯合藥局,桃園市桃園區中山路６２３號,121.2939,24.99093,(03)2289492,羅氏家用新冠病毒抗原自我檢測套組,14,2022/05/10 14:04:02,0503人數已滿，1點發快篩
5932011870,永祥大藥局,桃園市桃園區永安路５２８號,121.2986,25.00181,(03)3337161,羅氏家用新冠病毒抗原自我檢測套組,3,2022/05/10 14:04:02,口罩販賣時段：週一至週六早上9點
5932012671,美德藥師藥局,桃園市桃園區中正路２３０號,121.3104,24.99586,(03)3354160,羅氏家用新冠病毒抗原自我檢測套組,7,2022/05/10 14:04:02,快篩販售時間下午01:00開始
5932013392,桃園中正藥局,桃園市桃園區中正路３７３號,121.3079,24.99955,(03)3381600,羅氏家用新冠病毒抗原自我檢測套組,91,2022/05/10 14:04:02,快篩實名制，每天16:00開始販售，售完為止。
5932013436,和康藥局,桃園市桃園區三民路三段５６９號１樓,121.3076,24.98395,(03)3672399,羅氏家用新冠病毒抗原自我檢測套組,66,2022/05/10 14:04:02,下午2點販售實名制快篩
5932013614,桃元松藥局,桃園市桃園區建華三街４２號,121.3118,24.98294,(03)3611066,羅氏家用新冠病毒抗原自我檢測套組,24,2022/05/10 14:04:02,13:00 開始販售實名制快篩
5932013687,桃園春日藥局,桃園市桃園區春日路８７８號,121.3096,25.01561,(03)3580101,羅氏家用新冠病毒抗原自我檢測套組,78,2022/05/10 14:04:02,快篩實名制，每天16:00開始販售，售完為止。
5932013721,桃園民光藥局,桃園市桃園區中正路５６９號,121.3049,25.0041,(03)3364888,羅氏家用新冠病毒抗原自我檢測套組,78,2022/05/10 14:04:02,快篩實名制，每天16:00開始販售，售完為止。
5932013749,桃園寶山藥局,桃園市桃園區寶山街７２號,121.3175,25.01291,(03)3250562,羅氏家用新冠病毒抗原自我檢測套組,78,2022/05/10 14:04:02,快篩實名制，每天16:00開始販售，售完為止。
5932013883,桃園大有藥局,桃園市桃園區大有路５５６號,121.3181,25.01393,(03)3460793,羅氏家用新冠病毒抗原自我檢測套組,57,2022/05/10 14:04:02,快篩星期一到星期日下午1:50發號碼牌；販賣時段：14:00~15:00
5932013981,安慶藥局,桃園市桃園區安慶街９１號,121.2924,25.01812,(03)3027267,羅氏家用新冠病毒抗原自我檢測套組,67,2022/05/10 14:04:02,下午兩點販售，現場排隊
5932013990,福澤大業藥局,桃園市桃園區大業路１段４２２號１樓,121.3118,25.01473,(03)3563865,羅氏家用新冠病毒抗原自我檢測套組,63,2022/05/10 14:04:02,家用快篩販賣時段15:30至售完為止
5932014013,力行藥局,桃園市桃園區力行路９８號,121.3027,25.00206,(03)3391368,羅氏家用新冠病毒抗原自我檢測套組,73,2022/05/10 14:04:02,每日14點開賣，售78份為止不發號碼牌，請提早排隊並自行估算人數。若14點前沒來排肯定買不到，請別打來問了現場爆忙
5932014059,桃園南平藥局,桃園市桃園區南平路３０２－１號１樓,121.2989,25.01855,(03)3165222,羅氏家用新冠病毒抗原自我檢測套組,78,2022/05/10 14:04:02,快篩實名制，每天16:00開始販售，售完為止。
5932014111,鴻發藥師藥局,桃園市桃園區大有路５４３號,121.3171,25.0149,(03)3582468,羅氏家用新冠病毒抗原自我檢測套組,145,2022/05/10 14:04:02,實聯快篩:早上09:30發放號碼牌，限當日下午2~4點憑牌購買，逾時不候請見諒
5932014184,浤安藥局,桃園市桃園區慈德街１號１樓,121.3019,25.00685,(03)3577665,羅氏家用新冠病毒抗原自我檢測套組,56,2022/05/10 14:04:02,14:00開始發放實名制快篩
5932014273,藝文藥局,桃園市桃園區大興西路１段１６５號,121.3049,25.01414,(03)3261789,羅氏家用新冠病毒抗原自我檢測套組,78,2022/05/10 14:04:02,快篩實名制，每天16:00開始販售，售完為止。
5932014344,豐藝藥局,桃園市桃園區泰昌三街２３號１樓,121.2943,24.98954,(03)2200977,羅氏家用新冠病毒抗原自我檢測套組,78,2022/05/10 14:04:02,實名制快篩下午3點販售，依序排隊購買，售完為止。
5932014399,澄心藥局,桃園市桃園區桃鶯路３０５號１樓,121.3193,24.98265,(03)3771468,羅氏家用新冠病毒抗原自我檢測套組,57,2022/05/10 14:04:02,營業時間:8:00-22:00
5932014424,桃園中山藥局,桃園市桃園區中山路７０７號,121.2914,24.99079,(03)2207168,羅氏家用新冠病毒抗原自我檢測套組,78,2022/05/10 14:04:02,快篩實名制，每天16:00開始販售，售完為止。
5932014460,桃鶯藥局,桃園市桃園區桃鶯路１０２號,121.318,24.98516,(03)3675100,羅氏家用新冠病毒抗原自我檢測套組,78,2022/05/10 14:04:02,快篩實名制，每天16:00開始販售，售完為止。
5932018593,品一藥局,桃園市桃園區建新街７６號,121.3118,24.98261,(03)3638510,羅氏家用新冠病毒抗原自我檢測套組,7,2022/05/10 14:04:02,快篩販賣時間：週一至週五早上9：30；週六下午1：00（星期天休息），會發號碼牌（今天已發完）
5932018940,均安藥局,桃園市桃園區寶山街６１號,121.3172,25.01231,(03)3581695,羅氏家用新冠病毒抗原自我檢測套組,20,2022/05/10 14:04:02,實名制快篩中午12:30至售完
5932019581,莘莘藥局,桃園市桃園區莊敬路一段３６８號,121.2957,25.02375,(03)3170681,羅氏家用新冠病毒抗原自我檢測套組,11,2022/05/10 14:04:02,實名制快篩週一至週六 下午2點開始 售完為止
5932019929,元氣藥局,桃園市桃園區民光東路一Ｏ九號,121.3183,25.0079,(03)3332201,羅氏家用新冠病毒抗原自我檢測套組,78,2022/05/10 14:04:02,現場排隊喔!，快篩試劑銷售時間:星期一三四六15:30，星期二五19:00，星期日無，12:00~15:00；18:00~18:30為休息時間
593201A604,藝文啄木鳥藥局,桃園市桃園區中正路１３５７、１３５９、１３６１號,121.2951,25.02292,(03)3467698,羅氏家用新冠病毒抗原自我檢測套組,6,2022/05/10 14:04:02,口罩販賣時段：週一至週日13:00起
593201A695,安祐藥局,桃園市桃園區南平路516之1號,121.2937,25.01633,(03)3166889,羅氏家用新冠病毒抗原自我檢測套組,12,2022/05/10 14:04:02,快篩販賣時間 每日下午 13:45-17:00，現場排隊
5932021269,優良藥局,桃園市中壢區長春路２０號,121.2499,24.97907,(03)4612336,羅氏家用新冠病毒抗原自我檢測套組,1,2022/05/10 14:04:02,快篩販售時間10:00
5932021438,全球永美大藥局,桃園市中壢區中山東路二段５３０號１至２樓,121.2454,24.9468,(03)4661839,羅氏家用新冠病毒抗原自我檢測套組,70,2022/05/10 14:04:02,營業時間:9:00-22:00
5932021670,日光健康藥局,桃園市中壢區華祥一街２號１樓,121.2606,24.94827,(03)4383559,羅氏家用新冠病毒抗原自我檢測套組,3,2022/05/10 14:04:02,快篩販賣時段：星期一~星期六下午13:30開始，售完為止
5932021689,立康專業藥局,桃園市中壢區莊敬路８６５號,121.2543,24.96376,(03)4553121,羅氏家用新冠病毒抗原自我檢測套組,55,2022/05/10 14:04:02,快篩實名制販售時間週一到週五下午14:00販售 週六週日早上10:00販售 現場排隊
5932022159,躍獅新明藥局,桃園市中壢區新明路６６號１樓,121.215,24.95868,(03)2813361,羅氏家用新冠病毒抗原自我檢測套組,71,2022/05/10 14:04:02,快篩販賣時段：14:00~售完為止，現場排隊 ， 星期天沒有販售快篩
5932022766,佳敬藥局,桃園市中壢區莊敬路１６０號,121.2573,24.96796,(03)2713595,羅氏家用新冠病毒抗原自我檢測套組,61,2022/05/10 14:04:02,快篩試劑如有配送禮拜一至禮拜五下午2點販售，禮拜六早上八點半
5932022980,美佑康活力藥局,桃園市中壢區五福里中正路６２７號,121.2108,24.95947,(03)2810018,羅氏家用新冠病毒抗原自我檢測套組,77,2022/05/10 14:04:02,快篩販賣時段：周一到周日每天14:00
5932023094,中壢民權藥局,桃園市中壢區民權路３２６、３２８號,121.2054,25.0001,(03)4014961,羅氏家用新冠病毒抗原自我檢測套組,61,2022/05/10 14:04:02,實聯制快篩每天78份週一至週六下午1350拿取號碼牌1400開始販售.依序入場販售.過號視同放棄
5932023174,康華藥局,桃園市中壢區忠孝路１４號１樓,121.2565,24.97331,(03)4632313,羅氏家用新冠病毒抗原自我檢測套組,78,2022/05/10 14:04:02,上午8:30-12:00，下午2:00-5:30，晚上6:00-9:30 ／快篩實名制販售，週一~週六 09:30~11:30販售，其餘時段皆無銷售（週日
5932023183,佳華藥局,桃園市中壢區六和路４６號,121.2244,24.96452,(03)2753018,羅氏家用新冠病毒抗原自我檢測套組,70,2022/05/10 14:04:02,快篩銷售時間:星期一二三五下午2:00，星期四六早上8:00，售完為止
5932023281,裕翔藥局,桃園市中壢區榮民路４８號１樓,121.2606,24.96956,(03)4355499,羅氏家用新冠病毒抗原自我檢測套組,2,2022/05/10 14:04:02,快篩下午五點販售
5932023772,佑全中壢中正藥局,桃園市中壢區中正路１０８號１、２樓,121.2229,24.95498,(03)2807899,羅氏家用新冠病毒抗原自我檢測套組,72,2022/05/10 14:04:02,實名制快篩販售時間：下午1400-售完為止
5932023889,華勛藥局,桃園市中壢區華勛街１１２、１１４號,121.2597,24.95065,(03)4161881,羅氏家用新冠病毒抗原自我檢測套組,2,2022/05/10 14:04:02,快篩實名制，每天16:00開始販售，售完為止。
5932023914,內壢忠孝藥局,桃園市中壢區忠孝路３６號,121.2566,24.97338,(03)4636641,羅氏家用新冠病毒抗原自我檢測套組,78,2022/05/10 14:04:02,快篩實名制，每天16:00開始販售，售完為止。
5932023996,青瑭藥局,桃園市中壢區民權路４段２７７號１樓,121.2022,25.00625,(03)2875901,羅氏家用新冠病毒抗原自我檢測套組,1,2022/05/10 14:04:02,無
5932024251,佑全中壢中山藥局,桃園市中壢區中山東路２段２７號１樓,121.2374,24.95443,(03)4385373,羅氏家用新冠病毒抗原自我檢測套組,57,2022/05/10 14:04:02,家用快篩販售時間：下午1400-售完為止
593202A833,君安藥局,桃園市中壢區中北路二段３９０號,121.2318,24.95388,(03)4685484,羅氏家用新冠病毒抗原自我檢測套組,75,2022/05/10 14:04:02,快篩實名制，週一至週五晚上7點，週六週日早上9點，視現場狀況，45分鐘前發號碼牌，發完隨即販售，過號視同放棄
593202A931,佳佑藥局,桃園市中壢區環中東路二四一號,121.2573,24.96345,(03)4356190,羅氏家用新冠病毒抗原自我檢測套組,2,2022/05/10 14:04:02,口罩販賣時段：09:00以後發號碼牌，售完為止
593202B296,慧康藥局,桃園市中壢區中北路二段１０１號１樓,121.2255,24.95122,(03)2840064,羅氏家用新冠病毒抗原自我檢測套組,14,2022/05/10 14:04:02,快篩販售時間：13:30
593202B447,榮善堂藥局,桃園市中壢區前龍街九號,121.2535,24.9298,(03)4564946,羅氏家用新冠病毒抗原自我檢測套組,78,2022/05/10 14:04:02,全台第一自助快篩領取系統，快篩販賣星期一至四：晚上七點。星期五至六：下午二點。星期天：早上八點
5932031747,欣康藥局,桃園市大溪區員林路２段３９０－６號,121.2677,24.88412,(03)3076310,羅氏家用新冠病毒抗原自我檢測套組,78,2022/05/10 14:04:02,快篩販賣時段：15:30
5932031881,大溪藥局,桃園市大溪區康莊路１６０號,121.2886,24.8808,(03)3873873,羅氏家用新冠病毒抗原自我檢測套組,78,2022/05/10 14:04:02,快篩實名制，每天16:00開始販售，售完為止。
5932031890,福生藥局,桃園市大溪區民權東路１０３號１樓,121.2919,24.88209,(03)3873533,羅氏家用新冠病毒抗原自我檢測套組,2,2022/05/10 14:04:02,早上八點開始發放快篩試劑
5932031907,福澤大溪藥局,桃園市大溪區復興路１０５號１樓,121.2911,24.87917,(03)3884886,羅氏家用新冠病毒抗原自我檢測套組,4,2022/05/10 14:04:02,家用快篩販賣時段15:30至售完為止
5932040246,龍泰藥局,桃園市楊梅區民族路五段１４７巷２號,121.1736,24.9586,(03)4901525,羅氏家用新冠病毒抗原自我檢測套組,11,2022/05/10 14:04:02,快篩販售時間:早上7:30領號碼牌下午2點至4點領快篩（當日有效） 六日中午10點至12點領快篩
5932040308,弘大藥局,桃園市楊梅區大華街十三號,121.1452,24.9076,(03)4751858,羅氏家用新冠病毒抗原自我檢測套組,72,2022/05/10 14:04:02,實名制快篩 14:00發放號碼牌後開始販售至16:00為止逾時不候，禮拜天無販售實名制快篩。
5932042679,得康美藥局,桃園市楊梅區環南路１２８號１樓,121.1466,24.90164,(03)4788128,羅氏家用新冠病毒抗原自我檢測套組,2,2022/05/10 14:04:02,快篩領取規則~中午:12:00-12:30發號碼牌 ／下午時段發快篩A:14:00-15:00 B:20:00-21:00
5932043130,宜康美藥局,桃園市楊梅區環東路４５２號,121.1571,24.91005,(03)4883805,羅氏家用新冠病毒抗原自我檢測套組,78,2022/05/10 14:04:02,快篩販賣時段：早上09:30~10:30（20份）下午15:30~16:30（38份）晚上19:30~20:30（20份）
5932043309,資生楊梅大藥局,桃園市楊梅區楊新路１００號,121.1449,24.91341,(03)2889590,羅氏家用新冠病毒抗原自我檢測套組,70,2022/05/10 14:04:02,每日快篩代售時間14:00-21:00
5932043345,家安藥局,桃園市楊梅區中興路１３２號,121.1851,24.91655,(03)4811626,羅氏家用新冠病毒抗原自我檢測套組,68,2022/05/10 14:04:02,六日不販售，下次為5／9實名制快篩試劑，下午2點販售
5932043390,元森藥局,桃園市楊梅區瑞溪路２段１２５號１樓,121.1806,24.90875,(03)4311058,羅氏家用新冠病毒抗原自我檢測套組,1,2022/05/10 14:04:02,無
5932051329,恆安藥局,桃園市蘆竹區忠孝西路２４號,121.2924,25.04425,(03)2120206,羅氏家用新冠病毒抗原自我檢測套組,1,2022/05/10 14:04:02,口罩販賣時段：下午16:00  晚上20:00
5932052004,英登藥局,桃園市蘆竹區南崁路三四四號,121.2913,25.05039,(03)2124606,羅氏家用新冠病毒抗原自我檢測套組,13,2022/05/10 14:04:02,無
5932052077,明安藥局,桃園市蘆竹區南竹路一之六號,121.2934,25.04765,(03)3527087,羅氏家用新冠病毒抗原自我檢測套組,69,2022/05/10 14:04:02,販售時段；周一至周日下午2點
5932052755,大葉藥局,桃園市蘆竹區中山路１３２號１樓,121.2978,25.05699,(03)3125347,羅氏家用新冠病毒抗原自我檢測套組,69,2022/05/10 14:04:02,口罩販賣時段：以現場公告為主
5932052826,青新藥師藥局,桃園市蘆竹區南竹路五段２５１之１號,121.2597,25.0247,(03)3134328,羅氏家用新冠病毒抗原自我檢測套組,64,2022/05/10 14:04:02,無
5932052835,悅兒藥局,桃園市蘆竹區忠孝西路１８６號,121.2892,25.04011,(03)3126967,羅氏家用新冠病毒抗原自我檢測套組,74,2022/05/10 14:04:02,快篩販賣時段：週一到週日 14:30 開賣
5932052933,天康南崁藥局,桃園市蘆竹區南崁路２４５號,121.2933,25.04894,(03)2122569,羅氏家用新冠病毒抗原自我檢測套組,71,2022/05/10 14:04:02,快篩販賣：週一~日14:00開賣通常30分鐘就售完不用再打電話問
5932052951,永青健康人生藥局,桃園市蘆竹區奉化路１４２號１樓,121.289,25.03917,(03)3528361,羅氏家用新冠病毒抗原自我檢測套組,24,2022/05/10 14:04:02,實名制快篩每日兩點開賣，人潮眾多額滿會提早開始
5932052979,南崁藥局,桃園市蘆竹區中正路２５１、２５３、２５５號,121.2921,25.04695,(03)3522022,羅氏家用新冠病毒抗原自我檢測套組,157,2022/05/10 14:04:02,快篩實名制，每天16:00開始販售，售完為止。
5932053065,民生藥局,桃園市蘆竹區南昌路４５號,121.2876,25.04245,(03)3216784,羅氏家用新冠病毒抗原自我檢測套組,78,2022/05/10 14:04:02,快篩開賣時間:星期一到五16點. 星期六10:30. 星期日休息.
5932062439,青埔長青藥師藥局,桃園市大園區新生路四段２５１號,121.2134,25.0081,(03)3815097,羅氏家用新冠病毒抗原自我檢測套組,68,2022/05/10 14:04:02,快篩販賣時段 : 14:00開賣，現場排隊，售完為止
5932076255,安得福藥局,桃園市龜山區萬壽路一段２８１號,121.4035,25.01723,(02)82001467,羅氏家用新冠病毒抗原自我檢測套組,74,2022/05/10 14:04:02,口罩販賣時段：13：00開始發號碼牌排隊領取過號重排
5932076791,誠安生活藥局,桃園市龜山區文化七路７９之２號,121.3635,25.05166,(03)3271997,羅氏家用新冠病毒抗原自我檢測套組,123,2022/05/10 14:04:02,即日起停止販售快篩
5932076835,光峰藥局,桃園市龜山區光峰路６７號,121.3402,25.00085,(03)3207630,羅氏家用新冠病毒抗原自我檢測套組,1,2022/05/10 14:04:02,口罩販賣時段: 周一至周六上午 08:30-12:00
5932076844,帕米爾藥局,桃園市龜山區萬壽路二段９９１號,121.3369,24.99464,(03)3295522,羅氏家用新冠病毒抗原自我檢測套組,2,2022/05/10 14:04:02,星期一~六:家用快篩試劑販賣時段：14:30~售完。不發號碼牌，請直接排隊購買。
5932077056,桃園龜山藥局,桃園市龜山區萬壽路二段８９６號,121.3394,24.99586,(03)3203312,羅氏家用新冠病毒抗原自我檢測套組,78,2022/05/10 14:04:02,快篩實名制，每天16:00開始販售，售完為止。
5932077154,博爾康生活藥局,桃園市龜山區大同路２５０號１樓,121.3446,24.98989,(03)3506588,羅氏家用新冠病毒抗原自我檢測套組,1,2022/05/10 14:04:02,快篩實名制每日15:00販售。不發號碼牌，請直接排隊購買。
5932077270,明昌藥局,桃園市龜山區中興里萬壽路二段１１９１－６號,121.3318,24.99291,(03)3501205,羅氏家用新冠病毒抗原自我檢測套組,23,2022/05/10 14:04:02,無
5932077403,穩好保健藥局,桃園市龜山區中興路１３７號,121.3317,24.9889,(03)3500088,羅氏家用新冠病毒抗原自我檢測套組,54,2022/05/10 14:04:02,快篩販賣時段：1400
5932077510,左外野藥局,桃園市龜山區文光街６號１樓,121.3802,25.05471,(03)3271503,羅氏家用新冠病毒抗原自我檢測套組,69,2022/05/10 14:04:02,快篩販售:晚上19:30至20:30（週五公休）*不發號碼牌 請直接排隊購買
5932077627,文興藥局,桃園市龜山區復興一路１０２號１、２、３樓,121.368,25.0592,(03)3285330,羅氏家用新冠病毒抗原自我檢測套組,78,2022/05/10 14:04:02,快篩實名制，每天16:00開始販售，售完為止。
5932080035,慶昇藥局,桃園市八德區桃鶯路一Ｏ二號,121.3279,24.97006,(03)3648037,羅氏家用新冠病毒抗原自我檢測套組,61,2022/05/10 14:04:02,口罩販賣時段：9:00~12:00
5932083670,保健藥局,桃園市八德區介壽路一段８３３號２樓,121.3,24.96168,(03)3669486,羅氏家用新冠病毒抗原自我檢測套組,78,2022/05/10 14:04:02,無
5932083714,佳美大藥局,桃園市八德區介壽路一段六八八號,121.3006,24.96636,(03)3772239,羅氏家用新冠病毒抗原自我檢測套組,66,2022/05/10 14:04:02,營業時間:9:00-22:00，快篩14:00販售
5932083974,晨鴻藥師藥局,桃園市八德區桃鶯路７號１樓,121.3265,24.97179,(03)3764299,羅氏家用新冠病毒抗原自我檢測套組,44,2022/05/10 14:04:02,快篩為早上8:30跟晚上6:00領取號碼牌，星期六早上一次發78份，快篩地圖數量參考就好，請勿再打電話詢問 謝謝
5932084373,悅康藥局,桃園市八德區介壽路一段９１６號,121.2993,24.95943,(03)3662930,羅氏家用新冠病毒抗原自我檢測套組,6,2022/05/10 14:04:02,全年無休、快篩販賣時段：13:30-17:00
5932084435,康健藥局,桃園市八德區介壽路ㄧ段８６３號,121.2999,24.96109,(03)3617226,羅氏家用新冠病毒抗原自我檢測套組,1,2022/05/10 14:04:02,無
5932084462,興豐丁丁藥局,桃園市八德區興豐路４３５號,121.2895,24.92983,(03)3689287,羅氏家用新冠病毒抗原自我檢測套組,78,2022/05/10 14:04:02,無
5932084499,誠泰藥局,桃園市八德區大千里東勇街５１－２號,121.3067,24.95861,(03)3649340,羅氏家用新冠病毒抗原自我檢測套組,67,2022/05/10 14:04:02,快篩實名制下午14:00販賣
5932084677,杏一八德介壽藥局,桃園市八德區介壽路一段７７１號１樓,121.3003,24.96305,(03)3665542,羅氏家用新冠病毒抗原自我檢測套組,153,2022/05/10 14:04:02,假日及國定假日不賣快篩.平日早上10點 開始賣
5932084864,阿寶藥局,桃園市八德區東勇一路６號,121.3064,24.96452,(03)3750060,羅氏家用新冠病毒抗原自我檢測套組,71,2022/05/10 14:04:02,實名制快篩詳細公告請參閱阿寶藥局官方臉書
5932084873,宏昌藥局,桃園市八德區介壽路１段８９０號,121.2994,24.95998,(03)3639797,羅氏家用新冠病毒抗原自我檢測套組,6,2022/05/10 14:04:02,每日13:30開賣 星期日休息
5932099203,普善藥局,桃園市龍潭區北龍路３３３號,121.219,24.86887,(03)4705877,羅氏家用新冠病毒抗原自我檢測套組,60,2022/05/10 14:04:02,快篩試劑販賣時段：14:10~售完為止
5932099516,１Ｏ１藥師聯合藥局,桃園市龍潭區中正路４４號,121.2144,24.86893,(03)4708593,羅氏家用新冠病毒抗原自我檢測套組,70,2022/05/10 14:04:02,快篩販售時間: 週一至週六 14:00準時販售，週日藥局休息  快篩停售
5932099892,百年聯和藥局,桃園市龍潭區中豐路３００號,121.2119,24.87808,(03)4895268,羅氏家用新冠病毒抗原自我檢測套組,1,2022/05/10 14:04:02,快篩實名制：自5／9起13:30準時發放
5932099927,大心聯合藥局,桃園市龍潭區中興路３９０號,121.2313,24.87337,(03)4897998,羅氏家用新冠病毒抗原自我檢測套組,78,2022/05/10 14:04:02,快篩實名制：週一至週日下午15:30開始販售
5932099954,新資生龍潭中正大藥局,桃園市龍潭區中正路１４０—１號１樓,121.2212,24.85382,(03)3606180,羅氏家用新冠病毒抗原自我檢測套組,67,2022/05/10 14:04:02,下午2時開始售完為止
5932100185,德聯藥師藥局,桃園市平鎮區龍南路３１號,121.2452,24.92473,(03)4603613,羅氏家用新冠病毒抗原自我檢測套組,56,2022/05/10 14:04:02,快篩 5月10日 下午2點開始賣
5932100809,福澤民族藥局,桃園市平鎮區民族路二段１３９號１樓,121.2048,24.95706,(03)4014747,羅氏家用新冠病毒抗原自我檢測套組,68,2022/05/10 14:04:02,家用快篩販賣時段15:30至售完為止
5932100863,新昕藥局,桃園市平鎮區東社里龍南路９２號１樓,121.2463,24.92401,(03)4509616,羅氏家用新冠病毒抗原自我檢測套組,62,2022/05/10 14:04:02,快篩販售時間  平日下午2:00。（六）:中午12:00；（日）:下午6:00
5932101253,新大賀藥局,桃園市平鎮區新榮路２５９號１樓,121.2135,24.94617,(03)4927100,羅氏家用新冠病毒抗原自我檢測套組,141,2022/05/10 14:04:02,下午兩點開始發號碼牌販售快篩
5932108574,天健示範藥局,桃園市平鎮區文化街２５２號,121.2032,24.95127,(03)4937169,羅氏家用新冠病毒抗原自我檢測套組,1,2022/05/10 14:04:02,快篩實名制每天8點販售，七點發號碼牌
5932120098,金永生藥局,桃園市觀音區觀音里甘泉街７號,121.0814,25.03696,(03)4732072,羅氏家用新冠病毒抗原自我檢測套組,5,2022/05/10 14:04:02,全年無休，口罩販賣時段：週一至週日14:00起17:00
5932123008,立明藥局,桃園市觀音區草漯里大觀路二段３３－１號１樓,121.1433,25.04796,(03)4838292,羅氏家用新冠病毒抗原自我檢測套組,56,2022/05/10 14:04:02,下午兩點開始販售快篩
5932124381,日昇藥局,桃園市觀音區成功路一段７８１號,121.119,25.05221,(03)4834212,羅氏家用新冠病毒抗原自我檢測套組,2,2022/05/10 14:04:02,下午4點及晚上9點各販售39份快篩試劑
5933010091,進安藥局,新竹縣關西鎮正義路１５號,121.1761,24.79111,(03)5872153,羅氏家用新冠病毒抗原自我檢測套組,56,2022/05/10 14:04:02,12:00-14:00休息（配合醫療院所）。
5933010144,佳仁藥局,新竹縣關西鎮中興路１２號,121.1771,24.79227,(035)872298,羅氏家用新冠病毒抗原自我檢測套組,56,2022/05/10 14:04:02,全年無休（星期日不定期）
5933011267,關西藥局,新竹縣關西鎮中山路６８號,121.1764,24.79148,(03)5171121,羅氏家用新冠病毒抗原自我檢測套組,78,2022/05/10 14:04:02,快篩實名制，每天16:00開始販售，售完為止。
5933031643,能安西藥局,新竹縣竹東鎮東峰路13號,121.0966,24.72171,(03)5950515,羅氏家用新冠病毒抗原自我檢測套組,63,2022/05/10 14:04:02,下午2點，星期日不販售
5933031698,好好藥局,新竹縣竹東鎮中興路三段２７６號,121.0542,24.76925,(03)5830678,羅氏家用新冠病毒抗原自我檢測套組,78,2022/05/10 14:04:02,販賣時段：星期一至星期日下午2:00開始購買
5933031714,健康人生藥局,新竹縣竹東鎮中興路四段１９５號５２館Ｂ１１６室,121.0489,24.77287,(03)5910472,羅氏家用新冠病毒抗原自我檢測套組,62,2022/05/10 14:04:02,實名制快篩星期一到五13:50放發號碼牌，14:00開賣，領完號碼牌現場領取快篩試劑，請勿離開，離開視同放棄
5933031769,竹東朝陽藥局,新竹縣竹東鎮朝陽路１號１、２樓,121.0852,24.74199,(03)5111166,羅氏家用新冠病毒抗原自我檢測套組,78,2022/05/10 14:04:02,快篩實名制，每天16:00開始販售，售完為止。
5933031778,樂安藥師藥局,新竹縣竹東鎮東林路８９號,121.0916,24.73705,(03)5101941,羅氏家用新冠病毒抗原自我檢測套組,72,2022/05/10 14:04:02,實名制快篩販售時間 14:00
5933031821,新月藥局,新竹縣竹東鎮永康街８１號１樓,121.0818,24.74841,(03)5960501,羅氏家用新冠病毒抗原自我檢測套組,69,2022/05/10 14:04:02,快篩代售時間 14:00（39份） 19:00（39份）
5933052517,振元藥師藥局,新竹縣竹北市自強南路２０１號,121.0238,24.81364,(03)6587052,羅氏家用新冠病毒抗原自我檢測套組,72,2022/05/10 14:04:02,下午14:00銷售快篩，周日不販售.
5933052973,芳鄰藥局,新竹縣竹北市三民路２６１號之１號,121.013,24.83308,(03)6213887,羅氏家用新冠病毒抗原自我檢測套組,3,2022/05/10 14:04:02,快篩販售：下午1：30，現場排隊領號碼牌，自備500元及健保卡
5933052982,如佳藥局,新竹縣竹北市中正西路１８９號,120.9989,24.84168,(03)5533161,羅氏家用新冠病毒抗原自我檢測套組,1,2022/05/10 14:04:02,每日下午13:30發放號碼牌，14:00開始販售
5933053167,育禾藥局,新竹縣竹北市莊敬南路１８６號,121.0195,24.8157,(03)6683255,羅氏家用新冠病毒抗原自我檢測套組,49,2022/05/10 14:04:02,周三及周日「沒有」發放快篩，其餘天數販售時間為14:00至14:30，逾時不候，感謝您的配合！
5933053381,佑全竹北中正藥局,新竹縣竹北市中正西路１７６、１７８號１樓,120.9991,24.84149,(03)5556235,羅氏家用新冠病毒抗原自我檢測套組,68,2022/05/10 14:04:02,每日下午13:50發號碼牌 14:00開始販售 不能離開現場
5933053407,方米藥局,新竹縣竹北市博愛街５１１號,121.0106,24.8393,(03)5510015,羅氏家用新冠病毒抗原自我檢測套組,78,2022/05/10 14:04:02,實名制快篩，下午兩點發號碼牌並開賣
5933053489,十興藥局,新竹縣竹北市莊敬五街７５號,121.0268,24.82346,(03)6684889,羅氏家用新冠病毒抗原自我檢測套組,78,2022/05/10 14:04:02,快篩實名制，每天16:00開始販售，售完為止。
5933053532,金竹藥局,新竹縣竹北市勝利六街６８號,121.026,24.82491,(03)6683215,羅氏家用新冠病毒抗原自我檢測套組,63,2022/05/10 14:04:02,快篩實名制，每天下午2點準時販售。周日公休
5933053550,六家藥局,新竹縣竹北市六家一路一段１６３號,121.0289,24.80958,(03)6578456,羅氏家用新冠病毒抗原自我檢測套組,78,2022/05/10 14:04:02,快篩實名制，每天16:00開始販售，售完為止。
5933053596,中華藥局,新竹縣竹北市中華路２２６號１、２樓,121.0028,24.83118,(03)5513031,羅氏家用新冠病毒抗原自我檢測套組,78,2022/05/10 14:04:02,快篩實名制，每天16:00開始販售，售完為止。
5933053603,竹北光明藥局,新竹縣竹北市光明一路１３７號,121.0157,24.83023,(03)5584545,羅氏家用新冠病毒抗原自我檢測套組,78,2022/05/10 14:04:02,快篩實名制，每天16:00開始販售，售完為止。
5933061463,如家藥師藥局,新竹縣湖口鄉工業區光復東路２４９號,121.0242,24.86913,(03)5972606,羅氏家用新冠病毒抗原自我檢測套組,68,2022/05/10 14:04:02,快篩販賣時段：星期一~五14:00-15:00／星期六、日18:00-19:00
5933061678,仁和藥局,新竹縣湖口鄉仁和路１８２號,121.0167,24.87161,(03)5978541,羅氏家用新冠病毒抗原自我檢測套組,65,2022/05/10 14:04:02,快篩販售時段:週一至週五1400-1600.週六1900-2000.現場排隊
5933061712,湖山藥局,新竹縣湖口鄉中山路二段１２７號,121.0439,24.90198,(03)5904999,羅氏家用新冠病毒抗原自我檢測套組,78,2022/05/10 14:04:02,快篩實名制，每天16:00開始販售，售完為止。
5933080119,建仁藥局,新竹縣新豐鄉建興路一段１２２號,120.9951,24.87287,(03)5595850,羅氏家用新冠病毒抗原自我檢測套組,1,2022/05/10 14:04:02,快篩試劑晨7:00開始過卡（發售時間請勿打電話.請勿天天來排隊）
5933081607,新豐藥局,新竹縣新豐鄉中興路２０８、２１０號,120.9949,24.87571,(03)5575005,羅氏家用新冠病毒抗原自我檢測套組,78,2022/05/10 14:04:02,快篩實名制，每天16:00開始販售，售完為止。
5933081616,立果藥局,新竹縣新豐鄉尚仁街１３８號,120.9927,24.86946,(03)5571766,羅氏家用新冠病毒抗原自我檢測套組,61,2022/05/10 14:04:02,實名制快篩1400準時開售。營業時間並非販售快篩時間，請勿一早就來排隊
5933091112,暘光藥局,新竹縣芎林鄉文山路385號,121.0803,24.77533,(03)5121001,羅氏家用新冠病毒抗原自我檢測套組,49,2022/05/10 14:04:02,快篩相關訊息請搜尋臉書FB【暘光藥局】
5934011958,栢心藥局,宜蘭縣宜蘭市宜興路１段１１１號,121.7561,24.7514,(03)9357277,羅氏家用新冠病毒抗原自我檢測套組,71,2022/05/10 14:04:02,週一~週六14:00發號碼牌，下午14:30開始販售.（週四下午17:30發號碼牌，18:00開賣）
5934012044,富康新民藥局,宜蘭縣宜蘭市新民路１１３號,121.7551,24.75717,(03)9366060,羅氏家用新冠病毒抗原自我檢測套組,67,2022/05/10 14:04:02,下午兩點開賣現場排隊不發號碼牌（星期天休息）*5／7停電-停售一次*
5934012473,宜蘭藥局,宜蘭縣宜蘭市泰山路３６號,121.7485,24.75524,(03)9365168,羅氏家用新冠病毒抗原自我檢測套組,78,2022/05/10 14:04:02,快篩實名制，每天16:00開始販售，售完為止。
5934020073,長生藥局,宜蘭縣羅東鎮復興路１段１號,121.7713,24.682,(03)9553222,羅氏家用新冠病毒抗原自我檢測套組,65,2022/05/10 14:04:02,快篩試劑販售時間為週一到週六下午2:00開始 ；星期日早上08:30 開始販售
5934020153,信隆藥局,宜蘭縣羅東鎮南門路５號,121.7699,24.67257,(03)9544697,羅氏家用新冠病毒抗原自我檢測套組,61,2022/05/10 14:04:02,健保快篩平日下午2點販售／週六早上9點販售
5934022175,公正藥局,宜蘭縣羅東鎮興東路１３７、１３９號,121.769,24.6802,(03)9560543,羅氏家用新冠病毒抗原自我檢測套組,78,2022/05/10 14:04:02,快篩實名制，每天16:00開始販售，售完為止。
5935011738,佳禾藥局,苗栗縣苗栗市青苗里建台街7號,120.821,24.55742,(037)373041,羅氏家用新冠病毒抗原自我檢測套組,8,2022/05/10 14:04:02,快篩試劑7：30發號碼牌8：00開始販賣，販賣時段：營業時間至售完為止
5935012342,杏一苗栗中山藥局,苗栗縣苗栗市至公路３８號,120.8196,24.55733,(037)354552,羅氏家用新冠病毒抗原自我檢測套組,70,2022/05/10 14:04:02,販售時間:14:00  現場排隊為主!售完為止! 若現場人數過多.視狀況提早銷售 !週日無販售!!
