醫事機構代碼,醫事機構名稱,醫事機構地址,經度,緯度,醫事機構電話,廠牌項目,快篩試劑截至目前結餘存貨數量,來源資料時間,備註
0291010010,連江縣立醫院,連江縣南竿鄉復興村２１７號,119.9492,26.16084,(083)623995,羅氏家用新冠病毒抗原自我檢測套組,10,2022/05/09 11:10:02,4／29起固定周一至周六上午8:30-9:30快篩試劑販售.
2333120015,新竹縣峨眉鄉衛生所,新竹縣峨眉鄉峨眉村峨眉街２鄰５號,121.0214,24.68842,(03)5800314,羅氏家用新冠病毒抗原自我檢測套組,78,2022/05/09 11:10:02,自5月6日起平常上班日販賣快篩試劑12時至13時止，星期六為8時30分至9時30分，目前皆以現場排隊人員順序，每日最多78組
2333140017,新竹縣五峰鄉衛生所,新竹縣五峰鄉大隘村六鄰９９號,121.1194,24.63184,(03)5851005,羅氏家用新冠病毒抗原自我檢測套組,7,2022/05/09 11:10:02,無
2334110013,宜蘭縣大同鄉衛生所,宜蘭縣大同鄉崙埤村朝陽４０號,121.6088,24.67785,(03)9801175,羅氏家用新冠病毒抗原自我檢測套組,33,2022/05/09 11:10:02,防疫快篩試劑販賣時間為週一到週五上午10:50-11:50 （或售罄為止），10:40開始發放號碼牌，詳細事項請至本所網站查詢。
2335140015,苗栗縣西湖鄉衛生所,苗栗縣西湖鄉龍洞村１鄰１６號,120.7577,24.5578,(037)921211,羅氏家用新冠病毒抗原自我檢測套組,78,2022/05/09 11:10:02,無
2335160017,苗栗縣三灣鄉衛生所,苗栗縣三灣鄉三灣村親民路１７號,120.9566,24.65284,(037)831140,羅氏家用新冠病毒抗原自我檢測套組,78,2022/05/09 11:10:02,無
2336210034,臺中市和平區梨山衛生所,臺中市和平區中正路１２號１樓、６８號１樓,121.2592,24.25678,(04)25989540,羅氏家用新冠病毒抗原自我檢測套組,16,2022/05/09 11:10:02,提供24小時急診待診服務，快篩試劑販售時段為周一至五0900-12:00，六日及國定假日為0900-1100
2338070010,南投縣鹿谷鄉衛生所,南投縣鹿谷鄉中正路二段２０號,120.7542,23.74488,(049)2752002,羅氏家用新冠病毒抗原自我檢測套組,78,2022/05/09 11:10:02,快篩試劑販售時間 上班日（星期一至星期五）14:00~16:00
2340170016,嘉義縣大埔鄉衛生所,嘉義縣大埔鄉大埔村５３－１號,120.5928,23.29397,(05)2521214,羅氏家用新冠病毒抗原自我檢測套組,78,2022/05/09 11:10:02,無
2340180012,嘉義縣阿里山鄉衛生所,嘉義縣阿里山鄉樂野村３鄰９７－２號,120.7019,23.4666,(05)2561573,羅氏家用新冠病毒抗原自我檢測套組,26,2022/05/09 11:10:02,無
2341240017,臺南市楠西區衛生所,臺南市楠西區楠西里中正路２２６號,120.4859,23.17477,(06)5751006,羅氏家用新冠病毒抗原自我檢測套組,33,2022/05/09 11:10:02,門診看診時間為W1和每月第二週W5早上8:30-11:30及W4下午1:30-4:30；家用快篩試劑販售時間為W1-5早上10:30-12:00
2341250013,臺南市南化區衛生所,臺南市南化區南化里２２６－１號,120.4793,23.0444,(06)5771139,羅氏家用新冠病毒抗原自我檢測套組,156,2022/05/09 11:10:02,5／7-5／8假日無販售       5／9日起調整實名制快篩試劑販售時間:下午2點30分-4點整售完提早結束。
2341300018,臺南市龍崎區衛生所,臺南市龍崎區崎頂里新市子１５８號,120.3618,22.96521,(06)5941397,羅氏家用新冠病毒抗原自我檢測套組,78,2022/05/09 11:10:02,無
2342250017,高雄市茂林區衛生所,高雄市茂林區茂林里茂林巷８－４號,120.6641,22.88641,(07)6801046,羅氏家用新冠病毒抗原自我檢測套組,18,2022/05/09 11:10:02,夜間急診，請先撥電話07-6801046
2342260013,高雄市桃源區衛生所,高雄市桃源區桃源里南進巷１８８－１號,120.7642,23.15845,(07)6861126,羅氏家用新冠病毒抗原自我檢測套組,163,2022/05/09 11:10:02,IDS提供24小時服務
2342270019,高雄市那瑪夏區衛生所,高雄市那瑪夏區瑪雅里６鄰平和巷２５２號,120.7024,23.24708,(07)6701142,羅氏家用新冠病毒抗原自我檢測套組,8,2022/05/09 11:10:02,春節期間正常門診
2343330014,屏東縣牡丹鄉衛生所,屏東縣牡丹鄉石門村１９號,120.7469,22.10105,(08)8831013,羅氏家用新冠病毒抗原自我檢測套組,7,2022/05/09 11:10:02,早上9:00 實名制快篩販售（售完為止）
2344011036,澎湖縣馬公市第三衛生所,澎湖縣馬公市西文里１１８之２號,119.5836,23.56813,(06)9211723,羅氏家用新冠病毒抗原自我檢測套組,101,2022/05/09 11:10:02,本所快篩試劑只提供離島衛生室（虎井、桶盤）販售，時間週一至週五08:30-17:00售完為止，星期六、日國定假日09:00-12:00。
2344030022,澎湖縣白沙鄉鳥嶼衛生所,澎湖縣白沙鄉鳥嶼村漁港新村３號,119.6599,23.66008,(06)9916092,羅氏家用新冠病毒抗原自我檢測套組,111,2022/05/09 11:10:02,非上班時間提供急診服務
2344030031,澎湖縣白沙鄉吉貝衛生所,澎湖縣白沙鄉吉貝村８－１３號,119.6138,23.74056,(06)9911430,羅氏家用新冠病毒抗原自我檢測套組,188,2022/05/09 11:10:02,無
2344050024,澎湖縣望安鄉將軍衛生所,澎湖縣望安鄉將軍村１２鄰將軍澳１之３號,119.5216,23.3615,(06)9902066,羅氏家用新冠病毒抗原自我檢測套組,50,2022/05/09 11:10:02,24小時急診
2344060011,澎湖縣七美鄉衛生所,澎湖縣七美鄉中和村埔內５４號,119.431,23.2041,(06)9971005,羅氏家用新冠病毒抗原自我檢測套組,10,2022/05/09 11:10:02,無
2345120016,花蓮縣萬榮鄉衛生所,花蓮縣萬榮鄉萬榮村１鄰１６號,121.4092,23.71558,(03)8751651,羅氏家用新冠病毒抗原自我檢測套組,26,2022/05/09 11:10:02,快篩試劑代售時間：週一至週五下午2點至下午4點，販售為止。
2346120010,台東縣延平鄉衛生所,臺東縣延平鄉桃源村昇平路１１號,121.0855,22.90217,(089)561358,羅氏家用新冠病毒抗原自我檢測套組,1,2022/05/09 11:10:02,星期一至星期五上午8:00-11:00下午13:30-16:30販售快篩試劑現場一卡一號78號收完卡即完售，遇國定假日休息
2391020010,連江縣北竿鄉衛生所,連江縣北竿鄉塘岐村２８１－６號,119.9991,26.22617,(083)655592,羅氏家用新冠病毒抗原自我檢測套組,2,2022/05/09 11:10:02,新冠快篩試劑販售於週一至周六每日上午08:30-12:00開放購買。
2391030016,連江縣莒光鄉西莒衛生所,連江縣莒光鄉青帆村１４－１號,119.9331,25.97157,(083)689122,羅氏家用新冠病毒抗原自我檢測套組,233,2022/05/09 11:10:02,防疫口罩星期一至五09:00-17:00、（六）09:00-12:00現場購買
2391030026,連江縣莒光鄉東莒衛生所,連江縣莒光鄉大坪村３０－１號,119.9731,25.96113,(083)689038,羅氏家用新冠病毒抗原自我檢測套組,412,2022/05/09 11:10:02,防疫口罩星期一至星期日上午10:00-12:00收取健保卡，下午3:30至本所領取口罩。
2391040012,連江縣東引鄉衛生所,連江縣東引鄉中柳村１２３號,120.4904,26.36701,(083)677206,羅氏家用新冠病毒抗原自我檢測套組,4,2022/05/09 11:10:02,防疫口罩每日10:00-12:00現場購買
5901011699,建東大藥局,臺北市松山區三民路９７號１樓,121.5634,25.05723,(02)27676237,羅氏家用新冠病毒抗原自我檢測套組,5,2022/05/09 11:10:02,早上9點發號碼牌.留健保卡.12點前回來買快篩.一人一卡.周日公修（沒快篩）
5901012516,惠登藥局,臺北市松山區民生東路３段１３０巷３４號,121.5461,25.0562,(02)25472432,羅氏家用新冠病毒抗原自我檢測套組,28,2022/05/09 11:10:02,實名制快篩週一到週五下午2點販售
5901012598,婕登藥局,臺北市松山區八德路４段６９９號,121.5766,25.05021,(02)27482893,羅氏家用新冠病毒抗原自我檢測套組,46,2022/05/09 11:10:02,今天快篩已經發送完畢（電腦庫存不準）
5901012749,躍獅松和藥局,臺北市松山區八德路四段６６６－１號,121.5761,25.04979,(02)27492569,羅氏家用新冠病毒抗原自我檢測套組,78,2022/05/09 11:10:02,實名制快篩販售時段，每日下午4點販售，售完為止
5901013095,康采藥局,臺北市松山區南京東路５段２９１巷１７－２號,121.5663,25.05236,(02)27670271,羅氏家用新冠病毒抗原自我檢測套組,16,2022/05/09 11:10:02,（已完售，庫存不準）快篩試劑每日16點販售，週日沒有販售
5901013595,巧心藥局,臺北市松山區八德路３段１２巷５７弄３９之３號１樓,121.5521,25.04567,(02)25703728,羅氏家用新冠病毒抗原自我檢測套組,49,2022/05/09 11:10:02,快篩試劑14:00販售，售完為止．
5901013719,大樹松山藥局,臺北市松山區民生東路５段１０７號１樓,121.5601,25.05878,(02)27562226,羅氏家用新冠病毒抗原自我檢測套組,78,2022/05/09 11:10:02,快篩實名制，每天16:00開始販售，售完為止。
5901013728,康麗藥局,臺北市松山區南京東路３段３０３巷２０號（１樓）,121.5468,25.05374,(02)27174117,羅氏家用新冠病毒抗原自我檢測套組,58,2022/05/09 11:10:02,無
5901013737,全欣藥局,臺北市松山區復興北路７３號２樓,121.5442,25.05104,(02)87729066,羅氏家用新冠病毒抗原自我檢測套組,48,2022/05/09 11:10:02,9:00am開始販售30人份15:00販售30人份:18:00販售17人份；週六:9:00販售39人份；週日:15:00販售39人份....排隊人數滿會先發號碼
5901020303,宏恩藥局,臺北市大安區大安路１段１８１號,121.5461,25.03619,(02)27000956,羅氏家用新冠病毒抗原自我檢測套組,26,2022/05/09 11:10:02,實名制快篩每周一~六，10:00發放號碼牌， 後於12:00~21:00自由擇時，持號碼牌領取快篩並收費
5901020563,施寶藥局,臺北市大安區安東街５０－５號１樓,121.5426,25.04277,(02)27114175,羅氏家用新冠病毒抗原自我檢測套組,137,2022/05/09 11:10:02,週一至週五早上11點到下午8點.周六周日及公訂例假日公休快篩早上11點開始銷售直到配額售完為止
5901020689,四維藥局,臺北市大安區復興南路２段１５１巷４３號１樓,121.5454,25.02846,(02)27094222,羅氏家用新冠病毒抗原自我檢測套組,78,2022/05/09 11:10:02,假日可先打電話聯絡
5901023331,佑安藥局,臺北市大安區延吉街２３３巷９號,121.5561,25.03708,(02)27069339,羅氏家用新冠病毒抗原自我檢測套組,71,2022/05/09 11:10:02,營業時間為下午兩點開始，週六暫定賣快篩，人數不多時會取消
5901023386,弘昇藥局,臺北市大安區復興南路１段１０７巷３２號,121.5458,25.04349,(02)27110061,羅氏家用新冠病毒抗原自我檢測套組,60,2022/05/09 11:10:02,上午11點以後至晚上11點
5901023519,惠盈藥局,臺北市大安區辛亥路２段１７１巷３１號,121.5412,25.02297,(02)87321366,羅氏家用新冠病毒抗原自我檢測套組,63,2022/05/09 11:10:02,快篩上午11:00開始，週日沒賣
5901024516,博昱師大藥局,臺北市大安區羅斯福路３段１８９號,121.5281,25.02109,(02)23696966,羅氏家用新冠病毒抗原自我檢測套組,47,2022/05/09 11:10:02,實名制快篩販售時間為下午14:00~15:30
5901024669,百岳藥局,臺北市大安區和平東路２段３１１巷１１號,121.5452,25.02514,(02)27551037,羅氏家用新冠病毒抗原自我檢測套組,105,2022/05/09 11:10:02,快篩試劑販售時間:周一至周五10:30~12:00止
5901024687,博昱大藥局,臺北市大安區樂業街１４８號、１５０號,121.5529,25.01998,(02)23776199,羅氏家用新冠病毒抗原自我檢測套組,78,2022/05/09 11:10:02,快篩發放為周一至周五1600開始發放
5901024721,麗泰藥局,臺北市大安區復興南路２段１５１巷４號,121.544,25.02832,(02)27079595,羅氏家用新冠病毒抗原自我檢測套組,5,2022/05/09 11:10:02,每天到貨時間不定，到貨後即公告開賣
5901024918,康祥藥局,臺北市大安區忠孝東路４段２１６巷２１號,121.5531,25.04025,(02)27817891,羅氏家用新冠病毒抗原自我檢測套組,79,2022/05/09 11:10:02,星期天11:00-19:00
5901025059,博醫仁愛藥局,臺北市大安區仁愛路４段８巷２號１樓,121.5443,25.0375,(02)27019107,羅氏家用新冠病毒抗原自我檢測套組,78,2022/05/09 11:10:02,每天11:30發號碼牌，12:00~15:00憑號碼牌與健保卡購買實名制快篩
5901090243,建祥藥局,臺北市大同區寧夏路１７號、１７－１號,121.515,25.05485,(02)25556476,羅氏家用新冠病毒抗原自我檢測套組,10,2022/05/09 11:10:02,10：00~18：00
5901091473,快安藥局,臺北市大同區南京西路２８２、２８４號,121.5146,25.05349,(02)25561925,羅氏家用新冠病毒抗原自我檢測套組,78,2022/05/09 11:10:02,下午兩點開放快篩試劑購買
5901091544,得意藥師藥局,臺北市大同區延平北路２段２２９號,121.5115,25.06029,(02)25534294,羅氏家用新冠病毒抗原自我檢測套組,54,2022/05/09 11:10:02,無
5901092130,大同民生藥局,臺北市大同區民生西路１２８號１樓、２樓及１３０號１樓、２樓,121.5191,25.05734,(02)25558886,羅氏家用新冠病毒抗原自我檢測套組,78,2022/05/09 11:10:02,快篩實名制，每天16:00開始販售，售完為止。
5901100155,大信藥局,臺北市中山區林森北路１５９巷６號,121.5255,25.0517,(02)25719080,羅氏家用新冠病毒抗原自我檢測套組,66,2022/05/09 11:10:02,無
5901100422,滿順藥局,臺北市中山區伊通街５４號１樓,121.5347,25.05145,(02)25075283,羅氏家用新冠病毒抗原自我檢測套組,4,2022/05/09 11:10:02,快篩服務時間 AM 8:30 起 售完為止
5901101992,大愛藥師藥局,臺北市中山區吉林路２５５號１樓,121.5304,25.06165,(02)25424723,羅氏家用新冠病毒抗原自我檢測套組,120,2022/05/09 11:10:02,週一~週五13:55發放號碼牌14:00發放快篩，週六、週日休息
5901102015,久大藥局,臺北市中山區林森北路４８０號,121.5255,25.06127,(02)25111594,羅氏家用新冠病毒抗原自我檢測套組,29,2022/05/09 11:10:02,即日起周一至周六下午1:00-4:00領取口罩。 周日休息
5901102060,專心藥局,臺北市中山區伊通街１１２－２號,121.5347,25.05426,(02)25155847,羅氏家用新冠病毒抗原自我檢測套組,64,2022/05/09 11:10:02,無
5901102597,德惠藥局,臺北市中山區德惠街１２２號,121.53,25.06652,(02)25971131,羅氏家用新冠病毒抗原自我檢測套組,78,2022/05/09 11:10:02,每日下午3點30分開始販售快篩實名制
5901102631,金生藥局,臺北市中山區長安東路２段１６７－１號,121.5407,25.04843,(02)87729808,羅氏家用新冠病毒抗原自我檢測套組,80,2022/05/09 11:10:02,販售實名制快篩時間為週一~週六早上09:00開始（售完為止）
5901102686,富宥康藥局,臺北市中山區北安路６０８巷５弄２２號,121.5496,25.08263,(02)25325277,羅氏家用新冠病毒抗原自我檢測套組,1,2022/05/09 11:10:02,無
5901103558,佳頤中西藥局,臺北市中山區長春路１４７之１號,121.5323,25.05495,(02)25641479,羅氏家用新冠病毒抗原自我檢測套組,75,2022/05/09 11:10:02,實名制快篩販售時間為下午1點起，售完為止，其他販售細節以店內公告為主
5901103656,大樹龍江藥局,臺北市中山區龍江路２４２號,121.5406,25.05889,(02)25035666,羅氏家用新冠病毒抗原自我檢測套組,78,2022/05/09 11:10:02,快篩實名制，每天16:00開始販售，售完為止。
5901103745,吉林藥局,臺北市中山區吉林路３７１號（１樓）,121.5305,25.06511,(02)25865990,羅氏家用新冠病毒抗原自我檢測套組,78,2022/05/09 11:10:02,快篩實名制，每天16:00開始販售，售完為止。
5901110133,泰成藥局,臺北市內湖區內湖路３段１３５號１樓,121.5899,25.08685,(02)27921231,羅氏家用新冠病毒抗原自我檢測套組,60,2022/05/09 11:10:02,口罩販售:上午9:00開始發號碼牌，9點同步販售.
5901112879,壹零捌藥局,臺北市內湖區成功路４段３４４號,121.5996,25.08488,(02)27910061,羅氏家用新冠病毒抗原自我檢測套組,1,2022/05/09 11:10:02,快篩晚上7:30開始販售（星期一至星期六）
5901113018,桔子藥局,臺北市內湖區內湖路２段３３３號,121.5917,25.08319,(02)27930052,羅氏家用新冠病毒抗原自我檢測套組,78,2022/05/09 11:10:02,早0900-1200，午1400-1700，晚1900-2100
5901113385,躍獅康成藥局,臺北市內湖區成功路４段６１巷１１號,121.5928,25.0814,(02)87922031,羅氏家用新冠病毒抗原自我檢測套組,77,2022/05/09 11:10:02,如有收到政府配送，實名制快篩13:40發號碼牌，14:00開賣。實名制口罩已無販售。
5901113563,耀元藥局,臺北市內湖區康樂街１５０號,121.6192,25.07263,(02)26337369,羅氏家用新冠病毒抗原自我檢測套組,39,2022/05/09 11:10:02,週一至週六實名制快篩下午兩點販售，依現場排隊順序購買，沒有發放號碼牌。週日無販售。特殊情況依現場公告為主。
5901113723,杏一港墘藥局,臺北市內湖區港墘路８３號（１樓）,121.5781,25.08078,(02)87978746,羅氏家用新冠病毒抗原自我檢測套組,78,2022/05/09 11:10:02,無
5901122080,成福大藥局,臺北市南港區成福路８號,121.5859,25.04578,(02)27859221,羅氏家用新冠病毒抗原自我檢測套組,78,2022/05/09 11:10:02,無
5901150271,建芳藥局,臺北市士林區德行東路１４８號,121.5296,25.10804,(02)28357172,羅氏家用新冠病毒抗原自我檢測套組,45,2022/05/09 11:10:02,無
5901150548,田倉藥局,臺北市士林區士東路１２４號,121.5302,25.11219,(02)88662188,羅氏家用新冠病毒抗原自我檢測套組,78,2022/05/09 11:10:02,每日19:00（傍晚7點）開始販售.
5901150815,陽明藥局,臺北市士林區菁山路１０號１樓,121.5469,25.13797,(02)28612863,羅氏家用新冠病毒抗原自我檢測套組,8,2022/05/09 11:10:02,早上9點30到12點健保卡排隊.（作業時間2小時）下午1點到晚上6點領回口罩及健保卡
5901152079,資生堂藥局,臺北市士林區承德路４段４０巷１７號１Ｆ,121.522,25.08107,(02)28857588,羅氏家用新冠病毒抗原自我檢測套組,78,2022/05/09 11:10:02,今日快篩已售完
5901152453,家赫藥局,臺北市士林區忠義街８０號１樓,121.5317,25.10614,(02)28346453,羅氏家用新冠病毒抗原自我檢測套組,78,2022/05/09 11:10:02,每日下午2:40開始發號碼牌販售實名制快篩
5901153263,健揚藥局,臺北市士林區延平北路５段２５１號,121.5097,25.08483,(02)28163698,羅氏家用新冠病毒抗原自我檢測套組,75,2022/05/09 11:10:02,每日下午13:30開始販售
5901153674,愛佳藥局,臺北市士林區承德路４段２２２之１號,121.5215,25.0885,(02)28811199,羅氏家用新冠病毒抗原自我檢測套組,78,2022/05/09 11:10:02,實名制快篩平日一~五下午5:00販售，假日（六、日）不販售
5901153709,全予藥局,臺北市士林區德行東路２２１號,121.5329,25.10938,(02)28386955,羅氏家用新冠病毒抗原自我檢測套組,50,2022/05/09 11:10:02,實名制快篩販售時間為周一至周六上午11點， 周日公休
5901154019,忠義台安藥局,臺北市士林區忠義街７２號１樓,121.5315,25.106,(02)28380685,羅氏家用新冠病毒抗原自我檢測套組,75,2022/05/09 11:10:02,下午2點開始販售快篩試劑
5901154028,向宇藥局,臺北市士林區德行東路２１７號１樓,121.5328,25.10935,(02)88661101,羅氏家用新冠病毒抗原自我檢測套組,78,2022/05/09 11:10:02,無
5901162306,上頤藥局,臺北市北投區中和街３２７號１樓,121.4997,25.14097,(02)28981230,羅氏家用新冠病毒抗原自我檢測套組,524,2022/05/09 11:10:02,無
5901162477,長宜藥局,臺北市北投區自強街１１２號,121.5155,25.11074,(02)28216605,羅氏家用新冠病毒抗原自我檢測套組,78,2022/05/09 11:10:02,實名制快篩試劑發放時間:14:00~售完為止，會依政府配送狀況調整
5901162833,維康藥局,臺北市北投區石牌路２段１９１．１９３號,121.5184,25.11874,(02)28206343,羅氏家用新冠病毒抗原自我檢測套組,32,2022/05/09 11:10:02,快篩發放時間為每日下午3點排隊，現場購賣
5901163250,關渡松藥局,臺北市北投區知行路２４７號,121.4671,25.12074,(02)28584824,羅氏家用新冠病毒抗原自我檢測套組,78,2022/05/09 11:10:02,（更新囉!!）5／9午2點開賣    郵局可配送時間：週一至週五正常配送週六13：00-17：00配送周日店休。
5901163394,致遠春天藥局,臺北市北投區致遠一路１段１３２號１、２樓,121.5149,25.11051,(02)28253258,羅氏家用新冠病毒抗原自我檢測套組,78,2022/05/09 11:10:02,15:30開始發放號碼牌15:30開始販售口罩
5901163563,躍獅光明藥局,臺北市北投區光明路５１號、５３號（實際使用：１樓）,121.4998,25.13286,(02)28915993,羅氏家用新冠病毒抗原自我檢測套組,21,2022/05/09 11:10:02,*今日份快篩已售完*1.早上9:30發號碼牌2.等快篩到貨才開始賣3.有號碼牌者請在晚上8點前領取，逾期作廢
5901163634,心樂藥局,臺北市北投區致遠一路２段１０５號１樓,121.5128,25.1131,(02)28210261,羅氏家用新冠病毒抗原自我檢測套組,63,2022/05/09 11:10:02,您好。發放快篩時間:周一二三五六早上8:30-09:00，週四加開早上10-11點，周一二三五 下午4:00-4:30，周日及國定假日休息
5901170406,鼎泰藥局,臺北市信義區基隆路１段１５５號１樓,121.5653,25.04222,(02)27620617,羅氏家用新冠病毒抗原自我檢測套組,78,2022/05/09 11:10:02,周一至周五 9：30-21：30 （9:30 開始發快篩） 5／1 有營業
5901172179,新和平藥局,臺北市信義區虎林街１９８號１樓,121.5769,25.03844,(02)23460951,羅氏家用新冠病毒抗原自我檢測套組,4,2022/05/09 11:10:02,每星期一至星期六早上10點起   發放實名制快篩試劑 .星期日休息
5901172697,綠杏大藥局,臺北市信義區吳興街２４１號,121.5635,25.02745,(02)27582378,羅氏家用新冠病毒抗原自我檢測套組,66,2022/05/09 11:10:02,快篩實名制，下午1300開始販售，如果人潮過多，將提早開賣，星期天沒有販售，星期天沒有販售，星期天沒有販售
5901172740,信桉藥局,臺北市信義區莊敬路２３６號,121.5621,25.0296,(02)87860005,羅氏家用新冠病毒抗原自我檢測套組,70,2022/05/09 11:10:02,快篩販售 W1-5 11:00-20:00，W6 11:00-15:00
5901172839,九州藥局,臺北市信義區和平東路３段２３９號,121.5543,25.02294,(02)87323331,羅氏家用新冠病毒抗原自我檢測套組,30,2022/05/09 11:10:02,實名制快篩5月9日早上10:00開賣
5901173238,正和藥局,臺北市信義區吳興街２２５巷６號,121.5634,25.02782,(02)23455186,羅氏家用新冠病毒抗原自我檢測套組,71,2022/05/09 11:10:02,下午2點半發放快篩，週日無發放
5901173283,上禾藥師藥局,臺北市信義區林口街２７號,121.5792,25.03741,(02)27592686,羅氏家用新冠病毒抗原自我檢測套組,3,2022/05/09 11:10:02,無
5901173390,馨馨藥局,臺北市信義區虎林街８２巷１９號,121.5764,25.04336,(02)27491208,羅氏家用新冠病毒抗原自我檢測套組,64,2022/05/09 11:10:02,無
5901173710,專品光復藥局,臺北市信義區光復南路４６７之１號,121.5577,25.03384,(02)27586682,羅氏家用新冠病毒抗原自我檢測套組,74,2022/05/09 11:10:02,禮拜一到六下午三點販售口罩
5901173738,尚頤中西藥局,臺北市信義區虎林街１４５號,121.5767,25.03959,(02)27253818,羅氏家用新冠病毒抗原自我檢測套組,57,2022/05/09 11:10:02,無
5901173818,博亞藥局,臺北市信義區莊敬路４６２號,121.5677,25.02672,(02)27580506,羅氏家用新冠病毒抗原自我檢測套組,39,2022/05/09 11:10:02,平日早上8:30、晚上8:00；假日早上8:30，發放號碼牌，持號碼牌購買!
5901173854,杏一後山埤藥局,臺北市信義區忠孝東路５段７７８號（實際營業地址：１樓）,121.5816,25.0434,(02)27274357,羅氏家用新冠病毒抗原自我檢測套組,74,2022/05/09 11:10:02,實名制快篩14:30開放排隊／14:55發放號碼牌
5901173863,立赫北醫藥局,臺北市信義區吳興街１１８巷２６弄１７號,121.5599,25.03007,(02)27320100,羅氏家用新冠病毒抗原自我檢測套組,4,2022/05/09 11:10:02,5／9上午10:00開始販售實名制快篩試劑
5901173881,壹間藥師藥局,臺北市信義區虎林街１２０巷１４８號,121.5742,25.04213,(02)27672833,羅氏家用新冠病毒抗原自我檢測套組,1,2022/05/09 11:10:02,5／9（一）10:30實名制快篩開始販售
5901173943,躍獅興雅藥局,臺北市信義區松德路１２８號,121.5745,25.03734,(02)87808429,羅氏家用新冠病毒抗原自我檢測套組,78,2022/05/09 11:10:02,14:00發號碼牌且同步開賣快篩，販賣至15:00或售完為止，週日無販售。
5901174066,愛維喜藥局,臺北市信義區莊敬路２７８號１樓,121.5627,25.02882,(02)27586989,羅氏家用新冠病毒抗原自我檢測套組,77,2022/05/09 11:10:02,快篩周一至五15:30.周六8:30開賣.約30分前收健保卡現金500元1張.發號碼牌
5901174084,市政藥局,臺北市信義區忠孝東路５段１６９號１樓、１７１號１樓,121.5688,25.0412,(02)27560050,羅氏家用新冠病毒抗原自我檢測套組,78,2022/05/09 11:10:02,快篩實名制，每天16:00開始販售，售完為止。
5901180224,中心藥局,臺北市中正區汀州路３段１２１號,121.5303,25.01654,(02)23689889,羅氏家用新冠病毒抗原自我檢測套組,1,2022/05/09 11:10:02,實名制快篩因物流貨運配送調度，調整領取時間延後至下午3點
5901180322,南昌大藥局,臺北市中正區南昌路１段８６號１樓,121.5174,25.03086,(02)23510322,羅氏家用新冠病毒抗原自我檢測套組,12,2022/05/09 11:10:02,早上10點發號碼牌，下午2點前來購買，逾期作廢。
5901183645,大愛生活藥局,臺北市中正區汀州路２段２３２號,121.5243,25.02189,(02)23661155,羅氏家用新冠病毒抗原自我檢測套組,78,2022/05/09 11:10:02,下午14:30開始發放快篩（不發號碼牌直接買）~~不要太早開始排隊啊啊啊啊
5901184473,中力藥局,臺北市中正區襄陽路１３之５號、１５號,121.5155,25.04349,(02)23313768,羅氏家用新冠病毒抗原自我檢測套組,6,2022/05/09 11:10:02,實名制快篩 販售時間：09:30~售完為止
5901184633,躍獅東門藥局,臺北市中正區金山南路１段１０８之１號（１樓）,121.5273,25.03538,(02)23920339,羅氏家用新冠病毒抗原自我檢測套組,3,2022/05/09 11:10:02,5／9早上9點開始販售，不提早發放號碼牌
5901190426,皇祥藥局,臺北市萬華區萬青街１６５號１樓,121.5016,25.02279,(02)23375676,羅氏家用新冠病毒抗原自我檢測套組,77,2022/05/09 11:10:02,無
5901190686,信義藥局,臺北市萬華區青年路２８號,121.5052,25.02581,(02)23074599,羅氏家用新冠病毒抗原自我檢測套組,78,2022/05/09 11:10:02,下午一點領（快篩） 視排隊狀況發號碼牌
5901193070,榮勝藥局,臺北市萬華區萬大路２３３號,121.5006,25.02649,(02)23331121,羅氏家用新冠病毒抗原自我檢測套組,20,2022/05/09 11:10:02,每日快篩早上十一點開始販售
5901193123,千誠北護藥局,臺北市萬華區內江街１１４號,121.5034,25.04152,(02)23123530,羅氏家用新冠病毒抗原自我檢測套組,34,2022/05/09 11:10:02,快篩一開門就發號碼牌，故網路庫存不準。
5901193150,日森人文藥局,臺北市萬華區和平西路３段１４９號,121.4988,25.03543,(02)23082100,羅氏家用新冠病毒抗原自我檢測套組,54,2022/05/09 11:10:02,快篩依政府每日到貨時間， 會立即公告粉絲頁販售時間規則
5901193221,正盛藥局,臺北市萬華區中華路２段４３４－１號,121.5064,25.02708,(02)23050386,羅氏家用新冠病毒抗原自我檢測套組,67,2022/05/09 11:10:02,【5／8血氧機到貨!!】1.一~六20點，周日不賣 2.排隊人潮多，建議7點左右提前候位 3.詳情看門口公告或板橋正康總店臉書
5901193249,光華藥局,臺北市萬華區華西街１９－５號,121.4985,25.03892,(02)23613609,羅氏家用新冠病毒抗原自我檢測套組,60,2022/05/09 11:10:02,周一至六上午11時營業即配合政府快篩試劑到貨發放，另週日加班發放
5901200141,景美藥局,臺北市文山區景文街１２５號,121.5412,24.99033,(02)29335741,羅氏家用新冠病毒抗原自我檢測套組,86,2022/05/09 11:10:02,無
5901202627,杏隆藥局,臺北市文山區羅斯福路５段２６１號,121.5395,25.00115,(02)29313151,羅氏家用新冠病毒抗原自我檢測套組,156,2022/05/09 11:10:02,快篩實名制採預約登記，至5／14已登記額滿。
5901203179,健安藥局,臺北市文山區景興路１６５號,121.5447,24.99346,(02)29323757,羅氏家用新冠病毒抗原自我檢測套組,78,2022/05/09 11:10:02,周一到周六.下午三點開賣實名制快篩.現場排隊不發號碼牌
5902011291,長庚藥局,高雄市鹽埕區五福四路１６３號一樓,120.2834,22.62347,(07)5513436,羅氏家用新冠病毒抗原自我檢測套組,8,2022/05/09 11:10:02,無
5902022874,康爾喜藥局,高雄市鼓山區慶豐街５０號,120.2935,22.66647,(07)5222650,羅氏家用新冠病毒抗原自我檢測套組,54,2022/05/09 11:10:02,快篩試劑 午（售完為止）。週日不發
5902022972,高雄藥局,高雄市鼓山區九如四路９２４號,120.2793,22.65466,(07)5214266,羅氏家用新冠病毒抗原自我檢測套組,54,2022/05/09 11:10:02,無
5902030312,吉辰藥局,高雄市左營區左營大路４１之１號,120.2876,22.68109,(07)5815069,羅氏家用新冠病毒抗原自我檢測套組,19,2022/05/09 11:10:02,早上9點開賣口罩   賣完為止
5902032450,可達藥局,高雄市左營區榮德街１７７號,120.3205,22.68359,(07)3420182,羅氏家用新冠病毒抗原自我檢測套組,8,2022/05/09 11:10:02,快篩販售時間週一～週六早上9點～11點。現場排隊，售完為止
5902041226,正人藥師藥局,高雄市楠梓區和昌里軍校路６７２號,120.293,22.70707,(07)3652942,羅氏家用新冠病毒抗原自我檢測套組,62,2022/05/09 11:10:02,早上11點準時發放號碼牌，同時開賣；一人限一份，代購需重新排隊。週六營業半天；週日公休。
5902050298,瑞鶴藥局,高雄市三民區寶德里義德路２５號,120.3352,22.64301,(07)3862757,羅氏家用新冠病毒抗原自我檢測套組,41,2022/05/09 11:10:02,下午2:00至4:30午休勿擾，每日08:30至21:30發售快篩。星期日不發售。
5902050350,日星藥局,高雄市三民區寶龍里惠德街３８號,120.3241,22.64741,(07)3845188,羅氏家用新冠病毒抗原自我檢測套組,78,2022/05/09 11:10:02,快篩口罩時間:星期一至五16:00-21:00；星期六09:00-11:30，售完為止
5902050592,建昌藥局,高雄市三民區十全一路１０５號１樓,120.3105,22.64469,(07)3232356,羅氏家用新冠病毒抗原自我檢測套組,77,2022/05/09 11:10:02,賣口罩時間：周一至週五下午1:00起，周六至週日上午10:00起，售完為止。
5902050636,嘉益藥局,高雄市三民區重慶街３０號,120.302,22.64223,(07)3110157,羅氏家用新冠病毒抗原自我檢測套組,75,2022/05/09 11:10:02,快篩實名制下午15：00開始販售.
5902050798,友泰藥局,高雄市三民區中和街１６９號,120.2868,22.6388,(07)3125236,羅氏家用新冠病毒抗原自我檢測套組,70,2022/05/09 11:10:02,無
5902050903,皇安藥局,高雄市三民區九如一路４６１號,120.3296,22.63865,(07)3866779,羅氏家用新冠病毒抗原自我檢測套組,14,2022/05/09 11:10:02,營業日0900可先領取號碼牌，上午9:00-12:00及下午3:00~10:.00為販賣快篩時間，售完為止
5902057939,朝陽健保藥局,高雄市三民區陽明路５７號１樓,120.341,22.63871,(07)3839886,羅氏家用新冠病毒抗原自我檢測套組,64,2022/05/09 11:10:02,營業日下午4:00-6:00為販賣口罩時間，若有異動依藥局門口公告時間為主
5902060025,連作藥局,高雄市新興區大同一路２０３－１號,120.3003,22.62856,(07)2154716,羅氏家用新冠病毒抗原自我檢測套組,13,2022/05/09 11:10:02,快篩試紙領用時間為每日下午2點
5902085166,景福藥局,高雄市苓雅區和平一路１４７之５號,120.3204,22.62364,(07)7719152,羅氏家用新冠病毒抗原自我檢測套組,1,2022/05/09 11:10:02,2／11早上9:00至下午15:00，2／12至16日休
5902085371,加和藥局,高雄市苓雅區和平一路１４３之７號,120.3205,22.62331,(07)7219332,羅氏家用新冠病毒抗原自我檢測套組,78,2022/05/09 11:10:02,快篩試劑每日下午2:30販售，務再來電詢問。星期天不販售快篩試劑
5902092896,廣泰藥局,高雄市前鎮區瑞北路５６號,120.3346,22.60931,(07)7162166,羅氏家用新冠病毒抗原自我檢測套組,31,2022/05/09 11:10:02,快篩實名制早上11點販賣  星期日停賣
5902092910,健家藥局,高雄市前鎮區二聖二路４５號,120.3165,22.61293,(07)3389986,羅氏家用新冠病毒抗原自我檢測套組,1,2022/05/09 11:10:02,早上9:30營業，售完為止
5902110628,悅是康藥局,高雄市小港區漢民路２７６號,120.3536,22.56665,(07)8010012,羅氏家用新冠病毒抗原自我檢測套組,8,2022/05/09 11:10:02,每日早上10:00開賣、不須拿號碼牌、領完為止。
5903010485,大樹圓環藥局,臺中市豐原區圓環東路６１７號１樓,120.7283,24.25084,(04)25122212,羅氏家用新冠病毒抗原自我檢測套組,78,2022/05/09 11:10:02,口罩販售時間：14:00 - 16:00
5903050103,北勢進騰藥局,臺中市沙鹿區北勢東路５０９之７號１樓,120.576,24.22526,(04)26330893,羅氏家用新冠病毒抗原自我檢測套組,76,2022/05/09 11:10:02,營業時間12:00-22:00，每日12:00販售實名制快篩
5903050176,全國藥局,臺中市沙鹿區臺灣大道７段９９２號,120.5622,24.24074,(04)26627097,羅氏家用新冠病毒抗原自我檢測套組,28,2022/05/09 11:10:02,快篩劑每日配送時間不同，依現場到貨為主，現場排隊購買
5903060092,佑全梧棲文化藥局,臺中市梧棲區文化路二段１５０號１樓,120.531,24.25526,(04)26566433,羅氏家用新冠病毒抗原自我檢測套組,78,2022/05/09 11:10:02,實名快篩下午1：50發號碼牌；14：00開始販售
5903080094,灃洲大藥局,臺中市神岡區豐洲路４６６－３號１樓,120.7045,24.26179,(04)25150169,羅氏家用新冠病毒抗原自我檢測套組,2,2022/05/09 11:10:02,星期日公休，實名制快篩販售時間為每日下午三點
5903080138,佑全神岡中山藥局,臺中市神岡區中山路５４９、５４９之１、５４９之２號１樓,120.6842,24.24638,(04)25634677,羅氏家用新冠病毒抗原自我檢測套組,78,2022/05/09 11:10:02,每日下午1點50分發號碼牌2點開賣
5903090189,名方藥局,臺中市潭子區勝利路２８５號１樓,120.7004,24.21321,(04)25341777,羅氏家用新冠病毒抗原自我檢測套組,78,2022/05/09 11:10:02,快篩販售  （一）~（五） 下午6點    週（六）早上9點  週日不販售
5903100135,大雅安德藥局,臺中市大雅區中清東路２２９號１樓,120.6469,24.22459,(04)25604133,羅氏家用新冠病毒抗原自我檢測套組,74,2022/05/09 11:10:02,5／9（一）。實名制快篩13:30領取號碼牌，14:00販賣，不找零，每張卡隔一個月買一次，限每人一卡一份
5903100206,民生藥局,臺中市大雅區民生路一段２２１號１樓,120.6512,24.22789,(04)25662229,羅氏家用新冠病毒抗原自我檢測套組,78,2022/05/09 11:10:02,快篩實名制，每天16:00開始販售，售完為止。
5903150091,學田藥局,臺中市烏日區學田路便行巷１４號,120.6075,24.12086,(04)23382230,羅氏家用新冠病毒抗原自我檢測套組,72,2022/05/09 11:10:02,快篩以實際到貨時間為主，到貨開賣至售完為止。
5903150153,溪南藥局,臺中市烏日區溪南路一段５６５號１樓,120.6431,24.07523,(04)23353666,羅氏家用新冠病毒抗原自我檢測套組,78,2022/05/09 11:10:02,快篩實名制，每天16:00開始販售，售完為止。
5903170146,向陽藥師連鎖藥局,臺中市龍井區中央路三段３７號１樓,120.5248,24.21176,(04)26390500,羅氏家用新冠病毒抗原自我檢測套組,44,2022/05/09 11:10:02,實名制快篩當天物流配送到就開賣，營業時間:0930~2130慢箋領藥.長照特約.更年期.糖尿病.孕期保健.小兒營養
5903180062,霧峰安德藥局,臺中市霧峰區中正路１１３５號１樓,120.6992,24.07002,(04)23300365,羅氏家用新冠病毒抗原自我檢測套組,76,2022/05/09 11:10:02,快篩代售時間14:00。13:40發號碼牌，過號即代表放棄。售完為止。
5903180142,峰正藥局,臺中市霧峰區中正路８３０號１樓,120.6987,24.06244,(04)23303353,羅氏家用新冠病毒抗原自我檢測套組,78,2022/05/09 11:10:02,快篩實名制，每天16:00開始販售，售完為止。
5903190335,育賢德侑藥局,臺中市太平區育賢路１０７號、１０９號,120.7219,24.15768,(04)23920696,羅氏家用新冠病毒抗原自我檢測套組,78,2022/05/09 11:10:02,實名制快篩販售時間：星期一~星期日 早上8:30點開賣（售完為止）
5903190362,太平中山藥局,臺中市太平區中山路４段１１號,120.7139,24.14931,(04)23959200,羅氏家用新冠病毒抗原自我檢測套組,78,2022/05/09 11:10:02,快篩實名制，每天16:00開始販售，售完為止。
5903190666,川越藥局,臺中市太平區新興二街１３６號１樓,120.7056,24.15992,(04)23935719,羅氏家用新冠病毒抗原自我檢測套組,74,2022/05/09 11:10:02,販售時間於臉書及IG 公布
5903200229,信元藥局,臺中市大里區益民路２段３７２號１樓,120.684,24.11545,(04)24876051,羅氏家用新冠病毒抗原自我檢測套組,70,2022/05/09 11:10:02,下午5點發號碼牌並依序販賣
5903200587,大里安德健保藥局,臺中市大里區大明路１１７號,120.6861,24.11527,(04)24875607,羅氏家用新冠病毒抗原自我檢測套組,1,2022/05/09 11:10:02,早上9點開始發放
5903200701,大益藥局,臺中市大里區益民路二段３３５號１、２樓,120.6837,24.11311,(04)24811551,羅氏家用新冠病毒抗原自我檢測套組,78,2022/05/09 11:10:02,快篩實名制，每天16:00開始販售，售完為止。
5903200738,杏一大里國光藥局,臺中市大里區國光路二段４１１號１樓,120.6796,24.10921,(04)24071492,羅氏家用新冠病毒抗原自我檢測套組,78,2022/05/09 11:10:02,周一至周六16:00~19:00，周日及補假日人力不足不販售
5903220150,老順安大藥局,臺中市中區中華路二段６３號、６５號１樓,120.6794,24.14801,(04)22016306,羅氏家用新冠病毒抗原自我檢測套組,57,2022/05/09 11:10:02,實名制快篩銷售時間:周一至周六下午兩點至三點
5903230183,恒生藥局,臺中市東區樂業路３９５號１樓,120.7051,24.138,(04)22135179,羅氏家用新冠病毒抗原自我檢測套組,59,2022/05/09 11:10:02,快篩11點開始過卡，中午1~3點為清消時間 暫停發放。周日公休。另有提供領慢箋服務及保健食品，任何疑問請洽藥師。
5903240170,美村全成藥局,臺中市西區美村路１段２２２號１樓,120.6615,24.14875,(04)23014006,羅氏家用新冠病毒抗原自我檢測套組,34,2022/05/09 11:10:02,5／9快篩 10:00開始販售    售完完止
5903240198,鑫祐藥局,臺中市西區民權路３０２－５號,120.67,24.14767,(04)23027778,羅氏家用新冠病毒抗原自我檢測套組,19,2022/05/09 11:10:02,實名快篩每日開賣時間以店外公告為主，1人1或2卡，週一至週六早上銷售，週日停售
5903240456,杏一台中美村藥局,臺中市西區美村路一段２４２、２４６號１樓,120.6615,24.14825,(04)23013310,羅氏家用新冠病毒抗原自我檢測套組,52,2022/05/09 11:10:02,快篩販售時間11:00~13:00（或售完為止），5／12起改為12:00販售，週日不販售／有庫存即可以來買，不要再打電話確認
5903240474,佑全台中向上藥局,臺中市西區向上路一段３８６、３８８號１樓,120.6559,24.14688,(04)23204732,羅氏家用新冠病毒抗原自我檢測套組,78,2022/05/09 11:10:02,因政府配貨時間不一，依照門市現場公告時間為主
5903250041,小林健保藥局,臺中市南區美村路２段１８２號,120.6631,24.12549,(04)22622099,羅氏家用新冠病毒抗原自我檢測套組,3,2022/05/09 11:10:02,固定周一到周日，早上8:00發號碼牌，下午4:30開始販賣防疫口罩
5903250443,千美台安藥局,臺中市南區美村南路２６３號,120.6666,24.11426,(04)22602101,羅氏家用新冠病毒抗原自我檢測套組,1,2022/05/09 11:10:02,周一到周日，下午2:30開始販售居家快篩
5903250505,心安藥局,臺中市南區國光路２４１號１樓,120.6794,24.12676,(04)22858773,羅氏家用新冠病毒抗原自我檢測套組,3,2022/05/09 11:10:02,每天下午三點排隊開賣，一人一卡，週日公休下次是5／9號
5903260314,喜悅健保藥局,臺中市北區健行路４１４號１樓,120.6818,24.15927,(04)22333988,羅氏家用新冠病毒抗原自我檢測套組,40,2022/05/09 11:10:02,星期一到星期五早上10點到晚上9點半，星期六中午12點到晚上6點半.
5903260341,台中漢口藥局,臺中市北區漢口路３段１８３號,120.6711,24.16703,(04)22936166,羅氏家用新冠病毒抗原自我檢測套組,78,2022/05/09 11:10:02,實名制快篩販售時間每天下午2點~售完為止
5903260421,忠明小林健保藥局,臺中市北區忠明路１６１號,120.6642,24.16235,(04)22013666,羅氏家用新冠病毒抗原自我檢測套組,46,2022/05/09 11:10:02,每日早上8點發號碼牌及收健保卡，下午4點半領回
5903260449,喜樂藥局,臺中市北區中清路１段３１號,120.677,24.1529,(04)22060423,羅氏家用新冠病毒抗原自我檢測套組,12,2022/05/09 11:10:02,無
5903260618,中清小林健保藥局,臺中市北區中清路一段８６、８８號１樓,120.6767,24.15622,(04)22034197,羅氏家用新冠病毒抗原自我檢測套組,58,2022/05/09 11:10:02,24小時營業無公休，早上八點發號碼牌，十二點以後過健保卡發放口罩.
5903260654,康新藥局,臺中市北區五權路２３２號,120.677,24.15078,(04)22020008,羅氏家用新冠病毒抗原自我檢測套組,23,2022/05/09 11:10:02,無
5903260681,昭德藥師藥局,臺中市北區西屯路一段３４５號,120.6654,24.16007,(04)23235655,羅氏家用新冠病毒抗原自我檢測套組,4,2022/05/09 11:10:02,早上八點至下午十一點營業，上午九點至下午九點現場排隊過卡買口罩，售完為止
5903270392,瑞德大藥局,臺中市西屯區中清西二街８４號,120.6671,24.17511,(04)22939820,羅氏家用新冠病毒抗原自我檢測套組,1,2022/05/09 11:10:02,固定周一至周日早上9:00開始販售口罩.售完為止
5903270847,分子藥局,臺中市西屯區惠來路二段２３６－１號,120.6421,24.16318,(04)22513080,羅氏家用新冠病毒抗原自我檢測套組,49,2022/05/09 11:10:02,發放時間週一至週日早上10點起售完為止
5903270892,杏林堂藥局,臺中市西屯區黎明路三段１４８號１樓,120.6376,24.17729,(04)24528967,羅氏家用新冠病毒抗原自我檢測套組,46,2022/05/09 11:10:02,週一至週六11:00販售 週日08:30販售
5903270927,河南小林健保藥局,臺中市西屯區河南路二段２９８號１樓,120.6485,24.17477,(04)24512830,羅氏家用新冠病毒抗原自我檢測套組,13,2022/05/09 11:10:02,固定每日早上8點發放口罩號碼牌，下午4點半開始販售。
5903270963,源興大藥局,臺中市西屯區西屯路二段１２號,120.6622,24.16387,(04)23143045,羅氏家用新冠病毒抗原自我檢測套組,1,2022/05/09 11:10:02,口罩販售時間：每日下午2點至售完為止。
5903271022,西屯藥局,臺中市西屯區西屯路三段１５０－４５號１樓,120.621,24.18716,(04)24621822,羅氏家用新冠病毒抗原自我檢測套組,78,2022/05/09 11:10:02,快篩實名制，每天16:00開始販售，售完為止。
5903271031,美十樂中科藥局,臺中市西屯區西屯路三段１６６－６５號１樓,120.6129,24.19035,(04)24610219,羅氏家用新冠病毒抗原自我檢測套組,468,2022/05/09 11:10:02,醫事人員卡片損壞，暫時無法販賣快篩
5903271068,西墩藥局,臺中市西屯區黎明路三段２７５、２７７號１樓,120.6373,24.17812,(04)24510770,羅氏家用新冠病毒抗原自我檢測套組,78,2022/05/09 11:10:02,快篩實名制，每天16:00開始販售，售完為止。
5903271246,柏醫藥局,臺中市西屯區上安路５６號１樓,120.6412,24.17052,(04)24526391,羅氏家用新冠病毒抗原自我檢測套組,78,2022/05/09 11:10:02,因應到貨時間不定，統一晚上7點開放78組（5／9已到貨 8:40）
5903271282,禾安藥局,臺中市西屯區西屯路二段１２６之８號,120.6518,24.16682,(04)23176162,羅氏家用新冠病毒抗原自我檢測套組,30,2022/05/09 11:10:02,無
5903271308,祐生藥局,臺中市西屯區文華路３之１號１樓,120.6447,24.17535,(04)24517169,羅氏家用新冠病毒抗原自我檢測套組,194,2022/05/09 11:10:02,快篩發放時間：第一批中午12:00，第二批傍晚18:00，售完為止
5903280807,大樹南屯藥局,臺中市南屯區向上路一段６４３號１樓,120.6486,24.14659,(04)24758887,羅氏家用新冠病毒抗原自我檢測套組,78,2022/05/09 11:10:02,快篩實名制，每天16:00開始販售，售完為止。
5903280898,佑全台中忠勇藥局,臺中市南屯區忠勇路５１－８號１樓,120.614,24.14376,(04)23803282,羅氏家用新冠病毒抗原自我檢測套組,78,2022/05/09 11:10:02,每週一到週六實名制快篩販售14:00（限量78份） 售完為止
5903280923,南屯丁丁藥局,臺中市南屯區五權西路二段２１８號１樓,120.6503,24.14035,(04)36015077,羅氏家用新冠病毒抗原自我檢測套組,8,2022/05/09 11:10:02,無
5903290045,康美得藥局,臺中市北屯區昌平路１段１０５－８號,120.6903,24.17373,(04)22467128,羅氏家用新冠病毒抗原自我檢測套組,12,2022/05/09 11:10:02,早上9:30開始。W日早上10點販售。快篩使用方法請上（康美得藥局）官方臉書
5903290394,億銓藥局,臺中市北屯區北屯路２１０－１號,120.6961,24.16756,(04)22313670,羅氏家用新冠病毒抗原自我檢測套組,78,2022/05/09 11:10:02,快篩實名制週一~週五下午1：00開賣、週六上午11：00開賣，週日公休。
5903290830,齊方藥局,臺中市北屯區四平路３９號,120.6708,24.17885,(04)22912192,羅氏家用新冠病毒抗原自我檢測套組,15,2022/05/09 11:10:02,5／7（星期六）下午4:00開賣，5／9（星期一）早上9:00開賣
5903290849,新盛藥局,臺中市北屯區松竹路二段１５７號１樓,120.6959,24.18312,(04)22467779,羅氏家用新冠病毒抗原自我檢測套組,71,2022/05/09 11:10:02,下午2:30至8:30賣快篩試劑週一至週六
5903290876,北屯軍功藥局,臺中市北屯區軍功路一段７５２號,120.7193,24.17513,(04)24375111,羅氏家用新冠病毒抗原自我檢測套組,77,2022/05/09 11:10:02,快篩實名制，每天16:00開始販售，售完為止。
5903290947,德寶健保藥局,臺中市北屯區熱河路一段７０號１樓,120.687,24.1674,(04)22325511,羅氏家用新冠病毒抗原自我檢測套組,15,2022/05/09 11:10:02,快篩試劑九點開始銷售賣完為止
5903291060,大樹北屯藥局,臺中市北屯區松竹路二段４１１號１樓,120.6895,24.18192,(04)22422262,羅氏家用新冠病毒抗原自我檢測套組,78,2022/05/09 11:10:02,快篩實名制，每天16:00開始販售，售完為止。
5903291140,興安藥局,臺中市北屯區興安路二段５２號１、２樓,120.6949,24.1762,(04)22460369,羅氏家用新冠病毒抗原自我檢測套組,78,2022/05/09 11:10:02,快篩實名制，每天16:00開始販售，售完為止。
5903291159,均福藥局,臺中市北屯區軍福十三路１００號１樓,120.7308,24.17096,(04)24391169,羅氏家用新冠病毒抗原自我檢測套組,4,2022/05/09 11:10:02,快篩實名制規則:晚上七點依現場排隊順序發號碼牌 （周日公休不販售）
5903291248,潔西卡大藥局,臺中市北屯區崇德路二段３１４號１樓,120.686,24.1765,(04)22416879,羅氏家用新冠病毒抗原自我檢測套組,14,2022/05/09 11:10:02,無
5905010152,謙和藥師藥局,臺南市新營區延平路１０１之２號,120.3135,23.29982,(06)6322957,羅氏家用新冠病毒抗原自我檢測套組,19,2022/05/09 11:10:02,實名制快篩早上11點開賣。實名制快篩試劑最新公告請看FB粉絲專頁：謙和藥師藥局
5905010330,新進啄木鳥藥局,臺南市新營區新進路２段２５４號１樓,120.3056,23.30074,(06)6565303,羅氏家用新冠病毒抗原自我檢測套組,1,2022/05/09 11:10:02,自5／7起每日上午10:00開賣，售完為止..
5905030092,大樹白河藥局,臺南市白河區中山路１５３號１樓,120.417,23.35255,(06)6830006,羅氏家用新冠病毒抗原自我檢測套組,78,2022/05/09 11:10:02,快篩實名制，每天16:00開始販售，售完為止。
5905040141,大樹麻豆藥局,臺南市麻豆區中山路４８、５０號１樓,120.2469,23.18382,(06)5716556,羅氏家用新冠病毒抗原自我檢測套組,78,2022/05/09 11:10:02,快篩實名制，每天16:00開始販售，售完為止。
5905050209,大樹佳里藥局,臺南市佳里區延平路２３７號１樓,120.1783,23.1599,(06)7231323,羅氏家用新冠病毒抗原自我檢測套組,78,2022/05/09 11:10:02,快篩實名制，每天16:00開始販售，售完為止。
5905060054,全家康藥師藥局,臺南市新化區北勢里中正路１２０７號,120.2968,23.05935,(06)5980866,羅氏家用新冠病毒抗原自我檢測套組,1,2022/05/09 11:10:02,週一~週日早上10:00開始賣實名制快篩，售完為止
5905070121,大樹善化藥局,臺南市善化區民權路５４、５６、５８號１樓,120.3034,23.1322,(06)5830550,羅氏家用新冠病毒抗原自我檢測套組,78,2022/05/09 11:10:02,快篩實名制，每天16:00開始販售，售完為止。
5905070158,南科健登藥局,臺南市善化區龍目井路４１３號１樓,120.3058,23.10922,(06)5836266,羅氏家用新冠病毒抗原自我檢測套組,9,2022/05/09 11:10:02,快篩實名制販售 : 週一~六 下午兩點開始 週日不販售
5905140039,安安藥局隆田店,臺南市官田區中山路一段１５號１樓,120.3186,23.1927,(06)5795705,羅氏家用新冠病毒抗原自我檢測套組,2,2022/05/09 11:10:02,全日口罩販賣
5905200085,大樹新市藥局,臺南市新市區中正路４９、５１號１樓,120.2916,23.07223,(06)5892552,羅氏家用新冠病毒抗原自我檢測套組,78,2022/05/09 11:10:02,快篩實名制，每天16:00開始販售，售完為止。
5905210027,愛心藥師藥局,臺南市安定區港南里港口１４７號,120.233,23.09041,(06)5935104,羅氏家用新冠病毒抗原自我檢測套組,10,2022/05/09 11:10:02,春節營業時間請電洽或依現場公告
5905280109,大樹青青藥局,臺南市歸仁區中山路三段１２號,120.2875,22.96765,(06)2300301,羅氏家用新冠病毒抗原自我檢測套組,78,2022/05/09 11:10:02,快篩實名制，每天16:00開始販售，售完為止。
5905310326,美德生醫藥局,臺南市永康區復國一路４９６號１樓,120.245,23.01514,(06)2030463,羅氏家用新冠病毒抗原自我檢測套組,35,2022/05/09 11:10:02,快篩販售時間：星期一~星期日 10:30~至售完
5905311074,中華長億藥局,臺南市永康區中華路７３４、７３６號１樓,120.2288,23.0167,(06)3022322,羅氏家用新冠病毒抗原自我檢測套組,78,2022/05/09 11:10:02,快篩實名制，每天16:00開始販售，售完為止。
5905311127,台南永康藥局,臺南市永康區中山南路８１６、８１６─１、２、３號１樓,120.2471,23.02099,(06)2020201,羅氏家用新冠病毒抗原自我檢測套組,78,2022/05/09 11:10:02,快篩實名制，每天16:00開始販售，售完為止。
5905320804,大樹大同藥局,臺南市東區大同路二段２２７、２２９號１樓,120.2143,22.97567,(06)2158700,羅氏家用新冠病毒抗原自我檢測套組,78,2022/05/09 11:10:02,快篩實名制，每天16:00開始販售，售完為止。
5905320859,裕農藥局,臺南市東區裕農路３０２號１樓,120.2287,22.98652,(06)2092286,羅氏家用新冠病毒抗原自我檢測套組,17,2022/05/09 11:10:02,無
5905320868,大樹東寧藥局,臺南市東區東寧路４３６號１樓,120.2291,22.9895,(06)2360006,羅氏家用新冠病毒抗原自我檢測套組,78,2022/05/09 11:10:02,快篩實名制，每天16:00開始販售，售完為止。
5905320886,中華崇德藥局,臺南市東區中華東路三段１８１、１８３號１樓,120.2259,22.97667,(06)2880800,羅氏家用新冠病毒抗原自我檢測套組,78,2022/05/09 11:10:02,快篩實名制，每天16:00開始販售，售完為止。
5905320948,崇明台安藥局,臺南市東區崇明路３０４號１樓,120.2198,22.97762,(06)2900350,羅氏家用新冠病毒抗原自我檢測套組,74,2022/05/09 11:10:02,快篩下午2點開始販售
5905330284,大樹佳華藥局,臺南市南區金華路二段１２９號１樓,120.1911,22.98035,(06)2641238,羅氏家用新冠病毒抗原自我檢測套組,78,2022/05/09 11:10:02,快篩實名制，每天16:00開始販售，售完為止。
5905340075,麗欣健保藥局,臺南市中西區永華路一段１９４號１樓,120.1917,22.98835,(06)2209393,羅氏家用新冠病毒抗原自我檢測套組,37,2022/05/09 11:10:02,w1~w6早上11:00開始發放快篩
5905350151,公園台安藥局,臺南市北區公園路８４０號,120.2121,23.01331,(06)2518402,羅氏家用新冠病毒抗原自我檢測套組,6,2022/05/09 11:10:02,實名制快篩每日上午10:30販售（依快篩配送時間可能延後）。
5905350384,北安台安藥局,臺南市北區北安路一段１６３號,120.2087,23.01755,(06)2518166,羅氏家用新冠病毒抗原自我檢測套組,64,2022/05/09 11:10:02,家用快篩試劑 1100開始販售
5905370466,大樹北安藥局,臺南市安南區北安路三段１５８號１樓,120.2036,23.04256,(06)2553633,羅氏家用新冠病毒抗原自我檢測套組,78,2022/05/09 11:10:02,快篩實名制，每天16:00開始販售，售完為止。
5905380300,新高橋藥局台南永華店,臺南市安平區華平路２７９號１樓,120.1748,22.99031,(06)2992362,羅氏家用新冠病毒抗原自我檢測套組,19,2022/05/09 11:10:02,若有到貨早上九點五十分發放號碼牌十點開始販售
5907010276,愛家社區藥局,高雄市鳳山區福德街１４１號,120.3267,22.59042,(07)8123698,羅氏家用新冠病毒抗原自我檢測套組,2,2022/05/09 11:10:02,星期一~星期日早上9:30開始販售快篩，現場發號碼牌，售完為止
5907010427,好郝藥局鳳林店,高雄市鳳山區誠智里鳳林路２９０號,120.3779,22.62216,(07)7869188,羅氏家用新冠病毒抗原自我檢測套組,78,2022/05/09 11:10:02,健保快篩周一到周六（周日不販售）下午三點開始現場販售，售完為止
5907010454,上泰健保藥局,高雄市鳳山區鎮西里中華街２７號１樓,120.3559,22.62698,(07)7455127,羅氏家用新冠病毒抗原自我檢測套組,59,2022/05/09 11:10:02,5／7 配售之快篩目前0950開始販售。售完為止...1200~~1900店休
5907011086,閤康藥局,高雄市鳳山區忠義里中山西路３７６－７號１樓,120.3412,22.62897,(07)7197787,羅氏家用新冠病毒抗原自我檢測套組,58,2022/05/09 11:10:02,5／9-5／13快篩販售時間 11點開始.售完為止!
5907011095,鳳山五甲藥局,高雄市鳳山區正義里五甲二路１３９號１樓,120.3409,22.6014,(07)7269899,羅氏家用新冠病毒抗原自我檢測套組,78,2022/05/09 11:10:02,快篩實名制，每天16:00開始販售，售完為止。
5907011148,大樹國泰藥局,高雄市鳳山區興仁里五甲一路２９２號,120.3539,22.61698,(07)7407234,羅氏家用新冠病毒抗原自我檢測套組,78,2022/05/09 11:10:02,快篩實名制，每天16:00開始販售，售完為止。
5907011371,大樹五甲藥局,高雄市鳳山區福祥里五甲三路２４號１－２樓．２６號１－２樓,120.3278,22.59317,(07)8224926,羅氏家用新冠病毒抗原自我檢測套組,1,2022/05/09 11:10:02,快篩實名制，每天16:00開始販售，售完為止。
5907030152,旗山藥局,高雄市旗山區中華路２３號,120.4841,22.88027,(07)6621158,羅氏家用新冠病毒抗原自我檢測套組,78,2022/05/09 11:10:02,快篩實名制，每天16:00開始販售，售完為止。
5907080189,德昌藥局仁雄店,高雄市仁武區灣內里仁雄路３８、３８－１、３８－２號,120.3506,22.68074,(07)3749166,羅氏家用新冠病毒抗原自我檢測套組,70,2022/05/09 11:10:02,固定週一至週日14:30~16:00開始發放號碼牌並依序販售快篩.售完為止
5907080214,新高橋藥局八德中店,高雄市仁武區八卦里八德中路８６、８８、９０號,120.3393,22.68489,(07)3485857,羅氏家用新冠病毒抗原自我檢測套組,13,2022/05/09 11:10:02,藥局電話 07-3736437
5907080223,新高橋藥局仁雄店,高雄市仁武區赤山里仁雄路８９－３號,120.3457,22.67722,(07)3485857,羅氏家用新冠病毒抗原自我檢測套組,1,2022/05/09 11:10:02,藥局電話07-3743243
5907080303,群邦藥局,高雄市仁武區八德東路１８０號１樓,120.3422,22.68538,(07)3745985,羅氏家用新冠病毒抗原自我檢測套組,77,2022/05/09 11:10:02,每日下午2:00開始販售公費快篩（售完為止），星期日藥局早上8:30-9:30賣公費快篩
5907150024,安麗兒藥局路竹店,高雄市路竹區大社路５１號１樓,120.262,22.8632,(07)6071699,羅氏家用新冠病毒抗原自我檢測套組,80,2022/05/09 11:10:02,快篩實名制，週一至週六，早上8：30 開始，售完為止（週日無販售）
5907150257,大樹大立藥局,高雄市路竹區國昌路５１號,120.26,22.85409,(07)6961663,羅氏家用新冠病毒抗原自我檢測套組,78,2022/05/09 11:10:02,快篩實名制，每天16:00開始販售，售完為止。
5907160075,安麗兒藥局東方店,高雄市湖內區湖東里東方路９０號,120.2483,22.87968,(07)6936029,羅氏家用新冠病毒抗原自我檢測套組,60,2022/05/09 11:10:02,領快篩時間一~日早上11點開始~售完 （以郵局配送時間為主）
5907160093,保生藥局,高雄市湖內區葉厝里保生路３４０．３４２號,120.2195,22.90733,(07)6990800,羅氏家用新冠病毒抗原自我檢測套組,79,2022/05/09 11:10:02,快篩實名制，每天16:00開始販售，售完為止。
5907240014,博林健保藥局,高雄市內門區觀亭里中正路１６０巷５１號,120.4539,22.9232,(07)6671883,羅氏家用新冠病毒抗原自我檢測套組,1,2022/05/09 11:10:02,自2／11日~2／29日，營業日07:40~18:00為販賣口罩時間，售完為止
5907280036,七賢藥局,高雄市鹽埕區七賢三路１６２號１樓,120.2829,22.62712,(07)5330616,羅氏家用新冠病毒抗原自我檢測套組,78,2022/05/09 11:10:02,快篩實名制，每天16:00開始販售，售完為止。
5907290354,文昇藥局,高雄市鼓山區慶豐街１２５號,120.2942,22.66724,(07)5525314,羅氏家用新冠病毒抗原自我檢測套組,51,2022/05/09 11:10:02,無
5907300168,金元藥局,高雄市左營區重愛路２２０號,120.3156,22.68562,(07)3458378,羅氏家用新冠病毒抗原自我檢測套組,2,2022/05/09 11:10:02,快篩試劑郵差配送，約10點至11點左右會送到藥局，即開始販售，星期四，六營業時間至中午12點
5907300506,躍獅祐恩藥局,高雄市左營區明華一路１３２號１樓,120.3073,22.66307,(07)5508706,羅氏家用新冠病毒抗原自我檢測套組,36,2022/05/09 11:10:02,到貨時間不固定，到貨會FB通知並立即販售，售完為止~
5907300686,左營自由藥局,高雄市左營區自由二路３５０、３５０－１號,120.3091,22.66599,(07)5589991,羅氏家用新冠病毒抗原自我檢測套組,78,2022/05/09 11:10:02,快篩實名制，每天16:00開始販售，售完為止。
5907300800,元大藥師健保藥局,高雄市左營區榮德街３２７號,120.3211,22.68636,(07)3507531,羅氏家用新冠病毒抗原自我檢測套組,23,2022/05/09 11:10:02,無
5907300882,得孚社區藥局,高雄市左營區重立路５３３號１樓,120.3098,22.67955,(07)3410121,羅氏家用新冠病毒抗原自我檢測套組,2,2022/05/09 11:10:02,營業日上午09:30-11:30為販賣快篩時間.三四下午200-400販售
5907300980,大路藥局,高雄市左營區左營大路５５－２號１樓,120.2877,22.6813,(07)5851001,羅氏家用新冠病毒抗原自我檢測套組,78,2022/05/09 11:10:02,快篩實名制，每天16:00開始販售，售完為止。
5907310020,德民藥局,高雄市楠梓區德民路９１１號,120.2897,22.72085,(07)3630805,羅氏家用新冠病毒抗原自我檢測套組,78,2022/05/09 11:10:02,營業日星期一至星期六上午11:00~13:00銷售快篩實名制.售完為止，週日公休
5907310262,大樹楠梓藥局,高雄市楠梓區軍校路９０８號,120.2919,22.71246,(07)3632322,羅氏家用新冠病毒抗原自我檢測套組,78,2022/05/09 11:10:02,快篩實名制，每天16:00開始販售，售完為止。
5907310388,宸實藥局,高雄市楠梓區後昌路４７巷２３－１號,120.3129,22.71975,(07)3642142,羅氏家用新冠病毒抗原自我檢測套組,20,2022/05/09 11:10:02,5／9（一）10:30，W1星期一 ~ W5星期五（10:30開賣）。W6星期六（9:00開賣）。貨運時間尚未穩定請以快篩地圖公告為準。
5907310404,藍田藥局,高雄市楠梓區藍田路１號,120.2953,22.72643,(07)3601236,羅氏家用新冠病毒抗原自我檢測套組,78,2022/05/09 11:10:02,快篩實名制，每天16:00開始販售，售完為止。
5907320375,聖一健保藥局,高雄市三民區鼎山街３６３號,120.322,22.65771,(07)3959300,羅氏家用新冠病毒抗原自我檢測套組,67,2022/05/09 11:10:02,無
5907320768,心樂保健藥局,高雄市三民區光裕路７８號１樓,120.3331,22.63789,(07)3855377,羅氏家用新冠病毒抗原自我檢測套組,2,2022/05/09 11:10:02,星期一到星期四上午8:30-12:00（快篩售完為止）. 星期五下午14:00-17:00（售完為止）
5907320811,力生藥局,高雄市三民區鼎中路１６８號１樓,120.3194,22.6622,(07)3105231,羅氏家用新冠病毒抗原自我檢測套組,75,2022/05/09 11:10:02,營業日星期一~星期五11點起、星期六~星期日晚上6點 開始販賣（實名制快篩）.售完為止
5907321005,諾亞藥局,高雄市三民區鼎華路１４號１樓,120.3164,22.65139,(07)3929966,羅氏家用新冠病毒抗原自我檢測套組,5,2022/05/09 11:10:02,快篩早上10:00開始，營業時間:（一-五）早上8:00-12:00，下午02:30-6:00（五-下午5:30休息，六-開上午半天，日-休息）
5907321041,鼎安健保藥局,高雄市三民區鼎中路４１８號１樓,120.3199,22.66719,(07)3509939,羅氏家用新冠病毒抗原自我檢測套組,1,2022/05/09 11:10:02,無
5907321069,桂林活力藥局九如店,高雄市三民區懷安街１１２號１樓,120.3176,22.64095,(07)3981009,羅氏家用新冠病毒抗原自我檢測套組,78,2022/05/09 11:10:02,每天15:30發號碼牌，於18:00前兌換完畢，逾期棄權，剩餘則繼續發放
5907321078,振源藥局,高雄市三民區熱河一街３５５號１樓,120.3061,22.64365,(07)3112541,羅氏家用新冠病毒抗原自我檢測套組,11,2022/05/09 11:10:02,4／30起15:00開始販售快篩，六日皆有營業
5907321103,自由藥局,高雄市三民區自由一路７８號,120.3089,22.64422,(07)3223113,羅氏家用新冠病毒抗原自我檢測套組,78,2022/05/09 11:10:02,快篩實名制，每天16:00開始販售，售完為止。
5907350177,佳康藥局,高雄市苓雅區建國一路３３４號,120.3247,22.63293,(07)2266685,羅氏家用新冠病毒抗原自我檢測套組,58,2022/05/09 11:10:02,快篩代售時間:一至四13:00-21:00、五六9:00-16:30
5907350551,大樹武廟藥局,高雄市苓雅區武廟路４３、４５號１樓,120.3314,22.63005,(07)7222268,羅氏家用新冠病毒抗原自我檢測套組,78,2022/05/09 11:10:02,快篩實名制，每天16:00開始販售，售完為止。
5907350631,三多藥局,高雄市苓雅區三多二路２９２號１樓,120.3173,22.61838,(07)3365889,羅氏家用新冠病毒抗原自我檢測套組,78,2022/05/09 11:10:02,快篩實名制，每天16:00開始販售，售完為止。
5907360664,忠純藥局,高雄市前鎮區中華五路１００９號１樓,120.3056,22.60341,(07)3366886,羅氏家用新冠病毒抗原自我檢測套組,78,2022/05/09 11:10:02,快篩實名制，每天16:00開始販售，售完為止。
5907360673,前鎮大樹藥局,高雄市前鎮區瑞隆路４７２號１樓,120.3291,22.60547,(07)7137171,羅氏家用新冠病毒抗原自我檢測套組,78,2022/05/09 11:10:02,快篩實名制，每天16:00開始販售，售完為止。
5907380264,大樹孔鳳藥局,高雄市小港區孔鳳路５１９、５２１號,120.3587,22.5828,(07)7918521,羅氏家用新冠病毒抗原自我檢測套組,78,2022/05/09 11:10:02,快篩實名制，每天16:00開始販售，售完為止。
5907380424,大樹小港藥局,高雄市小港區康莊路７５號１樓,120.3559,22.56853,(07)8068328,羅氏家用新冠病毒抗原自我檢測套組,78,2022/05/09 11:10:02,快篩實名制，每天16:00開始販售，售完為止。
5911011638,中正藥局,基隆市中正區新豐街３８５號１、２樓,121.7856,25.13537,(02)24690660,羅氏家用新冠病毒抗原自我檢測套組,77,2022/05/09 11:10:02,快篩實名制，每天16:00開始販售，售完為止。
5911021170,康蘋藥局,基隆市七堵區開元路５９－２號２樓,121.7139,25.09623,(02)24558150,羅氏家用新冠病毒抗原自我檢測套組,78,2022/05/09 11:10:02,快篩試劑週一至週五14 :30週六13:00週日07:30開賣，現場排隊
5911021438,正心藥局,基隆市七堵區南興路１０號１樓,121.7149,25.09755,(02)24563378,羅氏家用新冠病毒抗原自我檢測套組,78,2022/05/09 11:10:02,每日限量78盒， 星期一~六下午13:30發號碼牌，14:00開始販賣，星期日上午9:00發號碼牌，9:30開始販賣，12:00停止領取
5911030026,欣華藥局,基隆市暖暖區源遠路１９７號,121.7517,25.09843,(02)24576741,羅氏家用新冠病毒抗原自我檢測套組,39,2022/05/09 11:10:02,10
5911040273,第一藥局,基隆市仁愛區愛三路１２０號３樓,121.7436,25.12963,(02)24292288,羅氏家用新冠病毒抗原自我檢測套組,79,2022/05/09 11:10:02,快篩試劑每天下午12點發號碼牌，12點20分到14點販售
5911051409,順豐藥局,基隆市中山區中華路４號,121.7388,25.14545,(02)24369176,羅氏家用新冠病毒抗原自我檢測套組,78,2022/05/09 11:10:02,家用快篩每日下午2點起隨到隨領售完為止。
5911051481,仁登藥局,基隆市中山區復興路１２２號,121.7262,25.14453,(02)24375789,羅氏家用新冠病毒抗原自我檢測套組,1,2022/05/09 11:10:02,無
5911071590,基隆藥局,基隆市信義區東信路１６６、１６８號１、２樓,121.7646,25.12821,(02)24680955,羅氏家用新冠病毒抗原自我檢測套組,78,2022/05/09 11:10:02,快篩實名制，每天16:00開始販售，售完為止。
5912012120,仁美藥局,新竹市東區振興里振興路５２號,120.9625,24.79493,(03)5625398,羅氏家用新冠病毒抗原自我檢測套組,78,2022/05/09 11:10:02,週一~週六晚上六點販售（週日店休）不發號碼牌!請不要問我要幾點排隊，我不是九天玄女!盡量不打電話，感恩!!
5912013529,新莊藥局,新竹市東區光復路１段４７３號１樓,121.015,24.78421,(03)5634775,羅氏家用新冠病毒抗原自我檢測套組,78,2022/05/09 11:10:02,週日早上7點
5912013654,七二八藥局,新竹市東區明湖路１２４５號１樓,120.979,24.76774,(03)5200530,羅氏家用新冠病毒抗原自我檢測套組,1,2022/05/09 11:10:02,5／8政府快篩，已經售完。5／9政府快篩，12:30開始販售。
5912013672,關東藥局,新竹市東區光復路１段３３２、３３４號１至２樓,121.0187,24.78289,(03)5777077,羅氏家用新冠病毒抗原自我檢測套組,78,2022/05/09 11:10:02,快篩實名制，每天16:00開始販售，售完為止。
5912013681,仁春藥局,新竹市東區慈濟路２５２號１樓,121.0153,24.79245,(03)6686718,羅氏家用新冠病毒抗原自我檢測套組,78,2022/05/09 11:10:02,5／9實名制快篩 於16:00開始販售
5912042235,均祐健康藥局,新竹市北區境福里１５鄰中正路３８９號１樓,120.961,24.81546,(03)5325369,羅氏家用新冠病毒抗原自我檢測套組,13,2022/05/09 11:10:02,口罩販售時間：09:00
5912042404,豐盛藥局,新竹市北區光華二街３５號,120.9747,24.81816,(03)5335651,羅氏家用新冠病毒抗原自我檢測套組,15,2022/05/09 11:10:02,實名制快篩:早上9點開始發號碼牌，13-22點領取快篩
5912051350,高晟藥師藥局,新竹市香山區大庄路59號,120.9279,24.78964,(03)5306645,羅氏家用新冠病毒抗原自我檢測套組,78,2022/05/09 11:10:02,下午2點銷售快篩
5917011945,正三吉藥局,臺中市中區臺灣大道一段９５號,120.6831,24.13911,(04)22207700,羅氏家用新冠病毒抗原自我檢測套組,78,2022/05/09 11:10:02,快篩販售時間 14:00~17:00
5917021718,中大藥局,臺中市東區十甲路５０５號,120.7109,24.14466,(04)22131348,羅氏家用新冠病毒抗原自我檢測套組,3,2022/05/09 11:10:02,無
5917030520,林西藥局,臺中市西區向上路一段４６－１號,120.6661,24.14688,(04)23014023,羅氏家用新冠病毒抗原自我檢測套組,10,2022/05/09 11:10:02,每日早上9點開始依序當場領口罩，售完為止。
5917030646,華隆藥局,臺中市西區樂群街６之２號,120.6735,24.14025,(04)22243785,羅氏家用新冠病毒抗原自我檢測套組,17,2022/05/09 11:10:02,上午09:00開始販售快篩試劑，售完為止
5917030726,元泉藥局,臺中市西區公益里中美街２５７號,120.6601,24.14874,(04)23015503,羅氏家用新冠病毒抗原自我檢測套組,9,2022/05/09 11:10:02,固定週一至週六早上8:30開始販售口罩.售完為止
5917032220,匯康藥局,臺中市西區向上路一段二七七號一樓,120.6585,24.14651,(04)23014038,羅氏家用新冠病毒抗原自我檢測套組,21,2022/05/09 11:10:02,週一至週六早上09:30開始販售至口罩售完為止
5917032462,名亨藥局,臺中市西區五權路２９號１樓,120.6696,24.14423,(04)22201089,羅氏家用新冠病毒抗原自我檢測套組,7,2022/05/09 11:10:02,每日上午8:20至12，下午3至6時販售.周 日  . 周 六    下 午 休 息 .
5917032471,銘津藥局,臺中市西區民生路３９０號１樓,120.6611,24.14444,(04)23021314,羅氏家用新冠病毒抗原自我檢測套組,22,2022/05/09 11:10:02,每日上午10:00至13:00，下午3:00至21:00 現場排隊，星期日下午休息
5917032739,婕康藥妝藥局,臺中市西區民生路１５９號１樓,120.671,24.14272,(04)22298777,羅氏家用新冠病毒抗原自我檢測套組,13,2022/05/09 11:10:02,每日下午3-5點 當場販售口罩
5917032908,佑恩藥師藥局,臺中市西區精誠路６７號１樓,120.6553,24.15224,(04)23100058,羅氏家用新冠病毒抗原自我檢測套組,7,2022/05/09 11:10:02,實名制快篩周一到周六，早上9:00，周日下午2:10開始販賣
5917050577,東生藥局,臺中市北區永興街１１２－１號１樓,120.6825,24.16152,(04)22358880,羅氏家用新冠病毒抗原自我檢測套組,7,2022/05/09 11:10:02,周一到周六上午8:30到晚上10:00開始販售口罩，周日公休
5917051449,格霖大藥局,臺中市北區山西路二段７０號１樓,120.6758,24.1689,(04)22925076,羅氏家用新冠病毒抗原自我檢測套組,6,2022/05/09 11:10:02,早上10點-晚上9點
5917053514,學士藥局,臺中市北區學士路１３號之１樓,120.6823,24.15372,(04)22015008,羅氏家用新冠病毒抗原自我檢測套組,61,2022/05/09 11:10:02,固定周一到周日，早上09:50開始發放號碼牌及販賣快篩
5917053550,嘉樂藥局,臺中市北區西屯路一段３５１－７號,120.6658,24.15956,(04)23263967,羅氏家用新冠病毒抗原自我檢測套組,16,2022/05/09 11:10:02,星期一~五8.30~12.30，14.00~21.30，星期六8.30-12.30
5917063681,東亞永福藥局,臺中市西屯區永福路３５號,120.6196,24.18259,(04)24638229,羅氏家用新冠病毒抗原自我檢測套組,12,2022/05/09 11:10:02,實名制快篩上午十一點開賣
5917063725,永旭大藥局,臺中市西屯區逢甲路９２號１樓,120.6439,24.17883,(04)27087952,羅氏家用新冠病毒抗原自我檢測套組,14,2022/05/09 11:10:02,5／6起實名快篩，星期一到五早上10點開始，星期六日中午12點開始排隊販售。
5917070248,聯發藥局,臺中市南屯區溝墘里大墩路８５０號,120.6496,24.15551,(04)23262738,羅氏家用新冠病毒抗原自我檢測套組,3,2022/05/09 11:10:02,週一至周六早上十點開賣，以現場數量為主，售完為止。販售時間忙碌，恕無法接聽電話，請見諒。
5917072242,政豐大愛藥局,臺中市南屯區大業路１４５、１４７號１樓,120.6516,24.15344,(04)23274726,羅氏家用新冠病毒抗原自我檢測套組,75,2022/05/09 11:10:02,因貨運問題，再另行通知
5917072313,大業藥局,臺中市南屯區大業路５７１號１樓,120.6361,24.15347,(04)22516715,羅氏家用新冠病毒抗原自我檢測套組,32,2022/05/09 11:10:02,週一至週六早上10點  快篩試劑開賣
5917080262,寶麒藥局,臺中市北屯區旅順路２段１５０號,120.6895,24.174,(04)22433918,羅氏家用新冠病毒抗原自我檢測套組,78,2022/05/09 11:10:02,周一~周日每天下午1:00開始販售實名制快篩試劑，售完為止。
5917080744,早安藥局,臺中市北屯區崇德二路一段１９９號１樓,120.693,24.17641,(04)22439411,羅氏家用新冠病毒抗原自我檢測套組,6,2022/05/09 11:10:02,5月起周一至周六09:00開始販售快篩試劑。周日休息
5917080762,順泰大藥局,臺中市北屯區北屯村北屯路１１５號,120.6939,24.165,(04)22341477,羅氏家用新冠病毒抗原自我檢測套組,2,2022/05/09 11:10:02,周三及周日公休，其餘時間每日上午9:00開賣，不需發號碼牌
5917082300,蔡宗耀中西藥局,臺中市北屯區平德里河北路２段６１號,120.6831,24.16994,(04)22341880,羅氏家用新冠病毒抗原自我檢測套組,12,2022/05/09 11:10:02,早上9點30分至下午12點30分，下午3點至8點發口罩，有發號碼牌。
5917082364,慈慧藥師藥局,臺中市北屯區平田里昌平路１段１７８號１Ｆ,120.6887,24.17108,(04)22389846,羅氏家用新冠病毒抗原自我檢測套組,19,2022/05/09 11:10:02,星期一到星期日早上9點開始販售，5／6已販售完
5917083209,崇德啄木鳥藥局,臺中市北屯區崇德路二段２１７號,120.6852,24.17423,(04)22410441,羅氏家用新冠病毒抗原自我檢測套組,7,2022/05/09 11:10:02,每天早上8點40分發放號碼牌發售口罩，當天領取。
5917083343,豋盛藥局,臺中市北屯區北平路三段１０７號,120.6827,24.17117,(04)22373863,羅氏家用新冠病毒抗原自我檢測套組,20,2022/05/09 11:10:02,實名制快篩販賣時間:5／9日上午10點開賣
5921012049,小太陽藥局,臺南市東區東光里東平路１３號,120.2336,22.9947,(06)2099858,羅氏家用新冠病毒抗原自我檢測套組,5,2022/05/09 11:10:02,藥局營業時間為星期一至星期六10:00~21:30，星期天休息  實名制快篩試劑10:00開始販售，售完為止
5921021851,海山藥局,臺南市南區新興路４００號,120.1881,22.97514,(06)2617788,羅氏家用新冠病毒抗原自我檢測套組,62,2022/05/09 11:10:02,實名制快篩代售:AM11:00~售完（一人一卡限購一份，請自備零錢）**星期日無代售**
5921040221,好鄰居藥局,臺南市北區西華里公園路１２８號２樓７室,120.2076,22.99889,(06)2219015,羅氏家用新冠病毒抗原自我檢測套組,2,2022/05/09 11:10:02,固定星期一至星期六8:30開始販賣快篩，星期天早上9:00開始販賣快篩
5921050076,千代藥局,臺南市中西區民生路一段６０號１樓,120.2034,22.99337,(06)2256895,羅氏家用新冠病毒抗原自我檢測套組,66,2022/05/09 11:10:02,快篩試劑實名制:星期1~6下午一點至三點販售（星期日當日貨到開始販售）
5921050138,金德藥局,臺南市中西區府前路１段３３號,120.2108,22.98881,(06)2149082,羅氏家用新冠病毒抗原自我檢測套組,1,2022/05/09 11:10:02,星期一-日08:00-23:00
5921060198,平光藥局,臺南市安南區安中路１段８２２號,120.1947,23.0437,(06)2459641,羅氏家用新冠病毒抗原自我檢測套組,15,2022/05/09 11:10:02,快篩 早上 10:30 開店起 販售 周日不賣快篩
5921071226,康活藥局,臺南市安平區健康三街１８６號,120.1686,22.98883,(06)2936483,羅氏家用新冠病毒抗原自我檢測套組,4,2022/05/09 11:10:02,快篩晚上18:00開賣.
5922010263,秉榮藥局,嘉義市東區東仁里中山路１８９號,120.4553,23.48162,(05)2224320,羅氏家用新冠病毒抗原自我檢測套組,44,2022/05/09 11:10:02,周一至周日販售實名制快篩，5／9（一）起早上11:00開始販售
5922010361,壽生堂藥局,嘉義市東區府路里延平街２８０號,120.4502,23.47683,(05)2225058,羅氏家用新冠病毒抗原自我檢測套組,19,2022/05/09 11:10:02,周一至周日上午09:00起，至20:00或售鑿為止。
5922012721,仁藥集藥局,嘉義市東區太平里新生路５３９號,120.4582,23.49167,(05)2755533,羅氏家用新冠病毒抗原自我檢測套組,78,2022/05/09 11:10:02,8:30-11:00收健保卡，14:00發快篩
5922012856,民族弘安藥局,嘉義市東區朝陽里民族路１６５號,120.4571,23.47653,(05)2240101,羅氏家用新冠病毒抗原自我檢測套組,3,2022/05/09 11:10:02,周一至周日快篩到貨開始販售快篩，至售完為止.
5922012972,百佑藥局,嘉義市東區公明路８２號１樓,120.4602,23.48088,(05)2757387,羅氏家用新冠病毒抗原自我檢測套組,3,2022/05/09 11:10:02,固定周一至周六08:30開始*貨運*來才發放號碼牌並依序販售，售完為止
5922013102,後庄藥局,嘉義市東區吳鳳南路６４９號,120.4594,23.45511,(05)2391233,羅氏家用新冠病毒抗原自我檢測套組,78,2022/05/09 11:10:02,快篩實名制，每天16:00開始販售，售完為止。
5922013111,富善藥局,嘉義市東區新生路２３４號,120.4609,23.48419,(05)2759559,羅氏家用新冠病毒抗原自我檢測套組,53,2022/05/09 11:10:02,5／13、14休假，實名制快篩早上9:10-12:00下午3:10-5:00
5922013120,大雅藥局,嘉義市東區大雅路二段４８７號,120.4714,23.47751,(05)2778237,羅氏家用新冠病毒抗原自我檢測套組,37,2022/05/09 11:10:02,有提前收到快篩就9:30營業就發 沒提前收到就依當天到貨時間發
5922013157,軍輝健康幸福藥局,嘉義市東區軍輝路１９２號,120.46,23.45571,(05)2395789,羅氏家用新冠病毒抗原自我檢測套組,16,2022/05/09 11:10:02,無
5922020125,照安藥局,嘉義市西區福全里博愛路２段３６１號,120.435,23.47573,(05)2332883,羅氏家用新冠病毒抗原自我檢測套組,43,2022/05/09 11:10:02,口罩代售時間於08：00開始販售；現場。
5922020358,泰春藥局,嘉義市西區學圃里民生北路６６號,120.4468,23.47543,(05)2224118,羅氏家用新冠病毒抗原自我檢測套組,14,2022/05/09 11:10:02,快篩試劑販售時間：早上9點至晚上9點
5922020376,勝華藥局,嘉義市西區垂楊路６２３號,120.4375,23.4726,(05)2856642,羅氏家用新冠病毒抗原自我檢測套組,1,2022/05/09 11:10:02,週一至週六早上 8:00開始販售快篩試劑.週日休息.
5922020527,友愛藥局,嘉義市西區福全里友愛路１７０號,120.4343,23.48026,(05)2330599,羅氏家用新冠病毒抗原自我檢測套組,17,2022/05/09 11:10:02,快篩實名制早上10點開始販售
5922020563,信康藥局,嘉義市西區翠岱里仁愛路２２６號,120.443,23.46984,(05)2161680,羅氏家用新冠病毒抗原自我檢測套組,39,2022/05/09 11:10:02,快篩星期一至星期五早上10:00開賣 星期六下午14:00開賣
5922020858,大統藥局,嘉義市西區慶安里北興街１３６號,120.4421,23.48389,(05)2330230,羅氏家用新冠病毒抗原自我檢測套組,57,2022/05/09 11:10:02,5月9日預約登記已滿.有預約的民眾請於上午9:00-12:00領取
5922020983,睿安藥局,嘉義市西區八德路２７８號１樓,120.4303,23.49014,(05)2910678,羅氏家用新冠病毒抗原自我檢測套組,16,2022/05/09 11:10:02,快篩賣完為止 自備500元不找零 周一到六 中午12點-下午2點半休息 周日休息
5922020992,昭安藥局,嘉義市西區民生南路４７９號１樓,120.4437,23.45821,(05)2842240,羅氏家用新冠病毒抗原自我檢測套組,14,2022/05/09 11:10:02,無
5922028783,勝成藥局,嘉義市西區南京路１２６巷１９號,120.4406,23.45687,(05)2360247,羅氏家用新冠病毒抗原自我檢測套組,31,2022/05/09 11:10:02,4月28日起9:30至12:00販賣快篩試劑，請於現場排隊，售完為止
5922028863,益生堂藥局,嘉義市西區杭州三街３０號,120.4446,23.46678,(05)2861415,羅氏家用新冠病毒抗原自我檢測套組,13,2022/05/09 11:10:02,平日（W一~W六）10:30
592202A054,萬泰藥師藥局,嘉義市西區民族路４９４號,120.449,23.47605,(05)2168605,羅氏家用新冠病毒抗原自我檢測套組,2,2022/05/09 11:10:02,快篩實名制8:00開始販售
5931010315,優良藥局,新北市板橋區莊敬路９３號,121.4727,25.02628,(02)22550251,羅氏家用新冠病毒抗原自我檢測套組,1,2022/05/09 11:10:02,無
5931010342,宏達大藥局,新北市板橋區莒光路１７號,121.47,25.02478,(02)22572345,羅氏家用新冠病毒抗原自我檢測套組,156,2022/05/09 11:10:02,快篩 晚上20:00開始販售! 不要打電話來 問題這麼多就到現場 也不給你問
5931010646,人民藥局,新北市板橋區仁愛路５９號,121.4604,24.99965,(02)89533956,羅氏家用新冠病毒抗原自我檢測套組,1,2022/05/09 11:10:02,1.依政府規定當日配送，當日販售。2.因每日郵局配送時間不一定，詳看現場公告。.
5931010842,大福藥局,新北市板橋區三民路１段３１巷１５號,121.48,25.02326,(02)29610311,羅氏家用新冠病毒抗原自我檢測套組,32,2022/05/09 11:10:02,每週一至周六13:30開始販售實名制快篩試劑，週日無販售
5931011009,祥聖藥局,新北市板橋區溪崑二街１１２巷３５弄１號,121.4253,24.98921,(02)26835677,羅氏家用新冠病毒抗原自我檢測套組,78,2022/05/09 11:10:02,實名制快篩劑 5／9~5／14下午1:30販售（週日休息）。現場排隊購買，不發號碼牌。以上資訊正確請勿電話追問
5931011045,進發大藥局,新北市板橋區民治街１０１號,121.479,25.0315,(02)22528361,羅氏家用新冠病毒抗原自我檢測套組,1,2022/05/09 11:10:02,快篩08:00先收卡，排隊請不要擋到攤販，中午就可以領，開放80歲長者前天寄卡，謝謝。
5931011223,民侑藥局,新北市板橋區大觀路２段３７巷３１０號,121.45,25.00221,(02)22755938,羅氏家用新冠病毒抗原自我檢測套組,4,2022/05/09 11:10:02,快篩號碼牌發放時間為早上9點。12點前須拿號碼牌完成購買。
5931012131,中山大藥局,新北市板橋區中山路１段１０７號,121.4618,25.01025,(02)29575029,羅氏家用新冠病毒抗原自我檢測套組,5,2022/05/09 11:10:02,口罩配發時間.星期一~六早上9點開始.星期日下午1點開始
5931012239,信昌藥局,新北市板橋區三民路２段２０２－９號,121.4789,25.0142,(02)29510784,羅氏家用新冠病毒抗原自我檢測套組,60,2022/05/09 11:10:02,防疫快篩依據每天到貨時間，另行公告
5931013389,谷全藥局,新北市板橋區裕民街４９號,121.4613,25.02851,(02)22561856,羅氏家用新冠病毒抗原自我檢測套組,3,2022/05/09 11:10:02,無
5931013781,佳和藥局,新北市板橋區文化路１段３８７巷５號１樓,121.4667,25.02193,(02)22589598,羅氏家用新冠病毒抗原自我檢測套組,38,2022/05/09 11:10:02,快篩週一 至五均分早上8:30 和下午3:00販售- 週六早上售完為止. 週日休
5931014046,欣安藥局,新北市板橋區懷德街１０９號１樓,121.4786,25.03147,(02)82570296,羅氏家用新冠病毒抗原自我檢測套組,16,2022/05/09 11:10:02,目前快篩送貨時間不定，發放時間依現場公告為主。
5931014420,萬泰藥局,新北市板橋區信義路２２１之１號,121.4597,24.99145,(02)89645570,羅氏家用新冠病毒抗原自我檢測套組,78,2022/05/09 11:10:02,無
5931014831,詠濟藥局,新北市板橋區幸福路２３號,121.4618,25.02023,(02)22536951,羅氏家用新冠病毒抗原自我檢測套組,1,2022/05/09 11:10:02,無
5931015687,正康健保藥局,新北市板橋區大觀路２段６５號１樓,121.4467,25.00246,(02)22756681,羅氏家用新冠病毒抗原自我檢測套組,152,2022/05/09 11:10:02,下午13:30依現場順序開始販售快篩，快篩配送絮亂庫存不準!!
5931016273,湯明藥局,新北市板橋區中山路２段３１９號１樓,121.479,25.01866,(02)29571980,羅氏家用新冠病毒抗原自我檢測套組,68,2022/05/09 11:10:02,週一到週五 下午四點  六日時間未定 排隊不發號碼
5931016611,民川藥局,新北市板橋區四川路１段９７號１樓,121.4598,25.00544,(02)29520090,羅氏家用新冠病毒抗原自我檢測套組,40,2022/05/09 11:10:02,星期一~星期六（快篩上午9:00販售38份下午3:00販售40份）
5931016808,正安健保藥局,新北市板橋區民族路２２４號（１樓）,121.4687,25.00733,(02)29526813,羅氏家用新冠病毒抗原自我檢測套組,70,2022/05/09 11:10:02,17時依現場順序開始販售.週六12點.電腦配送庫存不準..以現場數量為準
5931017010,醫安藥局,新北市板橋區南雅南路１段１１號１樓及２樓,121.4565,25.00706,(02)29692588,羅氏家用新冠病毒抗原自我檢測套組,72,2022/05/09 11:10:02,週日休，下午3點開始販售，依現場排隊為主
5931017092,康橋藥局,新北市板橋區文化路１段２７３號,121.4646,25.01848,(02)22532560,羅氏家用新冠病毒抗原自我檢測套組,78,2022/05/09 11:10:02,快篩試劑 每天下午2點販售 售完為止 周日公休
5931017261,正康新埔藥局,新北市板橋區介壽街４號（１樓）,121.467,25.02025,(02)82595882,羅氏家用新冠病毒抗原自我檢測套組,77,2022/05/09 11:10:02,下午2:30依現場順序開始販售快篩。週日無快篩!
5931017618,新埔健保藥局,新北市板橋區自由路２號１樓,121.4654,25.02222,(02)22558878,羅氏家用新冠病毒抗原自我檢測套組,62,2022/05/09 11:10:02,無
5931017752,泓泰藥局,新北市板橋區館前西路１４０號２樓,121.4563,25.0081,(02)29686559,羅氏家用新冠病毒抗原自我檢測套組,55,2022/05/09 11:10:02,無
5931017789,明翠藥局,新北市板橋區四維路１４６、１４８號１、２樓,121.4651,25.02555,(02)22550201,羅氏家用新冠病毒抗原自我檢測套組,78,2022/05/09 11:10:02,快篩實名制，每天16:00開始販售，售完為止。
5931017869,躍獅國慶藥局,新北市板橋區國慶路１７９號（１樓）,121.4626,24.99636,(02)29641548,羅氏家用新冠病毒抗原自我檢測套組,78,2022/05/09 11:10:02,快篩實名制，每天14:00開始販售，售完為止
5931017967,曉品中西藥局,新北市板橋區貴興路２４號（１樓）,121.4575,25.00389,(02)29586990,羅氏家用新冠病毒抗原自我檢測套組,4,2022/05/09 11:10:02,無
5931017994,後埔藥局,新北市板橋區華興街９號（１樓）,121.459,25.00457,(02)89510306,羅氏家用新冠病毒抗原自我檢測套組,78,2022/05/09 11:10:02,5／8 快篩試劑今日已完售*確保作業流暢請自備500元*每天 78 份晚上10 點以前領取完畢（過卡時間差異剩餘數量僅供參考）
5931018053,廣福健保藥局,新北市板橋區三民路１段７６號（１樓）,121.4793,25.02207,(02)29544288,羅氏家用新冠病毒抗原自我檢測套組,76,2022/05/09 11:10:02,實名制快篩每日下午16:00開始販售
5931020400,新迪化中西藥局,新北市三重區三陽路２７號１樓,121.4855,25.05893,(02)29884755,羅氏家用新冠病毒抗原自我檢測套組,2,2022/05/09 11:10:02,快篩實名制中午12點開始販售，發號碼牌
5931020473,天佑藥局,新北市三重區大同北路８號,121.4954,25.06207,(02)29857456,羅氏家用新冠病毒抗原自我檢測套組,7,2022/05/09 11:10:02,無
5931020562,力健藥局,新北市三重區自強路３段３８號,121.4868,25.07266,(02)29856255,羅氏家用新冠病毒抗原自我檢測套組,4,2022/05/09 11:10:02,無
5931021532,龍門藥局,新北市三重區龍門路１８９號,121.4996,25.07322,(02)29756141,羅氏家用新冠病毒抗原自我檢測套組,78,2022/05/09 11:10:02,實名制快篩販售時間~星期一至星期六下午3點
5931023447,安泰藥局,新北市三重區正義北路３００－３號２樓,121.4953,25.06978,(02)89815379,羅氏家用新冠病毒抗原自我檢測套組,78,2022/05/09 11:10:02,5／2只有早上8:30--12:00營業下午.及晚上休息
5931023527,德慈藥局,新北市三重區重新路３段１６號１樓,121.4951,25.06138,(02)29736693,羅氏家用新冠病毒抗原自我檢測套組,72,2022/05/09 11:10:02,快篩試劑販售時間自每日13:00開始
5931024426,甜心健康生活藥局,新北市三重區福祉里集美街４５號１樓,121.488,25.05542,(02)29762223,羅氏家用新冠病毒抗原自我檢測套組,19,2022/05/09 11:10:02,無
5931024971,欽勝藥局,新北市三重區重陽路４段６號２樓,121.4906,25.06894,(02)29857389,羅氏家用新冠病毒抗原自我檢測套組,1,2022/05/09 11:10:02,販售快篩需現場排隊，無預約無號碼牌，販售時間15:00。
5931025263,鴻泰健保藥局,新北市三重區重新路１段９５號１樓,121.5009,25.06343,(02)29769055,羅氏家用新冠病毒抗原自我檢測套組,77,2022/05/09 11:10:02,每月第一個周日固定公休，防疫快篩下午兩點販售，現場排隊購買不預留
5931025398,昌誠藥局,新北市三重區三和路４段１６１號１樓,121.4835,25.0785,(02)22876338,羅氏家用新冠病毒抗原自我檢測套組,5,2022/05/09 11:10:02,5／2 （休診）
5931025647,幸康藥局,新北市三重區正義北路２０５號２樓,121.4962,25.0684,(02)29816105,羅氏家用新冠病毒抗原自我檢測套組,17,2022/05/09 11:10:02,國定假日，如元旦，端午，中秋不執行調劑業務。政府快篩實名制於週一~週六的14:30開始販售。
5931025781,芯慈藥局,新北市三重區永安北路２段１０５號１樓,121.4831,25.08392,(02)28570670,羅氏家用新冠病毒抗原自我檢測套組,11,2022/05/09 11:10:02,國定假日有提供藥劑服務
5931025914,仁美藥局,新北市三重區慈愛街５１號１、２樓,121.4861,25.07908,(02)22805150,羅氏家用新冠病毒抗原自我檢測套組,78,2022/05/09 11:10:02,快篩實名制，每天16:00開始販售，售完為止。
5931026055,芮櫟溪尾大藥局,新北市三重區仁愛街５１６號１樓,121.4871,25.08201,(02)22809009,羅氏家用新冠病毒抗原自我檢測套組,5,2022/05/09 11:10:02,無
5931026082,大有藥局,新北市三重區中正北路２１３號１、２樓及２１５號１、２樓,121.4763,25.07013,(02)29885771,羅氏家用新冠病毒抗原自我檢測套組,78,2022/05/09 11:10:02,快篩實名制，每天16:00開始販售，售完為止。
5931026091,重新藥局,新北市三重區重新路４段１２號１樓,121.4888,25.05775,(02)29742700,羅氏家用新冠病毒抗原自我檢測套組,78,2022/05/09 11:10:02,快篩實名制，每天16:00開始販售，售完為止。
5931030531,成功藥局,新北市永和區成功路１段１３３號,121.5269,25.00171,(02)29293622,羅氏家用新冠病毒抗原自我檢測套組,60,2022/05/09 11:10:02,無
5931030639,家宏藥局,新北市永和區成功路２段１２３號,121.5268,24.99845,(02)29256856,羅氏家用新冠病毒抗原自我檢測套組,66,2022/05/09 11:10:02,早上11點營業 周日公休
5931032811,華特健康藥局,新北市永和區永貞路３６２號１樓,121.5102,25.00667,(02)29264391,羅氏家用新冠病毒抗原自我檢測套組,2,2022/05/09 11:10:02,快篩販賣時間13:00-15:00
5931033201,級立健保藥局,新北市永和區保平路１３９號１樓,121.5102,25.00608,(02)29299995,羅氏家用新冠病毒抗原自我檢測套組,78,2022/05/09 11:10:02,快篩代售時間為下午15:00，週日不銷售
5931033461,常安中西藥局,新北市永和區保平路２６號１樓,121.5122,25.00749,(02)29283530,羅氏家用新冠病毒抗原自我檢測套組,5,2022/05/09 11:10:02,每日下午三點開始實名制快篩
5931033676,九州藥局,新北市永和區自由街５號１樓,121.515,25.00699,(02)29226879,羅氏家用新冠病毒抗原自我檢測套組,49,2022/05/09 11:10:02,實名制快篩5月9日週一的到貨，現在開始發售
5931033774,台化藥局,新北市永和區勵行街１１９號１樓,121.5175,25.01202,(02)22318585,羅氏家用新冠病毒抗原自我檢測套組,1,2022/05/09 11:10:02,無
5931034119,仁愛陽光藥局,新北市永和區仁愛路１４３號１樓,121.5114,25.01293,(02)89213691,羅氏家用新冠病毒抗原自我檢測套組,6,2022/05/09 11:10:02,快篩代售時段14:00，售完為止...
5931040402,健星藥局,新北市中和區景平路７５４號,121.4965,25.00456,(02)22403437,羅氏家用新冠病毒抗原自我檢測套組,60,2022/05/09 11:10:02,無
5931041061,裕壬藥局,新北市中和區新生街２０６、２０８號１樓,121.4836,24.99644,(02)32349358,羅氏家用新冠病毒抗原自我檢測套組,46,2022/05/09 11:10:02,快篩採滾動式調整領
5931042326,璟福藥局,新北市中和區安平路７６號１樓,121.511,24.99652,(02)29408669,羅氏家用新冠病毒抗原自我檢測套組,40,2022/05/09 11:10:02,無
5931042371,真成大藥局,新北市中和區光華街３８號,121.5048,25.00389,(02)22447008,羅氏家用新冠病毒抗原自我檢測套組,78,2022/05/09 11:10:02,實名快篩平日 早上9:30發放號碼牌 當日早上10點~12點前領完 週日無販售
5931043234,康荃優生保健藥局,新北市中和區福祥路６６號１樓,121.4994,25.00494,(02)22486532,羅氏家用新冠病毒抗原自我檢測套組,5,2022/05/09 11:10:02,無
5931043430,慶華藥師藥局,新北市中和區華新街９０號１樓,121.5085,24.9832,(02)29420666,羅氏家用新冠病毒抗原自我檢測套組,26,2022/05/09 11:10:02,無
5931043565,一安藥妝藥局,新北市中和區中和路９號１.２樓,121.4998,25.00221,(02)22483778,羅氏家用新冠病毒抗原自我檢測套組,78,2022/05/09 11:10:02,下午3點開始發號碼牌販售快篩
5931043798,永成藥局,新北市中和區景平路１５６號１樓,121.5176,24.99222,(02)29407619,羅氏家用新冠病毒抗原自我檢測套組,78,2022/05/09 11:10:02,實名制快篩，下午三點領取號碼並開始販售（每日78份）
5931043921,良安藥局,新北市中和區連城路４７７巷１號１樓,121.4833,24.99555,(02)22225798,羅氏家用新冠病毒抗原自我檢測套組,8,2022/05/09 11:10:02,週六日不開店，實名制快篩，晚上9:00開始販售
5931044017,幸福連鎖藥局,新北市中和區忠孝街１２２號１樓,121.5122,24.98581,(02)29410771,羅氏家用新冠病毒抗原自我檢測套組,36,2022/05/09 11:10:02,無
5931044419,喬登藥局,新北市中和區景平路６９７號１樓,121.4965,25.00337,(02)22470273,羅氏家用新冠病毒抗原自我檢測套組,65,2022/05/09 11:10:02,無
5931045210,廣來藥師藥局,新北市中和區員山路３９３號１樓,121.4811,25.00293,(02)32340393,羅氏家用新冠病毒抗原自我檢測套組,59,2022/05/09 11:10:02,代為販售實名制快篩，販售時間：每天上午11點到中午12點為止。
5931050444,活元藥局,新北市新店區民族路４９號１樓,121.5403,24.97854,(02)29125526,羅氏家用新冠病毒抗原自我檢測套組,3,2022/05/09 11:10:02,快篩代售時間平日早上10:00開始   星期日休息
5931053169,貳品藥局,新北市新店區新和街７５號１樓,121.5205,24.98612,(02)89418890,羅氏家用新冠病毒抗原自我檢測套組,78,2022/05/09 11:10:02,實名制快篩下午一點半依排隊順序發售
5931053178,長照藥局,新北市新店區如意街１６號１樓,121.4944,24.94838,(02)22153325,羅氏家用新冠病毒抗原自我檢測套組,78,2022/05/09 11:10:02,請注意5／9快篩下午2:00開賣單號 一人一 卡 自備500 （請勿再來電詢問了）現場自主排隊不發號碼牌
5931053196,康心藥局,新北市新店區北新路３段１０４號１樓,121.5419,24.9812,(02)86655858,羅氏家用新冠病毒抗原自我檢測套組,78,2022/05/09 11:10:02,快篩販售：周一~週六，15:00開始（若遇物流延遲則順延），以現場排隊為主
5931053365,十二願藥局,新北市新店區中正路６８２號１樓,121.5341,24.98998,(02)22181899,羅氏家用新冠病毒抗原自我檢測套組,1,2022/05/09 11:10:02,公費快篩每日下午2點販售~ 公費快篩每日下午2點販售
5931053383,大豐藥局,新北市新店區北新路３段５３號之１（１樓）,121.5417,24.9807,(02)89113196,羅氏家用新冠病毒抗原自我檢測套組,78,2022/05/09 11:10:02,每日下午2點發號碼牌同步販售實名制快篩試劑 請自備500元
5931060342,十安藥局,新北市新莊區中港路３１６號,121.4524,25.04544,(02)29922859,羅氏家用新冠病毒抗原自我檢測套組,2,2022/05/09 11:10:02,自111／04／01起不再販賣實名制口罩
5931060557,一安藥局,新北市新莊區立德里新泰路２６８號,121.446,25.04029,(02)29941618,羅氏家用新冠病毒抗原自我檢測套組,45,2022/05/09 11:10:02,實名制快篩發放時間為15:00  其他詳情請上FB查詢
5931060628,錄新藥局,新北市新莊區後港一路７６巷１０弄１號,121.427,25.02604,(02)22051849,羅氏家用新冠病毒抗原自我檢測套組,139,2022/05/09 11:10:02,無
5931067412,幸寧藥局,新北市新莊區福壽街８４巷１２號１樓,121.4588,25.04985,(02)29971150,羅氏家用新冠病毒抗原自我檢測套組,7,2022/05/09 11:10:02,快篩上午8點半開賣
5931068464,健安藥局,新北市新莊區光和里民安西路２０９號１樓,121.4261,25.0147,(02)22043765,羅氏家用新冠病毒抗原自我檢測套組,78,2022/05/09 11:10:02,無
5931068866,大愛藥師藥局,新北市新莊區後港一路６９號１樓,121.4267,25.02666,(02)22042119,羅氏家用新冠病毒抗原自我檢測套組,3,2022/05/09 11:10:02,快篩代售時間自下午2點 現場排隊
593106A388,元大藥局,新北市新莊區富國路２０４號１、２樓,121.4249,25.02427,(02)22020082,羅氏家用新冠病毒抗原自我檢測套組,77,2022/05/09 11:10:02,無
593106A771,新佑康健保藥局,新北市新莊區中華路１段３５號１樓,121.4519,25.03765,(02)29947490,羅氏家用新冠病毒抗原自我檢測套組,78,2022/05/09 11:10:02,無
593106A833,欣國藥局,新北市新莊區富國路５７號１樓、２樓,121.4196,25.02625,(02)29080958,羅氏家用新冠病毒抗原自我檢測套組,7,2022/05/09 11:10:02,每天快篩劑發號碼牌AM09:30販賣AM09:30售完為止
593106A977,丹鳳藥局,新北市新莊區中正路７４５、７４７號（１樓）,121.4227,25.0288,(02)29065755,羅氏家用新冠病毒抗原自我檢測套組,78,2022/05/09 11:10:02,快篩實名制，每天16:00開始販售，售完為止。
593106B036,家嘉藥局,新北市新莊區自立街１０３號（１樓）,121.4553,25.04549,(02)89926488,羅氏家用新冠病毒抗原自我檢測套組,15,2022/05/09 11:10:02,今天號碼牌都已發放完畢
593106B081,平安藥局,新北市新莊區民安西路６０號２樓,121.4273,25.02037,(02)22082368,羅氏家用新冠病毒抗原自我檢測套組,13,2022/05/09 11:10:02,無
593106B287,盛弘藥局,新北市新莊區中平路２９５號１樓,121.4447,25.05099,(02)22763336,羅氏家用新冠病毒抗原自我檢測套組,78,2022/05/09 11:10:02,政府快篩於平日下午13:50發放號碼牌，下午14:00準時販售，假日視政府配量（販售時間相同）
5931070213,明川藥師藥局,新北市樹林區三福街１號,121.4093,25.0169,(02)26894728,羅氏家用新冠病毒抗原自我檢測套組,65,2022/05/09 11:10:02,實名制快篩:早上11:00販售
5931072404,伯安綜合藥局,新北市樹林區中華路１０８號１樓,121.4183,24.98074,(02)86856551,羅氏家用新冠病毒抗原自我檢測套組,37,2022/05/09 11:10:02,初一至初五春節休息
5931072431,樹林大樹藥局,新北市樹林區育英街５４號１－２樓,121.4213,24.98928,(02)26815488,羅氏家用新冠病毒抗原自我檢測套組,78,2022/05/09 11:10:02,快篩實名制，每天16:00開始販售，售完為止。
5931072468,樹林丁丁藥局,新北市樹林區中華路１７４號１樓,121.4208,24.9819,(02)86851518,羅氏家用新冠病毒抗原自我檢測套組,16,2022/05/09 11:10:02,無
5931081510,鶯歌藥局,新北市鶯歌區鶯桃路２段１１號１樓,121.3258,24.97205,(02)86778778,羅氏家用新冠病毒抗原自我檢測套組,78,2022/05/09 11:10:02,快篩實名制，每天16:00開始販售，售完為止。
5931091892,三峽藥局,新北市三峽區介壽路１段２７號１樓,121.3757,24.93321,(02)26738868,羅氏家用新冠病毒抗原自我檢測套組,1,2022/05/09 11:10:02,快篩實名制，每天16:00開始販售，售完為止。
5931092022,瑞達美藥局,新北市三峽區民權街１８０號１樓,121.3678,24.92983,(02)86741627,羅氏家用新冠病毒抗原自我檢測套組,2,2022/05/09 11:10:02,若政府有配送則早上9點10分開始發號碼牌，拿到號碼牌要離開請先寄卡付費，否則視同放棄
5931092200,金美藥局,新北市三峽區大同路２３８號１樓,121.3663,24.92573,(02)86715859,羅氏家用新冠病毒抗原自我檢測套組,2,2022/05/09 11:10:02,無
5931100047,松和大藥局,新北市淡水區英專路９２號,121.4459,25.17167,(02)26203698,羅氏家用新冠病毒抗原自我檢測套組,37,2022/05/09 11:10:02,口罩代售:每週一~每週五10:30發放號碼牌
5931100154,尚運藥局,新北市淡水區學府路５１巷１弄２０號,121.4473,25.16892,(02)26225149,羅氏家用新冠病毒抗原自我檢測套組,27,2022/05/09 11:10:02,無
5931102078,躍獅竹圍藥局,新北市淡水區民生路４６號,121.4617,25.13781,(02)28090565,羅氏家用新冠病毒抗原自我檢測套組,1,2022/05/09 11:10:02,晚上7點販售快篩
5931102103,四季寶健保藥局,新北市淡水區新市一路３段１１７－１號（含夾層）,121.4468,25.18314,(02)26283199,羅氏家用新冠病毒抗原自我檢測套組,2,2022/05/09 11:10:02,無
5931102425,日森人文藥局淡海店,新北市淡水區新市五路３段３８６號１樓,121.4388,25.19728,(02)26221313,羅氏家用新冠病毒抗原自我檢測套組,1,2022/05/09 11:10:02,無
5931112378,翔云大藥局,新北市汐止區祥雲街２號ㄧ１、１樓,121.6459,25.0896,(02)26463119,羅氏家用新冠病毒抗原自我檢測套組,4,2022/05/09 11:10:02,無
5931112645,健成藥局,新北市汐止區新興路２０號１樓,121.6564,25.06456,(02)26428989,羅氏家用新冠病毒抗原自我檢測套組,3,2022/05/09 11:10:02,無
5931120049,本平藥局,新北市瑞芳區瑞芳街４５號,121.8076,25.10913,(02)24972167,羅氏家用新冠病毒抗原自我檢測套組,2,2022/05/09 11:10:02,無
5931121466,瑞芳藥局,新北市瑞芳區明燈路３段５９之１及５９之２號,121.8057,25.10812,(02)24966588,羅氏家用新冠病毒抗原自我檢測套組,78,2022/05/09 11:10:02,快篩實名制，每天16:00開始販售，售完為止。
5931130349,祥發藥局,新北市土城區青雲路２５５號,121.4592,24.9809,(02)22655056,羅氏家用新冠病毒抗原自我檢測套組,76,2022/05/09 11:10:02,快篩周一~周六上午8:點發放號碼牌，下午2點後憑號碼牌購買!週日上午9點現場購買
5931131882,裕達藥局,新北市土城區延吉街１７１號,121.4697,24.98577,(02)22739328,羅氏家用新冠病毒抗原自我檢測套組,5,2022/05/09 11:10:02,下午2點開賣快篩，星期日休息
5931131908,璨鴻藥局,新北市土城區延和路１９１號,121.4692,24.99035,(02)82622588,羅氏家用新冠病毒抗原自我檢測套組,66,2022/05/09 11:10:02,快篩發放時間星期一至五
5931132263,立新藥局,新北市土城區光明街５號１樓,121.4421,24.97475,(02)82626111,羅氏家用新冠病毒抗原自我檢測套組,4,2022/05/09 11:10:02,快篩試劑下午3點開始銷售
5931132343,誠安藥局,新北市土城區中央路４段３６號１樓,121.4207,24.96088,(02)22677737,羅氏家用新冠病毒抗原自我檢測套組,156,2022/05/09 11:10:02,快篩代售時段：平日晚上8點，售完為止
5931132736,大眾藥局,新北市土城區明峰街６巷１號,121.4637,24.98557,(02)22666057,羅氏家用新冠病毒抗原自我檢測套組,65,2022/05/09 11:10:02,快篩販售:11：00-12：30 其餘時段恕不服務
5931132807,健業藥局,新北市土城區中央路２段２２３－１０號,121.4407,24.97312,(02)22704798,羅氏家用新冠病毒抗原自我檢測套組,78,2022/05/09 11:10:02,無
5931133126,成康藥局,新北市土城區學府路１段１８８號１樓,121.4532,24.98614,(02)22706596,羅氏家用新冠病毒抗原自我檢測套組,7,2022/05/09 11:10:02,春節期間看診時段請電洽
5931133331,城安大藥局,新北市土城區金城路３段４０號,121.4656,24.98639,(02)22646561,羅氏家用新冠病毒抗原自我檢測套組,79,2022/05/09 11:10:02,快篩代售時間晚上8:30
5931140372,上群藥師藥局,新北市蘆洲區民族路２８７號１樓,121.4755,25.09096,(02)22898275,羅氏家用新冠病毒抗原自我檢測套組,59,2022/05/09 11:10:02,口罩販賣時間1100-1300
5931141637,華興藥師藥局,新北市蘆洲區中山一路１８４號１樓,121.4739,25.08104,(02)22893899,羅氏家用新冠病毒抗原自我檢測套組,6,2022/05/09 11:10:02,防疫口罩：早上10點直接販售
5931143275,集賢藥局,新北市蘆洲區信義路２２２巷６１號１、２樓,121.4813,25.08535,(02)22882400,羅氏家用新冠病毒抗原自我檢測套組,78,2022/05/09 11:10:02,快篩實名制，每天16:00開始販售，售完為止。
5931151302,宏安藥局,新北市五股區成泰路２段１３６號,121.4382,25.08369,(02)22915932,羅氏家用新冠病毒抗原自我檢測套組,78,2022/05/09 11:10:02,口罩販售時間:每日08:15~23:00售完為止 星期日如果前一日還有庫存，當日照常販售
5931151660,祐康藥師藥局,新北市五股區五福路３６號１樓,121.4339,25.08922,(02)82921335,羅氏家用新冠病毒抗原自我檢測套組,2,2022/05/09 11:10:02,無
5931151713,五股藥局,新北市五股區成泰路１段２３５之２號（１樓）,121.4363,25.07968,(02)22951150,羅氏家用新冠病毒抗原自我檢測套組,77,2022/05/09 11:10:02,快篩實名制，每天16:00開始販售，售完為止。
5931161344,北安藥妝藥局,新北市泰山區明志路２段６１號,121.4292,25.0526,(02)22967199,羅氏家用新冠病毒抗原自我檢測套組,60,2022/05/09 11:10:02,早上9:30開始發號碼牌
5931161353,台灣藥局,新北市泰山區明志路１段２８２－２８６號,121.4319,25.06002,(02)22971969,羅氏家用新冠病毒抗原自我檢測套組,70,2022/05/09 11:10:02,下午2:20發號碼牌2:30販售實名制快篩試劑
5931171582,綠園藥局,新北市林口區仁愛路２段１０５號１樓,121.3843,25.07507,(02)86012258,羅氏家用新冠病毒抗原自我檢測套組,1,2022/05/09 11:10:02,上午8:30-12:00、下午2:30-18:00、晚上18:00-21:30
5931171724,林康藥局,新北市林口區文化二路１段２２２號１樓,121.3695,25.07226,(02)26088869,羅氏家用新冠病毒抗原自我檢測套組,78,2022/05/09 11:10:02,快篩於下午2點販售，周日公休
5931171742,唯恩藥局,新北市林口區麗園一街９巷１號１樓之２,121.3768,25.07139,(02)26005805,羅氏家用新冠病毒抗原自我檢測套組,78,2022/05/09 11:10:02,快篩發放固定13點，領取號碼牌
5931171831,沐霖藥局,新北市林口區文化三路２段２８６號１樓,121.3775,25.08304,(02)26032086,羅氏家用新冠病毒抗原自我檢測套組,78,2022/05/09 11:10:02,5／9 （一） 17:30 發放號碼牌
5932011058,富仕康藥局,桃園市桃園區中華路１１８號地下１樓,121.3082,24.99023,(03)3391318,羅氏家用新冠病毒抗原自我檢測套組,4,2022/05/09 11:10:02,口罩販賣時段：週一至週日15:30起
5932011870,永祥大藥局,桃園市桃園區永安路５２８號,121.2986,25.00181,(03)3337161,羅氏家用新冠病毒抗原自我檢測套組,4,2022/05/09 11:10:02,口罩販賣時段：週一至週六早上9點
5932012573,悅藥坊人文藥局,桃園市桃園區桃智路６號,121.2948,24.96505,(03)3761688,羅氏家用新冠病毒抗原自我檢測套組,1,2022/05/09 11:10:02,快篩若有到貨，販售時段為：（一）~（六）17:00-19:00；（日）中午12:30
5932013123,桃康藥局,桃園市桃園區桃鶯路２０３號,121.3184,24.98495,(03)3641815,羅氏家用新冠病毒抗原自我檢測套組,12,2022/05/09 11:10:02,實名制快篩：早上10點發號碼牌，每日78份
5932013374,芳鄰藥局,桃園市桃園區昆明路３９號,121.3173,24.98372,(03)3679498,羅氏家用新冠病毒抗原自我檢測套組,1,2022/05/09 11:10:02,無
5932013392,桃園中正藥局,桃園市桃園區中正路３７３號,121.3079,24.99955,(03)3381600,羅氏家用新冠病毒抗原自我檢測套組,91,2022/05/09 11:10:02,快篩實名制，每天16:00開始販售，售完為止。
5932013687,桃園春日藥局,桃園市桃園區春日路８７８號,121.3096,25.01561,(03)3580101,羅氏家用新冠病毒抗原自我檢測套組,80,2022/05/09 11:10:02,快篩實名制，每天16:00開始販售，售完為止。
5932013721,桃園民光藥局,桃園市桃園區中正路５６９號,121.3049,25.0041,(03)3364888,羅氏家用新冠病毒抗原自我檢測套組,78,2022/05/09 11:10:02,快篩實名制，每天16:00開始販售，售完為止。
5932013749,桃園寶山藥局,桃園市桃園區寶山街７２號,121.3175,25.01291,(03)3250562,羅氏家用新冠病毒抗原自我檢測套組,78,2022/05/09 11:10:02,快篩實名制，每天16:00開始販售，售完為止。
5932014004,同德辰安藥局,桃園市桃園區同德十街２５號,121.294,25.01835,(03)3012028,羅氏家用新冠病毒抗原自我檢測套組,78,2022/05/09 11:10:02,實名制快篩試劑於下午4點開始販售，現場排隊，沒有發放號碼牌。
5932014059,桃園南平藥局,桃園市桃園區南平路３０２－１號１樓,121.2989,25.01855,(03)3165222,羅氏家用新冠病毒抗原自我檢測套組,78,2022/05/09 11:10:02,快篩實名制，每天16:00開始販售，售完為止。
5932014102,小飛象藥局,桃園市桃園區慈文路１９２號,121.3041,25.00907,(03)3552771,羅氏家用新冠病毒抗原自我檢測套組,78,2022/05/09 11:10:02,5／8完售，5／9[21:30]開賣78份，再打來問就掛電話。不發號碼牌請自行計算人數。即起調劑確診者視訊處方，請自保。
5932014111,鴻發藥師藥局,桃園市桃園區大有路５４３號,121.3171,25.0149,(03)3582468,羅氏家用新冠病毒抗原自我檢測套組,78,2022/05/09 11:10:02,實聯快篩:早上09:30發放號碼牌，限當日下午2~4點憑牌購買，逾時不候請見諒
5932014148,躍獅興業藥局,桃園市桃園區大業路２段１５號１樓,121.3112,25.01628,(03)3163569,羅氏家用新冠病毒抗原自我檢測套組,78,2022/05/09 11:10:02,快篩下午一點販售，現場排隊
5932014273,藝文藥局,桃園市桃園區大興西路１段１６５號,121.3049,25.01414,(03)3261789,羅氏家用新冠病毒抗原自我檢測套組,77,2022/05/09 11:10:02,快篩實名制，每天16:00開始販售，售完為止。
5932014317,躍獅省桃藥局,桃園市桃園區龍壽街２４號,121.2697,24.97836,(03)3791488,羅氏家用新冠病毒抗原自我檢測套組,1,2022/05/09 11:10:02,週1-7實名制快篩10:00開賣，5／6開始每日10點販售，沒發號碼牌
5932014442,新光藥局,桃園市桃園區大有路１７２號,121.3209,25.00752,(03)3310133,羅氏家用新冠病毒抗原自我檢測套組,116,2022/05/09 11:10:02,營業時間:週一至週五10:00-22:00；快篩下午2:00開始，賣完為止，不發號碼牌
5932014460,桃鶯藥局,桃園市桃園區桃鶯路１０２號,121.318,24.98516,(03)3675100,羅氏家用新冠病毒抗原自我檢測套組,78,2022/05/09 11:10:02,快篩實名制，每天16:00開始販售，售完為止。
5932014488,琦舜藥師藥局,桃園市桃園區文中三路６３號,121.2885,24.99724,(03)3695001,羅氏家用新冠病毒抗原自我檢測套組,78,2022/05/09 11:10:02,營業時間: 9:00-21:30　　　　　　　　快篩販售時間於到貨後公布於FB【琦舜藥師藥局-桃園中路】粉絲專頁
5932018593,品一藥局,桃園市桃園區建新街７６號,121.3118,24.98261,(03)3638510,羅氏家用新冠病毒抗原自我檢測套組,19,2022/05/09 11:10:02,快篩販賣時間：週一至週五早上9：30；週六下午1：00（星期天休息），會發號碼牌（今天已發完）
5932020360,日進藥局,桃園市中壢區中山東路二段１５６號,121.2394,24.95276,(03)4569132,羅氏家用新冠病毒抗原自我檢測套組,21,2022/05/09 11:10:02,政府實名制快篩販售時間:每日早上08:00~售完為止！
5932020548,生富藥師藥局,桃園市中壢區新明里中央西路二段７６號,121.2162,24.95848,(03)4941475,羅氏家用新冠病毒抗原自我檢測套組,3,2022/05/09 11:10:02,快篩時段8：30發號碼牌，10：00以後領快筛劑
5932021269,優良藥局,桃園市中壢區長春路２０號,121.2499,24.97907,(03)4612336,羅氏家用新冠病毒抗原自我檢測套組,1,2022/05/09 11:10:02,快篩販售時間10:00
5932022159,躍獅新明藥局,桃園市中壢區新明路６６號１樓,121.215,24.95868,(03)2813361,羅氏家用新冠病毒抗原自我檢測套組,10,2022/05/09 11:10:02,快篩販賣時段：14:00~售完為止，現場排隊 ， 星期天沒有販售快篩
5932022257,星康生活藥局,桃園市中壢區中美路二段94號,121.2218,24.96005,(03)4252869,羅氏家用新冠病毒抗原自我檢測套組,2,2022/05/09 11:10:02,5／7-5／9 實名制快篩14:00販售  5／10之後另行公佈販賣時間
5932022631,中壢中正藥局,桃園市中壢區中正路３６３、３６５號,121.2163,24.95532,(03)4014100,羅氏家用新冠病毒抗原自我檢測套組,78,2022/05/09 11:10:02,快篩實名制，每天16:00開始販售，售完為止。
5932022980,美佑康活力藥局,桃園市中壢區五福里中正路６２７號,121.2108,24.95947,(03)2810018,羅氏家用新冠病毒抗原自我檢測套組,78,2022/05/09 11:10:02,快篩販賣時段：周一到周日每天14:00
5932023094,中壢民權藥局,桃園市中壢區民權路３２６、３２８號,121.2054,25.0001,(03)4014961,羅氏家用新冠病毒抗原自我檢測套組,73,2022/05/09 11:10:02,實聯制快篩每天78份週一至週六下午1350拿取號碼牌1400開始販售.依序入場販售.過號視同放棄
5932023281,裕翔藥局,桃園市中壢區榮民路４８號１樓,121.2606,24.96956,(03)4355499,羅氏家用新冠病毒抗原自我檢測套組,58,2022/05/09 11:10:02,快篩下午五點販售
5932023647,樂謙藥師藥局,桃園市中壢區龍東路１３４號,121.2522,24.92929,(03)4662775,羅氏家用新冠病毒抗原自我檢測套組,46,2022/05/09 11:10:02,實名快篩每日下午2點、晚上6點 各發39份
5932023889,華勛藥局,桃園市中壢區華勛街１１２、１１４號,121.2597,24.95065,(03)4161881,羅氏家用新冠病毒抗原自我檢測套組,1,2022/05/09 11:10:02,快篩實名制，每天16:00開始販售，售完為止。
5932024144,內壢丁丁藥局,桃園市中壢區環中東路３２５號１樓,121.2552,24.96194,(03)4535351,羅氏家用新冠病毒抗原自我檢測套組,72,2022/05/09 11:10:02,實名制快篩09:00發號碼牌，每天78分
5932024260,新資生福州大藥局,桃園市中壢區福州二街４０９號,121.232,24.96789,(03)3606180,羅氏家用新冠病毒抗原自我檢測套組,1,2022/05/09 11:10:02,營業時間：星期六 日 上午0900至下午1000
5932024304,鈞康藥局,桃園市中壢區興仁路２段９１號１樓,121.263,24.96665,(03)2850505,羅氏家用新冠病毒抗原自我檢測套組,72,2022/05/09 11:10:02,營業時間：上午11點-售完。星期六日不販售
5932029676,中日大藥局,桃園市中壢區中北路二段７８號,121.225,24.95063,(03)4285068,羅氏家用新冠病毒抗原自我檢測套組,124,2022/05/09 11:10:02,快篩11點前到貨，11點開始販售；11點後到貨，到貨開始販售
593202A931,佳佑藥局,桃園市中壢區環中東路二四一號,121.2573,24.96345,(03)4356190,羅氏家用新冠病毒抗原自我檢測套組,56,2022/05/09 11:10:02,口罩販賣時段：09:00以後發號碼牌，售完為止
5932031747,欣康藥局,桃園市大溪區員林路２段３９０－６號,121.2677,24.88412,(03)3076310,羅氏家用新冠病毒抗原自我檢測套組,78,2022/05/09 11:10:02,快篩販賣時段：15:30
5932031890,福生藥局,桃園市大溪區民權東路１０３號１樓,121.2919,24.88209,(03)3873533,羅氏家用新冠病毒抗原自我檢測套組,2,2022/05/09 11:10:02,早上八點開始發放快篩試劑
5932040246,龍泰藥局,桃園市楊梅區民族路五段１４７巷２號,121.1736,24.9586,(03)4901525,羅氏家用新冠病毒抗原自我檢測套組,8,2022/05/09 11:10:02,快篩販售時間:早上7:30領號碼牌下午2點至4點領快篩（當日有效） 六日中午10點至12點領快篩
5932043390,元森藥局,桃園市楊梅區瑞溪路２段１２５號１樓,121.1806,24.90875,(03)4311058,羅氏家用新冠病毒抗原自我檢測套組,1,2022/05/09 11:10:02,無
5932050215,九德藥局,桃園市蘆竹區中山路６９號,121.3003,25.05242,(03)3116868,羅氏家用新冠病毒抗原自我檢測套組,102,2022/05/09 11:10:02,口罩販賣時段：中午12點
5932052951,永青健康人生藥局,桃園市蘆竹區奉化路１４２號１樓,121.289,25.03917,(03)3528361,羅氏家用新冠病毒抗原自我檢測套組,78,2022/05/09 11:10:02,實名制快篩每日兩點開賣，人潮眾多額滿會提早開始
5932052979,南崁藥局,桃園市蘆竹區中正路２５１、２５３、２５５號,121.2921,25.04695,(03)3522022,羅氏家用新冠病毒抗原自我檢測套組,157,2022/05/09 11:10:02,快篩實名制，每天16:00開始販售，售完為止。
5932053010,辰安藥局,桃園市蘆竹區上興路２１６號１樓,121.2601,25.01896,(03)3136631,羅氏家用新冠病毒抗原自我檢測套組,3,2022/05/09 11:10:02,08:00AM 發號碼牌；系統進貨已含隔日庫存*本藥局實名制快篩規則統一公告臉書
5932053065,民生藥局,桃園市蘆竹區南昌路４５號,121.2876,25.04245,(03)3216784,羅氏家用新冠病毒抗原自我檢測套組,78,2022/05/09 11:10:02,快篩開賣時間:星期一到五16點. 星期六10:30. 星期日休息.
5932061003,保和大藥局,桃園市大園區大園里中山北路３６號,121.1972,25.06478,(03)3867448,羅氏家用新冠病毒抗原自我檢測套組,36,2022/05/09 11:10:02,無
5932070253,高田藥師藥局,桃園市龜山區山鶯路７６號,121.3237,24.99004,(03)3336363,羅氏家用新冠病毒抗原自我檢測套組,1,2022/05/09 11:10:02,口罩販賣時段：早上11:00-早上11:30
5932076862,和信藥局,桃園市龜山區南祥路５８號１樓,121.2979,25.04629,(03)2124028,羅氏家用新冠病毒抗原自我檢測套組,64,2022/05/09 11:10:02,快篩販賣時段：每日中午12點，5／8（日）母親節公休一日。
5932077056,桃園龜山藥局,桃園市龜山區萬壽路二段８９６號,121.3394,24.99586,(03)3203312,羅氏家用新冠病毒抗原自我檢測套組,78,2022/05/09 11:10:02,快篩實名制，每天16:00開始販售，售完為止。
5932077163,新資生龜山大藥局,桃園市龜山區大同里自強東路１號,121.3414,24.99401,(03)3290429,羅氏家用新冠病毒抗原自我檢測套組,48,2022/05/09 11:10:02,快篩試劑11:00開始 不發號碼牌
5932077369,安博氏藥師藥局,桃園市龜山區文青路１８５號１樓,121.3877,25.04079,(03)3283185,羅氏家用新冠病毒抗原自我檢測套組,55,2022/05/09 11:10:02,快篩販售時間11:00（星期日沒有販售） （營業時間 上午11點~晚上10點）
5932077378,佑昌藥局,桃園市龜山區民生北路一段５３４號,121.298,25.044,(03)3120760,羅氏家用新冠病毒抗原自我檢測套組,73,2022/05/09 11:10:02,實名制快篩發放時間 14:00
5932077510,左外野藥局,桃園市龜山區文光街６號１樓,121.3802,25.05471,(03)3271503,羅氏家用新冠病毒抗原自我檢測套組,72,2022/05/09 11:10:02,快篩販售:晚上19:30至20:30（週五公休）*不發號碼牌 請直接排隊購買
5932077627,文興藥局,桃園市龜山區復興一路１０２號１、２、３樓,121.368,25.0592,(03)3285330,羅氏家用新冠病毒抗原自我檢測套組,78,2022/05/09 11:10:02,快篩實名制，每天16:00開始販售，售完為止。
5932080455,日鴻藥局,桃園市八德區義勇街１７５號,121.3065,24.96335,(03)3763304,羅氏家用新冠病毒抗原自我檢測套組,77,2022/05/09 11:10:02,口罩販賣時段：早上9:00 發號碼牌下午4:00~6:00領取
5932083303,吉康生活藥局,桃園市八德區義勇街１２０號,121.3045,24.96354,(03)3768577,羅氏家用新冠病毒抗原自我檢測套組,81,2022/05/09 11:10:02,周休二日，周一到周五09.:30發放快篩號碼牌 銷售時間 09:30-11:30
5932083509,上方藥局,桃園市八德區廣褔路一八八號,121.279,24.96204,(03)3635902,羅氏家用新冠病毒抗原自我檢測套組,78,2022/05/09 11:10:02,販賣快篩:於午間12:30~1:30發號碼牌，開賣時間下午3:00~4:30，賣完為止
5932083670,保健藥局,桃園市八德區介壽路一段８３３號２樓,121.3,24.96168,(03)3669486,羅氏家用新冠病毒抗原自我檢測套組,186,2022/05/09 11:10:02,無
5932083974,晨鴻藥師藥局,桃園市八德區桃鶯路７號１樓,121.3265,24.97179,(03)3764299,羅氏家用新冠病毒抗原自我檢測套組,68,2022/05/09 11:10:02,快篩為早上8:30跟晚上6:00領取號碼牌，星期六早上一次發78份，快篩地圖數量參考就好，請勿再打電話詢問 謝謝
5932084248,佑兒康藥局,桃園市八德區永豐路５７０號,121.2718,24.97541,(03)3709680,羅氏家用新冠病毒抗原自我檢測套組,2,2022/05/09 11:10:02,快篩販售時間:  每週一.二.四.五.六 下午2:30 開始 ； 每週三.日 晚上8:50開始
5932084435,康健藥局,桃園市八德區介壽路ㄧ段８６３號,121.2999,24.96109,(03)3617226,羅氏家用新冠病毒抗原自我檢測套組,3,2022/05/09 11:10:02,無
5932084828,阿爾富山藥局,桃園市八德區桃鶯路４號１樓,121.3261,24.97167,(03)3763350,羅氏家用新冠病毒抗原自我檢測套組,1,2022/05/09 11:10:02,本藥局實名制快篩於每日晚間7點以實際到貨數量發放，唯保留可視現場排隊人數額滿情況.酌情提前發號碼牌並受理購買!
5932084855,中山啄木鳥藥局,桃園市八德區中山路２１１號、２１３號、２１５號、２１７號１樓,121.2849,24.92539,(03)3656375,羅氏家用新冠病毒抗原自我檢測套組,78,2022/05/09 11:10:02,無
5932084873,宏昌藥局,桃園市八德區介壽路１段８９０號,121.2994,24.95998,(03)3639797,羅氏家用新冠病毒抗原自我檢測套組,1,2022/05/09 11:10:02,每日13:30開賣 星期日休息
5932098091,悅發藥局,桃園市龍潭區龍元路８６號,121.2119,24.86481,(03)4705098,羅氏家用新冠病毒抗原自我檢測套組,1,2022/05/09 11:10:02,快篩販賣時段:貨源隨到隨賣
5932100185,德聯藥師藥局,桃園市平鎮區龍南路３１號,121.2452,24.92473,(03)4603613,羅氏家用新冠病毒抗原自我檢測套組,73,2022/05/09 11:10:02,快篩 5月9日 下午2點開始賣
5932100354,世新藥局,桃園市平鎮區廣泰路７５之２號,121.2052,24.94629,(03)4941234,羅氏家用新冠病毒抗原自我檢測套組,79,2022/05/09 11:10:02,實名制快篩周一至周五13:30販售
5932100809,福澤民族藥局,桃園市平鎮區民族路二段１３９號１樓,121.2048,24.95706,(03)4014747,羅氏家用新冠病毒抗原自我檢測套組,150,2022/05/09 11:10:02,家用快篩販賣時段15:30至售完為止
5932101164,南勢藥局,桃園市平鎮區中豐路南勢二段１０８號,121.2106,24.91665,(03)4395663,羅氏家用新冠病毒抗原自我檢測套組,54,2022/05/09 11:10:02,無
5932101191,譽達文化藥局,桃園市平鎮區文化街８巷２號１樓,121.2027,24.95667,(03)4919660,羅氏家用新冠病毒抗原自我檢測套組,40,2022/05/09 11:10:02,星期一至星期六.早上10點發放（無預先發放號碼牌）-現場排隊購買.需自備零錢不找零
5932101253,新大賀藥局,桃園市平鎮區新榮路２５９號１樓,121.2135,24.94617,(03)4927100,羅氏家用新冠病毒抗原自我檢測套組,78,2022/05/09 11:10:02,下午兩點開始發號碼牌販售快篩
5932108574,天健示範藥局,桃園市平鎮區文化街２５２號,121.2032,24.95127,(03)4937169,羅氏家用新冠病毒抗原自我檢測套組,5,2022/05/09 11:10:02,快篩實名制每天8點販售，七點發號碼牌
5932124381,日昇藥局,桃園市觀音區成功路一段７８１號,121.119,25.05221,(03)4834212,羅氏家用新冠病毒抗原自我檢測套組,2,2022/05/09 11:10:02,下午4點及晚上9點各販售39份快篩試劑
5933010064,明德藥局,新竹縣關西鎮中山路１８號,121.1778,24.79152,(03)5874335,羅氏家用新冠病毒抗原自我檢測套組,8,2022/05/09 11:10:02,無
5933010091,進安藥局,新竹縣關西鎮正義路１５號,121.1761,24.79111,(03)5872153,羅氏家用新冠病毒抗原自我檢測套組,76,2022/05/09 11:10:02,12:00-14:00休息（配合醫療院所）。
5933030306,華德藥局,新竹縣竹東鎮東林路１５號,121.0888,24.73692,(03)5940019,羅氏家用新冠病毒抗原自我檢測套組,55,2022/05/09 11:10:02,快篩販賣時段：11:00開始，售完為止
5933031769,竹東朝陽藥局,新竹縣竹東鎮朝陽路１號１、２樓,121.0852,24.74199,(03)5111166,羅氏家用新冠病毒抗原自我檢測套組,78,2022/05/09 11:10:02,快篩實名制，每天16:00開始販售，售完為止。
5933052044,禾松藥局,新竹縣竹北市勝利5路23號,121.0227,24.8247,(03)6577267,羅氏家用新冠病毒抗原自我檢測套組,74,2022/05/09 11:10:02,實名制快篩販賣週一至週六下午15:00開始販售（營業時間）
5933053489,十興藥局,新竹縣竹北市莊敬五街７５號,121.0268,24.82346,(03)6684889,羅氏家用新冠病毒抗原自我檢測套組,78,2022/05/09 11:10:02,快篩實名制，每天16:00開始販售，售完為止。
5933053596,中華藥局,新竹縣竹北市中華路２２６號１、２樓,121.0028,24.83118,(03)5513031,羅氏家用新冠病毒抗原自我檢測套組,78,2022/05/09 11:10:02,快篩實名制，每天16:00開始販售，售完為止。
5933081536,昌昌藥局,新竹縣新豐鄉新市路１９３號,120.9846,24.90465,(03)5598077,羅氏家用新冠病毒抗原自我檢測套組,30,2022/05/09 11:10:02,5／9（一）號碼牌已發放完畢。5／10（二）上午8:00開始發放號碼牌。
5933081616,立果藥局,新竹縣新豐鄉尚仁街１３８號,120.9927,24.86946,(03)5571766,羅氏家用新冠病毒抗原自我檢測套組,74,2022/05/09 11:10:02,實名制快篩1400準時開售。營業時間並非販售快篩時間，請勿一早就來排隊
5934011958,栢心藥局,宜蘭縣宜蘭市宜興路１段１１１號,121.7561,24.7514,(03)9357277,羅氏家用新冠病毒抗原自我檢測套組,78,2022/05/09 11:10:02,週一~週六14:00發號碼牌，下午14:30開始販售.（週四下午17:30發號碼牌，18:00開賣）
5934012419,熊貓健保藥局,宜蘭縣宜蘭市中山路３段１６９號１樓,121.753,24.75984,(03)9331335,羅氏家用新冠病毒抗原自我檢測套組,78,2022/05/09 11:10:02,5／9 下午14:30開始販售。  星期一、五：下午14:30販賣；星期二三四六：上午10:00販賣。
5934012473,宜蘭藥局,宜蘭縣宜蘭市泰山路３６號,121.7485,24.75524,(03)9365168,羅氏家用新冠病毒抗原自我檢測套組,78,2022/05/09 11:10:02,快篩實名制，每天16:00開始販售，售完為止。
5934021525,喜樂藥師藥局,宜蘭縣羅東鎮中山路３段１７１號,121.7697,24.67491,(03)9547113,羅氏家用新冠病毒抗原自我檢測套組,73,2022/05/09 11:10:02,無
5934031218,熊野藥局,宜蘭縣蘇澳鎮龍德里福德路418號,121.829,24.6468,(03)9903367,羅氏家用新冠病毒抗原自我檢測套組,2,2022/05/09 11:10:02,快篩試劑販售時間為周一到周六10:00（售完為止），一人限一張卡
5934091125,安心藥局,宜蘭縣五結鄉禮運路３８－１號,121.7768,24.68105,(03)9551670,羅氏家用新冠病毒抗原自我檢測套組,49,2022/05/09 11:10:02,實名制快篩販售時間：星期（一、三、四、六、日）早上11點開賣；星期（二、五）晚上7點開賣，售完為止
5935011738,佳禾藥局,苗栗縣苗栗市青苗里建台街7號,120.821,24.55742,(037)373041,羅氏家用新冠病毒抗原自我檢測套組,10,2022/05/09 11:10:02,快篩試劑7：30發號碼牌8：00開始販賣，販賣時段：營業時間至售完為止
5935021458,沐安藥局,苗栗縣苑裡鎮客庄里信義路１－１０號１樓,120.653,24.43873,(037)868600,羅氏家用新冠病毒抗原自我檢測套組,27,2022/05/09 11:10:02,星期天快篩14點發號碼牌，販售為15-18點、19-21點；星期1至6的快篩8點開始發號碼牌。販售時間8-12點、15-18點、19-21點
5935040328,明志藥局,苗栗縣竹南鎮照南里博愛街４號,120.8797,24.68677,(037)472341,羅氏家用新冠病毒抗原自我檢測套組,3,2022/05/09 11:10:02,快篩賣時間:早上6:30~22:00。週六，周日照常。
5935050182,民昌藥局,苗栗縣頭份市忠孝里信東路１３０號,120.9095,24.68911,(037)673 232,羅氏家用新冠病毒抗原自我檢測套組,1,2022/05/09 11:10:02,無
5935051858,樂田藥妝藥局,苗栗縣頭份市信東路１３５號,120.9094,24.68924,(037)598995,羅氏家用新冠病毒抗原自我檢測套組,44,2022/05/09 11:10:02,快篩販售時間:早上11點（實際狀況依臉書公告為準）
5935051929,仁方藥局,苗栗縣頭份市自強路１５０巷２－５號１樓,120.907,24.68785,(037)687238,羅氏家用新冠病毒抗原自我檢測套組,75,2022/05/09 11:10:02,正常營業AM08:00-PM10:00
5935051983,日康藥局,苗栗縣頭份市中央路４０２號１樓,120.8995,24.69356,(037)660061,羅氏家用新冠病毒抗原自我檢測套組,78,2022/05/09 11:10:02,快篩發放時間為每日13:30分 可能因物流配送影響發放時間，請見諒
5935060053,鴻輝大藥局,苗栗縣後龍鎮北龍里中華路６４－１號,120.7879,24.61557,(037)721952,羅氏家用新冠病毒抗原自我檢測套組,1,2022/05/09 11:10:02,AM07:50~PM10:00
5935061452,後龍藥局,苗栗縣後龍鎮中山路２０９號１樓,120.7931,24.6127,(037)723660,羅氏家用新冠病毒抗原自我檢測套組,78,2022/05/09 11:10:02,快篩實名制，每天16:00開始販售，售完為止。
5935090015,永信藥局,苗栗縣公館鄉館中村榮光街１６號,120.8271,24.50226,(037)223597,羅氏家用新冠病毒抗原自我檢測套組,78,2022/05/09 11:10:02,每日下午3點開始販售快篩
5936050364,沙鹿福倫藥局,臺中市沙鹿區中山路４３５號１樓,120.5612,24.24291,(04)26657718,羅氏家用新冠病毒抗原自我檢測套組,34,2022/05/09 11:10:02,實名制快篩早上11點開賣。 賣完為止。謝謝。
5936080077,明興藥局,臺中市神岡區北庄里中山路１０３７號,120.6711,24.25617,(04)25621030,羅氏家用新冠病毒抗原自我檢測套組,39,2022/05/09 11:10:02,週日店休，快篩11:00
5936090126,頭張藥局,臺中市潭子區頭張路一段１０８號,120.6998,24.1945,(04)25334510,羅氏家用新冠病毒抗原自我檢測套組,6,2022/05/09 11:10:02,口罩代售中:開放從早上8點到晚上11點前
5936101893,新信和藥局,臺中市大雅區民興街５０號,120.6482,24.22531,(04)25603058,羅氏家用新冠病毒抗原自我檢測套組,46,2022/05/09 11:10:02,5／9（一） 11：00準時開賣！健保卡尾數單號可以購買！！
5936102970,正豐藥局,臺中市大雅區民生路２段４號,120.6545,24.22937,(04)25678858,羅氏家用新冠病毒抗原自我檢測套組,59,2022/05/09 11:10:02,周一至週六上午11點開始販售快篩試劑
5936103002,學府藥局,臺中市大雅區學府路２２５號１樓,120.6498,24.22214,(04)25609333,羅氏家用新冠病毒抗原自我檢測套組,78,2022/05/09 11:10:02,實名制快篩12:00開始販售 8:30-10:00  星期天下午晚上休息
5936111111,政雄藥局,臺中市新社區興社街四段七五號,120.8083,24.24357,(04)25811087,羅氏家用新冠病毒抗原自我檢測套組,5,2022/05/09 11:10:02,12／31全天1／1-1／2休息
5936171386,國際大藥局,臺中市龍井區藝術街６號,120.5954,24.18751,(04)26522118,羅氏家用新冠病毒抗原自我檢測套組,1,2022/05/09 11:10:02,無
5936180152,祥暘藥局,臺中市霧峰區中正路１１６２號,120.6996,24.07068,(04)23391346,羅氏家用新冠病毒抗原自我檢測套組,78,2022/05/09 11:10:02,快篩實名制，每天16:00開始販售，售完為止。
5936190710,東亞藥師大藥局,臺中市太平區中興路６６號,120.7167,24.12806,(04)22787987,羅氏家用新冠病毒抗原自我檢測套組,2,2022/05/09 11:10:02,每日早上9:00先領號碼牌下午2:00~10:00領快篩試劑
5936209287,德芳大藥局,臺中市大里區益民路二段３０４號１、２樓,120.684,24.11183,(04)24815932,羅氏家用新冠病毒抗原自我檢測套組,3,2022/05/09 11:10:02,快篩販售時間:下午3點~6點
593620B138,聯生中西健保藥局,臺中市大里區現岱路１５８巷１１號,120.6919,24.10295,(04)24834058,羅氏家用新冠病毒抗原自我檢測套組,9,2022/05/09 11:10:02,早上八點半領號碼牌下午四點到六點領口罩W6W日早七點
5937010533,范藥局,彰化縣彰化市東興里公園路１段２９２號,120.5512,24.07501,(04)7271540,羅氏家用新冠病毒抗原自我檢測套組,41,2022/05/09 11:10:02,每日賣快篩劑時間恢復九點開賣
5937010819,日榮堂藥局,彰化縣彰化市光華里和平路５０號,120.5406,24.08,(04)7222396,羅氏家用新冠病毒抗原自我檢測套組,58,2022/05/09 11:10:02,每日15:30開始販售
5937010908,日光堂藥局彰美分店,彰化縣彰化市彰美路１段２３５號,120.5369,24.08936,(04)7236611,羅氏家用新冠病毒抗原自我檢測套組,1,2022/05/09 11:10:02,口罩週一至週六下午1點半至2點半或7點至8點 兩時段販售／ 服務時段售完截止 ／ 週日公休
5937012733,佳展佳藥局,彰化縣彰化市彰安里中正路２段４３４號,120.5361,24.07263,(04)7288246,羅氏家用新冠病毒抗原自我檢測套組,49,2022/05/09 11:10:02,週一~週六中午12點開始販售實名制快篩， 售完為止，
5937013347,康禾藥局,彰化縣彰化市崙平里建和街５２號,120.5322,24.07063,(04)7624077,羅氏家用新冠病毒抗原自我檢測套組,86,2022/05/09 11:10:02,固定周一至周五下午一點發放快篩試劑，售完為止
5937013552,芳澤藥局,彰化縣彰化市中山路三段４３４號,120.5658,24.08861,(04)7380381,羅氏家用新冠病毒抗原自我檢測套組,4,2022/05/09 11:10:02,快篩實名制-週一至週五下午3點開始販售，星期六日休息
5937013561,友誼藥局彰化店,彰化縣彰化市辭修路１９１－２號,120.5376,24.08413,(04)7288865,羅氏家用新冠病毒抗原自我檢測套組,26,2022/05/09 11:10:02,5／4 下午2點販賣快篩，友誼藥局免費領取連續處方簽，衛生所，牙科單
5937013570,彰化藥局,彰化縣彰化市永安街２７８、２８０號,120.5438,24.08977,(04)7287877,羅氏家用新冠病毒抗原自我檢測套組,78,2022/05/09 11:10:02,快篩實名制，每天16:00開始販售，售完為止。
5937013669,康是美藥局曉陽店,彰化縣彰化市民族路２９１號１、２樓,120.5392,24.07272,(04)7221460,羅氏家用新冠病毒抗原自我檢測套組,63,2022/05/09 11:10:02,無
5937021849,大樹鹿港藥局,彰化縣鹿港鎮中正路１９３號,120.4405,24.05491,(04)7772226,羅氏家用新冠病毒抗原自我檢測套組,78,2022/05/09 11:10:02,快篩實名制，每天16:00開始販售，售完為止。
5937031747,大樹和美藥局,彰化縣和美鎮道周路５０１號,120.494,24.10896,(04)7550090,羅氏家用新冠病毒抗原自我檢測套組,80,2022/05/09 11:10:02,快篩實名制，每天16:00開始販售，售完為止。
5937031783,和美啄木鳥藥局,彰化縣和美鎮德美路２７０號,120.502,24.11371,(04)7552924,羅氏家用新冠病毒抗原自我檢測套組,10,2022/05/09 11:10:02,領藥到啄木鳥~5／8實名制快篩早上10點開始販賣
5937050279,廣信藥局,彰化縣員林市三信里中山路二段２０１號,120.5711,23.96517,(04)8337085,羅氏家用新冠病毒抗原自我檢測套組,6,2022/05/09 11:10:02,早上10點開始販賣快篩試劑
5937050313,東禾藥局,彰化縣員林市仁美里和平東街６２－１號,120.5754,23.9623,(04)8350030,羅氏家用新冠病毒抗原自我檢測套組,4,2022/05/09 11:10:02,每天早上八點半開始販售，售完為止
5937050395,裕良大藥局,彰化縣員林市莒光路３號,120.5663,23.95163,(04)8360388,羅氏家用新冠病毒抗原自我檢測套組,60,2022/05/09 11:10:02,全年無休
5937051865,萬年藥局,彰化縣員林市員水路２段２０９號,120.5841,23.95512,(04)8366522,羅氏家用新冠病毒抗原自我檢測套組,34,2022/05/09 11:10:02,無
5937052264,醫聯藥師藥局,彰化縣員林市三條里員東路二段４１０號１樓,120.5811,23.95898,(04)8360617,羅氏家用新冠病毒抗原自我檢測套組,11,2022/05/09 11:10:02,無
5937052273,員林鼎澄藥局,彰化縣員林市仁愛里三民東街２５２號,120.58,23.95997,(04)8330918,羅氏家用新冠病毒抗原自我檢測套組,78,2022/05/09 11:10:02,實名制快篩，星期一-六每日下午2點開始依現場排隊販售
5937052317,員郭藥局,彰化縣員林市三民街３８－１號,120.573,23.95862,(04)8356201,羅氏家用新冠病毒抗原自我檢測套組,25,2022/05/09 11:10:02,無
5937052399,裕良藥局大同店,彰化縣員林市大同路二段２０３－１號,120.5746,23.96891,(04)8344612,羅氏家用新冠病毒抗原自我檢測套組,61,2022/05/09 11:10:02,全年無休
5937052424,員林啄木鳥藥局,彰化縣員林市新生路１２１、１２３號,120.5686,23.95904,(04)8339483,羅氏家用新冠病毒抗原自我檢測套組,3,2022/05/09 11:10:02,無
5937052433,迪迪連鎖藥局員林店,彰化縣員林市林森路１６３號１樓,120.5777,23.95715,(04)8312898,羅氏家用新冠病毒抗原自我檢測套組,13,2022/05/09 11:10:02,快篩實名制販售時間：每日十點發放，依物流配送時間為準。
5937052479,莒光藥局,彰化縣員林市莒光路３１６號１樓,120.5669,23.95942,(04)8361388,羅氏家用新冠病毒抗原自我檢測套組,78,2022/05/09 11:10:02,快篩實名制，每天16:00開始販售，售完為止。
5937052488,大樹員林藥局,彰化縣員林市大同路二段２０７號,120.5745,23.96891,(04)8331353,羅氏家用新冠病毒抗原自我檢測套組,78,2022/05/09 11:10:02,快篩實名制，每天16:00開始販售，售完為止。
5937052497,家家藥局,彰化縣員林市惠來街８７號,120.5704,23.95526,(04)8367007,羅氏家用新冠病毒抗原自我檢測套組,5,2022/05/09 11:10:02,無
5937052540,莒光啄木鳥藥局,彰化縣員林市中山路一段４５４號１樓,120.5668,23.95171,(04)8399625,羅氏家用新冠病毒抗原自我檢測套組,3,2022/05/09 11:10:02,無
5937061432,康健藥局,彰化縣溪湖鎮光平里彰水路３段３８８號,120.4802,23.96206,(04)8822549,羅氏家用新冠病毒抗原自我檢測套組,5,2022/05/09 11:10:02,每天8:30開門即開始配售防疫口罩及快篩試劑（星期日休）
5937061727,溪湖藥局,彰化縣溪湖鎮西環路３６５、３７１號１樓,120.4771,23.96099,(04)8818617,羅氏家用新冠病毒抗原自我檢測套組,49,2022/05/09 11:10:02,5／8今日實名制快篩因電腦系統關係以發放號碼牌方式，目前號碼牌已經發放完畢
5937071474,田中藥局,彰化縣田中鎮新生街１５０巷２號,120.5862,23.8621,(04)8761988,羅氏家用新冠病毒抗原自我檢測套組,78,2022/05/09 11:10:02,快篩實名制，每天16:00開始販售，售完為止。
5937081596,二林藥局,彰化縣二林鎮斗苑路五段３９號,120.3709,23.89951,(04)8950010,羅氏家用新冠病毒抗原自我檢測套組,78,2022/05/09 11:10:02,快篩實名制，每天16:00開始販售，售完為止。
5937091056,線西藥局,彰化縣線西鄉寓埔村中央路二段４８號,120.4709,24.13103,(04)7582482,羅氏家用新冠病毒抗原自我檢測套組,78,2022/05/09 11:10:02,快篩試劑 請FB搜尋[線西藥局] 週一至週五中午12點開始  週六早上9點開始 週日公休
5937121237,福慧藥局,彰化縣秀水鄉彰水路２段２０３號,120.4917,24.02402,(04)7689180,羅氏家用新冠病毒抗原自我檢測套組,30,2022/05/09 11:10:02,1.早上8；45開始營業，早上9:00開始販售口罩 2.每日中午12:00-15:00休息
5937121317,彰水藥局,彰化縣秀水鄉彰水路二段４２５、４２７、４２９號１樓,120.4943,24.02791,(04)7685880,羅氏家用新冠病毒抗原自我檢測套組,78,2022/05/09 11:10:02,快篩實名制，每天16:00開始販售，售完為止。
5937131233,春生藥局花壇店,彰化縣花壇鄉花壇村中正路５７－１號,120.5225,24.03964,(04)7867715,羅氏家用新冠病毒抗原自我檢測套組,16,2022/05/09 11:10:02,周一至周日10:30開始販賣
5937140027,金宏恩藥局,彰化縣芬園鄉社口村彰南路４段１０８巷１２號,120.6289,24.01385,(049)2522391,羅氏家用新冠病毒抗原自我檢測套組,5,2022/05/09 11:10:02,每日早上07:00發放號碼牌，8:00開始販賣口罩（全年無休）
5937201105,安利藥局,彰化縣二水鄉光化村員集路４段３號,120.6159,23.81147,(04)8794933,羅氏家用新冠病毒抗原自我檢測套組,72,2022/05/09 11:10:02,快篩下午3點現場販售 不發號碼牌 身障.醫護可優先購買
5937261227,成記大藥局,彰化縣溪州鄉中山路三段３００號,120.4935,23.85316,(04)8891788,羅氏家用新冠病毒抗原自我檢測套組,1,2022/05/09 11:10:02,周一至周日09:30開始販售，售完為止
5937261236,溪州貓頭鷹藥局,彰化縣溪州鄉中山路三段臨２９１號、２９３號,120.4933,23.85328,(04)8890101,羅氏家用新冠病毒抗原自我檢測套組,2,2022/05/09 11:10:02,無
5938011838,愛馨藥局,南投縣南投市中山街１４巷１５號,120.687,23.90573,(049)2206006,羅氏家用新冠病毒抗原自我檢測套組,78,2022/05/09 11:10:02,周一至周六14:30開始販售，周日9:00販售
5938011909,彰南藥局,南投縣南投市彰南路二段２１號,120.6845,23.90847,(049)2230005,羅氏家用新冠病毒抗原自我檢測套組,78,2022/05/09 11:10:02,無
5938020079,仁和藥局,南投縣埔里鎮薰化里中山路三段９７號,120.9631,23.96619,(049)2985470,羅氏家用新冠病毒抗原自我檢測套組,1,2022/05/09 11:10:02,固定周一至周日上午10.00快篩開賣，售完為止
5938021772,集成藥局,南投縣埔里鎮南興街２７０號,120.9644,23.96386,(049)2992837,羅氏家用新冠病毒抗原自我檢測套組,44,2022/05/09 11:10:02,避免群聚~改成預約制~5／9~5／15已預約完畢~目前停止預約
5938021781,幸福藥局,南投縣埔里鎮中正路５４８號,120.9643,23.96946,(049)2999800,羅氏家用新冠病毒抗原自我檢測套組,72,2022/05/09 11:10:02,無
5938021969,宜康健保藥局,南投縣埔里鎮南昌街２６１號,120.9637,23.96682,(049)2904170,羅氏家用新冠病毒抗原自我檢測套組,8,2022/05/09 11:10:02,固定早上8:30開始販賣防疫口罩售完為止
5938022064,大樹埔里藥局,南投縣埔里鎮中正路４３８號,120.9632,23.97263,(049)2980805,羅氏家用新冠病毒抗原自我檢測套組,78,2022/05/09 11:10:02,快篩實名制，每天16:00開始販售，售完為止。
5938022135,草新健保藥局,南投縣埔里鎮中山路二段３９０號,120.9658,23.96401,(049)2901689,羅氏家用新冠病毒抗原自我檢測套組,1,2022/05/09 11:10:02,口罩販售時間：週一到週日早上九點半開始販售，沒有發放號碼牌，售完為止。
5938030253,健泰藥局,南投縣草屯鎮碧峰里碧山路１０８２號,120.6574,23.97377,(049)92336280,羅氏家用新冠病毒抗原自我檢測套組,1,2022/05/09 11:10:02,快篩試劑8點半開賣，週日固定公休。
5938032480,草屯藥局,南投縣草屯鎮碧山路１４５、１４７號,120.6834,23.9778,(049)2362992,羅氏家用新冠病毒抗原自我檢測套組,78,2022/05/09 11:10:02,快篩實名制，每天16:00開始販售，售完為止。
5938032560,祥陽藥局,南投縣草屯鎮中正路８２２、８２４號,120.6854,23.98276,(049)2353393,羅氏家用新冠病毒抗原自我檢測套組,78,2022/05/09 11:10:02,快篩實名制，每天16:00開始販售，售完為止。
5938041729,早安藥局,南投縣竹山鎮雲林路４１號,120.6834,23.75608,(049)2651032,羅氏家用新冠病毒抗原自我檢測套組,1,2022/05/09 11:10:02,實名制快篩試劑早上10點開始販售
5938041916,大明藥局,南投縣竹山鎮大明路４８２號,120.6798,23.759,(049)2652500,羅氏家用新冠病毒抗原自我檢測套組,78,2022/05/09 11:10:02,快篩實名制，每天16:00開始販售，售完為止。
5938050120,家禾藥局,南投縣集集鎮民生路２３７號,120.779,23.82647,(049)2760565,羅氏家用新冠病毒抗原自我檢測套組,1,2022/05/09 11:10:02,快篩代售：w1~w5 下午2：00（當場發放號碼牌，而後當場代售）
5938110023,杏仁藥局,南投縣水里鄉新城村民權路２３６號,120.8526,23.81758,(049)2776008,羅氏家用新冠病毒抗原自我檢測套組,78,2022/05/09 11:10:02,周一到周六，下午2:30販售快篩，售完為止，星期日休息
5938110078,立特藥局,南投縣水里鄉中央村中正路６８號,120.8543,23.81587,(049)2775837,羅氏家用新冠病毒抗原自我檢測套組,1,2022/05/09 11:10:02,每天早上8點現場排隊持健保卡領號碼牌，中午12點至晚上9點半持號碼牌領快篩劑.
5938130016,永康藥局,南投縣仁愛鄉大同村仁和路８４號,121.1324,24.02249,(049)2802730,羅氏家用新冠病毒抗原自我檢測套組,78,2022/05/09 11:10:02,醫療口罩領取星期一到星期五早上九點到十二點
5939010504,桂賓藥局,雲林縣斗六市信義里鎮北路３號,120.5432,23.71143,(05)5332138,羅氏家用新冠病毒抗原自我檢測套組,75,2022/05/09 11:10:02,週五.六.日 休息 沒售快篩
5939012400,陽光藥局,雲林縣斗六市永安路６９號,120.548,23.70923,(05)5362097,羅氏家用新冠病毒抗原自我檢測套組,72,2022/05/09 11:10:02,快篩16:00開賣~現場排隊，請勿電話詢問
5939012526,世明中西藥局,雲林縣斗六市文化路３２４－１號,120.5532,23.71162,(05)5333109,羅氏家用新冠病毒抗原自我檢測套組,21,2022/05/09 11:10:02,口罩販售:於周一到周日營業時間9:00~售完為止，快篩試劑販售:於周一到周六營業時間14:00開賣~售完為止
5939012580,林博彥藥師藥局,雲林縣斗六市莊敬路６５號,120.5495,23.70354,(05)5361258,羅氏家用新冠病毒抗原自我檢測套組,9,2022/05/09 11:10:02,無
5939020091,全安藥局,雲林縣斗南鎮中天里中正路１２３號,120.4783,23.67655,(05)5965255,羅氏家用新冠病毒抗原自我檢測套組,6,2022/05/09 11:10:02,10點開始販售快篩 售完為止
5939020171,仁安堂藥局,雲林縣斗南鎮南昌里文元街４３號,120.4778,23.67535,(05)5952020,羅氏家用新冠病毒抗原自我檢測套組,5,2022/05/09 11:10:02,服務時間 : 周一至周六AM8:00-PM10:00 ／ 周日AM8:00-PM6:00
5939021294,玲津藥局,雲林縣斗南鎮中山路１７之２號,120.4801,23.67372,(05)5972889,羅氏家用新冠病毒抗原自我檢測套組,20,2022/05/09 11:10:02,周一至周六.上午8-12 14:30-18 週日9-11
5939021463,安瑞藥局,雲林縣斗南鎮新興街９４號,120.48,23.67483,(05)5972099,羅氏家用新冠病毒抗原自我檢測套組,24,2022/05/09 11:10:02,因物流配送時間不一定，原則上9:00販售
5939021570,他里霧藥局,雲林縣斗南鎮民權路１９號,120.479,23.67382,(05)5950560,羅氏家用新冠病毒抗原自我檢測套組,3,2022/05/09 11:10:02,快篩試劑   星期六 日早上8點開始販賣
5939030177,上方藥局,雲林縣虎尾鎮中山里中正路１７７號,120.4325,23.70765,(05)6332828,羅氏家用新冠病毒抗原自我檢測套組,10,2022/05/09 11:10:02,快篩採號碼牌販售，星期一至六早上8點30分開始發放，請提早來排隊，星期天無快篩販售服務
5939030355,祥惠藥局,雲林縣虎尾鎮惠來里惠來８１之５號,120.4892,23.72847,(05)6224308,羅氏家用新冠病毒抗原自我檢測套組,18,2022/05/09 11:10:02,週日請先電話洽詢
5939031996,端發藥局,雲林縣虎尾鎮林森路一段３２９號,120.4368,23.71237,(05)6314168,羅氏家用新冠病毒抗原自我檢測套組,68,2022/05/09 11:10:02,販賣快篩時間:每日14:30-售完為止請提早排隊
5939032724,虎尾藥局,雲林縣虎尾鎮林森路二段１１７、１１９號,120.4298,23.70595,(05)6336330,羅氏家用新冠病毒抗原自我檢測套組,78,2022/05/09 11:10:02,新開業， 5／4網路建置完成 每日下午16:00開始販售
5939041849,西螺藥局,雲林縣西螺鎮光復西路１２３、１２５號,120.4612,23.79675,(05)5872112,羅氏家用新冠病毒抗原自我檢測套組,78,2022/05/09 11:10:02,快篩實名制，每天16:00開始販售，售完為止。
5939041901,佑全西螺建興藥局,雲林縣西螺鎮建興路２４９號,120.4593,23.80042,(05)5883161,羅氏家用新冠病毒抗原自我檢測套組,22,2022/05/09 11:10:02,無
5939041910,西螺啄木鳥藥局,雲林縣西螺鎮中山路２４９號,120.4558,23.7993,(05)5875195,羅氏家用新冠病毒抗原自我檢測套組,39,2022/05/09 11:10:02,5／3起，每日11:00開始販售實名制快篩，快篩以當日收貨數量為準
5939050044,健康藥局,雲林縣土庫鎮順天里中正路１１號,120.388,23.6739,(05)6622889,羅氏家用新冠病毒抗原自我檢測套組,1,2022/05/09 11:10:02,代售口罩時間早上七點三十五分開始，現場排隊，售完為止
5939051238,天愛藥局,雲林縣土庫鎮中山路８０號,120.3903,23.6749,(05)6629923,羅氏家用新冠病毒抗原自我檢測套組,6,2022/05/09 11:10:02,無
5939061805,宜康藥局,雲林縣北港鎮公園路１５９號,120.3011,23.57754,(05)7820685,羅氏家用新冠病毒抗原自我檢測套組,2,2022/05/09 11:10:02,販賣口罩時間:0830-2200
5939071310,禾安藥局,雲林縣古坑鄉朝陽村中山路１３６－１號,120.562,23.64552,(05)5828318,羅氏家用新冠病毒抗原自我檢測套組,9,2022/05/09 11:10:02,口罩代售時間每日上午8:00發號碼販售，售完為止
5939071329,光明藥局,雲林縣古坑鄉東和村文化路１３９－９號,120.5675,23.68493,(05)5263736,羅氏家用新冠病毒抗原自我檢測套組,50,2022/05/09 11:10:02,快篩試劑販賣時間：11點
5939091269,禾季藥局,雲林縣莿桐鄉興貴村興北１０之１４號,120.5236,23.77634,(05)5713685,羅氏家用新冠病毒抗原自我檢測套組,3,2022/05/09 11:10:02,快篩販售時間早上10點半 （周日公休）
5939171039,嘉民藥局,雲林縣元長鄉長南村元南路６２號,120.3124,23.64811,(05)7880513,羅氏家用新冠病毒抗原自我檢測套組,9,2022/05/09 11:10:02,無
5939181339,威仁藥局,雲林縣四湖鄉中山西路７０號,120.2237,23.6378,(05)7875041,羅氏家用新冠病毒抗原自我檢測套組,43,2022/05/09 11:10:02,無
5939201283,義生藥局,雲林縣水林鄉水林路１９７號,120.2445,23.57217,(05)7853701,羅氏家用新冠病毒抗原自我檢測套組,1,2022/05/09 11:10:02,販賣快篩時間:如營業時間
5940031386,大樹大林藥局,嘉義縣大林鎮祥和路１９２號,120.4527,23.60447,(05)2641800,羅氏家用新冠病毒抗原自我檢測套組,78,2022/05/09 11:10:02,快篩實名制，每天16:00開始販售，售完為止。
5940040045,七星藥局,嘉義縣民雄鄉東榮村中樂路１６號,120.4313,23.55643,(05)2261977,羅氏家用新冠病毒抗原自我檢測套組,1,2022/05/09 11:10:02,周一~周日 08:00-售罄
5940040072,三和藥局,嘉義縣民雄鄉中樂村中樂路５３號,120.4302,23.55603,(05)2262488,羅氏家用新冠病毒抗原自我檢測套組,35,2022/05/09 11:10:02,現場到貨後開始賣，星期天沒有販售
5940040081,惠民藥局,嘉義縣民雄鄉福樂村埤角１０２號,120.4413,23.52544,(05)2211466,羅氏家用新冠病毒抗原自我檢測套組,7,2022/05/09 11:10:02,星期一~星期六.上午10:30開始販售
5940040349,正道藥局,嘉義縣民雄鄉中樂村復興路３８號,120.4304,23.55706,(05)2268345,羅氏家用新冠病毒抗原自我檢測套組,67,2022/05/09 11:10:02,周一~周六 15:00-售罄周日 視人力彈性發放08:30-12:00
5940041435,嘉方藥局,嘉義縣民雄鄉中樂村昇平路５８號,120.4303,23.55781,(05)2066747,羅氏家用新冠病毒抗原自我檢測套組,12,2022/05/09 11:10:02,早上08:00開始販賣，賣完為止，周六晚休、周日午晚休
5940041480,安生藥局,嘉義縣民雄鄉昇平路１２號,120.43,23.55676,(05)2262053,羅氏家用新冠病毒抗原自我檢測套組,6,2022/05/09 11:10:02,周一~周日 08:30-售罄
5940041668,民雄照安藥局,嘉義縣民雄鄉中樂路２１號１樓,120.431,23.55621,(05)2060368,羅氏家用新冠病毒抗原自我檢測套組,10,2022/05/09 11:10:02,周一至周日8:00開始販售口罩，現場排隊，售完為止
5940041739,民雄藥局,嘉義縣民雄鄉東榮村００５鄰建國路一段１１７號,120.4333,23.55681,(05)2264566,羅氏家用新冠病毒抗原自我檢測套組,78,2022/05/09 11:10:02,快篩實名制，每天16:00開始販售，售完為止。
5940041748,大祐藥局,嘉義縣民雄鄉西安村西安路２１－１號１樓,120.4272,23.5564,(05)2067077,羅氏家用新冠病毒抗原自我檢測套組,37,2022/05/09 11:10:02,週日下午晚上休息
5940041837,雄讚藥局,嘉義縣民雄鄉北斗村北勢子５６－３８號１樓,120.4547,23.5327,(05)2212226,羅氏家用新冠病毒抗原自我檢測套組,71,2022/05/09 11:10:02,快篩每日中午12點開始販售（現場排隊人數額滿即提前販售）
5940071102,良信藥局,嘉義縣六腳鄉蒜頭村１９０－５號,120.292,23.4947,(05)3805085,羅氏家用新冠病毒抗原自我檢測套組,78,2022/05/09 11:10:02,快篩實名制 預訂W1-W5 13:30； W6 08:30（若未獲配送 則可能停售））； 周日 休息
5940111576,太保照安藥局,嘉義縣太保市麻寮里中山路２段２９—２號１樓,120.3768,23.49864,(05)2381076,羅氏家用新冠病毒抗原自我檢測套組,25,2022/05/09 11:10:02,無
5940130035,康寧藥局,嘉義縣中埔鄉中山路５段９１９號,120.4601,23.45266,(05)2391380,羅氏家用新冠病毒抗原自我檢測套組,15,2022/05/09 11:10:02,販售口罩時間   08:00~售完
5940131283,一心藥局,嘉義縣中埔鄉富收村頂中下街３１、３１－１號１樓,120.4885,23.45077,(05)2303553,羅氏家用新冠病毒抗原自我檢測套組,68,2022/05/09 11:10:02,無
5940141289,好鄰居藥局,嘉義縣竹崎鄉灣橋村灣橋３４１號,120.5053,23.49111,(05)2793899,羅氏家用新冠病毒抗原自我檢測套組,45,2022/05/09 11:10:02,快篩販賣時間為早上11點，星期六固定公休，5／8為下午5點開賣。
5941041297,台灣藥局,臺南市麻豆區信義路１１之１３號,120.2505,23.18212,(06)5726126,羅氏家用新冠病毒抗原自我檢測套組,1,2022/05/09 11:10:02,星期一~星期五 下午1點販售         星期六～星期日 早上8點販售
5941070074,弘松健保藥局,臺南市善化區中興路１０８號,120.2913,23.13166,(06)5819146,羅氏家用新冠病毒抗原自我檢測套組,59,2022/05/09 11:10:02,週一~週六 下午15：00
5941080016,世酆藥局,臺南市學甲區仁得里成功路１１－１號,120.1805,23.23176,(06)7838779,羅氏家用新冠病毒抗原自我檢測套組,13,2022/05/09 11:10:02,口罩販售時間：07:30-120 份  15:00-80份
5941270163,太子藥局,臺南市仁德區太子里太子路３３８號,120.2577,22.99146,(06)2729906,羅氏家用新冠病毒抗原自我檢測套組,1,2022/05/09 11:10:02,5／9快篩.已售完.
5941310715,都都藥局,臺南市永康區中山南路１２８號,120.2302,23.01319,(06)2037887,羅氏家用新冠病毒抗原自我檢測套組,47,2022/05/09 11:10:02,快篩實名制:每日11:00開始販售
5942013699,新怡安藥局,高雄市鳳山區海洋里新富路５１２號,120.3474,22.61403,(07)7633565,羅氏家用新冠病毒抗原自我檢測套組,1,2022/05/09 11:10:02,快篩如果送貨正常一般都早上九點販售  如果供貨時間異常就下午兩點
5942020176,平和藥局,高雄市岡山區岡山路２６８號,120.2961,22.79292,(07)6212592,羅氏家用新冠病毒抗原自我檢測套組,57,2022/05/09 11:10:02,實名制快篩，周一~周五下午2點開始販售，售完為止
5942060152,洋洋藥局,高雄市大寮區中庄里鳳屏一路５１２號,120.3936,22.63664,(07)7034256,羅氏家用新冠病毒抗原自我檢測套組,60,2022/05/09 11:10:02,無
5942081384,大安藥局,高雄市仁武區仁雄路８１－４號,120.3472,22.67789,(07)3743293,羅氏家用新冠病毒抗原自我檢測套組,34,2022/05/09 11:10:02,快篩早上11點後，過卡販售快篩，若當日較晚到貨則依到貨時間銷售，售完為止
5942100080,復元藥局,高雄市鳥松區鳥松村大仁南路５號,120.3626,22.66233,(07)7312979,羅氏家用新冠病毒抗原自我檢測套組,78,2022/05/09 11:10:02,家用快篩銷售時間1400開始   售完為止
5942190039,立達藥局,高雄市彌陀區中正西路２５９－２號,120.2453,22.785,(07)6179277,羅氏家用新冠病毒抗原自我檢測套組,49,2022/05/09 11:10:02,5／9（一） 上午11:00開賣，單號，一人一卡。
5943013166,名正生活美藥局,屏東縣屏東市復興南路１段９９號,120.4862,22.65322,(08)7524395,羅氏家用新冠病毒抗原自我檢測套組,1,2022/05/09 11:10:02,營業日PM2:00為販賣實名制快篩時間，售完為止~謝謝
5943013853,復順藥局,屏東縣屏東市公園東路８４－２號,120.4986,22.67217,(08)7215662,羅氏家用新冠病毒抗原自我檢測套組,56,2022/05/09 11:10:02,自2／11日~12／31日，快篩需預約登記
5943013915,怡安生活藥粧藥局,屏東縣屏東市大連里瑞光路２段１３８號１樓,120.5092,22.67687,(08)7377162,羅氏家用新冠病毒抗原自我檢測套組,78,2022/05/09 11:10:02,快篩販售時間：週一至周六下午1點販售.現場排隊售完為止，週日機動調整販售，，一次僅限一人入場購買。
5943021588,成昌藥局,屏東縣潮州鎮永春里光春路９６號１樓,120.5375,22.54291,(08)7801199,羅氏家用新冠病毒抗原自我檢測套組,64,2022/05/09 11:10:02,實名制快篩販賣時間為每天早上11點開始販售
5943031833,東港啄木鳥藥局,屏東縣東港鎮興東二街１６號,120.4642,22.47816,(08)8327125,羅氏家用新冠病毒抗原自我檢測套組,78,2022/05/09 11:10:02,下午2:00 （若當天配送延誤，時間另行公布）
5943031851,大眾藥局,屏東縣東港鎮朝隆路７６號,120.4463,22.46862,(08)8354752,羅氏家用新冠病毒抗原自我檢測套組,78,2022/05/09 11:10:02,實名制快篩下午三點開始販售
5943031897,欣大眾藥局,屏東縣東港鎮中正路一段９２號,120.4569,22.47272,(08)8351177,羅氏家用新冠病毒抗原自我檢測套組,78,2022/05/09 11:10:02,無
5943041357,西門藥局,屏東縣恆春鎮西門路１０８號,120.7437,22.00793,(08)8896980,羅氏家用新冠病毒抗原自我檢測套組,78,2022/05/09 11:10:02,快篩實名制，每天16:00開始販售，販售完為止
5943051415,好藥多藥局,屏東縣萬丹鄉水泉村萬新路１３８８號,120.4892,22.57943,(08)7770055,羅氏家用新冠病毒抗原自我檢測套組,24,2022/05/09 11:10:02,2／11-2／29，營業時間8:00為口罩販賣時間，售完為止
5943125189,寶合康藥局,屏東縣萬巒鄉佳和村佳興路３６－８號,120.596,22.57264,(08)7831017,羅氏家用新冠病毒抗原自我檢測套組,58,2022/05/09 11:10:02,營業日13:00至17:00為販賣快篩時間
5943125205,萬巒健保藥局,屏東縣萬巒鄉褒忠路７７號,120.5705,22.57219,(08)7815919,羅氏家用新冠病毒抗原自我檢測套組,36,2022/05/09 11:10:02,自2／11日~2／29日，營業日09:00發號碼牌，14:30~21:00為販賣口罩時間，售完為止。
5943170095,長安中西藥局,屏東縣新園鄉中洲村南興路１９４號,120.4586,22.48776,(08)8336986,羅氏家用新冠病毒抗原自我檢測套組,1,2022/05/09 11:10:02,自2／11~2／29日，販賣口罩時間9:00起，售完為止。
5943221051,明德藥局,屏東縣琉球鄉本福村中山路１５１號,120.3818,22.35203,(08)8611278,羅氏家用新冠病毒抗原自我檢測套組,4,2022/05/09 11:10:02,8:30 發放號碼牌  10:00-12:00 販賣實名制快篩
5944010043,新見安藥局,澎湖縣馬公市光明里光復路９５號,119.5703,23.57152,(06)9277346,羅氏家用新冠病毒抗原自我檢測套組,8,2022/05/09 11:10:02,販賣口罩時間:早上7:30-12:30，下午2:30-6:00，晚上7:00-9:30。
5945010056,健安藥局,花蓮縣花蓮市中山路５３７號,121.6019,23.98627,(03)8323031,羅氏家用新冠病毒抗原自我檢測套組,21,2022/05/09 11:10:02,快篩領取時間早上11:00開始 上班時間am8；30-pm9；00 周日 休
5945010154,郭藥局,花蓮縣花蓮市中美路９５號之３,121.6246,23.99018,(03)8230761,羅氏家用新冠病毒抗原自我檢測套組,70,2022/05/09 11:10:02,服務時段：上午10-12、下午2:30-4:30、晚上7-8:30
5945012210,維格藥局,花蓮縣花蓮市富國路４８號,121.5957,23.99097,(03)8562335,羅氏家用新冠病毒抗原自我檢測套組,11,2022/05/09 11:10:02,快篩發放上午十點現場排隊 星期日公休
5945012863,承祐藥局,花蓮縣花蓮市建國路２６６號,121.5994,23.98438,(03)8338261,羅氏家用新冠病毒抗原自我檢測套組,4,2022/05/09 11:10:02,販售時間：
5945013226,國泰藥局,花蓮縣花蓮市中華路４５９－１號,121.5902,23.97388,(03)8530959,羅氏家用新冠病毒抗原自我檢測套組,3,2022/05/09 11:10:02,快篩販售時間以實際收到貨時間再訂販賣時間
5945013235,祥悅藥局,花蓮縣花蓮市和平路５４９號,121.6005,23.97761,(03)8323808,羅氏家用新冠病毒抗原自我檢測套組,3,2022/05/09 11:10:02,9:00-11:00、16:30-18:30（快篩十點後販售  禮拜六依實際到貨情況販售 禮拜日無販售）
5945013299,柏陞藥局,花蓮縣花蓮市和平路４９８號,121.6013,23.97698,(03)8315339,羅氏家用新冠病毒抗原自我檢測套組,8,2022/05/09 11:10:02,預約制:預約隔日~留卡（注意單雙號）留現金 目前限量78盒 取貨時間:下午5點~7點
5945021040,人和藥局,花蓮縣鳳林鎮中正路２００號,121.45,23.74899,(03)8762712,羅氏家用新冠病毒抗原自我檢測套組,15,2022/05/09 11:10:02,無
5945051646,花蓮建國藥局,花蓮縣吉安鄉建國路１段１３７－１號,121.5915,23.98574,(03)8461699,羅氏家用新冠病毒抗原自我檢測套組,3,2022/05/09 11:10:02,快篩實名制，每天16:00開始販售，售完為止。
5946012170,維康藥局台東馬偕店,臺東縣臺東市長沙街１９６號,121.1412,22.75162,(089)354750,羅氏家用新冠病毒抗原自我檢測套組,2,2022/05/09 11:10:02,無
5946080552,伯安健康藥局,臺東縣長濱鄉長濱村１０鄰長濱路１０５號,121.4515,23.31496,(089)832519,羅氏家用新冠病毒抗原自我檢測套組,40,2022/05/09 11:10:02,無
5946101118,伯安藥局,臺東縣池上鄉新生路１１６號,121.2187,23.12315,(089)863585,羅氏家用新冠病毒抗原自我檢測套組,98,2022/05/09 11:10:02,早0800-1200，午1400-1800，晚1800-2000
5990010695,百泰藥局,金門縣金城鎮西海路１段１號,118.2864,24.41566,(082)312832,羅氏家用新冠病毒抗原自我檢測套組,78,2022/05/09 11:10:02,快篩實名制，每天16:00開始販售，售完為止。
