醫事機構代碼,醫事機構名稱,醫事機構地址,經度,緯度,醫事機構電話,廠牌項目,快篩試劑截至目前結餘存貨數量,來源資料時間,備註
2340170016,嘉義縣大埔鄉衛生所,嘉義縣大埔鄉大埔村５３－１號,120.5928,23.29397,(05)2521214,羅氏家用新冠病毒抗原自我檢測套組,47,2022/05/11 18:29:02,無
2342270019,高雄市那瑪夏區衛生所,高雄市那瑪夏區瑪雅里６鄰平和巷２５２號,120.7024,23.24708,(07)6701142,羅氏家用新冠病毒抗原自我檢測套組,1,2022/05/11 18:29:02,春節期間正常門診
2344011036,澎湖縣馬公市第三衛生所,澎湖縣馬公市西文里１１８之２號,119.5836,23.56813,(06)9211723,羅氏家用新冠病毒抗原自我檢測套組,27,2022/05/11 18:29:02,本所快篩試劑只提供離島衛生室（虎井、桶盤）販售，時間週一至週五08:30-17:00售完為止，星期六、日國定假日09:00-12:00。
2344030022,澎湖縣白沙鄉鳥嶼衛生所,澎湖縣白沙鄉鳥嶼村漁港新村３號,119.6599,23.66008,(06)9916092,羅氏家用新冠病毒抗原自我檢測套組,147,2022/05/11 18:29:02,非上班時間提供急診服務
2344030031,澎湖縣白沙鄉吉貝衛生所,澎湖縣白沙鄉吉貝村８－１３號,119.6138,23.74056,(06)9911430,羅氏家用新冠病毒抗原自我檢測套組,229,2022/05/11 18:29:02,無
2344050015,澎湖縣望安鄉衛生所,澎湖縣望安鄉西安村３６－７號,119.4972,23.36161,(06)9991036,羅氏家用新冠病毒抗原自我檢測套組,17,2022/05/11 18:29:02,夜間急診。快篩試劑販售時間為:每日08:00-12:00、13:30-17:30售完為止，如有餘數為離島未售出（東嶼坪、花嶼）。
2344050024,澎湖縣望安鄉將軍衛生所,澎湖縣望安鄉將軍村１２鄰將軍澳１之３號,119.5216,23.3615,(06)9902066,羅氏家用新冠病毒抗原自我檢測套組,21,2022/05/11 18:29:02,24小時急診
2346160014,台東縣蘭嶼鄉衛生所,臺東縣蘭嶼鄉紅頭村３６號,121.5546,22.02493,(089)732575,羅氏家用新冠病毒抗原自我檢測套組,22,2022/05/11 18:29:02,販售口罩時間 星期一至星期五 8:00~12:00 13:30~17:30
2391020010,連江縣北竿鄉衛生所,連江縣北竿鄉塘岐村２８１－６號,119.9991,26.22617,(083)655592,羅氏家用新冠病毒抗原自我檢測套組,19,2022/05/11 18:29:02,新冠快篩試劑販售於週一至周六每日上午08:30-12:00開放購買。
2391030016,連江縣莒光鄉西莒衛生所,連江縣莒光鄉青帆村１４－１號,119.9331,25.97157,(083)689122,羅氏家用新冠病毒抗原自我檢測套組,207,2022/05/11 18:29:02,防疫口罩星期一至五09:00-17:00、（六）09:00-12:00現場購買
2391030026,連江縣莒光鄉東莒衛生所,連江縣莒光鄉大坪村３０－１號,119.9731,25.96113,(083)689038,羅氏家用新冠病毒抗原自我檢測套組,434,2022/05/11 18:29:02,防疫口罩星期一至星期日上午10:00-12:00收取健保卡，下午3:30至本所領取口罩。
5901012570,予志藥局,臺北市松山區富錦街５２１號,121.5649,25.06119,(02)27623522,羅氏家用新冠病毒抗原自我檢測套組,1,2022/05/11 18:29:02,實名制快篩星期一到三下午2點、星期四到六晚上8點、星期日停售
5901012598,婕登藥局,臺北市松山區八德路４段６９９號,121.5766,25.05021,(02)27482893,羅氏家用新冠病毒抗原自我檢測套組,13,2022/05/11 18:29:02,今天快篩已經發送完畢（電腦庫存不準）
5901013095,康采藥局,臺北市松山區南京東路５段２９１巷１７－２號,121.5663,25.05236,(02)27670271,羅氏家用新冠病毒抗原自我檢測套組,13,2022/05/11 18:29:02,（已完售，庫存不準）快篩試劑每日16點販售，週日沒有販售
5901013693,民生盛康藥局,臺北市松山區民生東路５段２０４號１樓,121.5648,25.05826,(02)27460758,羅氏家用新冠病毒抗原自我檢測套組,58,2022/05/11 18:29:02,【每日70分】星期一~六9:00發號碼牌，11:00~20:00拿號碼牌回來領取，每人限1張號碼牌，逾時不候
5901013700,杏一台北台安藥局,臺北市松山區八德路２段３９９號１樓,121.5465,25.04833,(02)87728295,羅氏家用新冠病毒抗原自我檢測套組,2,2022/05/11 18:29:02,快篩實名制販售時間為每天下午15:00，開賣前10分鐘發放號碼牌，售完為止
5901020385,延吉大藥局,臺北市大安區延吉街１５３號１樓,121.5548,25.04066,(02)27819227,羅氏家用新冠病毒抗原自我檢測套組,54,2022/05/11 18:29:02,無
5901020689,四維藥局,臺北市大安區復興南路２段１５１巷４３號１樓,121.5454,25.02846,(02)27094222,羅氏家用新冠病毒抗原自我檢測套組,2,2022/05/11 18:29:02,假日可先打電話聯絡
5901021408,生百藥局,臺北市大安區臨江街１２４號,121.5539,25.03024,(02)27371011,羅氏家用新冠病毒抗原自我檢測套組,72,2022/05/11 18:29:02,無
5901024098,杏一瑞安藥局,臺北市大安區瑞安街２０８巷１１弄１號,121.5406,25.02866,(02)27096710,羅氏家用新冠病毒抗原自我檢測套組,78,2022/05/11 18:29:02,3點發快篩，前5分鐘發牌
5901024221,安居藥局,臺北市大安區安居街１９號,121.5549,25.02085,(02)23773537,羅氏家用新冠病毒抗原自我檢測套組,78,2022/05/11 18:29:02,領快篩注意事項:週一到週五晚上7:30-9:00 週六早上8:00-12:00直接排隊購買 .週日不營業
5901024918,康祥藥局,臺北市大安區忠孝東路４段２１６巷２１號,121.5531,25.04025,(02)27817891,羅氏家用新冠病毒抗原自我檢測套組,2,2022/05/11 18:29:02,星期天11:00-19:00
5901092149,123宅藥局,臺北市大同區鄭州路１２３號（１樓）,121.5109,25.05033,(02)25588699,羅氏家用新冠病毒抗原自我檢測套組,2,2022/05/11 18:29:02,【家用快篩實名制】週一至週五17:30 開始販售 ； 週六、週日10:30 開始販售。★前十分鐘開始發放號碼牌
5901100333,明美藥局,臺北市中山區長春路６９號,121.5266,25.05502,(02)25365419,羅氏家用新冠病毒抗原自我檢測套組,3,2022/05/11 18:29:02,口罩周一至周五，16:30-18:30販售
5901100422,滿順藥局,臺北市中山區伊通街５４號１樓,121.5347,25.05145,(02)25075283,羅氏家用新冠病毒抗原自我檢測套組,1,2022/05/11 18:29:02,快篩服務時間 AM 8:30 起 售完為止
5901101509,永直藥局,臺北市中山區北安路５９５巷２弄６號,121.5483,25.08192,(02)85098059,羅氏家用新冠病毒抗原自我檢測套組,173,2022/05/11 18:29:02,周一至周六早上8點發號碼牌，下午2點到晚上8點販售（拿號碼牌來買），周日不販售
5901101910,嘉恩藥局,臺北市中山區錦州街３２１號,121.5385,25.06033,(02)25181418,羅氏家用新冠病毒抗原自我檢測套組,43,2022/05/11 18:29:02,週一至週六下午一點販售快篩試劑
5901101929,樂活苑藥局,臺北市中山區北安路５４６號１樓,121.548,25.08014,(02)25323296,羅氏家用新冠病毒抗原自我檢測套組,43,2022/05/11 18:29:02,實名制快篩代售時間為18:00~19:00.現場排隊，不發號碼牌.
5901103585,禾全藥局,臺北市中山區龍江路３３２號,121.5409,25.06532,(02)25165721,羅氏家用新冠病毒抗原自我檢測套組,39,2022/05/11 18:29:02,實名制快篩發放時間：1400、19:00  ；現場排隊
5901103629,十二願藥局,臺北市中山區林森北路３０９號,121.5256,25.05588,(02)25311223,羅氏家用新冠病毒抗原自我檢測套組,77,2022/05/11 18:29:02,快篩晚上8點開始發放.營業時間下午1點至凌晨3點
5901103674,康廷藥局,臺北市中山區北安路６１１號（實際營業地址：１層）,121.5488,25.08253,(02)25335890,羅氏家用新冠病毒抗原自我檢測套組,8,2022/05/11 18:29:02,5／11今日單號 庫存是真的 賣完為止
5901112011,文新藥局,臺北市內湖區文湖街７－５號１樓,121.5599,25.08544,(02)87978865,羅氏家用新冠病毒抗原自我檢測套組,27,2022/05/11 18:29:02,快篩販售時間:周一~周五 18:00~21:00 ／ 周六 10:00~12:00 ，賣完為止
5901113018,桔子藥局,臺北市內湖區內湖路２段３３３號,121.5917,25.08319,(02)27930052,羅氏家用新冠病毒抗原自我檢測套組,78,2022/05/11 18:29:02,早0900-1200，午1400-1700，晚1900-2100
5901121672,亞博藥師藥局,臺北市南港區興華路８１號,121.6061,25.05545,(02)27838090,羅氏家用新冠病毒抗原自我檢測套組,6,2022/05/11 18:29:02,無
5901121734,湳港藥局,臺北市南港區研究院路１段１０１巷１２號,121.6167,25.05175,(02)27892200,羅氏家用新冠病毒抗原自我檢測套組,1,2022/05/11 18:29:02,週一至週日，2:30開賣（政府有配送的況狀下）（沒有發放號碼牌），售完為止
5901121841,泓安藥局,臺北市南港區興華路７５號,121.6061,25.05517,(02)27861083,羅氏家用新冠病毒抗原自我檢測套組,4,2022/05/11 18:29:02,星期一至星期日早上10:00開賣快篩試劑
5901150271,建芳藥局,臺北市士林區德行東路１４８號,121.5296,25.10804,(02)28357172,羅氏家用新冠病毒抗原自我檢測套組,2,2022/05/11 18:29:02,無
5901150548,田倉藥局,臺北市士林區士東路１２４號,121.5302,25.11219,(02)88662188,羅氏家用新冠病毒抗原自我檢測套組,76,2022/05/11 18:29:02,每日19:00（傍晚7點）開始販售.
5901152079,資生堂藥局,臺北市士林區承德路４段４０巷１７號１Ｆ,121.522,25.08107,(02)28857588,羅氏家用新冠病毒抗原自我檢測套組,78,2022/05/11 18:29:02,今日快篩已售完
5901152659,和樹藥局,臺北市士林區後港街４５巷１號１樓,121.5228,25.08444,(02)28821188,羅氏家用新冠病毒抗原自我檢測套組,78,2022/05/11 18:29:02,週日公休，周一早上9:30
5901152739,芳圓藥局,臺北市士林區社子街２６－１號,121.508,25.0875,(02)28168666,羅氏家用新冠病毒抗原自我檢測套組,11,2022/05/11 18:29:02,快篩販售時間1.3.5下午4點30分 ／2.4.6早上9點15分／配送不及，另行公告
5901153272,光榮藥局,臺北市士林區社中街１１８號,121.5103,25.0899,(02)28136060,羅氏家用新冠病毒抗原自我檢測套組,1,2022/05/11 18:29:02,實名制快篩販售時間~下午兩點半（14:30）開始販售~另外若當日未收到快篩無法販售會公告，謝謝大家~
5901154000,文昌大藥局,臺北市士林區文昌路７２號１樓,121.5213,25.09634,(02)28376196,羅氏家用新冠病毒抗原自我檢測套組,2,2022/05/11 18:29:02,1.5／11-5／17 14:00販售實名制快篩  2.每日提供18份 醫護警消郵差憑證購買 限10:00開放 3.自費快篩已到貨
5901154091,社正藥局,臺北市士林區社正路１２號１樓,121.5093,25.08854,(02)28118704,羅氏家用新冠病毒抗原自我檢測套組,58,2022/05/11 18:29:02,無
5901154135,誠泰中西藥局,臺北市士林區永平街１３號１樓,121.5051,25.08996,(02)88112352,羅氏家用新冠病毒抗原自我檢測套組,78,2022/05/11 18:29:02,周一到周六晚上7:00開始販賣，   周日上午10:00開賣到下午1:00
5901160400,世全藥局,臺北市北投區知行路２７３號,121.4672,25.12134,(02)28585378,羅氏家用新冠病毒抗原自我檢測套組,29,2022/05/11 18:29:02,早0000-0100，午0000-0000晚17:30-2400
5901161890,良興藥局,臺北市北投區中和街２８６號,121.5004,25.14047,(02)28933360,羅氏家用新冠病毒抗原自我檢測套組,58,2022/05/11 18:29:02,18點30分點開始營業
5901162119,祐鄰藥局,臺北市北投區尊賢街２５０號,121.5073,25.11707,(02)28281232,羅氏家用新冠病毒抗原自我檢測套組,12,2022/05/11 18:29:02,無
5901163536,天富大藥局,臺北市北投區石牌路２段１７１號（實際使用：１樓）,121.518,25.11848,(02)28225812,羅氏家用新冠病毒抗原自我檢測套組,7,2022/05/11 18:29:02,週一至週六下午2-3點直接販售；週日暫停販售
5901163545,天康大藥局,臺北市北投區中央南路１段５７號,121.5014,25.13192,(02)28914265,羅氏家用新冠病毒抗原自我檢測套組,1,2022/05/11 18:29:02,實名制快篩下午1:30現場販售
5901163581,陳藥師藥局,臺北市北投區光明路２巷１３－２號（實際使用：１樓）,121.4997,25.13132,(02)28921971,羅氏家用新冠病毒抗原自我檢測套組,78,2022/05/11 18:29:02,無
5901170139,福華藥局,臺北市信義區吳興街２８１巷３號１樓,121.5643,25.02656,(02)27208527,羅氏家用新冠病毒抗原自我檢測套組,28,2022/05/11 18:29:02,現階段下午1:30配合政府發售快篩試劑
5901170648,立信藥局,臺北市信義區松山路４０３號,121.578,25.04144,(02)27687754,羅氏家用新冠病毒抗原自我檢測套組,78,2022/05/11 18:29:02,快篩試劑販賣時間:晚上七點至九點
5901172179,新和平藥局,臺北市信義區虎林街１９８號１樓,121.5769,25.03844,(02)23460951,羅氏家用新冠病毒抗原自我檢測套組,1,2022/05/11 18:29:02,每星期一至星期六早上10點起   發放實名制快篩試劑 .星期日休息
5901172924,躍獅松仁藥局,臺北市信義區松仁路２３３號（實際營業地址：１樓）,121.5688,25.02617,(02)27238626,羅氏家用新冠病毒抗原自我檢測套組,12,2022/05/11 18:29:02,快篩販售時段:下午13:30開始售完至晚上19:00前
5901173818,博亞藥局,臺北市信義區莊敬路４６２號,121.5677,25.02672,(02)27580506,羅氏家用新冠病毒抗原自我檢測套組,39,2022/05/11 18:29:02,平日早上8:30、晚上8:00；假日早上8:30，發放號碼牌，持號碼牌購買!
5901174057,詠晴中西藥局,臺北市信義區松山路４８４之４號（１樓含夾層）,121.5778,25.0389,(02)27266890,羅氏家用新冠病毒抗原自我檢測套組,27,2022/05/11 18:29:02,實名制快篩 - 16:30領號碼牌.當天取貨即可.避免群聚風險
5901180055,日生大藥局,臺北市中正區汀州路１段５３號１樓,121.5076,25.03026,(02)23031393,羅氏家用新冠病毒抗原自我檢測套組,1,2022/05/11 18:29:02,快篩試劑代售服務時間:（1）5月11日周三 下午14點起開賣 售完為止
5901183387,丞良藥局,臺北市中正區南昌路１段７８號地下１樓,121.5173,25.03099,(02)33938868,羅氏家用新冠病毒抗原自我檢測套組,50,2022/05/11 18:29:02,週一~週五 晚上9:00~9:30現場領取，若排隊人潮過多會提早開賣
5901184553,珍忻藥局,臺北市中正區南昌路１段６５號,121.5174,25.03107,(02)23965115,羅氏家用新冠病毒抗原自我檢測套組,2,2022/05/11 18:29:02,健保快篩發放:13:20及18:20分兩梯次發號碼牌
5901190668,聯慶大藥局,臺北市萬華區萬大路３０６號１樓,121.5003,25.02495,(02)23039850,羅氏家用新冠病毒抗原自我檢測套組,1,2022/05/11 18:29:02,無
5901193169,柏祥藥局,臺北市萬華區西藏路１４１號,121.5017,25.02944,(02)23018272,羅氏家用新冠病毒抗原自我檢測套組,16,2022/05/11 18:29:02,1快篩服務時間晚上6:00起售完截止。2販售詳情請見門口公告。3周日公休不販售。
5901193221,正盛藥局,臺北市萬華區中華路２段４３４－１號,121.5064,25.02708,(02)23050386,羅氏家用新冠病毒抗原自我檢測套組,67,2022/05/11 18:29:02,【5／9自費快篩+血氧機到貨!!】1.一~六20點，周日不賣 2.排隊人潮多，建議7點左右提前候位 3.詳情看公告或板橋正康臉書
5901193338,艾米力藥師藥局,臺北市萬華區西藏路１０７－２號１樓,121.5035,25.02955,(02)23036583,羅氏家用新冠病毒抗原自我檢測套組,74,2022/05/11 18:29:02,實名制快篩：周一~周五【晚上】7:00販售；周末（六日）早上9:00販售
5901200105,建興藥局,臺北市文山區木柵路２段８１號１樓,121.561,24.98889,(02)29399993,羅氏家用新冠病毒抗原自我檢測套組,9,2022/05/11 18:29:02,星期一至星期日早上8時30分現場販售實名制快篩試劑
5902040050,富翔藥局,高雄市楠梓區常德路３０７號,120.337,22.73691,(07)3516365,羅氏家用新冠病毒抗原自我檢測套組,19,2022/05/11 18:29:02,晚上18:00 販售快篩實名制，星期日早上8:00 販售快篩實名制，售完為止。
5903090189,名方藥局,臺中市潭子區勝利路２８５號１樓,120.7004,24.21321,(04)25341777,羅氏家用新冠病毒抗原自我檢測套組,12,2022/05/11 18:29:02,快篩販售  （一）~（五） 下午6點    週（六）早上9點  週日不販售
5903160097,安昌藥局,臺中市大肚區遊園路二段１７６號１樓,120.5808,24.17289,(04)26913890,羅氏家用新冠病毒抗原自我檢測套組,47,2022/05/11 18:29:02,每天晚上19:00點開始現場排隊販賣快篩試劑.
5903170020,理想藥局,臺中市龍井區國際街１２１號,120.5953,24.18672,(04)26521597,羅氏家用新冠病毒抗原自我檢測套組,14,2022/05/11 18:29:02,快篩周一到周五，傍晚6點開賣。星期六早上8點半，星期日，依現場公告。
5903190380,及宏藥局,臺中市太平區樹孝路５０２號,120.7205,24.15806,(04)23919911,羅氏家用新冠病毒抗原自我檢測套組,51,2022/05/11 18:29:02,周一至周五快篩販賣為晚間6:30開始，周六僅上午9點
5903200096,仁化藥局,臺中市大里區仁化路５４０號,120.7012,24.09623,(04)24915902,羅氏家用新冠病毒抗原自我檢測套組,22,2022/05/11 18:29:02,W1-W5  下午1800發放.現場排隊    W6 休息  W日中午12:30
5903200443,佳霖藥局,臺中市大里區塗城路９６４號１樓,120.6933,24.09081,(04)24960895,羅氏家用新冠病毒抗原自我檢測套組,1,2022/05/11 18:29:02,健保卡快篩:（周日和周三停賣）.請備好健保卡和500元整.下午3點半開賣.現場排隊／售完為止
5903240474,佑全台中向上藥局,臺中市西區向上路一段３８６、３８８號１樓,120.6559,24.14688,(04)23204732,羅氏家用新冠病毒抗原自我檢測套組,1,2022/05/11 18:29:02,因政府配貨時間不一，依照門市現場公告時間為主
5903250658,田園藥局,臺中市南區學府路１６０號１樓,120.6742,24.12909,(04)22220605,羅氏家用新冠病毒抗原自我檢測套組,1,2022/05/11 18:29:02,每週三公休。每天13:30 開始販售，一人限一卡，依到貨數量販售
5903260501,瑞鋒藥師藥局,臺中市北區育德路１６號,120.6795,24.15763,(04)22020786,羅氏家用新冠病毒抗原自我檢測套組,2,2022/05/11 18:29:02,快篩 14:30開始
5903260618,中清小林健保藥局,臺中市北區中清路一段８６、８８號１樓,120.6767,24.15622,(04)22034197,羅氏家用新冠病毒抗原自我檢測套組,1,2022/05/11 18:29:02,24小時營業無公休，早上八點發號碼牌，十二點以後過健保卡發放口罩.
5903260707,新藥林藥局,臺中市北區健行路４４５－５號１樓,120.6803,24.15896,(04)22053458,羅氏家用新冠病毒抗原自我檢測套組,77,2022/05/11 18:29:02,.快篩:星期一~星期五 下午3點開始，星期六下午一點，星期三.日公休，現場排隊
5903260798,光恒藥局,臺中市北區五權路２６１號１樓,120.6767,24.15097,(04)22068638,羅氏家用新冠病毒抗原自我檢測套組,56,2022/05/11 18:29:02,快篩 周一到周六早上8:00到12:00 開放購買
5903260967,正尚藥局,臺中市北區榮華街１６６號１樓,120.6868,24.16444,(04)22350347,羅氏家用新冠病毒抗原自我檢測套組,13,2022/05/11 18:29:02,周六營業至20:00，實名制快篩17:30發放，周日視到貨時間而定（若有剩餘）
5903270721,舒健藥局,臺中市西屯區西屯路二段２５５號２樓,120.6459,24.17179,(04)27077858,羅氏家用新冠病毒抗原自我檢測套組,72,2022/05/11 18:29:02,公費快篩試劑於周一至周六晚上7點現場排隊購買，週日公休。
5903270865,尚禾藥局,臺中市西屯區青海路一段６５號,120.6548,24.16438,(04)23147688,羅氏家用新冠病毒抗原自我檢測套組,39,2022/05/11 18:29:02,實名制快篩發放：時段一中午12:30~14:00。時段二20：30~22：30。時段一若未發完，餘量將遞延至時段二發放。周日停售。
5903271004,西屯青育藥師藥局,臺中市西屯區西屯路二段２９５－３號１樓,120.6425,24.17735,(04)27077898,羅氏家用新冠病毒抗原自我檢測套組,52,2022/05/11 18:29:02,無
5903271031,美十樂中科藥局,臺中市西屯區西屯路三段１６６－６５號１樓,120.6129,24.19035,(04)24610219,羅氏家用新冠病毒抗原自我檢測套組,468,2022/05/11 18:29:02,醫事人員卡片損壞，暫時無法販賣快篩
5903280165,南屯福倫藥局,臺中市南屯區南屯路２段３１７號,120.6456,24.13754,(04)24758018,羅氏家用新冠病毒抗原自我檢測套組,23,2022/05/11 18:29:02,實名制快篩: 晚上6:00開始販售.售完為止
5903280816,大育藥局,臺中市南屯區東興路二段７１號１樓,120.6528,24.13835,(04)24755656,羅氏家用新冠病毒抗原自我檢測套組,1,2022/05/11 18:29:02,每日固定晚上6點開賣 現場發放號碼牌
5903290063,承恩藥局,臺中市北屯區北屯路４４１－１號１樓,120.7008,24.17977,(04)22467857,羅氏家用新冠病毒抗原自我檢測套組,9,2022/05/11 18:29:02,實名制快篩販售時間為下午4點開始（12:00-15:00中午休息）；星期六休息
5903291202,好心情藥局,臺中市北屯區昌平路一段１７之３號,120.6941,24.16607,(04)22335663,羅氏家用新冠病毒抗原自我檢測套組,5,2022/05/11 18:29:02,快篩販售時間 14:30 ~售完為止 ， 12:30~13:30 請勿來電，謝謝配合
5905050058,佳里啄木鳥藥局,臺南市佳里區延平路７６號１樓,120.1795,23.15507,(06)7236396,羅氏家用新冠病毒抗原自我檢測套組,1,2022/05/11 18:29:02,下午2點-售完為止（若當天配送延誤，時間另行公布）
5905140039,安安藥局隆田店,臺南市官田區中山路一段１５號１樓,120.3186,23.1927,(06)5795705,羅氏家用新冠病毒抗原自我檢測套組,2,2022/05/11 18:29:02,全日口罩販賣
5905320466,佑全中華藥局,臺南市東區中華東路三段２１５號,120.2253,22.97603,(06)2906386,羅氏家用新冠病毒抗原自我檢測套組,1,2022/05/11 18:29:02,星期一-六08:00-21:00
5907080250,仁同藥局,高雄市仁武區八卦里永仁街７０６號１樓,120.3313,22.69072,(07)3736142,羅氏家用新冠病毒抗原自我檢測套組,2,2022/05/11 18:29:02,可購買快篩試劑時間每日早上7:30到8:30
5907160093,保生藥局,高雄市湖內區葉厝里保生路３４０．３４２號,120.2195,22.90733,(07)6990800,羅氏家用新冠病毒抗原自我檢測套組,1,2022/05/11 18:29:02,快篩實名制，每天16:00開始販售，售完為止。
5907300168,金元藥局,高雄市左營區重愛路２２０號,120.3156,22.68562,(07)3458378,羅氏家用新冠病毒抗原自我檢測套組,1,2022/05/11 18:29:02,快篩試劑郵差配送，約10點至11點左右會送到藥局，即開始販售，星期四，六營業時間至中午12點
5907300613,新高橋藥局河堤店,高雄市左營區裕誠路１４４號１樓及地下１樓,120.3095,22.66423,(07)5582806,羅氏家用新冠病毒抗原自我檢測套組,1,2022/05/11 18:29:02,下午1:30開始販售口罩至下午5:30
5911041332,光華藥局,基隆市仁愛區成功一路１２９號１樓,121.7364,25.12786,(02)24338703,羅氏家用新冠病毒抗原自我檢測套組,1,2022/05/11 18:29:02,快篩試劑販賣下午六點販售.星期日休息
5911050162,錦泰藥局,基隆市中山區中山二路４３號,121.7405,25.13786,(02)24228523,羅氏家用新冠病毒抗原自我檢測套組,75,2022/05/11 18:29:02,快篩販賣時間星期一至五晚上7點，星期六，星期日下午5點
5912013565,合康連鎖藥局關新店,新竹市東區關新北路１６１號１樓,121.0204,24.78614,(03)5679666,羅氏家用新冠病毒抗原自我檢測套組,1,2022/05/11 18:29:02,快篩販售時間:17:00
5912013627,合康連鎖藥局食品店,新竹市東區食品路１４０號１樓,120.977,24.79771,(03)5621111,羅氏家用新冠病毒抗原自我檢測套組,2,2022/05/11 18:29:02,實名快篩販售時間：下午17:00
5912042815,合康連鎖藥局西大店,新竹市北區西大路６３６、６３８號１樓,120.9585,24.8101,(03)5233111,羅氏家用新冠病毒抗原自我檢測套組,1,2022/05/11 18:29:02,17:00
5917020060,來安藥局,臺中市東區十甲東路４８８號１樓,120.7073,24.13824,(04)22116977,羅氏家用新冠病毒抗原自我檢測套組,1,2022/05/11 18:29:02,發快篩時間早上8點
5917030646,華隆藥局,臺中市西區樂群街６之２號,120.6735,24.14025,(04)22243785,羅氏家用新冠病毒抗原自我檢測套組,1,2022/05/11 18:29:02,上午09:00開始販售快篩試劑，售完為止
5917032382,中港大藥局,臺中市西區臺灣大道２段１３２號,120.6714,24.14995,(04)22080708,羅氏家用新冠病毒抗原自我檢測套組,3,2022/05/11 18:29:02,無
5917080888,大華藥局,臺中市北屯區熱河路２段１０９號１樓,120.6873,24.17054,(04)22331721,羅氏家用新冠病毒抗原自我檢測套組,40,2022/05/11 18:29:02,週一至週五1830-2030販售快篩，週六1430-1600販售快篩。週六晚上及週日全天休診。
5917083254,建祐藥局,臺中市北屯區太原路三段２６１號,120.6932,24.16505,(04)22389809,羅氏家用新冠病毒抗原自我檢測套組,9,2022/05/11 18:29:02,今日尚未收到貨；星期日休
5921040301,永生藥局,臺南市北區六甲里公園路４８１號,120.2079,23.00898,(06)2813681,羅氏家用新冠病毒抗原自我檢測套組,4,2022/05/11 18:29:02,已全數售完／即日至15日暫停販售
5921051582,丞功藥局,臺南市中西區成功路３１號,120.2095,22.99747,(06)2287641,羅氏家用新冠病毒抗原自我檢測套組,1,2022/05/11 18:29:02,星期一-六08:00-售完
5922012945,大明藥局,嘉義市東區大雅路二段６８２號,120.4663,23.47719,(05)2760958,羅氏家用新冠病毒抗原自我檢測套組,1,2022/05/11 18:29:02,5／11號碼牌已發完畢（星期一至六：11點發號碼牌12-14點開始販售）
5922013111,富善藥局,嘉義市東區新生路２３４號,120.4609,23.48419,(05)2759559,羅氏家用新冠病毒抗原自我檢測套組,9,2022/05/11 18:29:02,5／13、14休假，實名制快篩早上9:30-12:00 號碼牌領取
5922020509,全德藥局,嘉義市西區福民里興業西路２８９號,120.4392,23.46776,(05)2854263,羅氏家用新冠病毒抗原自我檢測套組,78,2022/05/11 18:29:02,快篩 販售時間：19 :30~20:30星期日停售
5931010235,友祥藥局,新北市板橋區裕民街１０７號,121.4599,25.02773,(02)22544666,羅氏家用新冠病毒抗原自我檢測套組,1,2022/05/11 18:29:02,無
5931015687,正康健保藥局,新北市板橋區大觀路２段６５號１樓,121.4467,25.00246,(02)22756681,羅氏家用新冠病毒抗原自我檢測套組,3,2022/05/11 18:29:02,下午13:30依現場順序開始販售快篩，快篩配送絮亂庫存不準!!
5931016611,民川藥局,新北市板橋區四川路１段９７號１樓,121.4598,25.00544,(02)29520090,羅氏家用新冠病毒抗原自我檢測套組,1,2022/05/11 18:29:02,星期一~星期六（快篩上午9:00販售38份下午3:00販售40份）
5931017618,新埔健保藥局,新北市板橋區自由路２號１樓,121.4654,25.02222,(02)22558878,羅氏家用新冠病毒抗原自我檢測套組,39,2022/05/11 18:29:02,無
5931017752,泓泰藥局,新北市板橋區館前西路１４０號２樓,121.4563,25.0081,(02)29686559,羅氏家用新冠病毒抗原自我檢測套組,7,2022/05/11 18:29:02,無
5931017869,躍獅國慶藥局,新北市板橋區國慶路１７９號（１樓）,121.4626,24.99636,(02)29641548,羅氏家用新冠病毒抗原自我檢測套組,78,2022/05/11 18:29:02,快篩實名制，每天14:00開始販售，售完為止
5931017994,後埔藥局,新北市板橋區華興街９號（１樓）,121.459,25.00457,(02)89510306,羅氏家用新冠病毒抗原自我檢測套組,3,2022/05/11 18:29:02,5／10 下午2點發放號碼牌*確保作業流暢請自備500元*每天 78 份晚上10 點以前領取完畢（過卡時間差異剩餘數量僅供參考）
5931018099,廣品藥局,新北市板橋區漢生西路８２號（１樓）,121.4628,25.01934,(02)22576880,羅氏家用新冠病毒抗原自我檢測套組,1,2022/05/11 18:29:02,實名制快篩 周一~周五下午16；00發放 週六.日 早上09；30發放 請勿打電話詢問 感謝配合
5931023349,迪化藥局,新北市三重區中華路７７號,121.4836,25.06267,(02)29834445,羅氏家用新冠病毒抗原自我檢測套組,2,2022/05/11 18:29:02,實名制快篩每日早上九點發牌號／週日食藥署暫停供應快篩
5931023447,安泰藥局,新北市三重區正義北路３００－３號２樓,121.4953,25.06978,(02)89815379,羅氏家用新冠病毒抗原自我檢測套組,81,2022/05/11 18:29:02,5／2只有早上8:30--12:00營業下午.及晚上休息
5931023581,大重仁藥局,新北市三重區重新路５段５９２號１樓,121.4694,25.04539,(02)29958283,羅氏家用新冠病毒抗原自我檢測套組,77,2022/05/11 18:29:02,販賣快篩：星期一~四 1830-1850，星期五1500-1520，星期六日0900-0920
5931025398,昌誠藥局,新北市三重區三和路４段１６１號１樓,121.4835,25.0785,(02)22876338,羅氏家用新冠病毒抗原自我檢測套組,5,2022/05/11 18:29:02,5／2 （休診）
5931025987,忠孝德榮藥局,新北市三重區忠孝路２段９７號１樓,121.4842,25.07005,(02)29800297,羅氏家用新冠病毒抗原自我檢測套組,78,2022/05/11 18:29:02,現場排隊不發號碼牌*實名制快篩* 週一至週日晚間19:00開始代售.
5931040215,華新藥局,新北市中和區華新街７３號,121.5082,24.98392,(02)29448345,羅氏家用新冠病毒抗原自我檢測套組,73,2022/05/11 18:29:02,無
5931043663,群芳藥局,新北市中和區和興里中興街７３號１樓,121.5004,24.99323,(02)22433729,羅氏家用新冠病毒抗原自我檢測套組,14,2022/05/11 18:29:02,無
5931043770,宜安健康人生藥局,新北市中和區宜安路１６２號１樓,121.5091,24.99895,(02)29224648,羅氏家用新冠病毒抗原自我檢測套組,9,2022/05/11 18:29:02,下午六點起發實名制快篩
5931043921,良安藥局,新北市中和區連城路４７７巷１號１樓,121.4833,24.99555,(02)22225798,羅氏家用新冠病毒抗原自我檢測套組,78,2022/05/11 18:29:02,週六日不開店，實名制快篩，晚上9:00開始販售
5931044848,和霖生活藥局,新北市中和區復興路２８９號１樓,121.5018,24.99015,(02)22458227,羅氏家用新冠病毒抗原自我檢測套組,3,2022/05/11 18:29:02,無
5931045130,四維藥局,新北市中和區四維街３７巷２號１樓,121.5124,24.98679,(02)86681345,羅氏家用新冠病毒抗原自我檢測套組,1,2022/05/11 18:29:02,快篩實名制，每天16:00開始販售，售完為止。
5931045452,安華藥局,新北市中和區圓通路２９３之２號２樓,121.4949,24.99236,(02)22426010,羅氏家用新冠病毒抗原自我檢測套組,1,2022/05/11 18:29:02,無
5931052751,新康藥局,新北市新店區北新路１段１９５號１樓、２樓,121.5402,24.9648,(02)29178179,羅氏家用新冠病毒抗原自我檢測套組,1,2022/05/11 18:29:02,無
5931060342,十安藥局,新北市新莊區中港路３１６號,121.4524,25.04544,(02)29922859,羅氏家用新冠病毒抗原自我檢測套組,3,2022/05/11 18:29:02,自111／04／01起不再販賣實名制口罩
5931060557,一安藥局,新北市新莊區立德里新泰路２６８號,121.446,25.04029,(02)29941618,羅氏家用新冠病毒抗原自我檢測套組,1,2022/05/11 18:29:02,實名制快篩發放時間為15:00  其他詳情請上FB查詢
593106A600,全鎵藥局,新北市新莊區建中街２２號１樓,121.4493,25.03766,(02)22761550,羅氏家用新冠病毒抗原自我檢測套組,9,2022/05/11 18:29:02,16:00快篩開賣
593106B036,家嘉藥局,新北市新莊區自立街１０３號（１樓）,121.4553,25.04549,(02)89926488,羅氏家用新冠病毒抗原自我檢測套組,28,2022/05/11 18:29:02,今天號碼牌都已發放完畢
593106B205,藥師佛藥局,新北市新莊區中正路８８１之４號１樓,121.4175,25.02544,(02)29016625,羅氏家用新冠病毒抗原自我檢測套組,78,2022/05/11 18:29:02,準時七點開賣，現場排隊，不發號碼牌，會預留警察消防人員額度，所以民眾購買額度不會是78盒！
593106B232,新康健保藥局,新北市新莊區自立街１７２號１樓,121.4557,25.04537,(02)29962558,羅氏家用新冠病毒抗原自我檢測套組,2,2022/05/11 18:29:02,早上9點發號碼牌，下午2-4點帶號碼牌來領快篩（逾時不候）
5931070080,耀鴻藥局,新北市樹林區中山路３段７６號,121.3936,24.97239,(02)26808989,羅氏家用新冠病毒抗原自我檢測套組,78,2022/05/11 18:29:02,每天都有發放口罩
5931081305,佑家藥局,新北市鶯歌區中正三路１５１號１樓,121.3367,24.94007,(02)26798282,羅氏家用新冠病毒抗原自我檢測套組,6,2022/05/11 18:29:02,星期一至六，下午1:30發號碼牌   每日提供8份給醫護警消等緊急使用
5931081547,信義健保藥局,新北市鶯歌區信義街６３號１樓,121.3534,24.95571,(02)86775563,羅氏家用新冠病毒抗原自我檢測套組,30,2022/05/11 18:29:02,發放時間以現場公告為主
5931092059,三峽啄木鳥藥局,新北市三峽區中正路１段１４１號１樓,121.3735,24.92875,(02)26744321,羅氏家用新冠病毒抗原自我檢測套組,2,2022/05/11 18:29:02,實名制快篩 中午:12:30開始發號碼牌
5931092111,立雅藥局,新北市三峽區文化路８４號（１樓）,121.3719,24.93627,(02)26712601,羅氏家用新冠病毒抗原自我檢測套組,2,2022/05/11 18:29:02,無
5931101464,伯聯藥局,新北市淡水區清水街９－１０號１樓,121.4444,25.17023,(02)26255847,羅氏家用新冠病毒抗原自我檢測套組,1,2022/05/11 18:29:02,快篩實名制星期一到六08:00開賣（如有到貨），星期日無販售
5931102103,四季寶健保藥局,新北市淡水區新市一路３段１１７－１號（含夾層）,121.4468,25.18314,(02)26283199,羅氏家用新冠病毒抗原自我檢測套組,36,2022/05/11 18:29:02,無
5931112645,健成藥局,新北市汐止區新興路２０號１樓,121.6564,25.06456,(02)26428989,羅氏家用新冠病毒抗原自我檢測套組,16,2022/05/11 18:29:02,無
5931113204,富康活力忠孝藥局,新北市汐止區忠孝東路２７９號１樓,121.6638,25.06854,(02)26422666,羅氏家用新冠病毒抗原自我檢測套組,1,2022/05/11 18:29:02,無
5931120049,本平藥局,新北市瑞芳區瑞芳街４５號,121.8076,25.10913,(02)24972167,羅氏家用新冠病毒抗原自我檢測套組,2,2022/05/11 18:29:02,無
5931132343,誠安藥局,新北市土城區中央路４段３６號１樓,121.4207,24.96088,(02)22677737,羅氏家用新冠病毒抗原自我檢測套組,79,2022/05/11 18:29:02,快篩代售時段：平日晚上8點，售完為止
5931133331,城安大藥局,新北市土城區金城路３段４０號,121.4656,24.98639,(02)22646561,羅氏家用新冠病毒抗原自我檢測套組,108,2022/05/11 18:29:02,快篩代售時間晚上8:30
5931171340,家欣藥師藥局,新北市林口區文化二路１段５６７號１樓,121.3748,25.0777,(02)26025368,羅氏家用新冠病毒抗原自我檢測套組,1,2022/05/11 18:29:02,5／2（一）17:00開始販售實名制快篩，不發號碼牌，每日發放時間不同，請至粉專看
5931171411,康旭藥局,新北市林口區麗園一街６巷９號１樓－３,121.3751,25.07145,(02)26007808,羅氏家用新冠病毒抗原自我檢測套組,10,2022/05/11 18:29:02,無
5931250042,信芳藥局,新北市雙溪區中華路５０號,121.866,25.03761,(02)24931301,羅氏家用新冠病毒抗原自我檢測套組,2,2022/05/11 18:29:02,無
5932011370,家福聯合藥局,桃園市桃園區中山路６２３號,121.2939,24.99093,(03)2289492,羅氏家用新冠病毒抗原自我檢測套組,10,2022/05/11 18:29:02,0503人數已滿，1點發快篩
5932011870,永祥大藥局,桃園市桃園區永安路５２８號,121.2986,25.00181,(03)3337161,羅氏家用新冠病毒抗原自我檢測套組,2,2022/05/11 18:29:02,口罩販賣時段：週一至週六早上9點
5932014031,大廟藥局,桃園市桃園區中山路１５８號１樓,121.3091,24.99342,(03)3337006,羅氏家用新冠病毒抗原自我檢測套組,4,2022/05/11 18:29:02,無
5932014059,桃園南平藥局,桃園市桃園區南平路３０２－１號１樓,121.2989,25.01855,(03)3165222,羅氏家用新冠病毒抗原自我檢測套組,3,2022/05/11 18:29:02,快篩實名制，每天16:00開始販售，售完為止。
5932014111,鴻發藥師藥局,桃園市桃園區大有路５４３號,121.3171,25.0149,(03)3582468,羅氏家用新冠病毒抗原自我檢測套組,78,2022/05/11 18:29:02,實聯快篩:早上09:30發放號碼牌，限當日下午2~4點憑牌購買，逾時不候請見諒
5932014460,桃鶯藥局,桃園市桃園區桃鶯路１０２號,121.318,24.98516,(03)3675100,羅氏家用新冠病毒抗原自我檢測套組,1,2022/05/11 18:29:02,快篩實名制，每天16:00開始販售，售完為止。
5932018593,品一藥局,桃園市桃園區建新街７６號,121.3118,24.98261,(03)3638510,羅氏家用新冠病毒抗原自我檢測套組,1,2022/05/11 18:29:02,快篩販賣時間：週一至週五早上9：30；週六下午1：00（星期天休息），會發號碼牌（今天已發完）
5932019929,元氣藥局,桃園市桃園區民光東路一Ｏ九號,121.3183,25.0079,(03)3332201,羅氏家用新冠病毒抗原自我檢測套組,3,2022/05/11 18:29:02,現場排隊喔!，快篩試劑銷售時間:星期一三四六15:30，星期二五19:00，星期日無，12:00~15:00；18:00~18:30為休息時間
5932023889,華勛藥局,桃園市中壢區華勛街１１２、１１４號,121.2597,24.95065,(03)4161881,羅氏家用新冠病毒抗原自我檢測套組,2,2022/05/11 18:29:02,快篩實名制，每天16:00開始販售，售完為止。
5932024108,佳愷藥局,桃園市中壢區中北路４７號,121.2368,24.95614,(03)4664735,羅氏家用新冠病毒抗原自我檢測套組,14,2022/05/11 18:29:02,視配貨狀況禮拜三、禮拜五、禮拜六早上9點至11點販售。若未到貨則無法開賣，有任何疑問請致電聯繫許藥師0933-595-819
593202A833,君安藥局,桃園市中壢區中北路二段３９０號,121.2318,24.95388,(03)4685484,羅氏家用新冠病毒抗原自我檢測套組,77,2022/05/11 18:29:02,快篩實名制，週一至週五晚上7點，週六週日早上9點，視現場狀況，45分鐘前發號碼牌，發完隨即販售，過號視同放棄
593202B447,榮善堂藥局,桃園市中壢區前龍街九號,121.2535,24.9298,(03)4564946,羅氏家用新冠病毒抗原自我檢測套組,41,2022/05/11 18:29:02,全台第一自助快篩領取系統，快篩販賣星期一至四：晚上七點。星期五至六：下午二點。星期天：早上八點
5932031890,福生藥局,桃園市大溪區民權東路１０３號１樓,121.2919,24.88209,(03)3873533,羅氏家用新冠病毒抗原自我檢測套組,1,2022/05/11 18:29:02,早上八點開始發放快篩試劑
5932042679,得康美藥局,桃園市楊梅區環南路１２８號１樓,121.1466,24.90164,(03)4788128,羅氏家用新冠病毒抗原自我檢測套組,2,2022/05/11 18:29:02,快篩領取規則~中午:12:00-12:30發號碼牌 ／下午時段發快篩A:14:00-15:00 B:20:00-21:00
5932043130,宜康美藥局,桃園市楊梅區環東路４５２號,121.1571,24.91005,(03)4883805,羅氏家用新冠病毒抗原自我檢測套組,20,2022/05/11 18:29:02,快篩販賣時段：早上09:30~10:30（20份）下午15:30~16:30（38份）晚上19:30~20:30（20份）
5932043425,躍獅祥筠藥局,桃園市楊梅區萬大路１３５號,121.1786,24.90987,(03)4817458,羅氏家用新冠病毒抗原自我檢測套組,29,2022/05/11 18:29:02,5／10快篩試劑18:00發放
5932052737,知博藥師藥局,桃園市蘆竹區營盤里中山路１６０號,121.2977,25.05702,(03)2221886,羅氏家用新冠病毒抗原自我檢測套組,3,2022/05/11 18:29:02,快篩販賣時段：暫定週一至週五16:00-17:00 週六.日不發放.以現場公告時間為主
5932052844,康維藥局,桃園市蘆竹區仁愛路一段２２號１樓,121.294,25.05063,(03)3125330,羅氏家用新冠病毒抗原自我檢測套組,9,2022/05/11 18:29:02,快篩 販賣時段:週一至週五18:00-20:00，週六09:00-11:00
5932052979,南崁藥局,桃園市蘆竹區中正路２５１、２５３、２５５號,121.2921,25.04695,(03)3522022,羅氏家用新冠病毒抗原自我檢測套組,157,2022/05/11 18:29:02,快篩實名制，每天16:00開始販售，售完為止。
5932053065,民生藥局,桃園市蘆竹區南昌路４５號,121.2876,25.04245,(03)3216784,羅氏家用新冠病毒抗原自我檢測套組,16,2022/05/11 18:29:02,快篩開賣時間:星期一到五16點賣58份 （18:30賣20份）.   星期六10:30.   星期日休息.
5932071009,德佑藥局,桃園市龜山區大崗里新興街２９３號,121.3558,25.04531,(03)3283556,羅氏家用新冠病毒抗原自我檢測套組,4,2022/05/11 18:29:02,快篩試劑販賣時段為每日晚上07:30開始（星期日暫停販售）
5932076746,安欣藥局,桃園市龜山區文化二路３４巷１４弄８號,121.3648,25.05903,(03)3185689,羅氏家用新冠病毒抗原自我檢測套組,17,2022/05/11 18:29:02,實名制快篩:5／3起，若當日有配送，晚上18:00才開賣，週日公休，不發號碼牌，直接排隊
5932076791,誠安生活藥局,桃園市龜山區文化七路７９之２號,121.3635,25.05166,(03)3271997,羅氏家用新冠病毒抗原自我檢測套組,200,2022/05/11 18:29:02,即日起停止販售快篩
5932076844,帕米爾藥局,桃園市龜山區萬壽路二段９９１號,121.3369,24.99464,(03)3295522,羅氏家用新冠病毒抗原自我檢測套組,8,2022/05/11 18:29:02,星期一~六家用快篩試劑販賣時段：19:00~20:30。不發號碼牌，請直接排隊購買。
5932077154,博爾康生活藥局,桃園市龜山區大同路２５０號１樓,121.3446,24.98989,(03)3506588,羅氏家用新冠病毒抗原自我檢測套組,1,2022/05/11 18:29:02,快篩實名制每日15:00販售。不發號碼牌，請直接排隊購買。
5932077270,明昌藥局,桃園市龜山區中興里萬壽路二段１１９１－６號,121.3318,24.99291,(03)3501205,羅氏家用新冠病毒抗原自我檢測套組,1,2022/05/11 18:29:02,無
5932077510,左外野藥局,桃園市龜山區文光街６號１樓,121.3802,25.05471,(03)3271503,羅氏家用新冠病毒抗原自我檢測套組,65,2022/05/11 18:29:02,快篩販售:晚上19:30至20:30（週五公休）*不發號碼牌 請直接排隊購買
5932077529,泰麟大藥局,桃園市龜山區自強西路２３８號１樓,121.3325,24.99625,(03)2133728,羅氏家用新冠病毒抗原自我檢測套組,70,2022/05/11 18:29:02,無
5932083974,晨鴻藥師藥局,桃園市八德區桃鶯路７號１樓,121.3265,24.97179,(03)3764299,羅氏家用新冠病毒抗原自我檢測套組,41,2022/05/11 18:29:02,快篩為早上8:30跟晚上6:00領取號碼牌，星期六早上一次發78份，快篩地圖數量參考就好，請勿再打電話詢問 謝謝
5932084828,阿爾富山藥局,桃園市八德區桃鶯路４號１樓,121.3261,24.97167,(03)3763350,羅氏家用新冠病毒抗原自我檢測套組,69,2022/05/11 18:29:02,本藥局實名制快篩於每日晚間7點以實際到貨數量發放，唯保留可視現場排隊人數額滿情況.酌情提前發號碼牌並受理購買!
5932084864,阿寶藥局,桃園市八德區東勇一路６號,121.3064,24.96452,(03)3750060,羅氏家用新冠病毒抗原自我檢測套組,45,2022/05/11 18:29:02,實名制快篩詳細公告請參閱阿寶藥局官方臉書
5932100916,唯康藥局,桃園市平鎮區中豐路南勢二段１４４號,121.2106,24.91564,(03)4396011,羅氏家用新冠病毒抗原自我檢測套組,30,2022/05/11 18:29:02,快篩分兩梯次販售，14：30（48份）和19：00（30份）
5933011196,高平堂藥局,新竹縣關西鎮正義路66號,121.1762,24.79269,(03)5872263,羅氏家用新冠病毒抗原自我檢測套組,63,2022/05/11 18:29:02,相關公告 請搜尋FB【高平堂藥局】
5933031652,合康藥局,新竹縣竹東鎮興農街１１號,121.0861,24.73988,(03)5103818,羅氏家用新冠病毒抗原自我檢測套組,6,2022/05/11 18:29:02,實名制快篩以取號碼牌方式領取，號碼排發放時間為每日17:00發完即完售，取牌後快篩領取時間為：17:00~19:00
5933061767,合康藥局湖口,新竹縣湖口鄉民族街１２６號,121.0456,24.90316,(03)6992365,羅氏家用新冠病毒抗原自我檢測套組,6,2022/05/11 18:29:02,星期一~日 16:30發放號碼牌，17:00~19:00領取完畢（無領取到號碼牌則無法購買快篩）
5933081607,新豐藥局,新竹縣新豐鄉中興路２０８、２１０號,120.9949,24.87571,(03)5575005,羅氏家用新冠病毒抗原自我檢測套組,1,2022/05/11 18:29:02,快篩實名制，每天16:00開始販售，售完為止。
5934012366,熊賀大藥局,宜蘭縣宜蘭市女中路３段２６號,121.7421,24.74576,(03)9352950,羅氏家用新冠病毒抗原自我檢測套組,78,2022/05/11 18:29:02,快篩 星期一至日 晚上7:00開賣 現場排隊
5934020224,源生藥局,宜蘭縣羅東鎮忠孝路８９號,121.7652,24.67759,(03)9563476,羅氏家用新冠病毒抗原自我檢測套組,7,2022/05/11 18:29:02,執業時段請電洽藥局
5935091245,芳鄰藥局,苗栗縣公館鄉玉泉村玉泉３６８之１１號,120.8267,24.50749,(037)223727,羅氏家用新冠病毒抗原自我檢測套組,1,2022/05/11 18:29:02,口罩販賣時段：13:00~售完
5936150332,真安大藥局,臺中市烏日區興祥街３號,120.6389,24.10483,(04)23360401,羅氏家用新冠病毒抗原自我檢測套組,78,2022/05/11 18:29:02,快篩周一到周六 下午1:30販售
5936150341,原全成藥局,臺中市烏日區中山路一段３８７號１樓,120.6388,24.10773,(04)23361818,羅氏家用新冠病毒抗原自我檢測套組,1,2022/05/11 18:29:02,每日＜下午４點＞!!＜下午４點＞!!＜下午４點＞!!開始發號碼牌販售，售完為止！！
5936171386,國際大藥局,臺中市龍井區藝術街６號,120.5954,24.18751,(04)26522118,羅氏家用新冠病毒抗原自我檢測套組,1,2022/05/11 18:29:02,無
5936192018,和康藥局,臺中市太平區樹孝路４６２號,120.7203,24.15716,(04)23917355,羅氏家用新冠病毒抗原自我檢測套組,78,2022/05/11 18:29:02,實名制快篩販售星期一至六 發號碼牌 晚上七點開始銷售售完為止! 5／8（日）加開早上9:00販售，售完為止
5936192134,樹德大藥局,臺中市太平區樹德路１０２號１樓,120.7115,24.15386,(04)23981782,羅氏家用新冠病毒抗原自我檢測套組,9,2022/05/11 18:29:02,下午3點開始領號碼牌，分流領取，請勿依賴網站庫存
593620B138,聯生中西健保藥局,臺中市大里區現岱路１５８巷１１號,120.6919,24.10295,(04)24834058,羅氏家用新冠病毒抗原自我檢測套組,3,2022/05/11 18:29:02,早上八點半領號碼牌下午四點到六點領口罩W6W日早七點
5937012877,振安藥局,彰化縣彰化市民生里永安街７３號,120.5453,24.08422,(04)7261277,羅氏家用新冠病毒抗原自我檢測套組,3,2022/05/11 18:29:02,實名制快篩試劑，每天下午6點開始販售，售完為止。
5937052264,醫聯藥師藥局,彰化縣員林市三條里員東路二段４１０號１樓,120.5811,23.95898,(04)8360617,羅氏家用新冠病毒抗原自我檢測套組,6,2022/05/11 18:29:02,無
5937181279,佳恩藥局,彰化縣永靖鄉永西村瑚璉路３０２號,120.547,23.92421,(04)8235753,羅氏家用新冠病毒抗原自我檢測套組,7,2022/05/11 18:29:02,快篩實名制 :電話預約制，當日早上9點開始預約（已額滿）
5938041729,早安藥局,南投縣竹山鎮雲林路４１號,120.6834,23.75608,(049)2651032,羅氏家用新冠病毒抗原自我檢測套組,1,2022/05/11 18:29:02,實名制快篩試劑早上10點開始販售
5939011832,汶藥局,雲林縣斗六市大同路１０３號２樓,120.5451,23.70965,(05)5344728,羅氏家用新冠病毒抗原自我檢測套組,1,2022/05/11 18:29:02,快篩實名制: 每天早上80:00開賣，售完為止。三、五下午，六晚上，日全天，以上時間休診。
5939012400,陽光藥局,雲林縣斗六市永安路６９號,120.548,23.70923,(05)5362097,羅氏家用新冠病毒抗原自我檢測套組,29,2022/05/11 18:29:02,快篩販售16:00~17:00，19:30~20:30（至少預留20份）~現場排隊，請勿電話詢問
5939020091,全安藥局,雲林縣斗南鎮中天里中正路１２３號,120.4783,23.67655,(05)5965255,羅氏家用新冠病毒抗原自我檢測套組,5,2022/05/11 18:29:02,10點開始販售快篩 售完為止
5939051238,天愛藥局,雲林縣土庫鎮中山路８０號,120.3903,23.6749,(05)6629923,羅氏家用新冠病毒抗原自我檢測套組,69,2022/05/11 18:29:02,無
5939131400,正鴻健保藥局,雲林縣麥寮鄉表福路３５號,120.255,23.74769,(05)6938786,羅氏家用新冠病毒抗原自我檢測套組,12,2022/05/11 18:29:02,周一至周五早上八點到晚上八點，星期六早上八點到下午四點
5940031402,信沅中西藥局,嘉義縣大林鎮西林里０１１鄰中正路４２０號,120.4528,23.60129,(05)2656377,羅氏家用新冠病毒抗原自我檢測套組,78,2022/05/11 18:29:02,每日19:00開始發卡跟販售，售完為止。有自費25入居家快篩，公司行號有需求請電洽。
5941010309,鴻達藥局,臺南市新營區民生里復興路１２４號,120.3101,23.3035,(06)6358837,羅氏家用新冠病毒抗原自我檢測套組,9,2022/05/11 18:29:02,無
5941270163,太子藥局,臺南市仁德區太子里太子路３３８號,120.2577,22.99146,(06)2729906,羅氏家用新冠病毒抗原自我檢測套組,1,2022/05/11 18:29:02,5／9快篩.已售完.
5942060161,信元藥師藥局,高雄市大寮區鳳林三路３２９號,120.3979,22.6013,(07)7836313,羅氏家用新冠病毒抗原自我檢測套組,1,2022/05/11 18:29:02,政府實名制快篩販售時間要參考政府是否配貨，可來電詢問
5943050169,新萬安藥局,屏東縣萬丹鄉萬安村萬丹路一段１１３號,120.4894,22.58628,(08)7772035,羅氏家用新冠病毒抗原自我檢測套組,1,2022/05/11 18:29:02,實名制快篩領取號碼牌早上9點
5945012247,和信藥局,花蓮縣花蓮市中福路１３３號,121.6019,23.97208,(03)8330916,羅氏家用新冠病毒抗原自我檢測套組,12,2022/05/11 18:29:02,營業時間:上午8:30至12點.下午17:30至21點，口罩販賣時間12:30開始，現場排隊售完為止
5945021040,人和藥局,花蓮縣鳳林鎮中正路２００號,121.45,23.74899,(03)8762712,羅氏家用新冠病毒抗原自我檢測套組,1,2022/05/11 18:29:02,無
5945051646,花蓮建國藥局,花蓮縣吉安鄉建國路１段１３７－１號,121.5915,23.98574,(03)8461699,羅氏家用新冠病毒抗原自我檢測套組,1,2022/05/11 18:29:02,快篩實名制，每天16:00開始販售，售完為止。
5946080552,伯安健康藥局,臺東縣長濱鄉長濱村１０鄰長濱路１０５號,121.4515,23.31496,(089)832519,羅氏家用新冠病毒抗原自我檢測套組,27,2022/05/11 18:29:02,無
5946101118,伯安藥局,臺東縣池上鄉新生路１１６號,121.2187,23.12315,(089)863585,羅氏家用新冠病毒抗原自我檢測套組,16,2022/05/11 18:29:02,早0800-1200，午1400-1800，晚1800-2000
