醫事機構代碼,醫事機構名稱,醫事機構地址,經度,緯度,醫事機構電話,廠牌項目,快篩試劑截至目前結餘存貨數量,來源資料時間,備註
2331260016,新北市貢寮區衛生所,新北市貢寮區朝陽街７０巷１０號、新北市貢寮區仁愛路１２８號,121.9095,25.02258,(02)24901431,羅氏家用新冠病毒抗原自我檢測套組,78,2022/05/07 11:59:02,快篩試劑販售時間為周一至周五早上9點開始販售，每日販售一箱，數量有限售完為止。
2333140017,新竹縣五峰鄉衛生所,新竹縣五峰鄉大隘村六鄰９９號,121.1194,24.63184,(03)5851005,羅氏家用新冠病毒抗原自我檢測套組,22,2022/05/07 11:59:02,無
2335110017,苗栗縣南庄鄉衛生所,苗栗縣南庄鄉東村大同路１７號,121,24.59733,(037)822024,羅氏家用新冠病毒抗原自我檢測套組,78,2022/05/07 11:59:02,口罩販賣時段:週一至週五上午8:00~下午5:00
2340170016,嘉義縣大埔鄉衛生所,嘉義縣大埔鄉大埔村５３－１號,120.5928,23.29397,(05)2521214,羅氏家用新冠病毒抗原自我檢測套組,78,2022/05/07 11:59:02,無
2340180012,嘉義縣阿里山鄉衛生所,嘉義縣阿里山鄉樂野村３鄰９７－２號,120.7019,23.4666,(05)2561573,羅氏家用新冠病毒抗原自我檢測套組,9,2022/05/07 11:59:02,無
2341120010,臺南市下營區衛生所,臺南市下營區營前里中山路二段１３７號,120.2624,23.23154,(06)6892149,羅氏家用新冠病毒抗原自我檢測套組,78,2022/05/07 11:59:02,家用快篩試劑販賣時間為每周一至週五 下午4點到五點，欲購買民眾請攜帶健保卡及自備零錢購買。
2341260019,臺南市左鎮區衛生所,臺南市左鎮區中正里１７２之１５號,120.4099,23.05631,(06)5731114,羅氏家用新冠病毒抗原自我檢測套組,18,2022/05/07 11:59:02,無
2342130010,高雄市田寮區衛生所,高雄市田寮區南安里崗北路３２號,120.3594,22.87301,(07)6361504,羅氏家用新冠病毒抗原自我檢測套組,77,2022/05/07 11:59:02,巡迴醫療:每星期一、四下午及每月第一個有上班的星期三下午巡迴醫療
2342250017,高雄市茂林區衛生所,高雄市茂林區茂林里茂林巷８－４號,120.6641,22.88641,(07)6801046,羅氏家用新冠病毒抗原自我檢測套組,60,2022/05/07 11:59:02,夜間急診，請先撥電話07-6801046
2342260013,高雄市桃源區衛生所,高雄市桃源區桃源里南進巷１８８－１號,120.7642,23.15845,(07)6861126,羅氏家用新冠病毒抗原自我檢測套組,152,2022/05/07 11:59:02,IDS提供24小時服務
2342270019,高雄市那瑪夏區衛生所,高雄市那瑪夏區瑪雅里６鄰平和巷２５２號,120.7024,23.24708,(07)6701142,羅氏家用新冠病毒抗原自我檢測套組,162,2022/05/07 11:59:02,春節期間正常門診
2343250011,屏東縣枋山鄉衛生所,屏東縣枋山鄉枋山村枋山路９８號,120.6527,22.26464,(08)8761150,羅氏家用新冠病毒抗原自我檢測套組,30,2022/05/07 11:59:02,快篩試劑販售時間8點至10點，售完為止
2343270013,屏東縣霧台鄉衛生所,屏東縣霧台鄉霧台村神山巷６８號,120.7261,22.74989,(08)7902232,羅氏家用新冠病毒抗原自我檢測套組,5,2022/05/07 11:59:02,5／6 20份販售於禮納里公共服務中心一樓（下午2~4點）
2343310012,屏東縣春日鄉衛生所,屏東縣春日鄉春日村春日路１７６號,120.6251,22.37008,(08)8780358,羅氏家用新冠病毒抗原自我檢測套組,2,2022/05/07 11:59:02,無
2344011036,澎湖縣馬公市第三衛生所,澎湖縣馬公市西文里１１８之２號,119.5836,23.56813,(06)9211723,羅氏家用新冠病毒抗原自我檢測套組,78,2022/05/07 11:59:02,本所快篩試劑只提供離島衛生室（虎井、桶盤）販售，時間週一至週五08:30-17:00售完為止，星期六、日國定假日09:00-12:00。
2344030022,澎湖縣白沙鄉鳥嶼衛生所,澎湖縣白沙鄉鳥嶼村漁港新村３號,119.6599,23.66008,(06)9916092,羅氏家用新冠病毒抗原自我檢測套組,100,2022/05/07 11:59:02,非上班時間提供急診服務
2344030031,澎湖縣白沙鄉吉貝衛生所,澎湖縣白沙鄉吉貝村８－１３號,119.6138,23.74056,(06)9911430,羅氏家用新冠病毒抗原自我檢測套組,96,2022/05/07 11:59:02,無
2344050015,澎湖縣望安鄉衛生所,澎湖縣望安鄉西安村３６－７號,119.4972,23.36161,(06)9991036,羅氏家用新冠病毒抗原自我檢測套組,151,2022/05/07 11:59:02,夜間急診。口罩、快篩試劑販售時間為:每日08:00-12:00、13:30-17:30售完為止，如有餘數為離島未售出（東嶼坪、花嶼）。
2344050024,澎湖縣望安鄉將軍衛生所,澎湖縣望安鄉將軍村１２鄰將軍澳１之３號,119.5216,23.3615,(06)9902066,羅氏家用新冠病毒抗原自我檢測套組,198,2022/05/07 11:59:02,24小時急診
2344060011,澎湖縣七美鄉衛生所,澎湖縣七美鄉中和村埔內５４號,119.431,23.2041,(06)9971005,羅氏家用新冠病毒抗原自我檢測套組,79,2022/05/07 11:59:02,無
2345080017,衛生福利部花蓮醫院豐濱原住民分院,花蓮縣豐濱鄉豐濱村光豐路４１號,121.5215,23.60195,(03)8358141,羅氏家用新冠病毒抗原自我檢測套組,78,2022/05/07 11:59:02,*本院口罩每天販售，時間自上午8點至晚上9點  *本院週一至週五上下午皆有門診，星期六隔週提供門診，及24小時急診。
2345100014,花蓮縣富里鄉衛生所,花蓮縣富里鄉富里村中山路２０３號,121.2491,23.17847,(03)8831029,羅氏家用新冠病毒抗原自我檢測套組,156,2022/05/07 11:59:02,*內科:每週二下午東里玉蓮寺巡診 **牙科:每週二至卓溪醫療站***口罩販賣時間8:30起至11:00止
2345110010,花蓮縣秀林鄉衛生所,花蓮縣秀林鄉秀林村１２鄰秀林路８８號,121.6334,24.1269,(03)8612122,羅氏家用新冠病毒抗原自我檢測套組,78,2022/05/07 11:59:02,口罩代售時間上班日上午8:10至12時止（口罩限量故售完為止）
2345120016,花蓮縣萬榮鄉衛生所,花蓮縣萬榮鄉萬榮村１鄰１６號,121.4092,23.71558,(03)8751651,羅氏家用新冠病毒抗原自我檢測套組,104,2022/05/07 11:59:02,快篩試劑代售時間：週一至週五下午2點至下午4點，販售為止。
2345130012,花蓮縣卓溪鄉衛生所,花蓮縣卓溪鄉卓溪村中正路６５號,121.3033,23.33294,(03)8882592,羅氏家用新冠病毒抗原自我檢測套組,156,2022/05/07 11:59:02,快篩試劑代售時間：週一至週五上午8：30-11：00（售完即結束）
2346150018,台東縣金峰鄉衛生所,臺東縣金峰鄉賓茂村１鄰１４號,120.9606,22.53248,(089)772201,羅氏家用新冠病毒抗原自我檢測套組,78,2022/05/07 11:59:02,快篩試劑販售時間為星期一至星期五，早上8:30~12:00；下午1:30~5:00
2346160014,台東縣蘭嶼鄉衛生所,臺東縣蘭嶼鄉紅頭村３６號,121.5546,22.02493,(089)732575,羅氏家用新冠病毒抗原自我檢測套組,78,2022/05/07 11:59:02,販售口罩時間 星期一至星期五 8:00~12:00 13:30~17:30
2390050032,金門縣烈嶼鄉衛生所,金門縣烈嶼鄉西口村西方６－５號,118.2395,24.43519,(082)362078,羅氏家用新冠病毒抗原自我檢測套組,12,2022/05/07 11:59:02,快篩試劑販售時間:周一至周五下午1點至3點
2391020010,連江縣北竿鄉衛生所,連江縣北竿鄉塘岐村２８１－６號,119.9991,26.22617,(083)655592,羅氏家用新冠病毒抗原自我檢測套組,11,2022/05/07 11:59:02,新冠快篩試劑販售於週一至周六每日上午08:30-12:00開放購買。
2391030016,連江縣莒光鄉西莒衛生所,連江縣莒光鄉青帆村１４－１號,119.9331,25.97157,(083)689122,羅氏家用新冠病毒抗原自我檢測套組,306,2022/05/07 11:59:02,防疫口罩星期一至五09:00-17:00、（六）09:00-12:00現場購買
2391030026,連江縣莒光鄉東莒衛生所,連江縣莒光鄉大坪村３０－１號,119.9731,25.96113,(083)689038,羅氏家用新冠病毒抗原自我檢測套組,437,2022/05/07 11:59:02,防疫口罩星期一至星期日上午10:00-12:00收取健保卡，下午3:30至本所領取口罩。
2391040012,連江縣東引鄉衛生所,連江縣東引鄉中柳村１２３號,120.4904,26.36701,(083)677206,羅氏家用新冠病毒抗原自我檢測套組,2,2022/05/07 11:59:02,防疫口罩每日10:00-12:00現場購買
5901012598,婕登藥局,臺北市松山區八德路４段６９９號,121.5766,25.05021,(02)27482893,羅氏家用新冠病毒抗原自我檢測套組,8,2022/05/07 11:59:02,今天快篩已經發送完畢（電腦庫存不準）
5901012749,躍獅松和藥局,臺北市松山區八德路四段６６６－１號,121.5761,25.04979,(02)27492569,羅氏家用新冠病毒抗原自我檢測套組,78,2022/05/07 11:59:02,實名制快篩販售時段，每日下午4點販售，售完為止
5901012767,晨新藥局,臺北市松山區八德路４段９１巷１－１號,121.5608,25.04894,(02)27422951,羅氏家用新冠病毒抗原自我檢測套組,66,2022/05/07 11:59:02,本店星期一不販售快篩，其餘時間為下午2點至5點。若有修正依店內公告為主。
5901013095,康采藥局,臺北市松山區南京東路５段２９１巷１７－２號,121.5663,25.05236,(02)27670271,羅氏家用新冠病毒抗原自我檢測套組,18,2022/05/07 11:59:02,（已完售，庫存不準）快篩試劑每日16點販售，週日沒有販售
5901013442,松山八德藥局,臺北市松山區八德路２段４００號,121.5466,25.04804,(02)27782773,羅氏家用新冠病毒抗原自我檢測套組,78,2022/05/07 11:59:02,快篩實名制，每天16:00開始販售，售完為止。
5901013693,民生盛康藥局,臺北市松山區民生東路５段２０４號１樓,121.5648,25.05826,(02)27460758,羅氏家用新冠病毒抗原自我檢測套組,145,2022/05/07 11:59:02,【每日70分】每日早上9:00發號碼牌，14:00~20:00拿號碼牌回來領取，每人限1張號碼牌，逾時不候
5901013719,大樹松山藥局,臺北市松山區民生東路５段１０７號１樓,121.5601,25.05878,(02)27562226,羅氏家用新冠病毒抗原自我檢測套組,78,2022/05/07 11:59:02,快篩實名制，每天16:00開始販售，售完為止。
5901013737,全欣藥局,臺北市松山區復興北路７３號２樓,121.5442,25.05104,(02)87729066,羅氏家用新冠病毒抗原自我檢測套組,2,2022/05/07 11:59:02,9:00am開始販售30人份15:00販售30人份:18:00販售17人份；週六:9:00販售39人份；週日:15:00販售39人份....排隊人數滿會先發號碼
5901020303,宏恩藥局,臺北市大安區大安路１段１８１號,121.5461,25.03619,(02)27000956,羅氏家用新冠病毒抗原自我檢測套組,2,2022/05/07 11:59:02,實名制快篩每周一~六，10:00發放號碼牌， 後於12:00~21:00自由擇時，持號碼牌領取快篩並收費
5901023386,弘昇藥局,臺北市大安區復興南路１段１０７巷３２號,121.5458,25.04349,(02)27110061,羅氏家用新冠病毒抗原自我檢測套組,8,2022/05/07 11:59:02,上午11點以後至晚上11點
5901023831,康乃馨藥局,臺北市大安區建國南路１段３２７號,121.5382,25.03481,(02)23257097,羅氏家用新冠病毒抗原自我檢測套組,78,2022/05/07 11:59:02,週一至週五09:00-21:00，週六09:00-18:00；快篩代售時間自12:00、現場排隊
5901024669,百岳藥局,臺北市大安區和平東路２段３１１巷１１號,121.5452,25.02514,(02)27551037,羅氏家用新冠病毒抗原自我檢測套組,78,2022/05/07 11:59:02,快篩試劑販售時間:周一至周五10:30~12:00止
5901024696,仁華藥局,臺北市大安區臥龍街１５５號,121.5511,25.01834,(02)27336762,羅氏家用新冠病毒抗原自我檢測套組,72,2022/05/07 11:59:02,無
5901024767,杏一樂業藥局,臺北市大安區樂業街１６２號,121.5535,25.01958,(02)27383194,羅氏家用新冠病毒抗原自我檢測套組,78,2022/05/07 11:59:02,快篩下午三點現場直接販售（不發號碼牌）
5901024918,康祥藥局,臺北市大安區忠孝東路４段２１６巷２１號,121.5531,25.04025,(02)27817891,羅氏家用新冠病毒抗原自我檢測套組,1,2022/05/07 11:59:02,星期天11:00-19:00
5901091473,快安藥局,臺北市大同區南京西路２８２、２８４號,121.5146,25.05349,(02)25561925,羅氏家用新冠病毒抗原自我檢測套組,59,2022/05/07 11:59:02,無
5901091759,儷安藥局,臺北市大同區錦西街５３巷１６號,121.5158,25.06065,(02)25578033,羅氏家用新冠病毒抗原自我檢測套組,78,2022/05/07 11:59:02,12點開始販售快篩試劑，營業時間:上午10點到下午6點
5901091884,躍獅雙蓮藥局,臺北市大同區涼州街４號,121.5147,25.06078,(02)25537551,羅氏家用新冠病毒抗原自我檢測套組,30,2022/05/07 11:59:02,實名制快篩：平日週一～五 下午３點開賣 （六、日停售）
5901092130,大同民生藥局,臺北市大同區民生西路１２８號１樓、２樓及１３０號１樓、２樓,121.5191,25.05734,(02)25558886,羅氏家用新冠病毒抗原自我檢測套組,78,2022/05/07 11:59:02,快篩實名制，每天16:00開始販售，售完為止。
5901100155,大信藥局,臺北市中山區林森北路１５９巷６號,121.5255,25.0517,(02)25719080,羅氏家用新冠病毒抗原自我檢測套組,1,2022/05/07 11:59:02,無
5901101607,蓁榛健康生活藥局,臺北市中山區合江街１００－２號１樓,121.5391,25.05845,(02)25099333,羅氏家用新冠病毒抗原自我檢測套組,16,2022/05/07 11:59:02,實名制快篩配售時間依到貨時間而定，請參考蓁榛健康生活藥局合江店臉書公告
5901102444,啟美藥師藥局,臺北市中山區錦州街２８２號,121.5352,25.06024,(02)25178032,羅氏家用新冠病毒抗原自我檢測套組,78,2022/05/07 11:59:02,快篩 販售時間 20點開賣到21點，星期六日公休
5901102686,富宥康藥局,臺北市中山區北安路６０８巷５弄２２號,121.5496,25.08263,(02)25325277,羅氏家用新冠病毒抗原自我檢測套組,2,2022/05/07 11:59:02,無
5901103647,禾康藥局,臺北市中山區植福路２９６號（實際營業地址：１層）,121.5612,25.08125,(02)26562156,羅氏家用新冠病毒抗原自我檢測套組,14,2022/05/07 11:59:02,國定假日不執行調劑業務
5901103656,大樹龍江藥局,臺北市中山區龍江路２４２號,121.5406,25.05889,(02)25035666,羅氏家用新冠病毒抗原自我檢測套組,78,2022/05/07 11:59:02,國定假日仍執行調劑業務
5901103745,吉林藥局,臺北市中山區吉林路３７１號（１樓）,121.5305,25.06511,(02)25865990,羅氏家用新冠病毒抗原自我檢測套組,78,2022/05/07 11:59:02,快篩實名制，每天16:00開始販售，售完為止。
5901103772,興耀生活藥局,臺北市中山區林森北路４０５號（１樓）,121.5257,25.05943,(02)25818210,羅氏家用新冠病毒抗原自我檢測套組,1,2022/05/07 11:59:02,國定假日仍執行調劑業務
5901110311,永安藥局,臺北市內湖區文德路２１０巷３０弄４８號,121.5852,25.07723,(02)26586658,羅氏家用新冠病毒抗原自我檢測套組,1,2022/05/07 11:59:02,口罩販售時間早上10點開始發號碼牌  同時販售
5901110624,宏光藥局,臺北市內湖區成功路２段２２１號１樓,121.5909,25.06738,(02)27919068,羅氏家用新冠病毒抗原自我檢測套組,78,2022/05/07 11:59:02,快篩實名制13:30開始販售（現場排隊不發號碼牌售完為止）
5901111890,安康藥局,臺北市內湖區安康路４８２號,121.6158,25.06785,(02)26327675,羅氏家用新冠病毒抗原自我檢測套組,78,2022/05/07 11:59:02,無
5901112682,富康東湖藥局,臺北市內湖區東湖路１１９巷４９弄１６號,121.617,25.06988,(02)26323222,羅氏家用新冠病毒抗原自我檢測套組,74,2022/05/07 11:59:02,視快篩實際到貨時間販售；LINE社群搜尋「富康藥局東湖店」會有第一線消息
5901112995,昇龍藥局,臺北市內湖區東湖路１５１號,121.6174,25.0681,(02)26316783,羅氏家用新冠病毒抗原自我檢測套組,52,2022/05/07 11:59:02,營業時間為早上8點到晚上10點；實名制快篩於每日下午一點前領取，​但若排隊人數已超過數量，將視情況提早發放。
5901113018,桔子藥局,臺北市內湖區內湖路２段３３３號,121.5917,25.08319,(02)27930052,羅氏家用新冠病毒抗原自我檢測套組,78,2022/05/07 11:59:02,早0900-1200，午1400-1700，晚1900-2100
5901113385,躍獅康成藥局,臺北市內湖區成功路４段６１巷１１號,121.5928,25.0814,(02)87922031,羅氏家用新冠病毒抗原自我檢測套組,78,2022/05/07 11:59:02,如有收到政府配送，實名制快篩13:40發號碼牌，14:00開賣。實名制口罩已無販售。
5901113723,杏一港墘藥局,臺北市內湖區港墘路８３號（１樓）,121.5781,25.08078,(02)87978746,羅氏家用新冠病毒抗原自我檢測套組,78,2022/05/07 11:59:02,無
5901122080,成福大藥局,臺北市南港區成福路８號,121.5859,25.04578,(02)27859221,羅氏家用新冠病毒抗原自我檢測套組,78,2022/05/07 11:59:02,無
5901150271,建芳藥局,臺北市士林區德行東路１４８號,121.5296,25.10804,(02)28357172,羅氏家用新冠病毒抗原自我檢測套組,39,2022/05/07 11:59:02,無
5901150548,田倉藥局,臺北市士林區士東路１２４號,121.5302,25.11219,(02)88662188,羅氏家用新冠病毒抗原自我檢測套組,78,2022/05/07 11:59:02,每日19:00（傍晚7點）開始販售.
5901150593,安寧藥局,臺北市士林區劍潭路９１號,121.5199,25.08285,(02)28803319,羅氏家用新冠病毒抗原自我檢測套組,78,2022/05/07 11:59:02,領藥星期1.3.5為 9:00~12:00.及16:00~20:00*星期2.4.6.--上午
5901150771,天母大和藥師藥局,臺北市士林區德行東路１８９－１號１樓,121.5317,25.10897,(02)28310142,羅氏家用新冠病毒抗原自我檢測套組,1,2022/05/07 11:59:02,快篩實名制 配合營業時間  賣完為止
5901150815,陽明藥局,臺北市士林區菁山路１０號１樓,121.5469,25.13797,(02)28612863,羅氏家用新冠病毒抗原自我檢測套組,1,2022/05/07 11:59:02,早上9點30到12點健保卡排隊.（作業時間2小時）下午1點到晚上6點領回口罩及健保卡
5901152079,資生堂藥局,臺北市士林區承德路４段４０巷１７號１Ｆ,121.522,25.08107,(02)28857588,羅氏家用新冠病毒抗原自我檢測套組,78,2022/05/07 11:59:02,5／7周六快篩發下午一點
5901152471,得安藥局,臺北市士林區文林路１４０號,121.5267,25.08878,(02)28836336,羅氏家用新冠病毒抗原自我檢測套組,78,2022/05/07 11:59:02,星期三五六下午3:30---10:00   星期二 四日下午5:00--10:00
5901153263,健揚藥局,臺北市士林區延平北路５段２５１號,121.5097,25.08483,(02)28163698,羅氏家用新冠病毒抗原自我檢測套組,71,2022/05/07 11:59:02,每日下午13:30開始販售
5901153941,士東藥局,臺北市士林區士東路９１巷３號,121.5291,25.11256,(02)28760588,羅氏家用新冠病毒抗原自我檢測套組,78,2022/05/07 11:59:02,快篩實名制，每天16:00開始販售，售完為止。
5901154000,文昌大藥局,臺北市士林區文昌路７２號１樓,121.5213,25.09634,(02)28376196,羅氏家用新冠病毒抗原自我檢測套組,60,2022/05/07 11:59:02,1.周一至周日下午15:00販售實名制快篩，請自備零錢 2.每日提供18份，讓醫護警消憑證購買，請pm14:30前來
5901154055,天母盛康藥局,臺北市士林區天母東路８巷８４號１樓,121.5304,25.11483,(02)28720208,羅氏家用新冠病毒抗原自我檢測套組,151,2022/05/07 11:59:02,實名制快篩每日14:00開始，賣完為止。
5901154091,社正藥局,臺北市士林區社正路１２號１樓,121.5093,25.08854,(02)28118704,羅氏家用新冠病毒抗原自我檢測套組,69,2022/05/07 11:59:02,無
5901154108,藥本家藥局,臺北市士林區中山北路７段１４巷２６號１樓,121.5328,25.11884,(02)28766682,羅氏家用新冠病毒抗原自我檢測套組,12,2022/05/07 11:59:02,無
5901160062,丸三大藥局,臺北市北投區自強街１０５號,121.5153,25.11086,(02)28230637,羅氏家用新冠病毒抗原自我檢測套組,78,2022/05/07 11:59:02,實名制快篩試劑13:30開始販售
5901160517,弘安藥局,臺北市北投區懷德街３３號１樓,121.5193,25.11219,(02)28206390,羅氏家用新冠病毒抗原自我檢測套組,76,2022/05/07 11:59:02,快篩每日下午2:00開賣，現場購買售完為止
5901162477,長宜藥局,臺北市北投區自強街１１２號,121.5155,25.11074,(02)28216605,羅氏家用新冠病毒抗原自我檢測套組,78,2022/05/07 11:59:02,實名制快篩試劑發放時間:14:00~售完為止，會依政府配送狀況調整
5901163269,佳祈健保藥局,臺北市北投區明德路１４４號,121.5208,25.11047,(02)28232535,羅氏家用新冠病毒抗原自我檢測套組,74,2022/05/07 11:59:02,無
5901163527,理得藥局,臺北市北投區石牌路１段１５０號,121.5131,25.11426,(02)28289680,羅氏家用新冠病毒抗原自我檢測套組,75,2022/05/07 11:59:02,每日13:30發放號碼牌 14:00開賣，售完為止。
5901163554,良哲藥局,臺北市北投區明德路１５７－４號（實際使用：１樓）,121.5209,25.11129,(02)28285516,羅氏家用新冠病毒抗原自我檢測套組,2,2022/05/07 11:59:02,實名制快篩販售時間：早上 9:00~9:30／下午 2:30~3:00（週六人力不足不販售／週日休息）
5901163563,躍獅光明藥局,臺北市北投區光明路５１號、５３號（實際使用：１樓）,121.4998,25.13286,(02)28915993,羅氏家用新冠病毒抗原自我檢測套組,23,2022/05/07 11:59:02,1.早上9:30發號碼牌.核對健保卡 2.等快篩到貨才開始賣，到貨時間不確定3.有號碼牌者請在晚上8點前領取，逾期作廢
5901163572,永欣中西藥局,臺北市北投區中和街５０１號,121.4947,25.1452,(02)28910307,羅氏家用新冠病毒抗原自我檢測套組,13,2022/05/07 11:59:02,週一至週六 早上9:30發號碼牌 10點販售 周日公休（庫存不準 號碼牌發完即售完）謝謝
5901170139,福華藥局,臺北市信義區吳興街２８１巷３號１樓,121.5643,25.02656,(02)27208527,羅氏家用新冠病毒抗原自我檢測套組,78,2022/05/07 11:59:02,現階段下午1:30配合政府發售快篩試劑
5901170915,杏仁藥局,臺北市信義區大道路１３５號,121.5834,25.03901,(02)27262541,羅氏家用新冠病毒抗原自我檢測套組,24,2022/05/07 11:59:02,實名制快篩:週一至週五下午3點販售，週六週日無販售
5901173238,正和藥局,臺北市信義區吳興街２２５巷６號,121.5634,25.02782,(02)23455186,羅氏家用新冠病毒抗原自我檢測套組,70,2022/05/07 11:59:02,下午2點半發放快篩，週日無發放
5901173407,康怡健保藥局,臺北市信義區吳興街４６７巷２弄１２號,121.5695,25.02381,(02)27206193,羅氏家用新冠病毒抗原自我檢測套組,2,2022/05/07 11:59:02,快篩早上9點開賣，賣完為止
5901173710,專品光復藥局,臺北市信義區光復南路４６７之１號,121.5577,25.03384,(02)27586682,羅氏家用新冠病毒抗原自我檢測套組,76,2022/05/07 11:59:02,禮拜一到六下午三點販售口罩
5901173738,尚頤中西藥局,臺北市信義區虎林街１４５號,121.5767,25.03959,(02)27253818,羅氏家用新冠病毒抗原自我檢測套組,70,2022/05/07 11:59:02,無
5901173943,躍獅興雅藥局,臺北市信義區松德路１２８號,121.5745,25.03734,(02)87808429,羅氏家用新冠病毒抗原自我檢測套組,78,2022/05/07 11:59:02,14:00發號碼牌且同步開賣快篩，販賣至15:00或售完為止，週日無販售。
5901174084,市政藥局,臺北市信義區忠孝東路５段１６９號１樓、１７１號１樓,121.5688,25.0412,(02)27560050,羅氏家用新冠病毒抗原自我檢測套組,78,2022/05/07 11:59:02,快篩實名制，每天16:00開始販售，售完為止。
5901180224,中心藥局,臺北市中正區汀州路３段１２１號,121.5303,25.01654,(02)23689889,羅氏家用新冠病毒抗原自我檢測套組,1,2022/05/07 11:59:02,實名制快篩因物流貨運配送調度，調整領取時間延後至下午3點
5901180322,南昌大藥局,臺北市中正區南昌路１段８６號１樓,121.5174,25.03086,(02)23510322,羅氏家用新冠病毒抗原自我檢測套組,5,2022/05/07 11:59:02,早上10點發號碼牌，下午2點前來購買，逾期作廢。
5901183645,大愛生活藥局,臺北市中正區汀州路２段２３２號,121.5243,25.02189,(02)23661155,羅氏家用新冠病毒抗原自我檢測套組,31,2022/05/07 11:59:02,下午14:30開始發放快篩（不發號碼牌直接買）~~不要太早開始排隊啊啊啊啊
5901184080,活力健康藥妝藥局,臺北市中正區中華路２段３１５巷１號,121.5062,25.02795,(02)23392625,羅氏家用新冠病毒抗原自我檢測套組,77,2022/05/07 11:59:02,快篩14:00-15:00， 建議提早排隊
5901184106,信康藥局,臺北市中正區南昌路１段１４３號,121.5186,25.02953,(02)23961979,羅氏家用新冠病毒抗原自我檢測套組,1,2022/05/07 11:59:02,14:00開始販售實名制快篩
5901184553,珍忻藥局,臺北市中正區南昌路１段６５號,121.5174,25.03107,(02)23965115,羅氏家用新冠病毒抗原自我檢測套組,39,2022/05/07 11:59:02,健保快篩發放:13:20及18:20分兩梯次發號碼牌
5901184633,躍獅東門藥局,臺北市中正區金山南路１段１０８之１號（１樓）,121.5273,25.03538,(02)23920339,羅氏家用新冠病毒抗原自我檢測套組,34,2022/05/07 11:59:02,5／6銷售時間已結束。5／7下午兩點開始販售，不提早發放號碼牌
5901190686,信義藥局,臺北市萬華區青年路２８號,121.5052,25.02581,(02)23074599,羅氏家用新冠病毒抗原自我檢測套組,78,2022/05/07 11:59:02,下午一點領（快篩） 視排隊狀況發號碼牌
5901193150,日森人文藥局,臺北市萬華區和平西路３段１４９號,121.4988,25.03543,(02)23082100,羅氏家用新冠病毒抗原自我檢測套組,8,2022/05/07 11:59:02,快篩依政府每日到貨時間， 會立即公告粉絲頁販售時間規則
5901193221,正盛藥局,臺北市萬華區中華路２段４３４－１號,121.5064,25.02708,(02)23050386,羅氏家用新冠病毒抗原自我檢測套組,69,2022/05/07 11:59:02,1.快篩一~六20點，周日不賣 2.目前排隊人潮多，建議7點左右提前候位 3.詳情請看門口公告或板橋正康總店臉書
5901193365,企鵝藥局,臺北市萬華區西昌街１７５號（１樓）,121.5007,25.03886,(02)23884691,羅氏家用新冠病毒抗原自我檢測套組,78,2022/05/07 11:59:02,公費快篩試劑，下午2點發號碼牌
5901200490,永明大藥局,臺北市文山區興隆路１段２９７號１樓,121.5449,24.99875,(02)29314428,羅氏家用新冠病毒抗原自我檢測套組,78,2022/05/07 11:59:02,每日下午2點50發放號碼牌，3點進行快篩販售，6點前未領取視同放棄，限一人一卡一份。
5901201568,康宜庭生活藥局,臺北市文山區興隆路４段６４號,121.5613,24.98514,(02)29385363,羅氏家用新冠病毒抗原自我檢測套組,6,2022/05/07 11:59:02,實名快篩14:00開賣 現場排隊
5901202627,杏隆藥局,臺北市文山區羅斯福路５段２６１號,121.5395,25.00115,(02)29313151,羅氏家用新冠病毒抗原自我檢測套組,156,2022/05/07 11:59:02,快篩實名制採預約登記，至5／14已登記額滿。
5901203446,景華盛康藥局,臺北市文山區景華街６９號１樓,121.545,24.99524,(02)29310188,羅氏家用新冠病毒抗原自我檢測套組,78,2022/05/07 11:59:02,快篩販售時間:下午3點開賣，現場發送號碼牌
5901203482,健康家藥局,臺北市文山區興隆路２段１３３號１樓,121.5481,25.00011,(02)29330858,羅氏家用新冠病毒抗原自我檢測套組,1,2022/05/07 11:59:02,實名制快篩下午一點開始販售，5／1店休
5902022829,弘興藥局,高雄市鼓山區鼓山三路４８－１１號,120.2757,22.65468,(07)5612677,羅氏家用新冠病毒抗原自我檢測套組,25,2022/05/07 11:59:02,無
5902030643,新高橋藥局,高雄市左營區民族一路１０２８號,120.3201,22.68255,(07)3100696,羅氏家用新冠病毒抗原自我檢測套組,2,2022/05/07 11:59:02,依快篩配送時間滾動式調整（5／6早10:00），請備妥當日可領買之健保卡與現金500元購買，不找零，0號是雙號，謝謝配合
5902040041,橘井藥局,高雄市楠梓區楠梓路１２９號,120.3286,22.73026,(07)3511869,羅氏家用新冠病毒抗原自我檢測套組,69,2022/05/07 11:59:02,快篩劑開賣時間：周一至週六每天下午1:00販售，售完為止。*** 5／9 起供貨正常，將恢復上午8:00開賣
5902050636,嘉益藥局,高雄市三民區重慶街３０號,120.302,22.64223,(07)3110157,羅氏家用新冠病毒抗原自我檢測套組,75,2022/05/07 11:59:02,快篩實名制下午15：00開始販售.
5902050798,友泰藥局,高雄市三民區中和街１６９號,120.2868,22.6388,(07)3125236,羅氏家用新冠病毒抗原自我檢測套組,17,2022/05/07 11:59:02,無
5902050903,皇安藥局,高雄市三民區九如一路４６１號,120.3296,22.63865,(07)3866779,羅氏家用新冠病毒抗原自我檢測套組,8,2022/05/07 11:59:02,營業日0900可先領取號碼牌，上午9:00-12:00及下午3:00~10:.00為販賣快篩時間，售完為止
5902056638,柏仁藥局,高雄市三民區覺民路５０４號,120.3317,22.64092,(07)3976016,羅氏家用新冠病毒抗原自我檢測套組,60,2022/05/07 11:59:02,實名制快篩下午3點開賣，現場排隊，售完為止
5902057144,欣仁惠藥局,高雄市三民區大昌二路２４８號,120.3323,22.64529,(07)3837833,羅氏家用新冠病毒抗原自我檢測套組,10,2022/05/07 11:59:02,無
5902085371,加和藥局,高雄市苓雅區和平一路１４３之７號,120.3205,22.62331,(07)7219332,羅氏家用新冠病毒抗原自我檢測套組,78,2022/05/07 11:59:02,快篩試劑每日下午2:30販售，務再來電詢問。星期天不販售快篩試劑
5902110628,悅是康藥局,高雄市小港區漢民路２７６號,120.3536,22.56665,(07)8010012,羅氏家用新冠病毒抗原自我檢測套組,5,2022/05/07 11:59:02,每日早上10:00開賣、不須拿號碼牌、領完為止。
5903010501,佑全豐原圓環東藥局,臺中市豐原區圓環東路５４８、５５０、５５２、５５４號１樓,120.7275,24.24948,(04)25246069,羅氏家用新冠病毒抗原自我檢測套組,78,2022/05/07 11:59:02,營業時間9:00-21:00，今日實名制1:50發號碼牌2:00開賣，售完為止
5903010556,升禾和大藥局,臺中市豐原區育英路２６號１樓,120.7163,24.24346,(04)25293099,羅氏家用新冠病毒抗原自我檢測套組,78,2022/05/07 11:59:02,快篩試劑1800領取.採現場排隊.售完為止
5903030110,大甲啄木鳥藥局,臺中市大甲區中山路１段９０５號,120.6251,24.3431,(04)26804502,羅氏家用新冠病毒抗原自我檢測套組,25,2022/05/07 11:59:02,週一~週日每日AM08:15開始販售口罩~PM10:20   啄木鳥藥局歡迎您   ︿__________︿
5903040107,佑全清水中山三藥局,臺中市清水區中山路２４、２６、２８號１樓,120.572,24.26043,(04)26224469,羅氏家用新冠病毒抗原自我檢測套組,78,2022/05/07 11:59:02,5／7實名制快篩發放時間下午2:00開始，1:50發放號碼牌，請關注本藥局臉書隨時公告最新訊息。慢箋牙科箋領藥全年無休。
5903050103,北勢進騰藥局,臺中市沙鹿區北勢東路５０９之７號１樓,120.576,24.22526,(04)26330893,羅氏家用新冠病毒抗原自我檢測套組,78,2022/05/07 11:59:02,營業時間12:00-22:00，每日12:00販售實名制快篩
5903060092,佑全梧棲文化藥局,臺中市梧棲區文化路二段１５０號１樓,120.531,24.25526,(04)26566433,羅氏家用新冠病毒抗原自我檢測套組,78,2022/05/07 11:59:02,實名制快篩，下午1:50發號碼牌，14:00開始販售
5903080138,佑全神岡中山藥局,臺中市神岡區中山路５４９、５４９之１、５４９之２號１樓,120.6842,24.24638,(04)25634677,羅氏家用新冠病毒抗原自我檢測套組,78,2022/05/07 11:59:02,5／7下午1點50分發號碼牌2點開賣
5903090143,佳福藥局,臺中市潭子區中山路１段４３－１號,120.7023,24.19138,(04)25332982,羅氏家用新冠病毒抗原自我檢測套組,78,2022/05/07 11:59:02,每日中午12:00至下午3:00休息，星期六公休，營業日上午8:00快篩試劑開賣
5903150180,九德藥局,臺中市烏日區中山路一段４３８、４４０號１樓,120.6365,24.10748,(04)23385456,羅氏家用新冠病毒抗原自我檢測套組,78,2022/05/07 11:59:02,快篩實名制，每天16:00開始販售，售完為止。
5903190362,太平中山藥局,臺中市太平區中山路４段１１號,120.7139,24.14931,(04)23959200,羅氏家用新冠病毒抗原自我檢測套組,78,2022/05/07 11:59:02,快篩實名制，每天16:00開始販售，售完為止。
5903200229,信元藥局,臺中市大里區益民路２段３７２號１樓,120.684,24.11545,(04)24876051,羅氏家用新冠病毒抗原自我檢測套組,60,2022/05/07 11:59:02,下午5點發號碼牌並依序販賣
5903200443,佳霖藥局,臺中市大里區塗城路９６４號１樓,120.6933,24.09081,(04)24960895,羅氏家用新冠病毒抗原自我檢測套組,75,2022/05/07 11:59:02,健保卡快篩:（周日和周三停賣）.請備好健保卡和500元整.下午3點半開賣.現場排隊／售完為止
5903200658,德芳成功藥局,臺中市大里區成功路５３５－３號１樓,120.7033,24.0913,(04)24920298,羅氏家用新冠病毒抗原自我檢測套組,21,2022/05/07 11:59:02,快篩販售時間:下午3點~6點
5903200685,塗城藥局,臺中市大里區中興路一段１８７、１８９、１９１號１樓,120.6933,24.09008,(04)24967234,羅氏家用新冠病毒抗原自我檢測套組,78,2022/05/07 11:59:02,快篩實名制，每天16:00開始販售，售完為止。
5903200701,大益藥局,臺中市大里區益民路二段３３５號１、２樓,120.6837,24.11311,(04)24811551,羅氏家用新冠病毒抗原自我檢測套組,78,2022/05/07 11:59:02,快篩實名制，每天16:00開始販售，售完為止。
5903200738,杏一大里國光藥局,臺中市大里區國光路二段４１１號１樓,120.6796,24.10921,(04)24071492,羅氏家用新冠病毒抗原自我檢測套組,78,2022/05/07 11:59:02,周一至周六16:00~19:00，周日及補假日人力不足不販售
5903230085,翔新藥局,臺中市東區東英１７街１６７－３號,120.7092,24.14785,(04)22131269,羅氏家用新冠病毒抗原自我檢測套組,76,2022/05/07 11:59:02,快篩晚上7點現場販售!!! 星期日公休，（W1-W6 中午12:15-14:30休）
5903240447,大樹五權藥局,臺中市西區五權路９７－１號１樓,120.6717,24.14626,(04)22022910,羅氏家用新冠病毒抗原自我檢測套組,79,2022/05/07 11:59:02,快篩實名制，每天16:00開始販售，售完為止。
5903240474,佑全台中向上藥局,臺中市西區向上路一段３８６、３８８號１樓,120.6559,24.14688,(04)23204732,羅氏家用新冠病毒抗原自我檢測套組,78,2022/05/07 11:59:02,因政府配貨時間不一，依照門市現場公告時間為主
5903250630,澄光工學藥局,臺中市南區工學路１５９號１樓,120.6592,24.11688,(04)22620606,羅氏家用新冠病毒抗原自我檢測套組,78,2022/05/07 11:59:02,5／7（六）中午12點販售快篩，現場排隊無號碼牌。
5903260449,喜樂藥局,臺中市北區中清路１段３１號,120.677,24.1529,(04)22060423,羅氏家用新冠病毒抗原自我檢測套組,1,2022/05/07 11:59:02,無
5903260547,源順大藥局,臺中市北區健行路４８４號,120.6797,24.15931,(04)22072651,羅氏家用新冠病毒抗原自我檢測套組,1,2022/05/07 11:59:02,早上9:00~晚上10:00，固定周一至周六上午09:30開始販售口罩，售完為止.
5903260761,杏一北區忠明藥局,臺中市北區忠明路４４２號１樓,120.67,24.16267,(04)22081273,羅氏家用新冠病毒抗原自我檢測套組,78,2022/05/07 11:59:02,111／04／28實名制快篩每周一至周六12:00~18:00販售。每周日、國定假日因人力不足因素暫停販售。
5903270865,尚禾藥局,臺中市西屯區青海路一段６５號,120.6548,24.16438,(04)23147688,羅氏家用新冠病毒抗原自我檢測套組,78,2022/05/07 11:59:02,實名制快篩發放：時段一中午12:30~14:00。時段二20：30~22：30。時段一若未發完，餘量將遞延至時段二發放。周日停售。
5903270927,河南小林健保藥局,臺中市西屯區河南路二段２９８號１樓,120.6485,24.17477,(04)24512830,羅氏家用新冠病毒抗原自我檢測套組,4,2022/05/07 11:59:02,固定每日早上8點發放口罩號碼牌，下午4點半開始販售。
5903271022,西屯藥局,臺中市西屯區西屯路三段１５０－４５號１樓,120.621,24.18716,(04)24621822,羅氏家用新冠病毒抗原自我檢測套組,78,2022/05/07 11:59:02,快篩實名制，每天16:00開始販售，售完為止。
5903271031,美十樂中科藥局,臺中市西屯區西屯路三段１６６－６５號１樓,120.6129,24.19035,(04)24610219,羅氏家用新冠病毒抗原自我檢測套組,468,2022/05/07 11:59:02,醫事人員卡片損壞，暫時無法販賣快篩
5903271246,柏醫藥局,臺中市西屯區上安路５６號１樓,120.6412,24.17052,(04)24526391,羅氏家用新冠病毒抗原自我檢測套組,78,2022/05/07 11:59:02,因應到貨時間不定，統一晚上7點開放78組（5／7已到貨 11:37）
5903271291,西屯長安藥局,臺中市西屯區成都路３６８號１樓,120.6641,24.17322,(04)22981221,羅氏家用新冠病毒抗原自我檢測套組,78,2022/05/07 11:59:02,快篩實名制，每天16:00開始販售，售完為止。
5903280576,佑全黎明藥局,臺中市南屯區黎明路２段２６６號,120.6359,24.14816,(04)23805560,羅氏家用新冠病毒抗原自我檢測套組,78,2022/05/07 11:59:02,實名制快篩販售時間下午兩點
5903280763,全順藥局,臺中市南屯區永春東路３３９號１樓,120.6477,24.13447,(04)24730983,羅氏家用新冠病毒抗原自我檢測套組,68,2022/05/07 11:59:02,實名制快篩 販賣時間平日下午5點，周六中午12點
5903280898,佑全台中忠勇藥局,臺中市南屯區忠勇路５１－８號１樓,120.614,24.14376,(04)23803282,羅氏家用新冠病毒抗原自我檢測套組,78,2022/05/07 11:59:02,實名制快篩發放號碼牌13:50  販售14:00（限量78份）
5903280923,南屯丁丁藥局,臺中市南屯區五權西路二段２１８號１樓,120.6503,24.14035,(04)36015077,羅氏家用新冠病毒抗原自我檢測套組,14,2022/05/07 11:59:02,無
5903290394,億銓藥局,臺中市北屯區北屯路２１０－１號,120.6961,24.16756,(04)22313670,羅氏家用新冠病毒抗原自我檢測套組,27,2022/05/07 11:59:02,快篩實名制星期六上午11：00開賣。
5903290607,敦化小林健保藥局,臺中市北屯區敦化路１段６６８號,120.6643,24.18593,(04)24261881,羅氏家用新冠病毒抗原自我檢測套組,2,2022/05/07 11:59:02,每日早上8:00領號碼牌，16:30再回藥局領口罩（全年無休）
5903290661,康博中西健保藥局,臺中市北屯區后庄一街７號１樓,120.6644,24.1865,(04)24252468,羅氏家用新冠病毒抗原自我檢測套組,1,2022/05/07 11:59:02,快篩下午01:00發售53份；晚上06:00銷售25份.週六.日及假日下午06:30開始依配送滾動調整
5903290849,新盛藥局,臺中市北屯區松竹路二段１５７號１樓,120.6959,24.18312,(04)22467779,羅氏家用新冠病毒抗原自我檢測套組,65,2022/05/07 11:59:02,下午2:30至8:30賣快篩試劑週一至週六
5903290947,德寶健保藥局,臺中市北屯區熱河路一段７０號１樓,120.687,24.1674,(04)22325511,羅氏家用新冠病毒抗原自我檢測套組,78,2022/05/07 11:59:02,下午二點開始販賣快篩試劑
5903291042,全成北屯藥局,臺中市北屯區北屯路４３９－１１號１樓,120.7004,24.17913,(04)22463518,羅氏家用新冠病毒抗原自我檢測套組,76,2022/05/07 11:59:02,快篩每日下午3:00開始販售
5903291211,愛樂芬兒童藥局,臺中市北屯區松竹路一段９２９號１樓,120.7131,24.18216,(04)24363660,羅氏家用新冠病毒抗原自我檢測套組,78,2022/05/07 11:59:02,因配送時間不固定，預定下午三點開始販售
5905030092,大樹白河藥局,臺南市白河區中山路１５３號１樓,120.417,23.35255,(06)6830006,羅氏家用新冠病毒抗原自我檢測套組,78,2022/05/07 11:59:02,快篩實名制，每天16:00開始販售，售完為止。
5905040141,大樹麻豆藥局,臺南市麻豆區中山路４８、５０號１樓,120.2469,23.18382,(06)5716556,羅氏家用新冠病毒抗原自我檢測套組,78,2022/05/07 11:59:02,快篩實名制，每天16:00開始販售，售完為止。
5905070050,晶德昌藥局,臺南市善化區文光里中山路８５號,120.3034,23.13298,(06)5856141,羅氏家用新冠病毒抗原自我檢測套組,74,2022/05/07 11:59:02,14:30-16:00.依號碼牌售完為止
5905070112,健登藥局,臺南市善化區大成路２１２號１樓,120.3004,23.13021,(06)5831133,羅氏家用新冠病毒抗原自我檢測套組,78,2022/05/07 11:59:02,快篩實名制販售 : 週一~六 下午兩點開始 週日不販售
5905140039,安安藥局隆田店,臺南市官田區中山路一段１５號１樓,120.3186,23.1927,(06)5795705,羅氏家用新冠病毒抗原自我檢測套組,1,2022/05/07 11:59:02,全日口罩販賣
5905200085,大樹新市藥局,臺南市新市區中正路４９、５１號１樓,120.2916,23.07223,(06)5892552,羅氏家用新冠病毒抗原自我檢測套組,78,2022/05/07 11:59:02,快篩實名制，每天16:00開始販售，售完為止。
5905210027,愛心藥師藥局,臺南市安定區港南里港口１４７號,120.233,23.09041,(06)5935104,羅氏家用新冠病毒抗原自我檢測套組,9,2022/05/07 11:59:02,春節營業時間請電洽或依現場公告
5905270176,大樹仁德藥局,臺南市仁德區中正路二段１１５２號１樓,120.2519,22.97062,(06)2797466,羅氏家用新冠病毒抗原自我檢測套組,78,2022/05/07 11:59:02,快篩實名制，每天16:00開始販售，售完為止。
5905310264,仁安藥師藥局,臺南市永康區崑山里大仁街６１號,120.2566,23.00183,(06)2056055,羅氏家用新冠病毒抗原自我檢測套組,63,2022/05/07 11:59:02,快篩實名制中午12點開始販售  藥局營業時間早上8點半到晚上9點
5905311127,台南永康藥局,臺南市永康區中山南路８１６、８１６─１、２、３號１樓,120.2471,23.02099,(06)2020201,羅氏家用新冠病毒抗原自我檢測套組,1,2022/05/07 11:59:02,快篩實名制，每天16:00開始販售，售完為止。
5905320797,大樹自由藥局,臺南市東區自由路三段３８２號１樓,120.2373,22.98241,(06)2890800,羅氏家用新冠病毒抗原自我檢測套組,78,2022/05/07 11:59:02,快篩實名制，每天16:00開始販售，售完為止。
5905320948,崇明台安藥局,臺南市東區崇明路３０４號１樓,120.2198,22.97762,(06)2900350,羅氏家用新冠病毒抗原自我檢測套組,59,2022/05/07 11:59:02,快篩下午2點開始販售
5905330220,合樂藥局,臺南市南區灣裡路３０９號,120.1824,22.92566,(06)2625016,羅氏家用新冠病毒抗原自我檢測套組,60,2022/05/07 11:59:02,快篩週一~六中午12點開賣，週日暫停
5905350035,海安藥師藥局,臺南市北區北成路４１８號１樓,120.202,23.01928,(06)2814600,羅氏家用新冠病毒抗原自我檢測套組,44,2022/05/07 11:59:02,快篩販售時間.週一至週六中午12點
5905380300,新高橋藥局台南永華店,臺南市安平區華平路２７９號１樓,120.1748,22.99031,(06)2992362,羅氏家用新冠病毒抗原自我檢測套組,2,2022/05/07 11:59:02,無
5907010150,育英藥局文德店,高雄市鳳山區文德路２９號,120.3527,22.63836,(07)7777059,羅氏家用新冠病毒抗原自我檢測套組,78,2022/05/07 11:59:02,營業時間上午12:00~下午10:00藥局發口罩時間為下午:12:00售完為止
5907010187,人人好藥局,高雄市鳳山區五甲三路１０巷７號１樓,120.3278,22.59336,(07)8151566,羅氏家用新冠病毒抗原自我檢測套組,77,2022/05/07 11:59:02,上午0830-1330下午1530-2100， 自2／11-2／29口罩販售周一三四五日，時間:9:00-12:00售完為止
5907010301,高大藥局,高雄市鳳山區南華路１８２號,120.3381,22.60295,(07)7718671,羅氏家用新冠病毒抗原自我檢測套組,47,2022/05/07 11:59:02,快篩試劑每日中午12:00現場販售  售完為止。周日店休
5907010427,好郝藥局鳳林店,高雄市鳳山區誠智里鳳林路２９０號,120.3779,22.62216,(07)7869188,羅氏家用新冠病毒抗原自我檢測套組,78,2022/05/07 11:59:02,健保快篩周一到周六（周日不販售）下午三點開始現場販售，售完為止
5907011095,鳳山五甲藥局,高雄市鳳山區正義里五甲二路１３９號１樓,120.3409,22.6014,(07)7269899,羅氏家用新冠病毒抗原自我檢測套組,78,2022/05/07 11:59:02,快篩實名制，每天16:00開始販售，售完為止。
5907011148,大樹國泰藥局,高雄市鳳山區興仁里五甲一路２９２號,120.3539,22.61698,(07)7407234,羅氏家用新冠病毒抗原自我檢測套組,78,2022/05/07 11:59:02,快篩實名制，每天16:00開始販售，售完為止。
5907011291,桂林活力藥師藥局鳳山店,高雄市鳳山區中正里瑞興路４８８號１樓,120.3719,22.63089,(07)7012827,羅氏家用新冠病毒抗原自我檢測套組,41,2022/05/07 11:59:02,早上9點發放號碼牌，發完號碼牌即售完
5907011317,凱旋藥局,高雄市鳳山區國隆里新富路３７３號１樓,120.3475,22.61494,(07)7671181,羅氏家用新冠病毒抗原自我檢測套組,78,2022/05/07 11:59:02,快篩實名制，每天16:00開始販售，售完為止。
5907011371,大樹五甲藥局,高雄市鳳山區福祥里五甲三路２４號１－２樓．２６號１－２樓,120.3278,22.59317,(07)8224926,羅氏家用新冠病毒抗原自我檢測套組,78,2022/05/07 11:59:02,快篩實名制，每天16:00開始販售，售完為止。
5907020085,大德藥局,高雄市岡山區大德一路９８號,120.3025,22.79689,(07)6221456,羅氏家用新冠病毒抗原自我檢測套組,78,2022/05/07 11:59:02,快篩實名制，每天16:00開始販售，售完為止。
5907020094,大樹岡山藥局,高雄市岡山區岡山路１３６號,120.2967,22.78913,(07)6219477,羅氏家用新冠病毒抗原自我檢測套組,78,2022/05/07 11:59:02,快篩實名制，每天16:00開始販售，售完為止。
5907030152,旗山藥局,高雄市旗山區中華路２３號,120.4841,22.88027,(07)6621158,羅氏家用新冠病毒抗原自我檢測套組,78,2022/05/07 11:59:02,快篩實名制，每天16:00開始販售，售完為止。
5907050109,林園藥局,高雄市林園區仁愛路１３號１樓,120.3928,22.50418,(07)6425855,羅氏家用新冠病毒抗原自我檢測套組,78,2022/05/07 11:59:02,快篩實名制，每天16:00開始販售，售完為止。
5907080189,德昌藥局仁雄店,高雄市仁武區灣內里仁雄路３８、３８－１、３８－２號,120.3506,22.68074,(07)3749166,羅氏家用新冠病毒抗原自我檢測套組,71,2022/05/07 11:59:02,固定週一至週日14:30~16:00開始發放號碼牌並依序販售快篩.售完為止
5907080303,群邦藥局,高雄市仁武區八德東路１８０號１樓,120.3422,22.68538,(07)3745985,羅氏家用新冠病毒抗原自我檢測套組,73,2022/05/07 11:59:02,每日下午2:00開始販售公費快篩（售完為止），星期日藥局早上8:30-9:30賣公費快篩
5907080330,文武藥局,高雄市仁武區文武里中華路３５３號,120.3535,22.7011,(07)3733551,羅氏家用新冠病毒抗原自我檢測套組,78,2022/05/07 11:59:02,快篩實名制，每天16:00開始販售，售完為止。
5907090167,大樹大社藥局,高雄市大社區中山路３０８號１樓,120.3503,22.73145,(07)3531682,羅氏家用新冠病毒抗原自我檢測套組,78,2022/05/07 11:59:02,快篩實名制，每天16:00開始販售，售完為止。
5907150220,天德藥局路竹店,高雄市路竹區忠孝路２６－２、２６－３號１樓,120.2601,22.86059,(07)6975656,羅氏家用新冠病毒抗原自我檢測套組,78,2022/05/07 11:59:02,下午三點發放快篩
5907150257,大樹大立藥局,高雄市路竹區國昌路５１號,120.26,22.85409,(07)6961663,羅氏家用新冠病毒抗原自我檢測套組,78,2022/05/07 11:59:02,快篩實名制，每天16:00開始販售，售完為止。
5907160093,保生藥局,高雄市湖內區葉厝里保生路３４０．３４２號,120.2195,22.90733,(07)6990800,羅氏家用新冠病毒抗原自我檢測套組,79,2022/05/07 11:59:02,快篩實名制，每天16:00開始販售，售完為止。
5907280036,七賢藥局,高雄市鹽埕區七賢三路１６２號１樓,120.2829,22.62712,(07)5330616,羅氏家用新冠病毒抗原自我檢測套組,78,2022/05/07 11:59:02,快篩實名制，每天16:00開始販售，售完為止。
5907300319,士凱藥局,高雄市左營區孟子路１７８號,120.3126,22.67387,(07)3430257,羅氏家用新冠病毒抗原自我檢測套組,78,2022/05/07 11:59:02,快篩實名制，每天14:30開始販售，售完為止。
5907300613,新高橋藥局河堤店,高雄市左營區裕誠路１４４號１樓及地下１樓,120.3095,22.66423,(07)5582806,羅氏家用新冠病毒抗原自我檢測套組,1,2022/05/07 11:59:02,下午1:30開始販售口罩至下午5:30
5907300631,大樹孟子藥局,高雄市左營區孟子路２２６、２２８號,120.3112,22.67415,(07)3461772,羅氏家用新冠病毒抗原自我檢測套組,78,2022/05/07 11:59:02,快篩實名制，每天16:00開始販售，售完為止。
5907300926,高鐵藥局,高雄市左營區華夏路１３２２．１３２６號,120.312,22.68587,(07)3452797,羅氏家用新冠病毒抗原自我檢測套組,78,2022/05/07 11:59:02,快篩實名制，每天16:00開始販售，售完為止。
5907300980,大路藥局,高雄市左營區左營大路５５－２號１樓,120.2877,22.6813,(07)5851001,羅氏家用新冠病毒抗原自我檢測套組,78,2022/05/07 11:59:02,快篩實名制，每天16:00開始販售，售完為止。
5907310020,德民藥局,高雄市楠梓區德民路９１１號,120.2897,22.72085,(07)3630805,羅氏家用新冠病毒抗原自我檢測套組,1,2022/05/07 11:59:02,營業日星期一至星期六上午11:00~13:00銷售快篩實名制.售完為止，週日公休
5907310262,大樹楠梓藥局,高雄市楠梓區軍校路９０８號,120.2919,22.71246,(07)3632322,羅氏家用新冠病毒抗原自我檢測套組,78,2022/05/07 11:59:02,快篩實名制，每天16:00開始販售，售完為止。
5907310404,藍田藥局,高雄市楠梓區藍田路１號,120.2953,22.72643,(07)3601236,羅氏家用新冠病毒抗原自我檢測套組,78,2022/05/07 11:59:02,快篩實名制，每天16:00開始販售，售完為止。
5907320428,東京藥局,高雄市三民區建工路６８５號,120.3173,22.6478,(07)3874567,羅氏家用新冠病毒抗原自我檢測套組,75,2022/05/07 11:59:02,實名制快篩販售時間: 每日15:00-晚上20:00
5907320697,鄰好藥師藥局,高雄市三民區褒揚街２８７號,120.3398,22.64097,(07)3909589,羅氏家用新冠病毒抗原自我檢測套組,78,2022/05/07 11:59:02,購買實名制快篩時間下午14:00-16:00，各類防疫用品販售中
5907320893,大樹天祥藥局,高雄市三民區天祥一路１６７號,120.3191,22.66737,(07)3429902,羅氏家用新冠病毒抗原自我檢測套組,78,2022/05/07 11:59:02,快篩實名制，每天16:00開始販售，售完為止。
5907320946,熊安心藥局,高雄市三民區陽明路４０８號,120.3429,22.64609,(07)3815212,羅氏家用新冠病毒抗原自我檢測套組,37,2022/05/07 11:59:02,週一 ~ 週六快篩 14:00 販售
5907321069,桂林活力藥局九如店,高雄市三民區懷安街１１２號１樓,120.3176,22.64095,(07)3981009,羅氏家用新冠病毒抗原自我檢測套組,78,2022/05/07 11:59:02,每天15:30發號碼牌，於18:00前兌換完畢，逾期棄權，剩餘則繼續發放
5907321078,振源藥局,高雄市三民區熱河一街３５５號１樓,120.3061,22.64365,(07)3112541,羅氏家用新冠病毒抗原自我檢測套組,11,2022/05/07 11:59:02,4／30起15:00開始販售快篩，六日皆有營業
5907321103,自由藥局,高雄市三民區自由一路７８號,120.3089,22.64422,(07)3223113,羅氏家用新冠病毒抗原自我檢測套組,78,2022/05/07 11:59:02,快篩實名制，每天16:00開始販售，售完為止。
5907321121,九如順天藥局,高雄市三民區大連街９巷１８號,120.3045,22.64073,(07)3220706,羅氏家用新冠病毒抗原自我檢測套組,74,2022/05/07 11:59:02,實名制快篩為下午1點-6點開放領取，領完為止
5907330219,美麗島台安藥局,高雄市新興區中山一路１１５號地下２樓（轉換層）,120.3015,22.63155,(07)2365490,羅氏家用新冠病毒抗原自我檢測套組,1,2022/05/07 11:59:02,位於美麗島捷運站內，往西子灣方向地下二樓。販賣時間依現場公告為主，可來電詢問。
5907350220,仁愛藥師藥局,高雄市苓雅區中正一路２３０號,120.3296,22.62921,(07)7222300,羅氏家用新冠病毒抗原自我檢測套組,71,2022/05/07 11:59:02,快篩販售一到五10:00開始發號碼牌，紅字假日12:00開始發號碼牌
5907350480,健森藥局,高雄市苓雅區林森二路１３８號１、２樓,120.3066,22.62054,(07)3365169,羅氏家用新冠病毒抗原自我檢測套組,1,2022/05/07 11:59:02,早上9點領牌 下午3~5點領口罩
5907350551,大樹武廟藥局,高雄市苓雅區武廟路４３、４５號１樓,120.3314,22.63005,(07)7222268,羅氏家用新冠病毒抗原自我檢測套組,78,2022/05/07 11:59:02,快篩實名制，每天16:00開始販售，售完為止。
5907350597,武廟台安藥局,高雄市苓雅區武廟路１３３－１號,120.3266,22.63106,(07)7228893,羅氏家用新冠病毒抗原自我檢測套組,1,2022/05/07 11:59:02,實名制快篩販售時間：（一）~（六） 9:00~17:00
5907350631,三多藥局,高雄市苓雅區三多二路２９２號１樓,120.3173,22.61838,(07)3365889,羅氏家用新冠病毒抗原自我檢測套組,78,2022/05/07 11:59:02,快篩實名制，每天16:00開始販售，售完為止。
5907360520,大樹瑞福藥局,高雄市前鎮區瑞隆路１７０號１樓、２樓,120.3357,22.60598,(07)7271170,羅氏家用新冠病毒抗原自我檢測套組,78,2022/05/07 11:59:02,快篩實名制，每天16:00開始販售，售完為止。
5907360664,忠純藥局,高雄市前鎮區中華五路１００９號１樓,120.3056,22.60341,(07)3366886,羅氏家用新冠病毒抗原自我檢測套組,78,2022/05/07 11:59:02,快篩實名制，每天16:00開始販售，售完為止。
5907380255,安安藥師藥局,高雄市小港區孔鳳路５６５號１樓,120.3586,22.58393,(07)7915933,羅氏家用新冠病毒抗原自我檢測套組,78,2022/05/07 11:59:02,快篩實名制周一至周六下午14:00開始販售，售完為止
5907380264,大樹孔鳳藥局,高雄市小港區孔鳳路５１９、５２１號,120.3587,22.5828,(07)7918521,羅氏家用新冠病毒抗原自我檢測套組,78,2022/05/07 11:59:02,快篩實名制，每天16:00開始販售，售完為止。
5907380424,大樹小港藥局,高雄市小港區康莊路７５號１樓,120.3559,22.56853,(07)8068328,羅氏家用新冠病毒抗原自我檢測套組,78,2022/05/07 11:59:02,快篩實名制，每天16:00開始販售，售完為止。
5911011334,海大藥局,基隆市中正區新豐街２５５號１樓,121.7879,25.13621,(02)24699222,羅氏家用新冠病毒抗原自我檢測套組,78,2022/05/07 11:59:02,平日：8：30~12：00，15：00~21：30；星期日：~12：00
5911011512,八斗子東亞藥局,基隆市中正區北寧路３７８號,121.7958,25.13944,(02)24698829,羅氏家用新冠病毒抗原自我檢測套組,78,2022/05/07 11:59:02,中午12點鐘開賣實名制快篩，售完為止
5911011638,中正藥局,基隆市中正區新豐街３８５號１、２樓,121.7856,25.13537,(02)24690660,羅氏家用新冠病毒抗原自我檢測套組,78,2022/05/07 11:59:02,快篩實名制，每天16:00開始販售，售完為止。
5911021438,正心藥局,基隆市七堵區南興路１０號１樓,121.7149,25.09755,(02)24563378,羅氏家用新冠病毒抗原自我檢測套組,78,2022/05/07 11:59:02,每日限量78盒， 星期一~六下午13:30發號碼牌，14:00開始販賣，星期日上午9:00發號碼牌，9:30開始販賣，12:00停止領取
5911040273,第一藥局,基隆市仁愛區愛三路１２０號３樓,121.7436,25.12963,(02)24292288,羅氏家用新冠病毒抗原自我檢測套組,78,2022/05/07 11:59:02,快篩試劑每天下午12點發號碼牌，12點20分到14點販售
5911041403,佑昌藥局,基隆市仁愛區南榮路１７號,121.7423,25.12697,(02)24293309,羅氏家用新冠病毒抗原自我檢測套組,5,2022/05/07 11:59:02,無
5911051409,順豐藥局,基隆市中山區中華路４號,121.7388,25.14545,(02)24369176,羅氏家用新冠病毒抗原自我檢測套組,78,2022/05/07 11:59:02,家用快篩每日下午2點起隨到隨領售完為止。
5911051543,復興藥局,基隆市中山區復興路１２８、１３０、１３２、１３４號１、２樓,121.7262,25.1446,(02)24362566,羅氏家用新冠病毒抗原自我檢測套組,78,2022/05/07 11:59:02,快篩實名制，每天16:00開始販售，售完為止。
5911071590,基隆藥局,基隆市信義區東信路１６６、１６８號１、２樓,121.7646,25.12821,(02)24680955,羅氏家用新冠病毒抗原自我檢測套組,78,2022/05/07 11:59:02,快篩實名制，每天16:00開始販售，售完為止。
5912012120,仁美藥局,新竹市東區振興里振興路５２號,120.9625,24.79493,(03)5625398,羅氏家用新冠病毒抗原自我檢測套組,78,2022/05/07 11:59:02,週一~週六晚上六點販售（週日店休）不發號碼牌!請不要問我要幾點排隊，我不是九天玄女!盡量不打電話，感恩!!
5912012433,安安大藥局,新竹市東區金山里光復路一段１６３巷２號,121.0223,24.78144,(03)5772655,羅氏家用新冠病毒抗原自我檢測套組,78,2022/05/07 11:59:02,快篩實名制 7號及8號 下午13:00販售
5912012737,婷婷藥局,新竹市東區明湖路965號,120.9669,24.77371,(03)5290999,羅氏家用新冠病毒抗原自我檢測套組,78,2022/05/07 11:59:02,5／6星期五下午14點賣快篩
5912012988,杏康健保特約藥局,新竹市東區光復路一段５２５巷２３號１樓,121.0135,24.78384,(03)5772966,羅氏家用新冠病毒抗原自我檢測套組,22,2022/05/07 11:59:02,週一至五09:00-21:00 （週六公休） 週日09:00-18:00
5912013494,田美藥局,新竹市東區田美三街３５之１號１樓,120.9767,24.81572,(03)5350233,羅氏家用新冠病毒抗原自我檢測套組,78,2022/05/07 11:59:02,快篩實名制，每天16:00開始販售，售完為止。
5912013654,七二八藥局,新竹市東區明湖路１２４５號１樓,120.979,24.76774,(03)5200530,羅氏家用新冠病毒抗原自我檢測套組,79,2022/05/07 11:59:02,5／7政府快篩，12:30開始販售。
5912013672,關東藥局,新竹市東區光復路１段３３２、３３４號１至２樓,121.0187,24.78289,(03)5777077,羅氏家用新冠病毒抗原自我檢測套組,78,2022/05/07 11:59:02,快篩實名制，每天16:00開始販售，售完為止。
5912013681,仁春藥局,新竹市東區慈濟路２５２號１樓,121.0153,24.79245,(03)6686718,羅氏家用新冠病毒抗原自我檢測套組,78,2022/05/07 11:59:02,5／7 實名制快篩 於16:00開始販售
5912040188,健和藥局,新竹市北區大同里大同路１７８號,120.9668,24.80731,(03)5231734,羅氏家用新冠病毒抗原自我檢測套組,61,2022/05/07 11:59:02,快篩周一至周五 12點整開始 售完為止
5912042098,欣欣藥局,新竹市北區西大路736巷1號,120.9591,24.81011,(03)5351205,羅氏家用新冠病毒抗原自我檢測套組,78,2022/05/07 11:59:02,快篩代售周一~周六下午3點開始販售，售完為止  藥局營業時間上午8:00-12:00 ；下午15:00-18:00 ；晚上18:30-21:30
5912042235,均祐健康藥局,新竹市北區境福里１５鄰中正路３８９號１樓,120.961,24.81546,(03)5325369,羅氏家用新冠病毒抗原自我檢測套組,2,2022/05/07 11:59:02,口罩販售時間：09:00
5912042459,閎安專業藥局,新竹市北區延平路三段６８７號１樓,120.9367,24.8407,(03)5368675,羅氏家用新冠病毒抗原自我檢測套組,96,2022/05/07 11:59:02,快篩販售時間:中午12:00，週日公休
5912042664,永沛藥局,新竹市北區湳雅街２０９號,120.9741,24.82093,(03)5328563,羅氏家用新冠病毒抗原自我檢測套組,78,2022/05/07 11:59:02,快篩  05／08周日08:30開賣  周一~周六 15:00開賣 現場排隊 請別再打電話來問  PS:請自帶一張500鈔票，不收其他面額
5917011847,郭藥局,臺中市中區平等街一二四號,120.682,24.1426,(04)22200005,羅氏家用新冠病毒抗原自我檢測套組,38,2022/05/07 11:59:02,周一至周六每日上午11點至12點販賣快篩
5917011945,正三吉藥局,臺中市中區臺灣大道一段９５號,120.6831,24.13911,(04)22207700,羅氏家用新冠病毒抗原自我檢測套組,78,2022/05/07 11:59:02,快篩販售時間 14:00~17:00
5917030995,麗新健保大藥局,臺中市西區向上路一段１６２號,120.6612,24.1469,(04)23017100,羅氏家用新冠病毒抗原自我檢測套組,77,2022/05/07 11:59:02,週一至週日下午15:00至售完為止
5917032891,中山福倫藥局,臺中市西區中山路４８３號１、２樓,120.6728,24.14668,(04)22026818,羅氏家用新冠病毒抗原自我檢測套組,78,2022/05/07 11:59:02,實名制快篩試劑中午12:15開賣~下午3:00結束，現場排隊購買，每月每人1卡1份（5入）
5917050433,松鶴藥局,臺中市北區文莊里篤行路２２４號,120.6738,24.15187,(04)22028790,羅氏家用新冠病毒抗原自我檢測套組,2,2022/05/07 11:59:02,口罩每日上午8:30開始販售，現場排隊售完為止。（全年無休）
5917050577,東生藥局,臺中市北區永興街１１２－１號１樓,120.6825,24.16152,(04)22358880,羅氏家用新冠病毒抗原自我檢測套組,6,2022/05/07 11:59:02,周一到周六上午8:30到晚上10:00開始販售口罩，周日公休
5917063725,永旭大藥局,臺中市西屯區逢甲路９２號１樓,120.6439,24.17883,(04)27087952,羅氏家用新冠病毒抗原自我檢測套組,79,2022/05/07 11:59:02,5／6起實名快篩，星期一到五早上10點開始，星期六日中午12點開始排隊販售。
5917080262,寶麒藥局,臺中市北屯區旅順路２段１５０號,120.6895,24.174,(04)22433918,羅氏家用新冠病毒抗原自我檢測套組,78,2022/05/07 11:59:02,周一~周日每天下午1:00開始販售實名制快篩試劑，售完為止。
5917082300,蔡宗耀中西藥局,臺中市北屯區平德里河北路２段６１號,120.6831,24.16994,(04)22341880,羅氏家用新冠病毒抗原自我檢測套組,1,2022/05/07 11:59:02,早上9點30分至下午12點30分，下午3點至8點發口罩，有發號碼牌。
5917083101,北屯德康藥局,臺中市北屯區四平路４６９號１樓,120.681,24.19161,(04)24223378,羅氏家用新冠病毒抗原自我檢測套組,40,2022/05/07 11:59:02,每天早上9點30分發售口罩；前往領藥前先電話洽詢
5921010223,王藥局,臺南市東區小東里小東路１９０－１號,120.2276,22.99976,(06)2378697,羅氏家用新冠病毒抗原自我檢測套組,78,2022/05/07 11:59:02,週一 至 週日，下午 2:00 ~ 晚上9:00 （ 需健保卡 ）
5921030289,星宗藥局,臺南市中西區新安里大勇街３７號,120.1942,22.9898,(06)2223453,羅氏家用新冠病毒抗原自我檢測套組,70,2022/05/07 11:59:02,11:00開始販售
5921050076,千代藥局,臺南市中西區民生路一段６０號１樓,120.2034,22.99337,(06)2256895,羅氏家用新冠病毒抗原自我檢測套組,71,2022/05/07 11:59:02,快篩試劑實名制:星期1~6下午一點至三點販售（星期日當日貨到開始販售）
5921050138,金德藥局,臺南市中西區府前路１段３３號,120.2108,22.98881,(06)2149082,羅氏家用新冠病毒抗原自我檢測套組,35,2022/05/07 11:59:02,星期一-日08:00-23:00
5921060321,慈安藥局,臺南市安南區大安街５３號,120.1919,23.03148,(06)2551117,羅氏家用新冠病毒抗原自我檢測套組,78,2022/05/07 11:59:02,下午2:00
5921071226,康活藥局,臺南市安平區健康三街１８６號,120.1686,22.98883,(06)2936483,羅氏家用新冠病毒抗原自我檢測套組,4,2022/05/07 11:59:02,快篩晚上18:00開賣.
5922012945,大明藥局,嘉義市東區大雅路二段６８２號,120.4663,23.47719,(05)2760958,羅氏家用新冠病毒抗原自我檢測套組,60,2022/05/07 11:59:02,5／7號碼牌已發完畢（星期一至六：11點發號碼牌12-14點開始販售）
5922013111,富善藥局,嘉義市東區新生路２３４號,120.4609,23.48419,(05)2759559,羅氏家用新冠病毒抗原自我檢測套組,30,2022/05/07 11:59:02,5／13、14休假，實名制快篩早上9:10-12:00下午3:10-5:00
5922013184,軍輝啄木鳥藥局,嘉義市東區軍輝路２２２號,120.4588,23.455,(05)2395963,羅氏家用新冠病毒抗原自我檢測套組,78,2022/05/07 11:59:02,週一~日下午4:00開始
5922020858,大統藥局,嘉義市西區慶安里北興街１３６號,120.4421,23.48389,(05)2330230,羅氏家用新冠病毒抗原自我檢測套組,47,2022/05/07 11:59:02,5月7日預約登記已滿.有預約的民眾請於上午9:00點後領取
5922028925,健安藥局,嘉義市西區民族路６２６號,120.4452,23.4757,(05)2281219,羅氏家用新冠病毒抗原自我檢測套組,1,2022/05/07 11:59:02,口罩:星期一至星期六9點-12點，15點-21點
592202A518,徠的安藥師藥局,嘉義市西區保安里世賢路１段６鄰５４９號,120.4306,23.48982,(05)2318532,羅氏家用新冠病毒抗原自我檢測套組,3,2022/05/07 11:59:02,無
5931010397,正成藥師藥局,新北市板橋區三民路２段１５４巷７號,121.4787,25.01515,(02)29512760,羅氏家用新冠病毒抗原自我檢測套組,78,2022/05/07 11:59:02,無
5931012131,中山大藥局,新北市板橋區中山路１段１０７號,121.4618,25.01025,(02)29575029,羅氏家用新冠病毒抗原自我檢測套組,1,2022/05/07 11:59:02,口罩配發時間.星期一~六早上9點開始.星期日下午1點開始
5931012140,南雅藥局,新北市板橋區南雅南路１段５巷２２號,121.4563,25.00532,(02)22725358,羅氏家用新冠病毒抗原自我檢測套組,75,2022/05/07 11:59:02,口罩全天皆有販售 08:00~23:00
5931014046,欣安藥局,新北市板橋區懷德街１０９號１樓,121.4786,25.03147,(02)82570296,羅氏家用新冠病毒抗原自我檢測套組,1,2022/05/07 11:59:02,目前快篩送貨時間不定，發放時間依現場公告為主。
5931014420,萬泰藥局,新北市板橋區信義路２２１之１號,121.4597,24.99145,(02)89645570,羅氏家用新冠病毒抗原自我檢測套組,44,2022/05/07 11:59:02,無
5931015687,正康健保藥局,新北市板橋區大觀路２段６５號１樓,121.4467,25.00246,(02)22756681,羅氏家用新冠病毒抗原自我檢測套組,78,2022/05/07 11:59:02,下午13:30依現場順序開始販售快篩，快篩配送絮亂庫存不準!!
5931016273,湯明藥局,新北市板橋區中山路２段３１９號１樓,121.479,25.01866,(02)29571980,羅氏家用新冠病毒抗原自我檢測套組,70,2022/05/07 11:59:02,週一到週五 下午四點  六日時間未定 排隊不發號碼
5931016611,民川藥局,新北市板橋區四川路１段９７號１樓,121.4598,25.00544,(02)29520090,羅氏家用新冠病毒抗原自我檢測套組,40,2022/05/07 11:59:02,星期一~星期六（快篩上午9:00販售38份下午3:00販售40份）
5931016808,正安健保藥局,新北市板橋區民族路２２４號（１樓）,121.4687,25.00733,(02)29526813,羅氏家用新冠病毒抗原自我檢測套組,78,2022/05/07 11:59:02,17時依現場順序開始販售.週六12點.電腦配送庫存不準..以現場數量為準
5931017092,康橋藥局,新北市板橋區文化路１段２７３號,121.4646,25.01848,(02)22532560,羅氏家用新冠病毒抗原自我檢測套組,78,2022/05/07 11:59:02,快篩試劑 每天下午2點販售 不發號碼牌 售完為止 周日公休
5931017261,正康新埔藥局,新北市板橋區介壽街４號（１樓）,121.467,25.02025,(02)82595882,羅氏家用新冠病毒抗原自我檢測套組,78,2022/05/07 11:59:02,下午2:30依現場順序開始販售快篩。週日無快篩!
5931017289,板橋大樹藥局,新北市板橋區忠孝路２８號（１樓）,121.4603,25.00176,(02)29555551,羅氏家用新冠病毒抗原自我檢測套組,78,2022/05/07 11:59:02,快篩實名制，每天16:00開始販售，售完為止。
5931017618,新埔健保藥局,新北市板橋區自由路２號１樓,121.4654,25.02222,(02)22558878,羅氏家用新冠病毒抗原自我檢測套組,39,2022/05/07 11:59:02,無
5931017636,福澤藥局,新北市板橋區南雅南路１段８５號（１樓）,121.4556,25.00543,(02)29690013,羅氏家用新冠病毒抗原自我檢測套組,78,2022/05/07 11:59:02,口罩代售9:00-23:00
5931017663,盛生藥局,新北市板橋區合宜路９９號（１樓）,121.4479,24.9984,(02)89697299,羅氏家用新冠病毒抗原自我檢測套組,78,2022/05/07 11:59:02,政府快篩下午1:50發放號碼牌.下午2:00準時銷售..假日視政府配量（銷售時間相同）
5931017770,光環藥局,新北市板橋區光環路２段１６號１樓,121.4822,25.01476,(02)89520920,羅氏家用新冠病毒抗原自我檢測套組,68,2022/05/07 11:59:02,無
5931017789,明翠藥局,新北市板橋區四維路１４６、１４８號１、２樓,121.4651,25.02555,(02)22550201,羅氏家用新冠病毒抗原自我檢測套組,78,2022/05/07 11:59:02,快篩實名制，每天16:00開始販售，售完為止。
5931017832,躍獅莒光藥局,新北市板橋區莒光路５８號１樓,121.4709,25.02421,(02)22556743,羅氏家用新冠病毒抗原自我檢測套組,78,2022/05/07 11:59:02,5／7下午2:50發號碼牌（78份），請勿打電話詢問。
5931017869,躍獅國慶藥局,新北市板橋區國慶路１７９號（１樓）,121.4626,24.99636,(02)29641548,羅氏家用新冠病毒抗原自我檢測套組,156,2022/05/07 11:59:02,快篩實名制，每天14:00開始販售，售完為止
5931017985,松柏藥局,新北市板橋區松柏街９４號（１樓）,121.4767,25.03065,(02)82585223,羅氏家用新冠病毒抗原自我檢測套組,78,2022/05/07 11:59:02,快篩實名制，每天16:00開始販售，售完為止。
5931017994,後埔藥局,新北市板橋區華興街９號（１樓）,121.459,25.00457,(02)89510306,羅氏家用新冠病毒抗原自我檢測套組,78,2022/05/07 11:59:02,5／7 下午2點發放號碼牌*確保作業流暢請自備500元*每天 78 份晚上10 點以前領取完畢（過卡時間差異剩餘數量僅供參考）
5931018026,莊敬藥局,新北市板橋區莊敬路１６３號（１樓）,121.4715,25.02456,(02)22551105,羅氏家用新冠病毒抗原自我檢測套組,78,2022/05/07 11:59:02,快篩實名制，每天16:00開始販售，售完為止。
5931018106,力安藥局,新北市板橋區莒光路１９６巷８號（１樓）,121.4738,25.02255,(02)22503349,羅氏家用新冠病毒抗原自我檢測套組,32,2022/05/07 11:59:02,快篩實名制，早上9點依現場順序開始販售快篩，售完為止。
5931018142,重慶藥局,新北市板橋區國慶路１２７號（１樓）,121.4608,24.99602,(02)29565586,羅氏家用新冠病毒抗原自我檢測套組,78,2022/05/07 11:59:02,快篩實名制，每天16:00開始販售，售完為止。
5931020400,新迪化中西藥局,新北市三重區三陽路２７號１樓,121.4855,25.05893,(02)29884755,羅氏家用新冠病毒抗原自我檢測套組,78,2022/05/07 11:59:02,快篩實名制中午12點開始販售，發號碼牌
5931020991,久洲藥局,新北市三重區長元街５１－９號,121.5009,25.06616,(02)29783515,羅氏家用新冠病毒抗原自我檢測套組,53,2022/05/07 11:59:02,快篩八點半發號碼牌12點至1點領快篩
5931021532,龍門藥局,新北市三重區龍門路１８９號,121.4996,25.07322,(02)29756141,羅氏家用新冠病毒抗原自我檢測套組,78,2022/05/07 11:59:02,實名制快篩販售時間~星期一至星期六下午3點
5931023349,迪化藥局,新北市三重區中華路７７號,121.4836,25.06267,(02)29834445,羅氏家用新冠病毒抗原自我檢測套組,1,2022/05/07 11:59:02,實名制快篩每日早上九點發牌號／週日食藥署暫停供應快篩
5931023527,德慈藥局,新北市三重區重新路３段１６號１樓,121.4951,25.06138,(02)29736693,羅氏家用新冠病毒抗原自我檢測套組,74,2022/05/07 11:59:02,快篩試劑販售時間自每日13:00開始
5931023830,忠信藥局,新北市三重區仁興街３２號,121.4991,25.07552,(02)29762963,羅氏家用新冠病毒抗原自我檢測套組,17,2022/05/07 11:59:02,無
5931024908,力行德榮藥局,新北市三重區力行路２段１７０號１樓,121.483,25.07699,(02)22867170,羅氏家用新冠病毒抗原自我檢測套組,78,2022/05/07 11:59:02,星期一到星期五早上八點半.星期六.十二點十分.星期日以現場告為主
5931024971,欽勝藥局,新北市三重區重陽路４段６號２樓,121.4906,25.06894,(02)29857389,羅氏家用新冠病毒抗原自我檢測套組,78,2022/05/07 11:59:02,販售快篩需現場排隊，無預約無號碼牌，販售時間依到貨時間為主。
5931025398,昌誠藥局,新北市三重區三和路４段１６１號１樓,121.4835,25.0785,(02)22876338,羅氏家用新冠病毒抗原自我檢測套組,5,2022/05/07 11:59:02,5／2 （休診）
5931025521,徐匯藥局,新北市三重區仁愛街７５５號１樓,121.4809,25.07996,(02)28572234,羅氏家用新冠病毒抗原自我檢測套組,59,2022/05/07 11:59:02,實名快篩星期一~六，下午2:30開賣，1人限1卡
5931025567,閎安藥局,新北市三重區重新路２段８５號１樓、２樓,121.4962,25.06181,(02)29881968,羅氏家用新冠病毒抗原自我檢測套組,4,2022/05/07 11:59:02,每日皆執行調劑業務，快篩代售時間每日下午三點發號碼牌並領取
5931025610,大樹三重藥局,新北市三重區正義北路６６號１樓,121.4972,25.06415,(02)29713188,羅氏家用新冠病毒抗原自我檢測套組,78,2022/05/07 11:59:02,口罩販售時間：14:00 - 16:00
5931025914,仁美藥局,新北市三重區慈愛街５１號１、２樓,121.4861,25.07908,(02)22805150,羅氏家用新冠病毒抗原自我檢測套組,78,2022/05/07 11:59:02,快篩實名制，每天16:00開始販售，售完為止。
5931025932,永吉藥局,新北市三重區車路頭街９１號１樓,121.4844,25.07422,(02)22860432,羅氏家用新冠病毒抗原自我檢測套組,78,2022/05/07 11:59:02,快篩實名制，每天16:00開始販售，售完為止。
5931026064,五華春天生活藥局,新北市三重區五華街７３號１、２樓,121.4925,25.08291,(02)29876838,羅氏家用新冠病毒抗原自我檢測套組,1,2022/05/07 11:59:02,快篩代售時間：週一至週日15：00，現場排隊購買，售完為止。（物流配送不及則例外，以門市公告為主）
5931026073,重陽藥局,新北市三重區重陽路４段３６、３８號１樓,121.4913,25.06975,(02)29880456,羅氏家用新冠病毒抗原自我檢測套組,78,2022/05/07 11:59:02,快篩實名制，每天16:00開始販售，售完為止。
5931026082,大有藥局,新北市三重區中正北路２１３號１、２樓及２１５號１、２樓,121.4763,25.07013,(02)29885771,羅氏家用新冠病毒抗原自我檢測套組,78,2022/05/07 11:59:02,快篩實名制，每天16:00開始販售，售完為止。
5931026091,重新藥局,新北市三重區重新路４段１２號１樓,121.4888,25.05775,(02)29742700,羅氏家用新冠病毒抗原自我檢測套組,78,2022/05/07 11:59:02,快篩實名制，每天16:00開始販售，售完為止。
5931030568,仲景藥局,新北市永和區竹林路２１３巷１號,121.521,25.00893,(02)89281687,羅氏家用新冠病毒抗原自我檢測套組,78,2022/05/07 11:59:02,實名制快篩每日總量78份，下午2點現場排隊過卡，1人1卡每月限領1次，不發號碼牌；營業時間9:30-10:30
5931032759,友辰藥局,新北市永和區中正路３８０號１樓,121.5177,25.00123,(02)29267131,羅氏家用新冠病毒抗原自我檢測套組,1,2022/05/07 11:59:02,快篩配送時間不定，請電話諮詢。
5931033103,皇家藥師藥局,新北市永和區中正路７２０號１樓,121.5158,25.01017,(02)89216867,羅氏家用新冠病毒抗原自我檢測套組,78,2022/05/07 11:59:02,無
5931033461,常安中西藥局,新北市永和區保平路２６號１樓,121.5122,25.00749,(02)29283530,羅氏家用新冠病毒抗原自我檢測套組,2,2022/05/07 11:59:02,每日下午三點開始實名制快篩
5931033774,台化藥局,新北市永和區勵行街１１９號１樓,121.5175,25.01202,(02)22318585,羅氏家用新冠病毒抗原自我檢測套組,1,2022/05/07 11:59:02,無
5931033792,明慧藥師藥局,新北市永和區仁愛路２９５號１樓,121.5053,25.00917,(02)29297118,羅氏家用新冠病毒抗原自我檢測套組,36,2022/05/07 11:59:02,早上11:30營業
5931034146,亮點藥局,新北市永和區竹林路７１號１樓,121.5186,25.01355,(02)89253895,羅氏家用新冠病毒抗原自我檢測套組,102,2022/05/07 11:59:02,快篩發放時段 下午16:30-18:00
5931034208,正銨藥局,新北市永和區得和路２４７－１號（１樓）,121.5206,25.00009,(02)29288100,羅氏家用新冠病毒抗原自我檢測套組,22,2022/05/07 11:59:02,星期1~6下午1:45發號碼牌.星期日休息
5931040297,信隆大藥局,新北市中和區安樂路６號１至２樓,121.5118,24.99168,(02)29426196,羅氏家用新冠病毒抗原自我檢測套組,1,2022/05/07 11:59:02,無
5931040617,田邊藥局,新北市中和區泰和街４３號１樓,121.4991,24.99942,(02)22407725,羅氏家用新冠病毒抗原自我檢測套組,78,2022/05/07 11:59:02,W1~W6 下午1點發售快篩 （5／1 晚上7點開始發售快篩）
5931041061,裕壬藥局,新北市中和區新生街２０６、２０８號１樓,121.4836,24.99644,(02)32349358,羅氏家用新冠病毒抗原自我檢測套組,3,2022/05/07 11:59:02,快篩採滾動式調整領
5931042371,真成大藥局,新北市中和區光華街３８號,121.5048,25.00389,(02)22447008,羅氏家用新冠病毒抗原自我檢測套組,78,2022/05/07 11:59:02,實名快篩平日 早上9:30發放號碼牌 當日早上10點~12點前領完 週日無販售
5931043565,一安藥妝藥局,新北市中和區中和路９號１.２樓,121.4998,25.00221,(02)22483778,羅氏家用新冠病毒抗原自我檢測套組,78,2022/05/07 11:59:02,下午3點開始發號碼牌販售快篩
5931043636,雙合藥局,新北市中和區中正路２９１號１樓,121.4941,24.99375,(02)22476607,羅氏家用新冠病毒抗原自我檢測套組,5,2022/05/07 11:59:02,無
5931043798,永成藥局,新北市中和區景平路１５６號１樓,121.5176,24.99222,(02)29407619,羅氏家用新冠病毒抗原自我檢測套組,78,2022/05/07 11:59:02,實名制快篩，下午三點領取號碼並開始販售（每日78份）
5931043921,良安藥局,新北市中和區連城路４７７巷１號１樓,121.4833,24.99555,(02)22225798,羅氏家用新冠病毒抗原自我檢測套組,8,2022/05/07 11:59:02,週六日不開店，實名制快篩，晚上9:00開始販售
5931044017,幸福連鎖藥局,新北市中和區忠孝街１２２號１樓,121.5122,24.98581,(02)29410771,羅氏家用新冠病毒抗原自我檢測套組,72,2022/05/07 11:59:02,無
5931044133,康富力藥局,新北市中和區仁愛街３２號１樓,121.5109,24.98843,(02)29429896,羅氏家用新冠病毒抗原自我檢測套組,78,2022/05/07 11:59:02,快篩代售時間：周一至周五9:30、週六14:00
5931044624,奕采藥局,新北市中和區宜安路７７號１樓,121.5109,24.99733,(02)29429770,羅氏家用新冠病毒抗原自我檢測套組,36,2022/05/07 11:59:02,週一至週六10:00~12:00販售實名制快篩9:00發號碼牌（週日停售）
5931044642,貞心藥局,新北市中和區永貞路２８０之１號１樓,121.5133,25.00397,(02)29203865,羅氏家用新冠病毒抗原自我檢測套組,6,2022/05/07 11:59:02,領口罩時間為下午一點
5931044704,惠民藥局,新北市中和區中興街１５３號１樓,121.5001,24.99102,(02)22475303,羅氏家用新冠病毒抗原自我檢測套組,1,2022/05/07 11:59:02,快篩試劑於8:30發放號碼牌，並同時開始領取。
5931045112,景安藥局,新北市中和區景德街１４１號１樓及景平路１１１巷６０弄５６號,121.5175,24.99156,(02)86688215,羅氏家用新冠病毒抗原自我檢測套組,56,2022/05/07 11:59:02,實名制快篩每日販售時段08:10~21:00，請持健保卡現場排隊依序購買，售完為止。
5931045130,四維藥局,新北市中和區四維街３７巷２號１樓,121.5124,24.98679,(02)86681345,羅氏家用新冠病毒抗原自我檢測套組,78,2022/05/07 11:59:02,快篩實名制，每天16:00開始販售，售完為止。
5931045345,芳碩藥局,新北市中和區連城路４７巷２號１樓,121.4982,25.00162,(02)82458816,羅氏家用新冠病毒抗原自我檢測套組,78,2022/05/07 11:59:02,販售時間星期一~星期六下午14:00-21:00 （星期日休息）
5931045372,伍品藥局,新北市中和區莊敬路３５號１樓,121.5007,25.00503,(02)82456789,羅氏家用新冠病毒抗原自我檢測套組,70,2022/05/07 11:59:02,實名制快篩下午14:00點發號碼牌，請自備500元紙鈔　－　15:00後取回健保卡 感謝！（週日）停止販售快篩！
5931045461,富康活力遠東藥局,新北市中和區建八路１０之１號１樓,121.4865,24.99805,(02)82262299,羅氏家用新冠病毒抗原自我檢測套組,78,2022/05/07 11:59:02,因屬園區大樓，販售時間請依LINE社群公告
5931050444,活元藥局,新北市新店區民族路４９號１樓,121.5403,24.97854,(02)29125526,羅氏家用新冠病毒抗原自我檢測套組,1,2022/05/07 11:59:02,快篩代售時間平日早上10:00開始   星期日休息
5931051585,益生大藥局,新北市新店區建國路１３２號,121.5391,24.97885,(02)29177961,羅氏家用新冠病毒抗原自我檢測套組,75,2022/05/07 11:59:02,每日12點左右排隊领取口罩，沒有號碼牌
5931052313,欣康藥局,新北市新店區中正路２９３號１樓,121.5372,24.97449,(02)89113166,羅氏家用新冠病毒抗原自我檢測套組,78,2022/05/07 11:59:02,快篩試劑，下午一點發號碼牌同步販售
5931052484,大河藥局,新北市新店區三民路１４０號１樓,121.5351,24.97502,(02)29140910,羅氏家用新冠病毒抗原自我檢測套組,78,2022/05/07 11:59:02,週一至週六下午2點開始發購實名制快篩試劑。限1人1卡購買1份。5／8週日不發購。
5931053141,禾康藥局,新北市新店區德正街４４號１樓,121.5443,24.97143,(02)29160596,羅氏家用新冠病毒抗原自我檢測套組,2,2022/05/07 11:59:02,無
5931053178,長照藥局,新北市新店區如意街１６號１樓,121.4944,24.94838,(02)22153325,羅氏家用新冠病毒抗原自我檢測套組,78,2022/05/07 11:59:02,請注意5／7快篩下午2:00開賣 雙號 （一人一卡）自備500 現場排隊（請勿再來電詢問囉!）
5931053196,康心藥局,新北市新店區北新路３段１０４號１樓,121.5419,24.9812,(02)86655858,羅氏家用新冠病毒抗原自我檢測套組,78,2022/05/07 11:59:02,快篩販售：周一~週六，15:00開始（若遇物流延遲則順延），以現場排隊為主
5931060244,七安大藥局,新北市新莊區民安西路５５號１、２樓及５７號１樓,121.4275,25.02044,(02)22026066,羅氏家用新冠病毒抗原自我檢測套組,11,2022/05/07 11:59:02,實名制快篩11:00發號碼.發完號碼開始領快篩及收費
5931060342,十安藥局,新北市新莊區中港路３１６號,121.4524,25.04544,(02)29922859,羅氏家用新冠病毒抗原自我檢測套組,3,2022/05/07 11:59:02,自111／04／01起不再販賣實名制口罩
5931060744,祥好大藥局,新北市新莊區新泰路３３１號,121.4449,25.04181,(02)29939051,羅氏家用新冠病毒抗原自我檢測套組,78,2022/05/07 11:59:02,無
5931067216,鍵豐藥局,新北市新莊區中和街１５８號１樓,121.4474,25.04878,(02)29917452,羅氏家用新冠病毒抗原自我檢測套組,78,2022/05/07 11:59:02,無
5931067403,建嘉藥局,新北市新莊區中誠街４２號１樓,121.4513,25.04812,(02)29925261,羅氏家用新冠病毒抗原自我檢測套組,78,2022/05/07 11:59:02,無
5931068464,健安藥局,新北市新莊區光和里民安西路２０９號１樓,121.4261,25.0147,(02)22043765,羅氏家用新冠病毒抗原自我檢測套組,154,2022/05/07 11:59:02,無
5931068866,大愛藥師藥局,新北市新莊區後港一路６９號１樓,121.4267,25.02666,(02)22042119,羅氏家用新冠病毒抗原自我檢測套組,77,2022/05/07 11:59:02,快篩代售時間自下午2點 現場排隊
5931069603,中信藥師藥局,新北市新莊區中信街８０號１樓,121.448,25.05311,(02)29969811,羅氏家用新冠病毒抗原自我檢測套組,78,2022/05/07 11:59:02,AM 07:30 開始
593106A511,明仁健保藥局,新北市新莊區民安西路１９５號１樓,121.4261,25.0151,(02)22085175,羅氏家用新冠病毒抗原自我檢測套組,78,2022/05/07 11:59:02,12:00-13:00 販售快篩
593106A735,樂家藥局,新北市新莊區中平路２７３號１樓,121.4447,25.04995,(02)29960723,羅氏家用新冠病毒抗原自我檢測套組,12,2022/05/07 11:59:02,無
593106A833,欣國藥局,新北市新莊區富國路５７號１樓、２樓,121.4196,25.02625,(02)29080958,羅氏家用新冠病毒抗原自我檢測套組,6,2022/05/07 11:59:02,每天快篩劑發號碼牌AM09:30販賣AM09:30售完為止
593106A897,陽光豐年藥局,新北市新莊區豐年街１４號１樓,121.4463,25.03287,(02)22060665,羅氏家用新冠病毒抗原自我檢測套組,86,2022/05/07 11:59:02,無
593106B223,吉田藥局,新北市新莊區西盛街３１３號１樓,121.4281,25.01516,(02)22065185,羅氏家用新冠病毒抗原自我檢測套組,60,2022/05/07 11:59:02,無
593106B241,善美藥局,新北市新莊區公園路８９號１樓,121.4546,25.04041,(02)29960979,羅氏家用新冠病毒抗原自我檢測套組,3,2022/05/07 11:59:02,無
593106B287,盛弘藥局,新北市新莊區中平路２９５號１樓,121.4447,25.05099,(02)22763336,羅氏家用新冠病毒抗原自我檢測套組,78,2022/05/07 11:59:02,政府快篩於平日下午13:50發放號碼牌，下午14:00準時販售，假日視政府配量（販售時間相同）
593106B303,新莊丁丁藥局,新北市新莊區民安西路２３７號１樓,121.4261,25.01398,(02)22022388,羅氏家用新冠病毒抗原自我檢測套組,74,2022/05/07 11:59:02,無
5931070213,明川藥師藥局,新北市樹林區三福街１號,121.4093,25.0169,(02)26894728,羅氏家用新冠病毒抗原自我檢測套組,78,2022/05/07 11:59:02,實名制快篩:早上11:00販售
5931070366,聖和藥局,新北市樹林區太元街５０號,121.4183,24.97967,(02)86866609,羅氏家用新冠病毒抗原自我檢測套組,78,2022/05/07 11:59:02,中午12:30分開始發放快篩
5931071881,盛立藥局,新北市樹林區大雅路２８５號１樓,121.3795,24.94735,(02)35018218,羅氏家用新冠病毒抗原自我檢測套組,78,2022/05/07 11:59:02,政府快篩平日下午1:50發號碼牌，下午2:00準時販售，假日視政府配量（販售時間相同）
5931072066,琉璃水藥師藥局,新北市樹林區龍興街２１號１樓,121.403,25.01614,(02)26764262,羅氏家用新冠病毒抗原自我檢測套組,78,2022/05/07 11:59:02,無
5931072502,啄木鳥藥局,新北市樹林區中華路３９１號１樓,121.4115,24.98038,(02)86851495,羅氏家用新冠病毒抗原自我檢測套組,68,2022/05/07 11:59:02,健保實名制快篩，中午12點20分發號碼牌，12點30分開始販售，售完為止
5931081510,鶯歌藥局,新北市鶯歌區鶯桃路２段１１號１樓,121.3258,24.97205,(02)86778778,羅氏家用新冠病毒抗原自我檢測套組,78,2022/05/07 11:59:02,口罩販售時間：14:00 - 16:00
5931081529,正雅藥局,新北市鶯歌區建國路１７６號１樓,121.3497,24.95358,(02)26701128,羅氏家用新冠病毒抗原自我檢測套組,10,2022/05/07 11:59:02,無
5931091865,大新藥局,新北市三峽區大義路２５９號１樓,121.3774,24.94638,(02)86713204,羅氏家用新冠病毒抗原自我檢測套組,1,2022/05/07 11:59:02,實名制快篩下午2:50開始發號碼牌 3:00販售
5931091892,三峽藥局,新北市三峽區介壽路１段２７號１樓,121.3757,24.93321,(02)26738868,羅氏家用新冠病毒抗原自我檢測套組,79,2022/05/07 11:59:02,快篩實名制，每天16:00開始販售，售完為止。
5931092059,三峽啄木鳥藥局,新北市三峽區中正路１段１４１號１樓,121.3735,24.92875,(02)26744321,羅氏家用新冠病毒抗原自我檢測套組,78,2022/05/07 11:59:02,實名制快篩 中午:12:30開始發號碼牌
5931092200,金美藥局,新北市三峽區大同路２３８號１樓,121.3663,24.92573,(02)86715859,羅氏家用新冠病毒抗原自我檢測套組,30,2022/05/07 11:59:02,無
5931100154,尚運藥局,新北市淡水區學府路５１巷１弄２０號,121.4473,25.16892,(02)26225149,羅氏家用新冠病毒抗原自我檢測套組,261,2022/05/07 11:59:02,無
5931102452,池慶藥局,新北市淡水區中山北路２段５號１樓,121.4443,25.18344,(02)26238852,羅氏家用新冠病毒抗原自我檢測套組,78,2022/05/07 11:59:02,快篩販售14:50到16:00
5931110034,麒豐藥局,新北市汐止區樟樹一路１３５巷２號,121.6421,25.0656,(02)26434737,羅氏家用新冠病毒抗原自我檢測套組,36,2022/05/07 11:59:02,實名制口罩銷售時間9:30~21:00
5931111835,全家藥局,新北市汐止區明峰街１４３號１樓,121.6297,25.0706,(02)26954990,羅氏家用新冠病毒抗原自我檢測套組,1,2022/05/07 11:59:02,快篩試劑販售:週1-6，上午9-11點（現場排隊，不發號碼牌，售完為止）
5931112083,裕和藥局,新北市汐止區宜興街４號１樓,121.6211,25.04126,(02)26609119,羅氏家用新冠病毒抗原自我檢測套組,28,2022/05/07 11:59:02,晚上9.00領實名制快篩時間
5931112145,汐止健康人生藥局,新北市汐止區忠孝東路２６９號,121.6633,25.06809,(02)86421820,羅氏家用新冠病毒抗原自我檢測套組,78,2022/05/07 11:59:02,快篩代售時間 14:00~售完為止 ；現場排隊
5931112645,健成藥局,新北市汐止區新興路２０號１樓,121.6564,25.06456,(02)26428989,羅氏家用新冠病毒抗原自我檢測套組,58,2022/05/07 11:59:02,無
5931112789,富康東科藥局,新北市汐止區新台五路１段９６號Ｃ棟１樓Ｃ１５號,121.6483,25.06047,(02)26969222,羅氏家用新冠病毒抗原自我檢測套組,1,2022/05/07 11:59:02,每日九點至下午六點開放購買口罩，周六周日公休
5931113071,蒲公英藥局,新北市汐止區連興街１２６號（１樓）,121.6538,25.06188,(02)26907770,羅氏家用新冠病毒抗原自我檢測套組,78,2022/05/07 11:59:02,實名制快篩銷售時間:下午17:00-19:00（無發放號碼牌）
5931113160,社后藥局,新北市汐止區康寧街４２４號１樓,121.6307,25.06801,(02)26956321,羅氏家用新冠病毒抗原自我檢測套組,78,2022/05/07 11:59:02,快篩實名制，每天16:00開始販售，售完為止。
5931113188,汐止藥局,新北市汐止區福德二路７０號１樓,121.6331,25.06651,(02)86932587,羅氏家用新冠病毒抗原自我檢測套組,78,2022/05/07 11:59:02,無
5931113197,博昱忠孝藥局,新北市汐止區忠孝東路２７８號（１樓）,121.6637,25.06809,(02)86423838,羅氏家用新冠病毒抗原自我檢測套組,67,2022/05/07 11:59:02,下午兩點開始賣快篩
5931120049,本平藥局,新北市瑞芳區瑞芳街４５號,121.8076,25.10913,(02)24972167,羅氏家用新冠病毒抗原自我檢測套組,2,2022/05/07 11:59:02,無
5931121279,大埔藥局,新北市瑞芳區大埔路１２８－３號１樓,121.762,25.10079,(02)24587020,羅氏家用新冠病毒抗原自我檢測套組,78,2022/05/07 11:59:02,無
5931121466,瑞芳藥局,新北市瑞芳區明燈路３段５９之１及５９之２號,121.8057,25.10812,(02)24966588,羅氏家用新冠病毒抗原自我檢測套組,78,2022/05/07 11:59:02,快篩實名制，每天16:00開始販售，售完為止。
5931130152,博惠藥局,新北市土城區中央路１段２４９巷２０號,121.4463,24.98538,(02)22618337,羅氏家用新冠病毒抗原自我檢測套組,78,2022/05/07 11:59:02,14:00開始販售政府快篩，不發號碼牌
5931131579,祥安大藥局,新北市土城區立德路４２－１號,121.4636,24.98727,(02)22629707,羅氏家用新冠病毒抗原自我檢測套組,78,2022/05/07 11:59:02,無
5931132343,誠安藥局,新北市土城區中央路４段３６號１樓,121.4207,24.96088,(02)22677737,羅氏家用新冠病毒抗原自我檢測套組,78,2022/05/07 11:59:02,快篩代售時段：平日晚上8點，售完為止
5931132538,宏奇藥局,新北市土城區延吉街１２６號１樓,121.4695,24.98586,(02)82619585,羅氏家用新冠病毒抗原自我檢測套組,78,2022/05/07 11:59:02,無
5931132736,大眾藥局,新北市土城區明峰街６巷１號,121.4637,24.98557,(02)22666057,羅氏家用新冠病毒抗原自我檢測套組,5,2022/05/07 11:59:02,快篩販售:11：00-12：30 其餘時段恕不服務
5931132807,健業藥局,新北市土城區中央路２段２２３－１０號,121.4407,24.97312,(02)22704798,羅氏家用新冠病毒抗原自我檢測套組,78,2022/05/07 11:59:02,無
5931132950,美康藥妝藥局,新北市土城區延吉街２５４號１樓,121.4664,24.98465,(02)22616868,羅氏家用新冠病毒抗原自我檢測套組,58,2022/05/07 11:59:02,實名制快篩前一天若有到貨，則隔日三點販售
5931133108,三豐藥局,新北市土城區永豐路１３５巷８號,121.4672,24.98333,(02)22733766,羅氏家用新冠病毒抗原自我檢測套組,42,2022/05/07 11:59:02,無
5931133331,城安大藥局,新北市土城區金城路３段４０號,121.4656,24.98639,(02)22646561,羅氏家用新冠病毒抗原自我檢測套組,73,2022/05/07 11:59:02,快篩代售時間晚上8:30
5931133564,城恩藥局,新北市土城區學成路３４號１樓,121.4527,24.9873,(02)22735808,羅氏家用新冠病毒抗原自我檢測套組,4,2022/05/07 11:59:02,無
5931133662,中央藥局,新北市土城區中央路２段８４、８６號（１樓）,121.4423,24.97885,(02)22630345,羅氏家用新冠病毒抗原自我檢測套組,78,2022/05/07 11:59:02,快篩實名制，每天16:00開始販售，售完為止。
5931133680,土城金城藥局,新北市土城區裕民路２８０號１、２樓,121.4554,24.982,(02)22631616,羅氏家用新冠病毒抗原自我檢測套組,78,2022/05/07 11:59:02,快篩實名制，每天16:00開始販售，售完為止。
5931140318,慧安藥局,新北市蘆洲區長安街２１４號１樓,121.4585,25.08436,(02)28477845,羅氏家用新冠病毒抗原自我檢測套組,78,2022/05/07 11:59:02,實名制快篩依現場公告現場販售
5931141726,松展多利日式連鎖藥粧藥局,新北市蘆洲區民族路１６１號,121.4793,25.08817,(02)22882586,羅氏家用新冠病毒抗原自我檢測套組,3,2022/05/07 11:59:02,防疫物資每日下午02:00開始販售
5931141959,長榮大藥局,新北市蘆洲區長榮路５１號,121.4626,25.08307,(02)82863837,羅氏家用新冠病毒抗原自我檢測套組,3,2022/05/07 11:59:02,實名制快篩販售時間，依配送狀況機動調整。
5931143202,蘆洲丁丁藥局,新北市蘆洲區三民路５５９號１樓,121.4624,25.09199,(02)82851962,羅氏家用新冠病毒抗原自我檢測套組,34,2022/05/07 11:59:02,無
5931143275,集賢藥局,新北市蘆洲區信義路２２２巷６１號１、２樓,121.4813,25.08535,(02)22882400,羅氏家用新冠病毒抗原自我檢測套組,78,2022/05/07 11:59:02,快篩實名制，每天16:00開始販售，售完為止。
5931150163,德泰藥局,新北市五股區成泰路１段９號,121.4336,25.06674,(02)29095927,羅氏家用新冠病毒抗原自我檢測套組,1,2022/05/07 11:59:02,無
5931151302,宏安藥局,新北市五股區成泰路２段１３６號,121.4382,25.08369,(02)22915932,羅氏家用新冠病毒抗原自我檢測套組,77,2022/05/07 11:59:02,口罩販售時間:每日08:15~23:00售完為止 星期日如果前一日還有庫存，當日照常販售
5931161353,台灣藥局,新北市泰山區明志路１段２８２－２８６號,121.4319,25.06002,(02)22971969,羅氏家用新冠病毒抗原自我檢測套組,70,2022/05/07 11:59:02,下午2:20發號碼牌2:30販售實名制快篩試劑
5931171582,綠園藥局,新北市林口區仁愛路２段１０５號１樓,121.3843,25.07507,(02)86012258,羅氏家用新冠病毒抗原自我檢測套組,2,2022/05/07 11:59:02,上午8:30-12:00、下午2:30-18:00、晚上18:00-21:30
5931171742,唯恩藥局,新北市林口區麗園一街９巷１號１樓之２,121.3768,25.07139,(02)26005805,羅氏家用新冠病毒抗原自我檢測套組,78,2022/05/07 11:59:02,快篩發放固定13點，領取號碼牌
5931171813,力行藥局,新北市林口區文化３路１段４２３、４２５號１、２樓,121.3653,25.07438,(02)26080711,羅氏家用新冠病毒抗原自我檢測套組,82,2022/05/07 11:59:02,快篩實名制，每天16:00開始販售，售完為止。
5931171831,沐霖藥局,新北市林口區文化三路２段２８６號１樓,121.3775,25.08304,(02)26032086,羅氏家用新冠病毒抗原自我檢測套組,78,2022/05/07 11:59:02,5／7（六） 14:30 開始發號碼牌 ~週日公休~
5931181159,信東深坑北深藥局,新北市深坑區北深路３段１０３號１樓,121.6056,25.00171,(02)77092976,羅氏家用新冠病毒抗原自我檢測套組,78,2022/05/07 11:59:02,快篩代售時間自13:00 ； 現場排隊
5931231225,小蘋果藥局,新北市八里區中山路１段２２９號,121.411,25.1576,(02)26108206,羅氏家用新冠病毒抗原自我檢測套組,74,2022/05/07 11:59:02,無
5931250042,信芳藥局,新北市雙溪區中華路５０號,121.866,25.03761,(02)24931301,羅氏家用新冠病毒抗原自我檢測套組,1,2022/05/07 11:59:02,無
5931280013,萬里藥局,新北市萬里區瑪鍊路９０號,121.6837,25.18504,(02)24922235,羅氏家用新冠病毒抗原自我檢測套組,280,2022/05/07 11:59:02,無
5932011870,永祥大藥局,桃園市桃園區永安路５２８號,121.2986,25.00181,(03)3337161,羅氏家用新冠病毒抗原自我檢測套組,4,2022/05/07 11:59:02,口罩販賣時段：週一至週六早上9點
5932012671,美德藥師藥局,桃園市桃園區中正路２３０號,121.3104,24.99586,(03)3354160,羅氏家用新冠病毒抗原自我檢測套組,78,2022/05/07 11:59:02,快篩販售時間下午01:00開始
5932013392,桃園中正藥局,桃園市桃園區中正路３７３號,121.3079,24.99955,(03)3381600,羅氏家用新冠病毒抗原自我檢測套組,91,2022/05/07 11:59:02,快篩實名制，每天16:00開始販售，售完為止。
5932013687,桃園春日藥局,桃園市桃園區春日路８７８號,121.3096,25.01561,(03)3580101,羅氏家用新冠病毒抗原自我檢測套組,79,2022/05/07 11:59:02,快篩實名制，每天16:00開始販售，售完為止。
5932013721,桃園民光藥局,桃園市桃園區中正路５６９號,121.3049,25.0041,(03)3364888,羅氏家用新冠病毒抗原自我檢測套組,78,2022/05/07 11:59:02,快篩實名制，每天16:00開始販售，售完為止。
5932013749,桃園寶山藥局,桃園市桃園區寶山街７２號,121.3175,25.01291,(03)3250562,羅氏家用新冠病毒抗原自我檢測套組,78,2022/05/07 11:59:02,快篩實名制，每天16:00開始販售，售完為止。
5932013918,益壽藥局,桃園市桃園區中山路８２８、８３０、８３２、８３４、８３６號,121.2902,24.99093,(03)3693100,羅氏家用新冠病毒抗原自我檢測套組,78,2022/05/07 11:59:02,快篩實名制，每天16:00開始販售，售完為止。
5932014004,同德辰安藥局,桃園市桃園區同德十街２５號,121.294,25.01835,(03)3012028,羅氏家用新冠病毒抗原自我檢測套組,78,2022/05/07 11:59:02,實名制快篩試劑於下午4點開始販售，現場排隊，沒有發放號碼牌。
5932014013,力行藥局,桃園市桃園區力行路９８號,121.3027,25.00206,(03)3391368,羅氏家用新冠病毒抗原自我檢測套組,78,2022/05/07 11:59:02,每日14點開賣售78份為止不發號碼牌，若14點前沒來排隊，肯定買不到請別問了現場爆忙，若15點後還有庫存78以上是隔天賣
5932014111,鴻發藥師藥局,桃園市桃園區大有路５４３號,121.3171,25.0149,(03)3582468,羅氏家用新冠病毒抗原自我檢測套組,78,2022/05/07 11:59:02,實聯快篩:早上09:30發放號碼牌，限當日下午2~4點憑牌購買，逾時不候請見諒
5932014148,躍獅興業藥局,桃園市桃園區大業路２段１５號１樓,121.3112,25.01628,(03)3163569,羅氏家用新冠病毒抗原自我檢測套組,78,2022/05/07 11:59:02,快篩下午一點販售，現場排隊
5932014184,浤安藥局,桃園市桃園區慈德街１號１樓,121.3019,25.00685,(03)3577665,羅氏家用新冠病毒抗原自我檢測套組,78,2022/05/07 11:59:02,14:00開始發放實名制快篩
5932014291,躍獅民生藥局,桃園市桃園區民生路２２８號１樓,121.313,24.99472,(03)3362359,羅氏家用新冠病毒抗原自我檢測套組,78,2022/05/07 11:59:02,下午1點開始販售，會發號碼牌，購買權保留至下午6點
5932014424,桃園中山藥局,桃園市桃園區中山路７０７號,121.2914,24.99079,(03)2207168,羅氏家用新冠病毒抗原自我檢測套組,78,2022/05/07 11:59:02,快篩實名制，每天16:00開始販售，售完為止。
5932014460,桃鶯藥局,桃園市桃園區桃鶯路１０２號,121.318,24.98516,(03)3675100,羅氏家用新冠病毒抗原自我檢測套組,78,2022/05/07 11:59:02,快篩實名制，每天16:00開始販售，售完為止。
5932014488,琦舜藥師藥局,桃園市桃園區文中三路６３號,121.2885,24.99724,(03)3695001,羅氏家用新冠病毒抗原自我檢測套組,78,2022/05/07 11:59:02,營業時間: 9:00-21:30　　　　　　　　快篩販售時間於到貨後公布於FB【琦舜藥師藥局-桃園中路】粉絲專頁
5932019581,莘莘藥局,桃園市桃園區莊敬路一段３６８號,121.2957,25.02375,(03)3170681,羅氏家用新冠病毒抗原自我檢測套組,78,2022/05/07 11:59:02,實名制快篩週一至週六 下午2點開始 售完為止
5932019929,元氣藥局,桃園市桃園區民光東路一Ｏ九號,121.3183,25.0079,(03)3332201,羅氏家用新冠病毒抗原自我檢測套組,78,2022/05/07 11:59:02,現場排隊喔!，快篩試劑銷售時間:星期一三四六15:30，星期二五19:00，星期日無，12:00~15:00；18:00~18:30為休息時間
5932021670,日光健康藥局,桃園市中壢區華祥一街２號１樓,121.2606,24.94827,(03)4383559,羅氏家用新冠病毒抗原自我檢測套組,77,2022/05/07 11:59:02,快篩販賣時段：星期一~星期六下午13:30開始，售完為止
5932022051,正翰藥師藥局,桃園市中壢區龍東路４９８號,121.2569,24.93482,(03)4664171,羅氏家用新冠病毒抗原自我檢測套組,78,2022/05/07 11:59:02,週一至週五下午2:30現場排隊銷售實名制快篩（週六，週日中午12:00）上述均以實際到貨為主
5932022159,躍獅新明藥局,桃園市中壢區新明路６６號１樓,121.215,24.95868,(03)2813361,羅氏家用新冠病毒抗原自我檢測套組,89,2022/05/07 11:59:02,快篩販賣時段：14:00~售完為止，現場排隊 ， 星期天沒有販售快篩
5932022257,星康生活藥局,桃園市中壢區中美路二段94號,121.2218,24.96005,(03)4252869,羅氏家用新冠病毒抗原自我檢測套組,77,2022/05/07 11:59:02,5／7-5／9 實名制快篩14:00販售  5／10之後另行公佈販賣時間
5932023334,欣安藥局,桃園市中壢區龍岡路三段１７６號,121.2335,24.93561,(03)4285880,羅氏家用新冠病毒抗原自我檢測套組,78,2022/05/07 11:59:02,快篩販賣時段：13:00
5932023656,思琁藥師藥局,桃園市中壢區中北路二段４３０號,121.2331,24.95448,(03)4162189,羅氏家用新冠病毒抗原自我檢測套組,1,2022/05/07 11:59:02,週一~週五早上10:30發快篩..週六公休..週日看到貨狀況再另行公告
5932023889,華勛藥局,桃園市中壢區華勛街１１２、１１４號,121.2597,24.95065,(03)4161881,羅氏家用新冠病毒抗原自我檢測套組,1,2022/05/07 11:59:02,快篩實名制，每天16:00開始販售，售完為止。
5932023914,內壢忠孝藥局,桃園市中壢區忠孝路３６號,121.2566,24.97338,(03)4636641,羅氏家用新冠病毒抗原自我檢測套組,78,2022/05/07 11:59:02,快篩實名制，每天16:00開始販售，售完為止。
5932023932,龍東藥局,桃園市中壢區龍東路２０５號,121.2523,24.92966,(03)4383088,羅氏家用新冠病毒抗原自我檢測套組,78,2022/05/07 11:59:02,快篩實名制，每天16:00開始販售，售完為止。
5932023996,青瑭藥局,桃園市中壢區民權路４段２７７號１樓,121.2022,25.00625,(03)2875901,羅氏家用新冠病毒抗原自我檢測套組,78,2022/05/07 11:59:02,無
593202A931,佳佑藥局,桃園市中壢區環中東路二四一號,121.2573,24.96345,(03)4356190,羅氏家用新冠病毒抗原自我檢測套組,3,2022/05/07 11:59:02,口罩販賣時段：09:00以後發號碼牌，售完為止
5932031729,德安堂藥局,桃園市大溪區介壽路８９２號,121.2837,24.90016,(03)3808173,羅氏家用新冠病毒抗原自我檢測套組,78,2022/05/07 11:59:02,口罩販賣時段：14:00 - 16:00
5932031881,大溪藥局,桃園市大溪區康莊路１６０號,121.2886,24.8808,(03)3873873,羅氏家用新冠病毒抗原自我檢測套組,78,2022/05/07 11:59:02,快篩實名制，每天16:00開始販售，售完為止。
5932040246,龍泰藥局,桃園市楊梅區民族路五段１４７巷２號,121.1736,24.9586,(03)4901525,羅氏家用新冠病毒抗原自我檢測套組,3,2022/05/07 11:59:02,快篩販售時間:早上7:30領號碼牌下午2點至4點領快篩（當日有效） 六日中午10點至12點領快篩
5932043130,宜康美藥局,桃園市楊梅區環東路４５２號,121.1571,24.91005,(03)4883805,羅氏家用新冠病毒抗原自我檢測套組,58,2022/05/07 11:59:02,快篩販賣時段：早上09:30~10:30（20份）下午15:30~16:30（38份）晚上19:30~20:30（20份）
5932043309,資生楊梅大藥局,桃園市楊梅區楊新路１００號,121.1449,24.91341,(03)2889590,羅氏家用新冠病毒抗原自我檢測套組,14,2022/05/07 11:59:02,每日快篩代售時間14:00-21:00
5932043336,楊梅藥局,桃園市楊梅區大成路１４８、１５０號,121.1458,24.91148,(03)4880776,羅氏家用新冠病毒抗原自我檢測套組,78,2022/05/07 11:59:02,快篩實名制，每天16:00開始販售，售完為止。
5932050215,九德藥局,桃園市蘆竹區中山路６９號,121.3003,25.05242,(03)3116868,羅氏家用新冠病毒抗原自我檢測套組,105,2022/05/07 11:59:02,口罩販賣時段：中午12點
5932050224,杏洋藥局,桃園市蘆竹區南崁路１３４號,121.2951,25.04645,(03)3112799,羅氏家用新冠病毒抗原自我檢測套組,62,2022/05/07 11:59:02,快篩試劑販賣時段：星期五21:00開始販售
5932051472,康而美聖安藥師藥局,桃園市蘆竹區南山路一段二之一號,121.2916,25.04879,(03)3228753,羅氏家用新冠病毒抗原自我檢測套組,3,2022/05/07 11:59:02,暫停止販售
5932052835,悅兒藥局,桃園市蘆竹區忠孝西路１８６號,121.2892,25.04011,(03)3126967,羅氏家用新冠病毒抗原自我檢測套組,78,2022/05/07 11:59:02,快篩販賣時段：週一到週日 14:30 開賣
5932052951,永青健康人生藥局,桃園市蘆竹區奉化路１４２號１樓,121.289,25.03917,(03)3528361,羅氏家用新冠病毒抗原自我檢測套組,78,2022/05/07 11:59:02,實名制快篩每日兩點開賣，人潮眾多額滿會提早開始
5932052979,南崁藥局,桃園市蘆竹區中正路２５１、２５３、２５５號,121.2921,25.04695,(03)3522022,羅氏家用新冠病毒抗原自我檢測套組,157,2022/05/07 11:59:02,快篩實名制，每天16:00開始販售，售完為止。
5932062519,青埔辰安藥局,桃園市大園區致遠一路１號１樓,121.2111,25.00479,(03)2873274,羅氏家用新冠病毒抗原自我檢測套組,78,2022/05/07 11:59:02,無
5932076844,帕米爾藥局,桃園市龜山區萬壽路二段９９１號,121.3369,24.99464,(03)3295522,羅氏家用新冠病毒抗原自我檢測套組,2,2022/05/07 11:59:02,星期一~六:家用快篩試劑販賣時段：14:30~售完。不發號碼牌，請直接排隊購買。
5932077056,桃園龜山藥局,桃園市龜山區萬壽路二段８９６號,121.3394,24.99586,(03)3203312,羅氏家用新冠病毒抗原自我檢測套組,78,2022/05/07 11:59:02,快篩實名制，每天16:00開始販售，售完為止。
5932077270,明昌藥局,桃園市龜山區中興里萬壽路二段１１９１－６號,121.3318,24.99291,(03)3501205,羅氏家用新冠病毒抗原自我檢測套組,1,2022/05/07 11:59:02,無
5932077510,左外野藥局,桃園市龜山區文光街６號１樓,121.3802,25.05471,(03)3271503,羅氏家用新冠病毒抗原自我檢測套組,77,2022/05/07 11:59:02,快篩販售:晚上19:30至20:30（週五公休）*不發號碼牌 請直接排隊購買
5932077574,樂樂聯合藥局,桃園市龜山區萬壽路１段１０９號１、２樓,121.4091,25.01886,(02)82000560,羅氏家用新冠病毒抗原自我檢測套組,13,2022/05/07 11:59:02,實名制快篩於每日9點開始發放號碼牌，發完為止。 中午12點至14點半為藥局休息時間
5932077618,大山藥局,桃園市龜山區中興路１段１８、２２、２４號１樓,121.3379,24.99376,(03)3191057,羅氏家用新冠病毒抗原自我檢測套組,110,2022/05/07 11:59:02,無
5932083303,吉康生活藥局,桃園市八德區義勇街１２０號,121.3045,24.96354,(03)3768577,羅氏家用新冠病毒抗原自我檢測套組,78,2022/05/07 11:59:02,周休二日，周一到周五09.:30發放快篩號碼牌 銷售時間 09:30-11:30
5932083509,上方藥局,桃園市八德區廣褔路一八八號,121.279,24.96204,(03)3635902,羅氏家用新冠病毒抗原自我檢測套組,78,2022/05/07 11:59:02,販賣快篩:於午間12:30~1:30發號碼牌，開賣時間下午3:00~4:30，賣完為止
5932083670,保健藥局,桃園市八德區介壽路一段８３３號２樓,121.3,24.96168,(03)3669486,羅氏家用新冠病毒抗原自我檢測套組,200,2022/05/07 11:59:02,無
5932083974,晨鴻藥師藥局,桃園市八德區桃鶯路７號１樓,121.3265,24.97179,(03)3764299,羅氏家用新冠病毒抗原自我檢測套組,46,2022/05/07 11:59:02,快篩為早上8:30跟晚上6:00領取號碼牌，星期六早上一次發78份，快篩地圖數量參考就好，請勿再打電話詢問 謝謝
5932084695,康馥藥局,桃園市八德區金和路５３號１樓,121.2971,24.95494,(03)3749620,羅氏家用新冠病毒抗原自我檢測套組,78,2022/05/07 11:59:02,口罩販賣時段：15:00 ， 週日14:30開始營業；星期六公休。
5932084828,阿爾富山藥局,桃園市八德區桃鶯路４號１樓,121.3261,24.97167,(03)3763350,羅氏家用新冠病毒抗原自我檢測套組,77,2022/05/07 11:59:02,本藥局實名制快篩於每日晚間7點以實際到貨數量發放，唯保留可視現場排隊人數額滿情況.酌情提前發號碼牌並受理購買!
5932084855,中山啄木鳥藥局,桃園市八德區中山路２１１號、２１３號、２１５號、２１７號１樓,121.2849,24.92539,(03)3656375,羅氏家用新冠病毒抗原自我檢測套組,78,2022/05/07 11:59:02,無
5932099203,普善藥局,桃園市龍潭區北龍路３３３號,121.219,24.86887,(03)4705877,羅氏家用新冠病毒抗原自我檢測套組,75,2022/05/07 11:59:02,快篩試劑販賣時段：14:10~售完為止
5932099687,承融藥局,桃園市龍潭區中興里中興路２８２號,121.234,24.87417,(03)4095543,羅氏家用新冠病毒抗原自我檢測套組,70,2022/05/07 11:59:02,5／6完售!!!!每日14:00開賣!!!5／6完售!!!!每日14:00開賣!!!~~週日停售~~
5932099927,大心聯合藥局,桃園市龍潭區中興路３９０號,121.2313,24.87337,(03)4897998,羅氏家用新冠病毒抗原自我檢測套組,78,2022/05/07 11:59:02,快篩實名制：週一至週日下午15:30開始販售
5932100863,新昕藥局,桃園市平鎮區東社里龍南路９２號１樓,121.2463,24.92401,(03)4509616,羅氏家用新冠病毒抗原自我檢測套組,78,2022/05/07 11:59:02,快篩販售時間  平日下午2:00。（六）:中午12:00；（日）:下午6:00
5932101084,佳仁藥局,桃園市平鎮區平東路２４３號,121.2486,24.91553,(03)4609335,羅氏家用新冠病毒抗原自我檢測套組,69,2022/05/07 11:59:02,快篩販售時間週一至日中午12:00開始，11:30發放號碼牌（僅供統計非保留）一人僅限一張健保卡，請自備500元，不找零。
5932101155,杏一平鎮環南藥局,桃園市平鎮區環南路２號,121.2067,24.95694,(03)4951758,羅氏家用新冠病毒抗原自我檢測套組,75,2022/05/07 11:59:02,快篩販售時間為週一到週五11:00，10:55發號碼牌
5932101226,平鎮中豐藥局,桃園市平鎮區中豐路山頂段１６４號,121.2109,24.90035,(03)4690939,羅氏家用新冠病毒抗原自我檢測套組,78,2022/05/07 11:59:02,快篩實名制，每天16:00開始販售，售完為止。
5932108574,天健示範藥局,桃園市平鎮區文化街２５２號,121.2032,24.95127,(03)4937169,羅氏家用新冠病毒抗原自我檢測套組,3,2022/05/07 11:59:02,快篩販賣時段:早上8點至售完（為了不讓民眾群聚我們採取發號碼牌制度喔）5／8（日）暫停販售。
5933010064,明德藥局,新竹縣關西鎮中山路１８號,121.1778,24.79152,(03)5874335,羅氏家用新冠病毒抗原自我檢測套組,39,2022/05/07 11:59:02,無
5933011258,安東藥師藥局,新竹縣關西鎮中山路６２號,121.1766,24.79147,(03)5872385,羅氏家用新冠病毒抗原自我檢測套組,78,2022/05/07 11:59:02,口罩販賣時段：星期一至六08:00-21:00、星期日08:00-17:00
5933021254,梁藥局,新竹縣新埔鎮中正路２３３號,121.0798,24.82761,(03)5885439,羅氏家用新冠病毒抗原自我檢測套組,78,2022/05/07 11:59:02,快篩實名制，每天15:00開始販售，售完為止。
5933052660,阿姆斯壯藥局,新竹縣竹北市六家五路一段１２５號,121.0254,24.80966,(03)6589178,羅氏家用新冠病毒抗原自我檢測套組,78,2022/05/07 11:59:02,快篩5／3早上9:00開始販售，5／4起改下午5點。
5933052866,晶華藥局,新竹縣竹北市莊敬南路１１０號１樓,121.0203,24.81736,(03)5502107,羅氏家用新冠病毒抗原自我檢測套組,78,2022/05/07 11:59:02,公費快篩販售時間請看FB公告
5933053596,中華藥局,新竹縣竹北市中華路２２６號１、２樓,121.0028,24.83118,(03)5513031,羅氏家用新冠病毒抗原自我檢測套組,78,2022/05/07 11:59:02,快篩實名制，每天16:00開始販售，售完為止。
5933061570,湖口藥局,新竹縣湖口鄉民族路４５號,121.0472,24.90602,(03)5991842,羅氏家用新冠病毒抗原自我檢測套組,1,2022/05/07 11:59:02,實名制快篩販賣時段：星期一~六14:30開賣
5933061712,湖山藥局,新竹縣湖口鄉中山路二段１２７號,121.0439,24.90198,(03)5904999,羅氏家用新冠病毒抗原自我檢測套組,78,2022/05/07 11:59:02,快篩實名制，每天16:00開始販售，售完為止。
5933081536,昌昌藥局,新竹縣新豐鄉新市路１９３號,120.9846,24.90465,(03)5598077,羅氏家用新冠病毒抗原自我檢測套組,13,2022/05/07 11:59:02,5／7（六）號碼牌已發放完畢。5／8（日）上午8:00開始發放號碼牌。
5933081607,新豐藥局,新竹縣新豐鄉中興路２０８、２１０號,120.9949,24.87571,(03)5575005,羅氏家用新冠病毒抗原自我檢測套組,78,2022/05/07 11:59:02,快篩實名制，每天16:00開始販售，售完為止。
5934011529,宜生藥局,宜蘭縣宜蘭市新民路１１１號,121.7551,24.75716,(03)9327893,羅氏家用新冠病毒抗原自我檢測套組,22,2022/05/07 11:59:02,周一至周六 上午8點至上午 9點 （或售完為止）5月7日台電停電 休息一日
5934012473,宜蘭藥局,宜蘭縣宜蘭市泰山路３６號,121.7485,24.75524,(03)9365168,羅氏家用新冠病毒抗原自我檢測套組,78,2022/05/07 11:59:02,快篩實名制，每天16:00開始販售，售完為止。
5934022175,公正藥局,宜蘭縣羅東鎮興東路１３７、１３９號,121.769,24.6802,(03)9560543,羅氏家用新冠病毒抗原自我檢測套組,78,2022/05/07 11:59:02,快篩實名制，每天16:00開始販售，售完為止。
5934081067,威仁藥局,宜蘭縣冬山鄉冬山路２１９號,121.7907,24.63453,(03)9595351,羅氏家用新冠病毒抗原自我檢測套組,61,2022/05/07 11:59:02,快篩
5935011523,天恩藥局,苗栗縣苗栗市中正路49號,120.8246,24.5688,(037)277285,羅氏家用新冠病毒抗原自我檢測套組,39,2022/05/07 11:59:02,快篩實名制，不發號碼牌，5／9起每日下午14:30販售，週日預約制。
5935011738,佳禾藥局,苗栗縣苗栗市青苗里建台街7號,120.821,24.55742,(037)373041,羅氏家用新冠病毒抗原自我檢測套組,2,2022/05/07 11:59:02,快篩試劑7：30發號碼牌8：00開始販賣，販賣時段：營業時間至售完為止
5935021323,國豐藥師藥局,苗栗縣苑裡鎮苑北里２鄰天下路１８６號,120.6546,24.44612,(037)866516,羅氏家用新冠病毒抗原自我檢測套組,1,2022/05/07 11:59:02,快篩開賣資訊請看FB（國豐藥師藥局） 粉絲團
5935030171,立安藥局,苗栗縣通霄鎮信義路１０７號,120.6804,24.48877,(037)760100,羅氏家用新冠病毒抗原自我檢測套組,69,2022/05/07 11:59:02,快篩實名制 週一到週六下午15:00開始販售  售完為止
5935040033,快樂藥局,苗栗縣竹南鎮照南里中山路１７８號,120.88,24.68714,(037)474158,羅氏家用新冠病毒抗原自我檢測套組,74,2022/05/07 11:59:02,快篩下午2點開始販賣，售完為止!
5935041914,合康連鎖藥局,苗栗縣竹南鎮博愛街２７０號,120.8725,24.68724,(037)474987,羅氏家用新冠病毒抗原自我檢測套組,78,2022/05/07 11:59:02,販售快篩時間為下午17:00開始販售
5935051849,懷生中西藥局,苗栗縣頭份市中正路１９號,120.9068,24.68432,(037)672357,羅氏家用新冠病毒抗原自我檢測套組,22,2022/05/07 11:59:02,口罩販賣時段：07:00售完為止
5935051938,吉品藥局,苗栗縣頭份市中正路９號,120.9065,24.68438,(037)676898,羅氏家用新冠病毒抗原自我檢測套組,19,2022/05/07 11:59:02,口罩07:00起發放，發完為止。如有更動不另行通知
5935060053,鴻輝大藥局,苗栗縣後龍鎮北龍里中華路６４－１號,120.7879,24.61557,(037)721952,羅氏家用新冠病毒抗原自我檢測套組,8,2022/05/07 11:59:02,AM07:50~PM10:00
5935061452,後龍藥局,苗栗縣後龍鎮中山路２０９號１樓,120.7931,24.6127,(037)723660,羅氏家用新冠病毒抗原自我檢測套組,78,2022/05/07 11:59:02,快篩實名制，每天16:00開始販售，售完為止。
5935090015,永信藥局,苗栗縣公館鄉館中村榮光街１６號,120.8271,24.50226,(037)223597,羅氏家用新冠病毒抗原自我檢測套組,78,2022/05/07 11:59:02,每日下午3點開始販售快篩
5935091245,芳鄰藥局,苗栗縣公館鄉玉泉村玉泉３６８之１１號,120.8267,24.50749,(037)223727,羅氏家用新冠病毒抗原自我檢測套組,78,2022/05/07 11:59:02,口罩販賣時段：13:00~售完
5936010039,裕安藥局,臺中市豐原區南陽路南陽市場１１號,120.7239,24.24718,(04)25223494,羅氏家用新冠病毒抗原自我檢測套組,18,2022/05/07 11:59:02,無
5936010628,協安大藥局,臺中市豐原區府前街６３號,120.7184,24.24957,(04)25200808,羅氏家用新冠病毒抗原自我檢測套組,4,2022/05/07 11:59:02,實名制快篩販售時間為每日下午兩點。
5936040021,持田健保藥局,臺中市清水區鰲峰路24號,120.5742,24.26938,(04)26229133,羅氏家用新冠病毒抗原自我檢測套組,143,2022/05/07 11:59:02,週一至週六早上8:30發送快篩號碼牌，請勿離開現場售完為止.
5936040135,德厚藥局,臺中市清水區慷榔里慷榔２街５０號,121.4874,25.07275,(04)26560733,羅氏家用新冠病毒抗原自我檢測套組,35,2022/05/07 11:59:02,實名制快篩試劑於週一至週日10:00開始發送號碼牌，請勿離開現場，售完為止。
5936060164,中港藥局,臺中市梧棲區臺灣大道八段７６６號,120.5424,24.24798,(04)26565360,羅氏家用新冠病毒抗原自我檢測套組,78,2022/05/07 11:59:02,無
5936103002,學府藥局,臺中市大雅區學府路２２５號１樓,120.6498,24.22214,(04)25609333,羅氏家用新冠病毒抗原自我檢測套組,75,2022/05/07 11:59:02,實名制快篩12:00開始販售 8:30-10:00  星期天下午晚上休息
5936171331,澤士藤藥局,臺中市龍井區新東里新興路５３之９號１樓,120.5862,24.18155,(04)26523014,羅氏家用新冠病毒抗原自我檢測套組,78,2022/05/07 11:59:02,周一~周六中午12點開始販售 -現場排隊   （（ 週日沒有賣 週日沒有賣））
5936190327,富眾藥局,臺中市太平區永豐路３５號,120.7131,24.12447,(04)22706009,羅氏家用新冠病毒抗原自我檢測套組,71,2022/05/07 11:59:02,111年平安吉祥年:星期一至星期六.下午1點.星期日:休息.
5936190710,東亞藥師大藥局,臺中市太平區中興路６６號,120.7167,24.12806,(04)22787987,羅氏家用新冠病毒抗原自我檢測套組,1,2022/05/07 11:59:02,每日早上9:00先領號碼牌下午2:00~10:00領快篩試劑
5936192312,安麗兒藥局太平店,臺中市太平區太平路１９０號,120.7204,24.12088,(04)22798819,羅氏家用新冠病毒抗原自我檢測套組,77,2022/05/07 11:59:02,快篩販售時間下午3點（15:00）開始.售完為止
5937012117,媽咪藥局,彰化縣彰化市彰南路２段１１５號,120.5793,24.08538,(04)7321517,羅氏家用新冠病毒抗原自我檢測套組,59,2022/05/07 11:59:02,實名制快篩:周一至周六下午3:00，週日早上9:00開始販售，售完為止
5937013196,彰化啄木鳥藥局,彰化縣彰化市茄南里金馬路２段２７號,120.5483,24.09616,(04)7330661,羅氏家用新冠病毒抗原自我檢測套組,1,2022/05/07 11:59:02,無
5937013418,曉陽藥局,彰化縣彰化市西安里曉陽路２０２號,120.5373,24.07311,(04)7270989,羅氏家用新冠病毒抗原自我檢測套組,78,2022/05/07 11:59:02,現場排隊，請自備零錢。週一至週五早上9：30，週六下午3：30 （休息：中午12：00-15：30，18：00-19：30 ）
5937013436,大埔藥局,彰化縣彰化市大埔路４０６、４０８、４１０、４１２號,120.5439,24.06298,(04)7117511,羅氏家用新冠病毒抗原自我檢測套組,78,2022/05/07 11:59:02,快篩實名制，每天16:00開始販售，售完為止。
5937013552,芳澤藥局,彰化縣彰化市中山路三段４３４號,120.5658,24.08861,(04)7380381,羅氏家用新冠病毒抗原自我檢測套組,4,2022/05/07 11:59:02,快篩實名制-週一至週五下午3點開始販售，星期六日休息
5937013570,彰化藥局,彰化縣彰化市永安街２７８、２８０號,120.5438,24.08977,(04)7287877,羅氏家用新冠病毒抗原自我檢測套組,78,2022/05/07 11:59:02,快篩實名制，每天16:00開始販售，售完為止。
5937013605,大佳好藥局,彰化縣彰化市平和七街６號,120.5293,24.06697,(09)33520331,羅氏家用新冠病毒抗原自我檢測套組,9,2022/05/07 11:59:02,0507快篩10:00後暫時停售，勿來電詢問
5937013749,中央啄木鳥藥局,彰化縣彰化市中央路２０６號,120.5285,24.06637,(04)7639581,羅氏家用新冠病毒抗原自我檢測套組,1,2022/05/07 11:59:02,13:30開始販售，若未收到配送，則以收到時間開始
5937031541,友誼藥局和美店,彰化縣和美鎮和東里仁化路１４７、１４９號,120.4964,24.11017,(04)7550866,羅氏家用新冠病毒抗原自我檢測套組,154,2022/05/07 11:59:02,早上9::00-10:00發快篩，六日不發售。
5937031747,大樹和美藥局,彰化縣和美鎮道周路５０１號,120.494,24.10896,(04)7550090,羅氏家用新冠病毒抗原自我檢測套組,78,2022/05/07 11:59:02,快篩實名制，每天16:00開始販售，售完為止。
5937031783,和美啄木鳥藥局,彰化縣和美鎮德美路２７０號,120.502,24.11371,(04)7552924,羅氏家用新冠病毒抗原自我檢測套組,8,2022/05/07 11:59:02,領藥到啄木鳥~今日5／6下午2點開始販賣實名制快篩
5937050395,裕良大藥局,彰化縣員林市莒光路３號,120.5663,23.95163,(04)8360388,羅氏家用新冠病毒抗原自我檢測套組,6,2022/05/07 11:59:02,全年無休
5937052059,華衛藥局,彰化縣員林市惠來里南昌路９６號,120.5719,23.95464,(04)8397503,羅氏家用新冠病毒抗原自我檢測套組,47,2022/05/07 11:59:02,快篩販售時間8:20至09:50
5937052264,醫聯藥師藥局,彰化縣員林市三條里員東路二段４１０號１樓,120.5811,23.95898,(04)8360617,羅氏家用新冠病毒抗原自我檢測套組,19,2022/05/07 11:59:02,無
5937052335,大樹三民藥局,彰化縣員林市三民東街３５６號,120.5825,23.96065,(04)8372837,羅氏家用新冠病毒抗原自我檢測套組,78,2022/05/07 11:59:02,快篩實名制，每天16:00開始販售，售完為止。
5937052380,日信藥局員林店,彰化縣員林市中正路２５５號,120.5741,23.95487,(04)8352030,羅氏家用新冠病毒抗原自我檢測套組,78,2022/05/07 11:59:02,快篩試劑每天下午2點開始販售，售完為止
5937052399,裕良藥局大同店,彰化縣員林市大同路二段２０３－１號,120.5746,23.96891,(04)8344612,羅氏家用新冠病毒抗原自我檢測套組,1,2022/05/07 11:59:02,全年無休
5937052451,統信藥局,彰化縣員林市正興街３７２號,120.5722,23.95997,(04)8367089,羅氏家用新冠病毒抗原自我檢測套組,22,2022/05/07 11:59:02,無
5937052497,家家藥局,彰化縣員林市惠來街８７號,120.5704,23.95526,(04)8367007,羅氏家用新冠病毒抗原自我檢測套組,20,2022/05/07 11:59:02,無
5937052504,佑全員林中正藥局,彰化縣員林市中正路１３５，１３７號１樓,120.5714,23.96324,(04)8368669,羅氏家用新冠病毒抗原自我檢測套組,2,2022/05/07 11:59:02,無
5937061718,東環藥局,彰化縣溪湖鎮湖東街８１巷７０－３、７０－４、７０－５號,120.4833,23.95861,(04)8820001,羅氏家用新冠病毒抗原自我檢測套組,78,2022/05/07 11:59:02,快篩實名制，每天16:00開始販售，售完為止。
5937071474,田中藥局,彰化縣田中鎮新生街１５０巷２號,120.5862,23.8621,(04)8761988,羅氏家用新冠病毒抗原自我檢測套組,78,2022/05/07 11:59:02,快篩實名制，每天16:00開始販售，售完為止。
5937081596,二林藥局,彰化縣二林鎮斗苑路五段３９號,120.3709,23.89951,(04)8950010,羅氏家用新冠病毒抗原自我檢測套組,78,2022/05/07 11:59:02,快篩實名制，每天16:00開始販售，售完為止。
5937121317,彰水藥局,彰化縣秀水鄉彰水路二段４２５、４２７、４２９號１樓,120.4943,24.02791,(04)7685880,羅氏家用新冠病毒抗原自我檢測套組,78,2022/05/07 11:59:02,快篩實名制，每天16:00開始販售，售完為止。
5937170034,淑惠藥局,彰化縣埔心鄉亙北村員鹿路一段２４４號,120.5574,23.95515,(04)8297798,羅氏家用新冠病毒抗原自我檢測套組,76,2022/05/07 11:59:02,星期一~星期六16:00-18:00（2小時販售快篩試劑），星期日：休
5937181279,佳恩藥局,彰化縣永靖鄉永西村瑚璉路３０２號,120.547,23.92421,(04)8235753,羅氏家用新冠病毒抗原自我檢測套組,75,2022/05/07 11:59:02,快篩實名制 :電話預約制，當日早上9點開始預約（已額滿）
5937181304,永靖藥局,彰化縣永靖鄉瑚璉路１１６號,120.5505,23.92624,(04)8230220,羅氏家用新冠病毒抗原自我檢測套組,78,2022/05/07 11:59:02,快篩實名制，每天16:00開始販售，售完為止。
5937191300,社頭藥局,彰化縣社頭鄉社斗路一段３７３號,120.5846,23.89651,(04)8720030,羅氏家用新冠病毒抗原自我檢測套組,78,2022/05/07 11:59:02,快篩實名制，每天16:00開始販售，售完為止。
5937201061,長春藥局,彰化縣二水鄉文化村光文路１０３號,120.6167,23.81189,(04)8795289,羅氏家用新冠病毒抗原自我檢測套組,78,2022/05/07 11:59:02,早上8:00發放號碼牌，13:00開始販售至17:00止
5937201105,安利藥局,彰化縣二水鄉光化村員集路４段３號,120.6159,23.81147,(04)8794933,羅氏家用新冠病毒抗原自我檢測套組,72,2022/05/07 11:59:02,快篩下午3點現場販售 不發號碼牌 身障.醫護可優先購買
5937221198,祐幼藥局,彰化縣埤頭鄉合興村彰水路3段496號,120.4594,23.89158,(04)8911910,羅氏家用新冠病毒抗原自我檢測套組,14,2022/05/07 11:59:02,無
5938011730,明安大藥局,南投縣南投市復興路４８７、４８９號,120.6769,23.91728,(049)2248922,羅氏家用新冠病毒抗原自我檢測套組,71,2022/05/07 11:59:02,早上9:30開始領快篩號碼牌，14:00後領健保卡
5938030280,易生藥局,南投縣草屯鎮明正里芬草路一段１５３號,120.6816,23.98459,(049)2323350,羅氏家用新冠病毒抗原自我檢測套組,36,2022/05/07 11:59:02,每日中午12:00 現場排隊購買
5938041729,早安藥局,南投縣竹山鎮雲林路４１號,120.6834,23.75608,(049)2651032,羅氏家用新冠病毒抗原自我檢測套組,1,2022/05/07 11:59:02,實名制快篩試劑早上10點開始販售
5938041925,耀聖藥局,南投縣竹山鎮集山路三段８１６之５號,120.6862,23.7596,(049)2652267,羅氏家用新冠病毒抗原自我檢測套組,1,2022/05/07 11:59:02,無
5939011832,汶藥局,雲林縣斗六市大同路１０３號２樓,120.5451,23.70965,(05)5344728,羅氏家用新冠病毒抗原自我檢測套組,2,2022/05/07 11:59:02,快篩實名制: 每天早上80:00開賣，售完為止。三、五下午，六晚上，日全天，以上時間休診。
5939011850,明真西藥局,雲林縣斗六市自由路１號,120.5447,23.70513,(05)5321605,羅氏家用新冠病毒抗原自我檢測套組,7,2022/05/07 11:59:02,口罩販售:早上0800-1200中午1200-1400休息下午1400到2100賣完為止
5939012400,陽光藥局,雲林縣斗六市永安路６９號,120.548,23.70923,(05)5362097,羅氏家用新冠病毒抗原自我檢測套組,69,2022/05/07 11:59:02,快篩16:00開賣~現場排隊，請勿電話詢問
5939030355,祥惠藥局,雲林縣虎尾鎮惠來里惠來８１之５號,120.4892,23.72847,(05)6224308,羅氏家用新冠病毒抗原自我檢測套組,6,2022/05/07 11:59:02,週日請先電話洽詢
5939031996,端發藥局,雲林縣虎尾鎮林森路一段３２９號,120.4368,23.71237,(05)6314168,羅氏家用新冠病毒抗原自我檢測套組,60,2022/05/07 11:59:02,販賣快篩時間:周一至周日08:30-賣完為止
5939121271,崙背台丞藥局,雲林縣崙背鄉建國路５６號,120.3548,23.76012,(05)6966789,羅氏家用新冠病毒抗原自我檢測套組,78,2022/05/07 11:59:02,週日公休，下午２：３０開賣，售完為止。
5939171093,和平藥局,雲林縣元長鄉下寮村東興路３３號,120.334,23.61849,(05)7862551,羅氏家用新冠病毒抗原自我檢測套組,15,2022/05/07 11:59:02,販賣口罩時間：0800開賣，賣完為止
5940011302,開元藥局,嘉義縣朴子市開元路１５４號,120.2446,23.46725,(05)3700014,羅氏家用新冠病毒抗原自我檢測套組,2,2022/05/07 11:59:02,週一至週五08:30~售完為止，週六、週日到貨即賣~售完為止。
5940040321,上安藥局,嘉義縣民雄鄉西安路４６－２３號,120.4259,23.55737,(05)2261216,羅氏家用新冠病毒抗原自我檢測套組,66,2022/05/07 11:59:02,上午0830開賣-售罄（週六1700開始販售）
5940041739,民雄藥局,嘉義縣民雄鄉東榮村００５鄰建國路一段１１７號,120.4333,23.55681,(05)2264566,羅氏家用新冠病毒抗原自我檢測套組,78,2022/05/07 11:59:02,快篩實名制，每天16:00開始販售，售完為止。
5940041837,雄讚藥局,嘉義縣民雄鄉北斗村北勢子５６－３８號１樓,120.4547,23.5327,(05)2212226,羅氏家用新冠病毒抗原自我檢測套組,1,2022/05/07 11:59:02,快篩實名制每日中午12點開始販售!
5940131283,一心藥局,嘉義縣中埔鄉富收村頂中下街３１、３１－１號１樓,120.4885,23.45077,(05)2303553,羅氏家用新冠病毒抗原自我檢測套組,60,2022/05/07 11:59:02,無
5941040012,杏林藥局,臺南市麻豆區晉江里興中路１３６號,120.2521,23.18357,(06)5722692,羅氏家用新冠病毒抗原自我檢測套組,76,2022/05/07 11:59:02,星期一~日  下午14:00開賣~售完為止（可提早排隊）
5941081193,信忠藥局,臺南市學甲區中正路２７４號,120.1804,23.23411,(06)7832363,羅氏家用新冠病毒抗原自我檢測套組,3,2022/05/07 11:59:02,快篩販售時間：到貨時間～售完
5941181054,年豐藥局,臺南市將軍區忠嘉里忠興４２－１０號１樓,120.158,23.20163,(06)7946247,羅氏家用新冠病毒抗原自我檢測套組,44,2022/05/07 11:59:02,星期一、四、五、六08:00~09:00 星期二~三08:30~09:30買快篩時間
5941230016,玉井藥局,臺南市玉井區玉田里中華路４７號,120.4623,23.12381,(06)5742271,羅氏家用新冠病毒抗原自我檢測套組,50,2022/05/07 11:59:02,星期一-日07:30-售完
5941280043,道仁藥局,臺南市歸仁區許厝里中山路一段４７８號,120.2973,22.96654,(06)2301967,羅氏家用新冠病毒抗原自我檢測套組,80,2022/05/07 11:59:02,08:00開始.12:00-13:30午休.售完為止
5941291215,明義藥師藥局,臺南市關廟區山西里武聖路２６號１樓,120.3266,22.96169,(06)5959290,羅氏家用新冠病毒抗原自我檢測套組,74,2022/05/07 11:59:02,於中午12:00~13:00及18:00~代售實名制防疫家用快篩試劑服務!
5941310484,慈惠藥師保健藥局,臺南市永康區國光七街７１號,120.26,23.00943,(06)2718968,羅氏家用新冠病毒抗原自我檢測套組,78,2022/05/07 11:59:02,快篩實名制，預計13:00開始販賣
5942010349,長英藥局,高雄市鳳山區八德路二段２６７號,120.3519,22.64479,(07)7805002,羅氏家用新冠病毒抗原自我檢測套組,3,2022/05/07 11:59:02,4／29起-營業日15:00~17:00為快篩販賣時間，售完為止。
5942013797,北京藥局,高雄市鳳山區一甲里五甲二路３４２號１樓,120.3377,22.59963,(07)7117100,羅氏家用新冠病毒抗原自我檢測套組,78,2022/05/07 11:59:02,營業時間早上8點到下午11點，下午2點開始販售快篩
5942020185,鴻興大藥局,高雄市岡山區中華路１３６號,120.2882,22.79476,(07)6259903,羅氏家用新冠病毒抗原自我檢測套組,3,2022/05/07 11:59:02,有營業  就有賣快篩。
5942060152,洋洋藥局,高雄市大寮區中庄里鳳屏一路５１２號,120.3936,22.63664,(07)7034256,羅氏家用新冠病毒抗原自我檢測套組,14,2022/05/07 11:59:02,無
5942220023,維康藥局,高雄市甲仙區西安里中正路２２號,120.5885,23.08291,(07)6752585,羅氏家用新冠病毒抗原自我檢測套組,2,2022/05/07 11:59:02,自2／11日~2／29日，營業日07:00起為販賣口罩時間，售完為止
5943013853,復順藥局,屏東縣屏東市公園東路８４－２號,120.4986,22.67217,(08)7215662,羅氏家用新冠病毒抗原自我檢測套組,20,2022/05/07 11:59:02,自2／11日~12／31日，營業日0930，1600為販賣快篩時間（13:00-15:00休息）
5943013915,怡安生活藥粧藥局,屏東縣屏東市大連里瑞光路２段１３８號１樓,120.5092,22.67687,(08)7377162,羅氏家用新冠病毒抗原自我檢測套組,48,2022/05/07 11:59:02,快篩試劑販售時間：下午1-3 點，一次僅限一人入場購買。
5943014332,千甲台安藥局,屏東縣屏東市武廟里逢甲路９２號,120.4867,22.67045,(08)7330663,羅氏家用新冠病毒抗原自我檢測套組,68,2022/05/07 11:59:02,因政府物流不穩定 每日塊篩販售時間公告於LINE社群https:／／reurl.cc／M0b5VX
5943021588,成昌藥局,屏東縣潮州鎮永春里光春路９６號１樓,120.5375,22.54291,(08)7801199,羅氏家用新冠病毒抗原自我檢測套組,4,2022/05/07 11:59:02,無
5943031735,愛樂活藥局,屏東縣東港鎮長春一路１１３－１號,120.4594,22.47111,(08)8312388,羅氏家用新冠病毒抗原自我檢測套組,74,2022/05/07 11:59:02,快篩販賣時間: 週一，二，四，五晚上7點開賣，週三，六（有夜市）下午3點開賣
5943031851,大眾藥局,屏東縣東港鎮朝隆路７６號,120.4463,22.46862,(08)8354752,羅氏家用新冠病毒抗原自我檢測套組,77,2022/05/07 11:59:02,實名制快篩下午三點開始販售
5943041357,西門藥局,屏東縣恆春鎮西門路１０８號,120.7437,22.00793,(08)8896980,羅氏家用新冠病毒抗原自我檢測套組,78,2022/05/07 11:59:02,快篩實名制，每天16:00開始販售，販售完為止
5943050169,新萬安藥局,屏東縣萬丹鄉萬安村萬丹路一段１１３號,120.4894,22.58628,(08)7772035,羅氏家用新冠病毒抗原自我檢測套組,48,2022/05/07 11:59:02,實名制快篩販售時間中午 12:30  至售完
5943125125,昕妙春藥局,屏東縣萬巒鄉新置村新隆路４８號,120.6254,22.5264,(08)7850153,羅氏家用新冠病毒抗原自我檢測套組,74,2022/05/07 11:59:02,5／3~5／7快篩下午2:30開始販售售完為止
5943131561,南寧藥局,屏東縣內埔鄉南寧路２３號,120.5655,22.61723,(08)7690330,羅氏家用新冠病毒抗原自我檢測套組,78,2022/05/07 11:59:02,快篩實名制，每天16:00開始販售，售完為止。
5943170095,長安中西藥局,屏東縣新園鄉中洲村南興路１９４號,120.4586,22.48776,(08)8336986,羅氏家用新冠病毒抗原自我檢測套組,1,2022/05/07 11:59:02,自2／11~2／29日，販賣口罩時間9:00起，售完為止。
5943221051,明德藥局,屏東縣琉球鄉本福村中山路１５１號,120.3818,22.35203,(08)8611278,羅氏家用新冠病毒抗原自我檢測套組,4,2022/05/07 11:59:02,8:30 發放號碼牌  10:00-12:00 販賣實名制快篩
5944020558,全民藥局,澎湖縣湖西鄉湖西村１５０－３號,119.6603,23.5844,(06)9920403,羅氏家用新冠病毒抗原自我檢測套組,39,2022/05/07 11:59:02,中午12:00-13:30休息
5945013057,富強健康藥局,花蓮縣花蓮市國裕里２２鄰富強路１２８號,121.5971,23.99707,(03)8571839,羅氏家用新冠病毒抗原自我檢測套組,63,2022/05/07 11:59:02,快篩領取時間:12:00~13:00止。營業時間:  8:30~13:00（11:30~12:00休息）／17:30~21:30公休日:另行通知。
5945021086,安康鳳林藥局,花蓮縣鳳林鎮仁愛街１０號１樓,121.4503,23.74937,(03)8762227,羅氏家用新冠病毒抗原自我檢測套組,1,2022/05/07 11:59:02,快篩發放時間，依現場公告為主，售完為止。
5945051271,小叮噹藥局,花蓮縣吉安鄉建國路１段６３號１樓,121.5945,23.98501,(03)8576886,羅氏家用新冠病毒抗原自我檢測套組,3,2022/05/07 11:59:02,星期一至星期六早上8:30左右開始領購快篩
5945051619,仁愛藥局,花蓮縣吉安鄉慶豐村中山路三段２８０號,121.5712,23.97783,(03)8511635,羅氏家用新冠病毒抗原自我檢測套組,85,2022/05/07 11:59:02,5／7.28.29店休 實名制快篩早上8:30開賣!
5945051646,花蓮建國藥局,花蓮縣吉安鄉建國路１段１３７－１號,121.5915,23.98574,(03)8461699,羅氏家用新冠病毒抗原自我檢測套組,78,2022/05/07 11:59:02,快篩實名制，每天16:00開始販售，售完為止。
5945051735,杏一吉安建國藥局,花蓮縣吉安鄉建國路１段１４１、１４３號１樓,121.5911,23.98589,(03)8575611,羅氏家用新冠病毒抗原自我檢測套組,58,2022/05/07 11:59:02,5／7（雙號）78份中午12點販售（領取號碼牌後請在現場排隊，拿完號碼牌自行離開者視同放棄）
5946080552,伯安健康藥局,臺東縣長濱鄉長濱村１０鄰長濱路１０５號,121.4515,23.31496,(089)832519,羅氏家用新冠病毒抗原自我檢測套組,96,2022/05/07 11:59:02,無
5946101118,伯安藥局,臺東縣池上鄉新生路１１６號,121.2187,23.12315,(089)863585,羅氏家用新冠病毒抗原自我檢測套組,158,2022/05/07 11:59:02,早0800-1200，午1400-1800，晚1800-2000
5990010695,百泰藥局,金門縣金城鎮西海路１段１號,118.2864,24.41566,(082)312832,羅氏家用新冠病毒抗原自我檢測套組,156,2022/05/07 11:59:02,快篩實名制，每天16:00開始販售，售完為止。
