醫事機構代碼,醫事機構名稱,醫事機構地址,經度,緯度,醫事機構電話,廠牌項目,快篩試劑截至目前結餘存貨數量,來源資料時間,備註
0291010010,連江縣立醫院,連江縣南竿鄉復興村２１７號,119.9492,26.16084,(083)623995,羅氏家用新冠病毒抗原自我檢測套組,12,2022/05/02 22:48:02,4／29起固定周一至周六上午8:30-9:30快篩試劑販售.
2331260016,新北市貢寮區衛生所,新北市貢寮區朝陽街７０巷１０號、新北市貢寮區仁愛路１２８號,121.9095,25.02258,(02)24901431,羅氏家用新冠病毒抗原自我檢測套組,78,2022/05/02 22:48:02,星期一至星期日上午8點購買防疫口罩，售完為止.
2331290014,新北市烏來區衛生所,新北市烏來區新烏路５段１０９號,121.548,24.87197,(02)26617200,羅氏家用新冠病毒抗原自我檢測套組,93,2022/05/02 22:48:02,無
2333140017,新竹縣五峰鄉衛生所,新竹縣五峰鄉大隘村六鄰９９號,121.1194,24.63184,(03)5851005,羅氏家用新冠病毒抗原自我檢測套組,78,2022/05/02 22:48:02,無
2334110013,宜蘭縣大同鄉衛生所,宜蘭縣大同鄉崙埤村朝陽４０號,121.6088,24.67785,(03)9801175,羅氏家用新冠病毒抗原自我檢測套組,95,2022/05/02 22:48:02,本所防疫快篩試劑販賣時間為週一到週五 10:50-11:50  （或售罄為止），10:40開始發放號碼牌，詳細事項請至本所網站查詢。
2335170013,苗栗縣獅潭鄉衛生所,苗栗縣獅潭鄉新店村１３０之６號,120.9201,24.53961,(037)931309,羅氏家用新冠病毒抗原自我檢測套組,78,2022/05/02 22:48:02,口罩販賣時段：08:30-16:00
2335180019,苗栗縣泰安鄉衛生所,苗栗縣泰安鄉清安村２鄰７２號,120.9083,24.44722,(037)941054,羅氏家用新冠病毒抗原自我檢測套組,78,2022/05/02 22:48:02,口罩販賣時段：星期一~五：8:30~15：00。
2338070010,南投縣鹿谷鄉衛生所,南投縣鹿谷鄉中正路二段２０號,120.7542,23.74488,(049)2752002,羅氏家用新冠病毒抗原自我檢測套組,78,2022/05/02 22:48:02,快篩試劑販售時間 上班日（星期一至星期五）14:00~16:00
2340170016,嘉義縣大埔鄉衛生所,嘉義縣大埔鄉大埔村５３－１號,120.5928,23.29397,(05)2521214,羅氏家用新冠病毒抗原自我檢測套組,40,2022/05/02 22:48:02,無
2342130010,高雄市田寮區衛生所,高雄市田寮區南安里崗北路３２號,120.3594,22.87301,(07)6361504,羅氏家用新冠病毒抗原自我檢測套組,158,2022/05/02 22:48:02,巡迴醫療:每星期一、四下午及每月第一個有上班的星期三下午巡迴醫療
2342180010,高雄市永安區衛生所,高雄市永安區永安路２６號,120.2254,22.81879,(07)6912015,羅氏家用新冠病毒抗原自我檢測套組,156,2022/05/02 22:48:02,無
2342250017,高雄市茂林區衛生所,高雄市茂林區茂林里茂林巷８－４號,120.6641,22.88641,(07)6801046,羅氏家用新冠病毒抗原自我檢測套組,217,2022/05/02 22:48:02,夜間急診，請先撥電話07-6801046
2342260013,高雄市桃源區衛生所,高雄市桃源區桃源里南進巷１８８－１號,120.7642,23.15845,(07)6861126,羅氏家用新冠病毒抗原自我檢測套組,126,2022/05/02 22:48:02,IDS提供24小時服務
2342270019,高雄市那瑪夏區衛生所,高雄市那瑪夏區瑪雅里６鄰平和巷２５２號,120.7024,23.24708,(07)6701142,羅氏家用新冠病毒抗原自我檢測套組,238,2022/05/02 22:48:02,春節期間正常門診
2343270013,屏東縣霧台鄉衛生所,屏東縣霧台鄉霧台村神山巷６８號,120.7261,22.74989,(08)7902232,羅氏家用新冠病毒抗原自我檢測套組,104,2022/05/02 22:48:02,無
2344030022,澎湖縣白沙鄉鳥嶼衛生所,澎湖縣白沙鄉鳥嶼村漁港新村３號,119.6599,23.66008,(06)9916092,羅氏家用新冠病毒抗原自我檢測套組,50,2022/05/02 22:48:02,非上班時間提供急診服務
2344030031,澎湖縣白沙鄉吉貝衛生所,澎湖縣白沙鄉吉貝村８－１３號,119.6138,23.74056,(06)9911430,羅氏家用新冠病毒抗原自我檢測套組,121,2022/05/02 22:48:02,無
2344050015,澎湖縣望安鄉衛生所,澎湖縣望安鄉西安村３６－７號,119.4972,23.36161,(06)9991036,羅氏家用新冠病毒抗原自我檢測套組,80,2022/05/02 22:48:02,夜間急診。口罩、快篩試劑販售時間為:每日08:00-12:00、13:30-17:30售完為止，如有餘數為離島未售出（東嶼坪、花嶼）。
2344050024,澎湖縣望安鄉將軍衛生所,澎湖縣望安鄉將軍村１２鄰將軍澳１之３號,119.5216,23.3615,(06)9902066,羅氏家用新冠病毒抗原自我檢測套組,180,2022/05/02 22:48:02,24小時急診
2344060011,澎湖縣七美鄉衛生所,澎湖縣七美鄉中和村埔內５４號,119.431,23.2041,(06)9971005,羅氏家用新冠病毒抗原自我檢測套組,33,2022/05/02 22:48:02,無
2345080017,花蓮縣豐濱鄉衛生所,花蓮縣豐濱鄉豐濱村光豐路３９號,121.5215,23.60195,(03)8791156,羅氏家用新冠病毒抗原自我檢測套組,78,2022/05/02 22:48:02,*本院口罩每天販售，時間自上午8點至晚上9點  *本院週一至週五上下午皆有門診，星期六隔週提供門診，及24小時急診。
2345130012,花蓮縣卓溪鄉衛生所,花蓮縣卓溪鄉卓溪村中正路６５號,121.3033,23.33294,(03)8882592,羅氏家用新冠病毒抗原自我檢測套組,159,2022/05/02 22:48:02,販賣口罩服務時段每周一至周五早上8點45分至11點45分，星期一至星期四安排巡迴醫療點販售（售完即結束）
2346050013,台東縣大武鄉衛生所,臺東縣大武鄉大武村復興路２－２號,120.9078,22.36414,(089)791143,羅氏家用新冠病毒抗原自我檢測套組,81,2022/05/02 22:48:02,24小時急診服務
2346110014,台東縣綠島鄉衛生所,臺東縣綠島鄉中寮村１－１號,121.4696,22.67319,(089)672511,羅氏家用新冠病毒抗原自我檢測套組,78,2022/05/02 22:48:02,家用快篩實名制，販售時段為上午08:30至12:00，下午13:30至16:30（周一至周五），售完為止。）
2346150018,台東縣金峰鄉衛生所,臺東縣金峰鄉賓茂村１鄰１４號,120.9606,22.53248,(089)772201,羅氏家用新冠病毒抗原自我檢測套組,78,2022/05/02 22:48:02,代售口罩時間:星期一至星期五為上午8:00-12:00，下午1:30-5:30
2346160014,台東縣蘭嶼鄉衛生所,臺東縣蘭嶼鄉紅頭村３６號,121.5546,22.02493,(089)732575,羅氏家用新冠病毒抗原自我檢測套組,78,2022/05/02 22:48:02,販售口罩時間 星期一至星期五 8:00~12:00 13:30~17:30
2391030016,連江縣莒光鄉西莒衛生所,連江縣莒光鄉青帆村１４－１號,119.9331,25.97157,(083)689122,羅氏家用新冠病毒抗原自我檢測套組,201,2022/05/02 22:48:02,防疫口罩星期一至五09:00-17:00、（六）09:00-12:00現場購買
2391030026,連江縣莒光鄉東莒衛生所,連江縣莒光鄉大坪村３０－１號,119.9731,25.96113,(083)689038,羅氏家用新冠病毒抗原自我檢測套組,209,2022/05/02 22:48:02,防疫口罩星期一至星期日上午10:00-12:00收取健保卡，下午3:30至本所領取口罩。
5901012203,博荃藥局,臺北市松山區敦化北路４巷５１號,121.5447,25.05006,(02)27316736,羅氏家用新冠病毒抗原自我檢測套組,156,2022/05/02 22:48:02,快篩銷售時間為下午2點憑健保卡開始購買 ! 星期日，5／2連續假期公休 5／3快篩未到貨停賣
5901013095,康采藥局,臺北市松山區南京東路５段２９１巷１７－２號,121.5663,25.05236,(02)27670271,羅氏家用新冠病毒抗原自我檢測套組,74,2022/05/02 22:48:02,快篩試劑每日16點販售，週日沒有販售
5901013693,民生盛康藥局,臺北市松山區民生東路５段２０４號１樓,121.5648,25.05826,(02)27460758,羅氏家用新冠病毒抗原自我檢測套組,96,2022/05/02 22:48:02,【今日量已發完】每日早上9:00發號碼牌，11:00~20:00拿號碼牌回來領取，每人限兩張號碼牌，逾時不候
5901020303,宏恩藥局,臺北市大安區大安路１段１８１號,121.5461,25.03619,(02)27000956,羅氏家用新冠病毒抗原自我檢測套組,78,2022/05/02 22:48:02,實名制快篩每周一~六，10:00發放號碼牌， 另於12:00~21:00自由擇時，持號碼牌領取快篩並收費
5901020563,施寶藥局,臺北市大安區安東街５０－５號１樓,121.5426,25.04277,(02)27114175,羅氏家用新冠病毒抗原自我檢測套組,234,2022/05/02 22:48:02,週一至週五早上11點到下午8點.周六周日及公訂例假日公休
5901020616,龍護大藥局,臺北市大安區大安路１段２２４巷７號１Ｆ,121.5454,25.03401,(02)23250686,羅氏家用新冠病毒抗原自我檢測套組,78,2022/05/02 22:48:02,無
5901020876,大興藥局,臺北市大安區通化街３９巷５０弄１５號１樓,121.5555,25.03056,(02)27053369,羅氏家用新冠病毒抗原自我檢測套組,78,2022/05/02 22:48:02,快篩試劑販售時間自08:30開始，現場排隊。（週日休息）
5901021408,生百藥局,臺北市大安區臨江街１２４號,121.5539,25.03024,(02)27371011,羅氏家用新冠病毒抗原自我檢測套組,78,2022/05/02 22:48:02,無
5901024098,杏一瑞安藥局,臺北市大安區瑞安街２０８巷１１弄１號,121.5406,25.02866,(02)27096710,羅氏家用新冠病毒抗原自我檢測套組,78,2022/05/02 22:48:02,3點發快篩，前5分鐘發牌
5901024472,忠孝康承健保藥局,臺北市大安區復興南路１段１０７巷４號,121.5444,25.04357,(02)87733378,羅氏家用新冠病毒抗原自我檢測套組,78,2022/05/02 22:48:02,周一公休
5901024892,太醫藥局,臺北市大安區師大路１２號,121.5283,25.02568,(02)23685125,羅氏家用新冠病毒抗原自我檢測套組,156,2022/05/02 22:48:02,口罩發放時間:周一到周五:13:30~20:00
5901025031,中力信義藥局,臺北市大安區信義路４段５１號（１樓）,121.545,25.03354,(02)23250266,羅氏家用新冠病毒抗原自我檢測套組,78,2022/05/02 22:48:02,下午一點到三點販售實名制快篩
5901090154,柯藥局,臺北市大同區重慶北路３段３３５巷６號,121.5144,25.07452,(02)25948515,羅氏家用新冠病毒抗原自我檢測套組,94,2022/05/02 22:48:02,库存已零如何歸零
5901092069,躍獅遠東藥局,臺北市大同區延平北路２段１３１號（實際營業地址：１樓）,121.5116,25.05751,(02)25594835,羅氏家用新冠病毒抗原自我檢測套組,78,2022/05/02 22:48:02,實名制快篩販賣時間：下午2點~下午3點；晚上7點~晚上8點。售完為止。
5901100422,滿順藥局,臺北市中山區伊通街５４號１樓,121.5347,25.05145,(02)25075283,羅氏家用新冠病毒抗原自我檢測套組,78,2022/05/02 22:48:02,快篩服務時間 AM 8:30 起 售完為止
5901100664,阿里藥局,臺北市中山區錦州街２５１號,121.5342,25.06039,(02)25020638,羅氏家用新冠病毒抗原自我檢測套組,78,2022/05/02 22:48:02,無
5901102060,專心藥局,臺北市中山區伊通街１１２－２號,121.5347,25.05426,(02)25155847,羅氏家用新冠病毒抗原自我檢測套組,156,2022/05/02 22:48:02,無
5901102686,富宥康藥局,臺北市中山區北安路６０８巷５弄２２號,121.5496,25.08263,(02)25325277,羅氏家用新冠病毒抗原自我檢測套組,58,2022/05/02 22:48:02,無
5901103352,美康正康藥局,臺北市中山區北安路６１６之１號、６１８號２樓之１,121.549,25.08243,(02)25323077,羅氏家用新冠病毒抗原自我檢測套組,156,2022/05/02 22:48:02,實名制快篩:14:30~售完
5901103647,禾康藥局,臺北市中山區植福路２９６號（實際營業地址：１層）,121.5612,25.08125,(02)26562156,羅氏家用新冠病毒抗原自我檢測套組,156,2022/05/02 22:48:02,國定假日不執行調劑業務
5901111890,安康藥局,臺北市內湖區安康路４８２號,121.6158,25.06785,(02)26327675,羅氏家用新冠病毒抗原自我檢測套組,1,2022/05/02 22:48:02,無
5901120308,加欣藥局,臺北市南港區南港路２段２６號,121.6054,25.05425,(02)27836222,羅氏家用新冠病毒抗原自我檢測套組,78,2022/05/02 22:48:02,星期日公休
5901122080,成福大藥局,臺北市南港區成福路８號,121.5859,25.04578,(02)27859221,羅氏家用新冠病毒抗原自我檢測套組,78,2022/05/02 22:48:02,無
5901150575,日康藥局,臺北市士林區士東路１２號１樓,121.5267,25.11168,(02)28358558,羅氏家用新冠病毒抗原自我檢測套組,78,2022/05/02 22:48:02,無
5901150771,天母大和藥師藥局,臺北市士林區德行東路１８９－１號１樓,121.5317,25.10897,(02)28310142,羅氏家用新冠病毒抗原自我檢測套組,78,2022/05/02 22:48:02,快篩實名制 配合營業時間  賣完為止
5901152079,資生堂藥局,臺北市士林區承德路４段４０巷１７號１Ｆ,121.522,25.08107,(02)28857588,羅氏家用新冠病毒抗原自我檢測套組,78,2022/05/02 22:48:02,快篩購買時間週一到週六中午過後
5901152659,和樹藥局,臺北市士林區後港街４５巷１號１樓,121.5228,25.08444,(02)28821188,羅氏家用新冠病毒抗原自我檢測套組,78,2022/05/02 22:48:02,實名制快篩發放時間 依到貨時間發售
5901153861,佩佩藥局,臺北市士林區中山北路６段１８２號,121.5252,25.10759,(02)28382662,羅氏家用新冠病毒抗原自我檢測套組,78,2022/05/02 22:48:02,5／2已售完。08:30開始販售快篩，售完為止。
5901154091,社正藥局,臺北市士林區社正路１２號１樓,121.5093,25.08854,(02)28118704,羅氏家用新冠病毒抗原自我檢測套組,77,2022/05/02 22:48:02,無
5901160099,進春藥局,臺北市北投區明德路１５１號,121.5206,25.11086,(02)28216938,羅氏家用新冠病毒抗原自我檢測套組,144,2022/05/02 22:48:02,無休 上午九點開始販售，現場排隊。（依現場公告為主）
5901160197,川秀藥局,臺北市北投區石牌路２段９９巷９號１樓,121.5166,25.11792,(02)28270702,羅氏家用新冠病毒抗原自我檢測套組,78,2022/05/02 22:48:02,每日14:00開賣，今日份量已售完
5901162173,小明藥局,臺北市北投區中央南路１段６９號２樓,121.5014,25.13145,(02)28928950,羅氏家用新冠病毒抗原自我檢測套組,78,2022/05/02 22:48:02,執業時段請電洽藥局
5901162306,上頤藥局,臺北市北投區中和街３２７號１樓,121.4997,25.14097,(02)28981230,羅氏家用新冠病毒抗原自我檢測套組,234,2022/05/02 22:48:02,無
5901163250,關渡松藥局,臺北市北投區知行路２４７號,121.4671,25.12074,(02)28584824,羅氏家用新冠病毒抗原自我檢測套組,156,2022/05/02 22:48:02,口罩時段: 星期一至星期五早上9:00及晚上18:30，星期六日為下午15:00
5901163296,天禧大藥局,臺北市北投區實踐街３５號,121.5087,25.11521,(02)28213558,羅氏家用新冠病毒抗原自我檢測套組,2,2022/05/02 22:48:02,實名制快篩下午1:30現場販售
5901163563,躍獅光明藥局,臺北市北投區光明路５１號、５３號（實際使用：１樓）,121.4998,25.13286,(02)28915993,羅氏家用新冠病毒抗原自我檢測套組,1,2022/05/02 22:48:02,無
5901170139,福華藥局,臺北市信義區吳興街２８１巷３號１樓,121.5643,25.02656,(02)27208527,羅氏家用新冠病毒抗原自我檢測套組,78,2022/05/02 22:48:02,現階段下午1:30配合政府發售快篩試劑
5901170906,吳興藥局,臺北市信義區吳興街２７９號１樓,121.5642,25.02658,(02)27208328,羅氏家用新冠病毒抗原自我檢測套組,78,2022/05/02 22:48:02,實名制快篩販售時間，周一至周六13：00現場排隊購買
5901172179,新和平藥局,臺北市信義區虎林街１９８號１樓,121.5769,25.03844,(02)23460951,羅氏家用新冠病毒抗原自我檢測套組,78,2022/05/02 22:48:02,每星期一至星期六早上10點起   發放實名制快篩試劑 .星期日休息
5901172740,信桉藥局,臺北市信義區莊敬路２３６號,121.5621,25.0296,(02)87860005,羅氏家用新冠病毒抗原自我檢測套組,156,2022/05/02 22:48:02,快篩販售 W1-5 11:00-20:00，W6 11:00-15:00
5901173407,康怡健保藥局,臺北市信義區吳興街４６７巷２弄１２號,121.5695,25.02381,(02)27206193,羅氏家用新冠病毒抗原自我檢測套組,80,2022/05/02 22:48:02,成人口罩領取時間14:00~18:00，兒童營業時間皆可領.其餘時間仍以調劑為主，謝謝配合
5901173694,洪暘藥局,臺北市信義區富陽街８６號,121.5564,25.02127,(02)27337099,羅氏家用新冠病毒抗原自我檢測套組,1,2022/05/02 22:48:02,下午2點開始販售，限一人持一張健保卡。
5901174066,愛維喜藥局,臺北市信義區莊敬路２７８號１樓,121.5627,25.02882,(02)27586989,羅氏家用新冠病毒抗原自我檢測套組,156,2022/05/02 22:48:02,快篩周一至周五下午3:30開賣.3:10收健保卡現金500元1張.發號碼牌
5901174075,信義盛康藥局,臺北市信義區永吉路２８６號（１樓）,121.5744,25.04538,(02)23460521,羅氏家用新冠病毒抗原自我檢測套組,78,2022/05/02 22:48:02,無
5901184633,躍獅東門藥局,臺北市中正區金山南路１段１０８之１號（１樓）,121.5273,25.03538,(02)23920339,羅氏家用新冠病毒抗原自我檢測套組,78,2022/05/02 22:48:02,5／2已售完。5／3下午兩點販售，不提前發號碼牌，現場排隊販售
5901184697,中英大藥局,臺北市中正區永綏街６號１樓,121.5112,25.043,(02)23617551,羅氏家用新冠病毒抗原自我檢測套組,78,2022/05/02 22:48:02,無
5901200114,健群藥局,臺北市文山區景興路４１號,121.5448,24.99717,(02)29328898,羅氏家用新冠病毒抗原自我檢測套組,78,2022/05/02 22:48:02,無
5901201568,康宜庭生活藥局,臺北市文山區興隆路４段６４號,121.5613,24.98514,(02)29385363,羅氏家用新冠病毒抗原自我檢測套組,156,2022/05/02 22:48:02,實名快篩14:00開賣 現場排隊
5902010025,南京藥局,高雄市鹽埕區建國四路３８７號,120.284,22.63279,(07)5514652,羅氏家用新冠病毒抗原自我檢測套組,78,2022/05/02 22:48:02,早上9:00為實名制快篩及口罩販賣時間，售完為止
5902021377,藍玉藥局,高雄市鼓山區鼓峰里九如四路２００２號,120.2861,22.66774,(07)5837528,羅氏家用新冠病毒抗原自我檢測套組,2,2022/05/02 22:48:02,賣口罩時間：周一至週五早上9:30起，售完為止。
5902022801,裕康中西大藥局,高雄市鼓山區裕誠路１５１９號,120.2951,22.66479,(07)5555352,羅氏家用新冠病毒抗原自我檢測套組,4,2022/05/02 22:48:02,藥局販售口罩時間，依藥局門口公告時間為主（售完為止）
5902022874,康爾喜藥局,高雄市鼓山區慶豐街５０號,120.2935,22.66647,(07)5222650,羅氏家用新冠病毒抗原自我檢測套組,78,2022/05/02 22:48:02,無
5902030090,宏仁藥局,高雄市左營區左營大路３９０號,120.2932,22.68702,(07)5817895,羅氏家用新冠病毒抗原自我檢測套組,13,2022/05/02 22:48:02,口罩代售時間自早上10:00開始，售完為止。
5902030312,吉辰藥局,高雄市左營區左營大路４１之１號,120.2876,22.68109,(07)5815069,羅氏家用新冠病毒抗原自我檢測套組,14,2022/05/02 22:48:02,早上9點開賣口罩   賣完為止
5902030410,重仁藥局,高雄市左營區左營大路４０８號,120.2935,22.68725,(07)5824083,羅氏家用新冠病毒抗原自我檢測套組,1,2022/05/02 22:48:02,自2／11日~2／29日，營業日08:00~22:30為販賣口罩時間.售完為止
5902031999,平安藥局,高雄市左營區中華一路５之１號,120.287,22.66961,(07)5833688,羅氏家用新冠病毒抗原自我檢測套組,53,2022/05/02 22:48:02,週一~週六上午:8:00~12:00，下午:4:00~9:00， 週日例假日晚上6:00~9:00
5902032174,光明健保藥局,高雄市左營區翠華路６０１巷８３號,120.2893,22.67277,(07)5812499,羅氏家用新冠病毒抗原自我檢測套組,94,2022/05/02 22:48:02,快篩實名制早上8點開始販售.周日休息
5902032432,威林藥局,高雄市左營區華夏路７２１號,120.3023,22.67845,(07)3414243,羅氏家用新冠病毒抗原自我檢測套組,2,2022/05/02 22:48:02,營業時間販售快篩（售完為止），星期一~五早上12:00~晚上9:00，星期六日早上09:00~下午5:00執業
5902032441,健怡藥局,高雄市左營區翠峰路４０號,120.2897,22.67229,(07)5821891,羅氏家用新冠病毒抗原自我檢測套組,40,2022/05/02 22:48:02,快篩星期一~星期六早上8:30開始販售
5902032450,可達藥局,高雄市左營區榮德街１７７號,120.3205,22.68359,(07)3420182,羅氏家用新冠病毒抗原自我檢測套組,156,2022/05/02 22:48:02,無
5902032530,杏光藥局,高雄市左營區果峰街４７巷１號１樓,120.2869,22.6703,(07)5837060,羅氏家用新冠病毒抗原自我檢測套組,36,2022/05/02 22:48:02,上午營業時間為9 :00~12:00；晚上營業至21:30
5902040069,新友藥局,高雄市楠梓區萬昌路１１１號,120.2895,22.71194,(07)3653534,羅氏家用新冠病毒抗原自我檢測套組,78,2022/05/02 22:48:02,藥局販售口罩時間，依藥局門口公告時間為主（售完為止）
5902040532,聯亞藥局,高雄市楠梓區軍校路７１０號,120.293,22.70779,(07)3638387,羅氏家用新冠病毒抗原自我檢測套組,95,2022/05/02 22:48:02,口罩販賣時段：上午8：30起至售完為止
5902041226,正人藥師藥局,高雄市楠梓區和昌里軍校路６７２號,120.293,22.70707,(07)3652942,羅氏家用新冠病毒抗原自我檢測套組,100,2022/05/02 22:48:02,實名制快篩，因配送延後，改晚上八點販售，並視需要發放號碼牌；一人限一份，代購需重新排隊。週六半天；週日公休
5902050298,瑞鶴藥局,高雄市三民區寶德里義德路２５號,120.3352,22.64301,(07)3862757,羅氏家用新冠病毒抗原自我檢測套組,21,2022/05/02 22:48:02,下午2:00至4:30午休勿擾，每日09:30至21:00發售快篩。
5902050636,嘉益藥局,高雄市三民區重慶街３０號,120.302,22.64223,(07)3110157,羅氏家用新冠病毒抗原自我檢測套組,36,2022/05/02 22:48:02,快篩實名制早上11：00開始販售.
5902050770,仁生藥局,高雄市三民區民享里熱河二街７８號,120.3006,22.64431,(07)3118765,羅氏家用新冠病毒抗原自我檢測套組,1,2022/05/02 22:48:02,上午:8點開始販售
5902050798,友泰藥局,高雄市三民區中和街１６９號,120.2868,22.6388,(07)3125236,羅氏家用新冠病毒抗原自我檢測套組,153,2022/05/02 22:48:02,無
5902051240,明皇藥局,高雄市三民區寶國里義華路１８１號,120.3399,22.64276,(07)3860121,羅氏家用新冠病毒抗原自我檢測套組,41,2022/05/02 22:48:02,藥局販售口罩時間，依藥局門口公告時間為主（售完為止）
5902051642,安寧藥局,高雄市三民區嫩江街３９號,120.2981,22.64208,(07)3217585,羅氏家用新冠病毒抗原自我檢測套組,30,2022/05/02 22:48:02,無
5902054689,善全藥局,高雄市三民區義華路３９１號,120.3332,22.64339,(07)3960269,羅氏家用新冠病毒抗原自我檢測套組,35,2022/05/02 22:48:02,開始營業即販售，售完為止，其它看休息公告.
5902056638,柏仁藥局,高雄市三民區覺民路５０４號,120.3317,22.64092,(07)3976016,羅氏家用新冠病毒抗原自我檢測套組,78,2022/05/02 22:48:02,本藥局實際庫存是顯示的數量減78（週日的量未收）
5902056718,岱安藥局,高雄市三民區熱河二街２３號,120.3018,22.6439,(07)3219946,羅氏家用新冠病毒抗原自我檢測套組,88,2022/05/02 22:48:02,下午1點開始販售實名制快篩（日公休）
5902056754,大家藥局,高雄市三民區鼎中路２２９號１樓,120.3191,22.66421,(07)3107632,羅氏家用新冠病毒抗原自我檢測套組,156,2022/05/02 22:48:02,實名制快篩販售時間-08:30-12:00
5902057126,民安藥局,高雄市三民區嫩江街７０號,120.2985,22.64282,(07)3121381,羅氏家用新冠病毒抗原自我檢測套組,41,2022/05/02 22:48:02,販賣快篩09:00~12:00_16:00~18:00_19:00~21:00（售完為止）
5902057288,育英藥局,高雄市三民區灣子里和順街３９號,120.3159,22.65336,(07)3824467,羅氏家用新冠病毒抗原自我檢測套組,14,2022/05/02 22:48:02,營業時間:8:30-21:00， 週日休息
5902057493,上泰藥局,高雄市三民區鼎山街５６９號,120.3177,22.65148,(07)3987396,羅氏家用新冠病毒抗原自我檢測套組,11,2022/05/02 22:48:02,販售實名制快篩時間早上10:00開始
5902057546,華南藥局,高雄市三民區中和街１２４號,120.2878,22.63941,(07)3127483,羅氏家用新冠病毒抗原自我檢測套組,2,2022/05/02 22:48:02,快篩代售時間9:00起，售完為止，11:30點-1:30點，5點-6點30分用餐時間不代售，週日不代售。
5902057902,利安藥局,高雄市三民區建工路５４５號,120.3213,22.64854,(07)3965550,羅氏家用新冠病毒抗原自我檢測套組,8,2022/05/02 22:48:02,營業日9:00AM起販賣口罩，售完為止
5902057920,必好藥局,高雄市三民區義華路４６０號,120.3313,22.64356,(07)3851751,羅氏家用新冠病毒抗原自我檢測套組,21,2022/05/02 22:48:02,早上九點開始販售快篩，售完為止。
5902080036,瑞林藥局,高雄市苓雅區興中一路２８２號,120.3056,22.6162,(07)3312146,羅氏家用新冠病毒抗原自我檢測套組,15,2022/05/02 22:48:02,口罩販賣時間為上午9點至11點整（販賣方式以藥局門口公告為主）
5902080465,廣德泰藥局,高雄市苓雅區苓雅二路７６號,120.2997,22.61762,(07)3340769,羅氏家用新冠病毒抗原自我檢測套組,109,2022/05/02 22:48:02,快篩實名制，售完為止一人限購買一份
5902080474,弘宗藥局,高雄市苓雅區武智街２號,120.3356,22.62303,(07)7211088,羅氏家用新冠病毒抗原自我檢測套組,28,2022/05/02 22:48:02,8:00~22:00（營業時段）
5902080803,功安中西大藥局,高雄市苓雅區三多二路２９１號,120.3195,22.61858,(07)7215949,羅氏家用新冠病毒抗原自我檢測套組,23,2022/05/02 22:48:02,營業日早上08:00開始為販賣口罩時間，售完為止
5902080858,福興藥局,高雄市苓雅區成功一路５２號,120.2983,22.6131,(07)3331862,羅氏家用新冠病毒抗原自我檢測套組,24,2022/05/02 22:48:02,每日上午九點販賣快篩試劑售完止.營業時間9-21時.
5902081186,寶麒藥局,高雄市苓雅區三多一路１４４號,120.3315,22.62306,(07)7610355,羅氏家用新冠病毒抗原自我檢測套組,42,2022/05/02 22:48:02,停售口罩
5902081328,東信藥局,高雄市苓雅區三多一路１８９號,120.3313,22.62258,(07)7613309,羅氏家用新冠病毒抗原自我檢測套組,26,2022/05/02 22:48:02,早上8:30開始發送號碼牌販售口罩，售完為止，假日正常販售
5902083457,順一藥局,高雄市苓雅區田西里成功一路２１０號,120.2969,22.61696,(07)3330011,羅氏家用新冠病毒抗原自我檢測套組,88,2022/05/02 22:48:02,營業時間早上8點30 至12點下午3點至9點（12點至3點休息）
5902083591,晨安藥局,高雄市苓雅區興中一路１６０號,120.3096,22.61753,(07)3365463,羅氏家用新冠病毒抗原自我檢測套組,8,2022/05/02 22:48:02,每日上午9開始販賣快篩.售完為止
5902084749,琉璃光藥師藥局,高雄市苓雅區四維一路２９２號之一樓,120.3244,22.6242,(07)7160930,羅氏家用新冠病毒抗原自我檢測套組,161,2022/05/02 22:48:02,早上9點開始販賣
5902085031,上好藥局,高雄市苓雅區四維一路六三號一樓,120.3294,22.6257,(07)7266863,羅氏家用新冠病毒抗原自我檢測套組,27,2022/05/02 22:48:02,快篩販售時間.每日上午10:00~下午13:00
5902085148,召祐健保藥局,高雄市苓雅區正義路９３號,120.3385,22.63037,(07)7493719,羅氏家用新冠病毒抗原自我檢測套組,44,2022/05/02 22:48:02,無
5902085184,惠春藥局,高雄市苓雅區武慶三路９６號,120.3319,22.62043,(07)7611358,羅氏家用新冠病毒抗原自我檢測套組,132,2022/05/02 22:48:02,「藥局販售口罩時間，依藥局門口公告時間為主（售完為止）」
5902085228,永森藥局,高雄市苓雅區建國一路２９０號,120.3262,22.63308,(07)7163087,羅氏家用新冠病毒抗原自我檢測套組,16,2022/05/02 22:48:02,快篩代售時間:營業時間
5902085344,意祥藥局,高雄市苓雅區武廟路１４２之１號,120.3276,22.63125,(07)7224835,羅氏家用新冠病毒抗原自我檢測套組,2,2022/05/02 22:48:02,藥局販售口罩時間，依藥局門口公告時間為主（售完為止）
5902085371,加和藥局,高雄市苓雅區和平一路１４３之７號,120.3205,22.62331,(07)7219332,羅氏家用新冠病毒抗原自我檢測套組,168,2022/05/02 22:48:02,無
5902092296,迎廣藥局,高雄市前鎮區林森三路１５０號２樓,120.3089,22.61357,(07)3321466,羅氏家用新冠病毒抗原自我檢測套組,39,2022/05/02 22:48:02,週一至周六08:30至12:00  15:00至18:00 19:00至21:30 星期六晚休息  星期日休息
5902092410,旺盛藥局,高雄市前鎮區永豐路１０８號,120.3337,22.6065,(07)7512899,羅氏家用新冠病毒抗原自我檢測套組,3,2022/05/02 22:48:02,過年期間 111／01／31下午至111／02／03  休診
5902092554,協和藥局,高雄市前鎮區中華五路９８３號,120.306,22.60221,(07)5377769,羅氏家用新冠病毒抗原自我檢測套組,86,2022/05/02 22:48:02,快篩代售:除星期天休息 周一至周五下午2:00 周六:8:30  （5／4下午3點）
5902092643,晏昇藥局,高雄市前鎮區凱旋三路８１號,120.3247,22.60678,(07)7235136,羅氏家用新冠病毒抗原自我檢測套組,62,2022/05/02 22:48:02,快篩代售時間:早上8:30發放號碼牌並同時現場發放購買，取得號碼牌後離開現場者， 不予保留
5902092956,慈濟健保藥局,高雄市前鎮區鎮州路２１１號,120.3082,22.58819,(07)8159788,羅氏家用新冠病毒抗原自我檢測套組,28,2022/05/02 22:48:02,每天早上8點開始賣.售完為止藥局販售口罩時間，依藥局門口公告時間為主（售完為止）
5902100033,旗后藥局,高雄市旗津區中洲三路７１５號,120.2705,22.61096,(07)5715838,羅氏家用新冠病毒抗原自我檢測套組,16,2022/05/02 22:48:02,快篩每日下午1點開賣，售完為止.
5902100042,千佑藥局,高雄市旗津區復興里中洲三路５１３號,120.2736,22.60608,(07)5712619,羅氏家用新冠病毒抗原自我檢測套組,16,2022/05/02 22:48:02,5月1日-5月31日早上0831至2130為販賣快篩時間
5903020052,東勢福倫藥局,臺中市東勢區豐勢路４３８號,120.829,24.25586,(04)25876118,羅氏家用新冠病毒抗原自我檢測套組,1,2022/05/02 22:48:02,1110428起公費快篩販賣時間:周一至周六AM08:30起，現場排隊售完為止（約09:30結束）
5903040036,得康藥局,臺中市清水區高美路１１７號,120.5753,24.27879,(04)26260622,羅氏家用新冠病毒抗原自我檢測套組,78,2022/05/02 22:48:02,5／2快篩試劑已售完
5903150135,全品藥局,臺中市烏日區公園路２４０之１號１樓,120.6254,24.10234,(04)23362690,羅氏家用新冠病毒抗原自我檢測套組,103,2022/05/02 22:48:02,防疫口罩每日上午8時30分開始販售
5903150180,九德藥局,臺中市烏日區中山路一段４３８、４４０號１樓,120.6365,24.10748,(04)23385456,羅氏家用新冠病毒抗原自我檢測套組,1,2022/05/02 22:48:02,快篩實名制，每天16:00開始販售，售完為止。
5903170048,龍井新庄藥局,臺中市龍井區遊園南路１７９號１樓,120.5843,24.18216,(04)26322169,羅氏家用新冠病毒抗原自我檢測套組,1,2022/05/02 22:48:02,實名制快篩每日下午3點半開賣
5903200443,佳霖藥局,臺中市大里區塗城路９６４號１樓,120.6933,24.09081,(04)24960895,羅氏家用新冠病毒抗原自我檢測套組,156,2022/05/02 22:48:02,健保卡快篩:（周日和周三停賣）.請備好健保卡和500元整.下午3點半開賣.現場排隊／售完為止
5903200569,和信健康藥局,臺中市大里區德芳路一段５９號,120.6905,24.11342,(04)24833677,羅氏家用新冠病毒抗原自我檢測套組,78,2022/05/02 22:48:02,9am，發號碼牌，周日休
5903240429,神農藥局,臺中市西區公益路１９０之１號１樓,120.6567,24.15103,(04)23103335,羅氏家用新冠病毒抗原自我檢測套組,78,2022/05/02 22:48:02,下午14:00開始販賣快篩試劑，售完為止
5903240492,好好誠美藥局,臺中市西區向上北路１８６號１樓,120.6611,24.14797,(04)23022838,羅氏家用新冠病毒抗原自我檢測套組,78,2022/05/02 22:48:02,快篩販售時間下午兩點
5903250596,白金藥局,臺中市南區復興路一段３８０號４樓,120.6564,24.11572,(04)22609879,羅氏家用新冠病毒抗原自我檢測套組,156,2022/05/02 22:48:02,4／30早上9:40開始販售快篩
5903260449,喜樂藥局,臺中市北區中清路１段３１號,120.677,24.1529,(04)22060423,羅氏家用新冠病毒抗原自我檢測套組,9,2022/05/02 22:48:02,無
5903260958,健康達人藥局,臺中市北區北平路２段５６號１樓,120.6735,24.17153,(04)22994866,羅氏家用新冠病毒抗原自我檢測套組,78,2022/05/02 22:48:02,無
5903270801,榮友藥局,臺中市西屯區臺灣大道四段１７４２號,120.6024,24.18286,(04)23508392,羅氏家用新冠病毒抗原自我檢測套組,78,2022/05/02 22:48:02,0502販賣快篩試劑下午13:30開賣
5903270874,熊健康藥局,臺中市西屯區太原路一段２３２號,120.6632,24.16394,(04)23163505,羅氏家用新冠病毒抗原自我檢測套組,78,2022/05/02 22:48:02,5／2 的 快篩 已售完!!!  快篩實名制14:30開始販售，售完為止。 星期日公休。
5903271031,美十樂中科藥局,臺中市西屯區西屯路三段１６６－６５號１樓,120.6129,24.19035,(04)24610219,羅氏家用新冠病毒抗原自我檢測套組,390,2022/05/02 22:48:02,固定周一至周日10:00開始販售口罩
5903271102,杏東美藥局,臺中市西屯區智惠街１５６號１樓,120.6438,24.17032,(04)24523798,羅氏家用新冠病毒抗原自我檢測套組,18,2022/05/02 22:48:02,快篩實名制5／3  19:00發放
5903271139,百吉藥局,臺中市西屯區青海路一段７１號１樓,120.6547,24.1644,(04)23135698,羅氏家用新冠病毒抗原自我檢測套組,78,2022/05/02 22:48:02,無
5903271175,維康中榮藥局,臺中市西屯區東大路一段１３號１樓,120.6022,24.18315,(04)23593195,羅氏家用新冠病毒抗原自我檢測套組,1,2022/05/02 22:48:02,無
5903271246,柏醫藥局,臺中市西屯區上安路５６號１樓,120.6412,24.17052,(04)24526391,羅氏家用新冠病毒抗原自我檢測套組,78,2022/05/02 22:48:02,（5／2快篩已售完，庫存是星期日未配貨自動匯入的）實名制快篩試劑10:00、15:00、19:00開放過卡領取
5903290572,合健藥局,臺中市北屯區大連路一段５４－１號,120.6726,24.17565,(04)22951833,羅氏家用新冠病毒抗原自我檢測套組,78,2022/05/02 22:48:02,口罩星期一到星期六，販賣時間12:00~18:00.
5903290625,又昌中西健保藥局,臺中市北屯區東山路１段２２３號,120.7152,24.17452,(04)24375716,羅氏家用新冠病毒抗原自我檢測套組,34,2022/05/02 22:48:02,快篩實名制 周一~周五晚上18:30開賣 現場排隊不發號碼牌
5903290778,博宇藥局,臺中市北屯區北屯路３８５之１號,120.6979,24.17193,(04)22341479,羅氏家用新冠病毒抗原自我檢測套組,234,2022/05/02 22:48:02,快篩試劑10:00現場販售、售完為止。
5905320859,裕農藥局,臺南市東區裕農路３０２號１樓,120.2287,22.98652,(06)2092286,羅氏家用新冠病毒抗原自我檢測套組,166,2022/05/02 22:48:02,5／1日 5／2一 暫停受理快篩實名制
5905320877,靈安藥局,臺南市東區大福里榮譽街３２－２號１樓,120.2163,22.97419,(06)2143727,羅氏家用新冠病毒抗原自我檢測套組,78,2022/05/02 22:48:02,無
5905330024,聖安健保藥局,臺南市南區健康路二段１７３號１樓,120.193,22.98142,(06)2916898,羅氏家用新冠病毒抗原自我檢測套組,78,2022/05/02 22:48:02,5／2號當日快篩已售完!!!週日店休
5905340075,麗欣健保藥局,臺南市中西區永華路一段１９４號１樓,120.1917,22.98835,(06)2209393,羅氏家用新冠病毒抗原自我檢測套組,78,2022/05/02 22:48:02,w1~w6早上11:00開始發放快篩
5905340271,南光藥局,臺南市中西區永福路２段７３號１、２樓,120.2007,22.99207,(06)2226539,羅氏家用新冠病毒抗原自我檢測套組,78,2022/05/02 22:48:02,快篩販賣：周一至周六早上10點到賣完為止，周日店休
5905350133,大昌藥局,臺南市北區北安路１段１３２號１樓,120.2127,23.01481,(06)2519121,羅氏家用新冠病毒抗原自我檢測套組,1,2022/05/02 22:48:02,下午3點開賣快篩
5905350302,旻恩藥局,臺南市北區公園里北門路二段３７－１號,120.2123,22.99817,(06)2260590,羅氏家用新冠病毒抗原自我檢測套組,78,2022/05/02 22:48:02,口罩領取時間:週一至周五早上09:00-12:00 下午2:30-5:30 晚間6:30-9:00。周六早上09-12下午2:30-5:30售完為止
5907010178,華美藥局,高雄市鳳山區建國路三段１６１號,120.3535,22.6367,(07)7452732,羅氏家用新冠病毒抗原自我檢測套組,90,2022/05/02 22:48:02,快篩營業時間即開始販售，若有患者領藥會優先處理領藥，5／2、5／3視貨運到貨時間開始販售
5907010187,人人好藥局,高雄市鳳山區五甲三路１０巷７號１樓,120.3278,22.59336,(07)8151566,羅氏家用新冠病毒抗原自我檢測套組,79,2022/05/02 22:48:02,上午0830-1330下午1530-2100， 自2／11-2／29口罩販售周一三四五日，時間:9:00-12:00售完為止
5907010365,科健藥局,高雄市鳳山區八德路２４６－５號１樓,120.3568,22.63853,(07)7777868,羅氏家用新冠病毒抗原自我檢測套組,54,2022/05/02 22:48:02,下午3:30開始換購
5907010454,上泰健保藥局,高雄市鳳山區鎮西里中華街２７號１樓,120.3559,22.62698,(07)7455127,羅氏家用新冠病毒抗原自我檢測套組,78,2022/05/02 22:48:02,快篩實名制為當日配送，每天16:10開始販售，售完為止。
5907010525,長青連鎖藥局光遠店,高雄市鳳山區光遠路２７１號１樓,120.3588,22.62596,(07)7103487,羅氏家用新冠病毒抗原自我檢測套組,3,2022/05/02 22:48:02,無
5907010927,元元鳳山藥局,高雄市鳳山區一甲里五甲二路３４８之１號１樓,120.3377,22.59955,(07)7529595,羅氏家用新冠病毒抗原自我檢測套組,78,2022/05/02 22:48:02,15:00開始發快篩，現場排隊，一至五最晚銷售時間至晚上六點。星期六銷售至下午五點。星期日公休
5907010945,光田藥局,高雄市鳳山區鎮東里光遠路９５號１樓,120.3656,22.62412,(07)7460773,羅氏家用新冠病毒抗原自我檢測套組,181,2022/05/02 22:48:02,國定假日及周日固定店休 （實名制快篩 販售時間15:00-17:00 售完為止! 販售日依政府配送公告，5／2勞動節補休一天）
5907011111,壹然藥局,高雄市鳳山區中正里瑞興路４６２號１樓,120.3713,22.63084,(07)7014755,羅氏家用新冠病毒抗原自我檢測套組,34,2022/05/02 22:48:02,每日須等政府當日配售，時間不定；藥局社群會公告到貨開賣喔!!
5907011273,鳳山服安藥局,高雄市鳳山區忠義里中山西路３８０號１樓,120.3409,22.62906,(07)7406330,羅氏家用新冠病毒抗原自我檢測套組,78,2022/05/02 22:48:02,自3／1日~3／31日，營業日08:00~21:00為販賣口罩時間
5907011399,佑家藥師藥局,高雄市鳳山區新強里新富路２８８號１樓,120.3418,22.61265,(07)7673298,羅氏家用新冠病毒抗原自我檢測套組,18,2022/05/02 22:48:02,無
5907030072,旗美藥局,高雄市旗山區東平里延平二路４１號,120.4933,22.882,(07)6629839,羅氏家用新冠病毒抗原自我檢測套組,78,2022/05/02 22:48:02,實名制快篩劑購買時間為下午14:00~20:00
5907030152,旗山藥局,高雄市旗山區中華路２３號,120.4841,22.88027,(07)6621158,羅氏家用新冠病毒抗原自我檢測套組,5,2022/05/02 22:48:02,快篩實名制，每天16:00開始販售，售完為止。
5907080250,仁同藥局,高雄市仁武區八卦里永仁街７０６號１樓,120.3313,22.69072,(07)3736142,羅氏家用新冠病毒抗原自我檢測套組,78,2022/05/02 22:48:02,自5月01日~5月31日，營業日8:00起開始販售，當場刷卡領口罩
5907150177,佑安藥局,高雄市路竹區中和街１８２號,120.2575,22.85889,(07)6072215,羅氏家用新冠病毒抗原自我檢測套組,78,2022/05/02 22:48:02,星期一至六08:00開始販售；星期日無販售，售完為止
5907240014,博林健保藥局,高雄市內門區觀亭里中正路１６０巷５１號,120.4539,22.9232,(07)6671883,羅氏家用新冠病毒抗原自我檢測套組,145,2022/05/02 22:48:02,自2／11日~2／29日，營業日07:40~18:00為販賣口罩時間，售完為止
5907290103,康喜藥局,高雄市鼓山區華榮路６０７號,120.2923,22.67088,(07)5550060,羅氏家用新冠病毒抗原自我檢測套組,1,2022/05/02 22:48:02,營業時間星期一~六9:00~22:00  快篩12:00開始發號碼牌
5907290238,聯合藥師藥局,高雄市鼓山區中華一路９７０號１樓,120.2919,22.65515,(07)5500558,羅氏家用新冠病毒抗原自我檢測套組,78,2022/05/02 22:48:02,無
5907290354,文昇藥局,高雄市鼓山區慶豐街１２５號,120.2942,22.66724,(07)5525314,羅氏家用新冠病毒抗原自我檢測套組,11,2022/05/02 22:48:02,無
5907300211,勁好健保藥局,高雄市左營區果峰街１２巷２６號１樓,120.2881,22.67178,(07)5855767,羅氏家用新冠病毒抗原自我檢測套組,99,2022/05/02 22:48:02,無
5907300417,森森藥師藥局,高雄市左營區緯六路２１５號１樓,120.2874,22.69707,(07)5853600,羅氏家用新冠病毒抗原自我檢測套組,116,2022/05/02 22:48:02,W1~W5 8~19點；星期六 8:30~12點；快篩售完為止
5907300515,詮裕藥局,高雄市左營區華夏路７０６號１樓,120.3022,22.6778,(07)3453942,羅氏家用新冠病毒抗原自我檢測套組,78,2022/05/02 22:48:02,星期一到星期六早上8點銷售到售完為止.星期日---無
5907300659,維康藥局高榮店,高雄市左營區榮總路１６３號、１６５號,120.3216,22.6809,(07)3494540,羅氏家用新冠病毒抗原自我檢測套組,78,2022/05/02 22:48:02,平常日0900-1700為快篩販賣時間賣完為止！假日1000-1800
5907300677,佳寧峰藥局,高雄市左營區部後街２號,120.2886,22.6834,(07)5886408,羅氏家用新冠病毒抗原自我檢測套組,142,2022/05/02 22:48:02,快篩試劑販賣時段:上午8:30起至售完為止
5907300748,翔生藥局合群店,高雄市左營區緯六路２５６號,120.2871,22.6976,(07)5880055,羅氏家用新冠病毒抗原自我檢測套組,10,2022/05/02 22:48:02,實名制快篩販售時間：星期一至星期五，售完為止
5907300766,悠仁藥局,高雄市左營區自由三路１７０號,120.3113,22.67165,(07)3457979,羅氏家用新冠病毒抗原自我檢測套組,24,2022/05/02 22:48:02,一~五的營業時間為0800~1200／1530~1800／1830~2100 六日的營業時間為0900
5907300800,元大藥師健保藥局,高雄市左營區榮德街３２７號,120.3211,22.68636,(07)3507531,羅氏家用新冠病毒抗原自我檢測套組,22,2022/05/02 22:48:02,周一至周六13；00開始販售至售完為止（星期日視到貨時間開始販售至14；00）
5907300819,志全藥局,高雄市左營區富國路１６８號１樓,120.3068,22.66075,(07)5568217,羅氏家用新冠病毒抗原自我檢測套組,4,2022/05/02 22:48:02,藥局販售口罩時間，依藥局門口公告時間為主（售完為止）
5907300882,得孚社區藥局,高雄市左營區重立路５３３號１樓,120.3098,22.67955,(07)3410121,羅氏家用新冠病毒抗原自我檢測套組,115,2022/05/02 22:48:02,營業日上午09:30-11:30為販賣口罩時間.售完為止
5907300953,翔生藥局,高雄市左營區左營大路５１４號,120.2953,22.68921,(07)5827329,羅氏家用新冠病毒抗原自我檢測套組,10,2022/05/02 22:48:02,快篩實名制早上9點開賣
5907300971,健勝藥局,高雄市左營區勝利路１２７－１號１樓,120.2896,22.6806,(07)5811169,羅氏家用新冠病毒抗原自我檢測套組,37,2022/05/02 22:48:02,無
5907300980,大路藥局,高雄市左營區左營大路５５－２號１樓,120.2877,22.6813,(07)5851001,羅氏家用新冠病毒抗原自我檢測套組,6,2022/05/02 22:48:02,快篩實名制，每天16:00開始販售，售完為止。
5907301021,杏一左營自由藥局,高雄市左營區自由二路３９７號,120.3084,22.66541,(07)5509511,羅氏家用新冠病毒抗原自我檢測套組,78,2022/05/02 22:48:02,周一-周六販賣時間:15點；週日無提供快篩實聯制服務
5907301076,熊安心藥局華夏店,高雄市左營區華夏路１２１２號１樓,120.3104,22.68483,(07)3430632,羅氏家用新冠病毒抗原自我檢測套組,129,2022/05/02 22:48:02,快篩試劑-販售時間14:00至售完為止
5907310137,青田藥局,高雄市楠梓區監理南街６８號,120.3188,22.72897,(07)3648257,羅氏家用新冠病毒抗原自我檢測套組,121,2022/05/02 22:48:02,周一至周五上午10:30-11:00 下午14:30-15:00 晚上19:00-20:00
5907310173,安健藥局,高雄市楠梓區鳳楠路２５０號,120.3296,22.72617,(07)3520167,羅氏家用新冠病毒抗原自我檢測套組,1,2022/05/02 22:48:02,2／06起營業日早上8點開始販賣，周六日早上8:30 .售完為止
5907310351,惠民楠梓藥局,高雄市楠梓區建楠路２１７號,120.3248,22.72689,(07)3521896,羅氏家用新冠病毒抗原自我檢測套組,78,2022/05/02 22:48:02,下午二點開始發放快篩試劑，發完為止；防疫要記得多備防疫包，增強免疫力。
5907310388,宸實藥局,高雄市楠梓區後昌路４７巷２３－１號,120.3129,22.71975,(07)3642142,羅氏家用新冠病毒抗原自我檢測套組,78,2022/05/02 22:48:02,5／2公休_5／1快篩開賣.現場販售.售完為止
5907320535,康誠藥局,高雄市三民區建工路６１６號,120.3228,22.64934,(07)3893889,羅氏家用新冠病毒抗原自我檢測套組,81,2022/05/02 22:48:02,無
5907320679,安安藥局,高雄市三民區鼎和街３２號１樓,120.3186,22.66679,(07)3420010,羅氏家用新冠病毒抗原自我檢測套組,78,2022/05/02 22:48:02,防疫口罩：星期一~五上午9點開始代售，星期六上午9~13點
5907320768,心樂保健藥局,高雄市三民區光裕路７８號１樓,120.3331,22.63789,(07)3855377,羅氏家用新冠病毒抗原自我檢測套組,234,2022/05/02 22:48:02,星期一到星期四上午8:30-12:00，下午15:00-18:00（口罩售完為止）. 星期五下午14:00-17:00，18:00-20:30（售完為止）
5907320811,力生藥局,高雄市三民區鼎中路１６８號１樓,120.3194,22.6622,(07)3105231,羅氏家用新冠病毒抗原自我檢測套組,8,2022/05/02 22:48:02,營業日星期一~星期五11點起、星期六~星期日晚上6點 開始販賣（實名制快篩）.售完為止
5907320848,仕康健保藥妝藥局,高雄市三民區建興路２２２號,120.325,22.6447,(07)3845050,羅氏家用新冠病毒抗原自我檢測套組,78,2022/05/02 22:48:02,下午3點販售，現場排隊
5907320919,心寬福藥局,高雄市三民區大順二路７１８號一樓,120.3193,22.65359,(07)3832366,羅氏家用新冠病毒抗原自我檢測套組,94,2022/05/02 22:48:02,週一到週五上午9:00-12:00、下午14:00-20:00，週六下午14:00-20:00販售口罩，週日公休。
5907321005,諾亞藥局,高雄市三民區鼎華路１４號１樓,120.3164,22.65139,(07)3929966,羅氏家用新冠病毒抗原自我檢測套組,156,2022/05/02 22:48:02,無
5907321078,振源藥局,高雄市三民區熱河一街３５５號１樓,120.3061,22.64365,(07)3112541,羅氏家用新冠病毒抗原自我檢測套組,11,2022/05/02 22:48:02,4／30起15:00開始販售快篩，六日皆有營業
5907321121,九如順天藥局,高雄市三民區大連街９巷１８號,120.3045,22.64073,(07)3220706,羅氏家用新冠病毒抗原自我檢測套組,157,2022/05/02 22:48:02,實名制快篩為下午一點開放領取
5907321130,大豐藥局,高雄市三民區大豐一路４７１號,120.3263,22.65861,(07)3980133,羅氏家用新冠病毒抗原自我檢測套組,19,2022/05/02 22:48:02,無
5907321167,高杏健保藥局,高雄市三民區義華路４３２號,120.3325,22.6437,(07)3920588,羅氏家用新冠病毒抗原自我檢測套組,90,2022/05/02 22:48:02,無
5907330040,維康藥局,高雄市新興區中正三路６５號,120.3078,22.63077,(07)2615396,羅氏家用新冠病毒抗原自我檢測套組,20,2022/05/02 22:48:02,快篩代售時間:星期一至星期六15:00-18:00，星期日9:00-12:00
5907330184,崇信藥局,高雄市新興區中正四路５３號１樓,120.3,22.6305,(07)2810205,羅氏家用新冠病毒抗原自我檢測套組,5,2022/05/02 22:48:02,快篩實名制下午3:30開始販售，人多時發放號碼牌。
5907350328,安杏藥局,高雄市苓雅區四維二路９４－１７號,120.3197,22.62273,(07)7511739,羅氏家用新冠病毒抗原自我檢測套組,139,2022/05/02 22:48:02,快篩試劑代售時間自早上9:00點服務
5907350346,武廟幸福藥局,高雄市苓雅區武廟路３５號,120.3316,22.62999,(07)7170085,羅氏家用新冠病毒抗原自我檢測套組,2,2022/05/02 22:48:02,1: 自111／5／1起：快篩販售時間為13:40開始。2: 販售方式依現場公告為主，售完為止。
5907350533,健群藥局,高雄市苓雅區安業路４０號,120.3231,22.62731,(07)7150097,羅氏家用新冠病毒抗原自我檢測套組,156,2022/05/02 22:48:02,無
5907350631,三多藥局,高雄市苓雅區三多二路２９２號１樓,120.3173,22.61838,(07)3365889,羅氏家用新冠病毒抗原自我檢測套組,26,2022/05/02 22:48:02,快篩實名制，每天16:00開始販售，售完為止。
5907350659,北京藥局林泉店,高雄市苓雅區林泉里３鄰林泉街３５號１樓,120.3192,22.62323,(07)7263030,羅氏家用新冠病毒抗原自我檢測套組,390,2022/05/02 22:48:02,無
5907360360,親親藥局,高雄市前鎮區天山路１０巷６號,120.3151,22.60991,(07)3391078,羅氏家用新冠病毒抗原自我檢測套組,103,2022/05/02 22:48:02,周日休假，停售!!!
5907360459,聯合藥局,高雄市前鎮區一心一路２８１號１樓,120.3141,22.60955,(07)3391535,羅氏家用新冠病毒抗原自我檢測套組,1,2022/05/02 22:48:02,無
5907360566,祥安健保藥局,高雄市前鎮區復興三路３９３號１樓,120.3116,22.61373,(07)3340393,羅氏家用新冠病毒抗原自我檢測套組,81,2022/05/02 22:48:02,無
5907360584,聖名健保藥局,高雄市前鎮區復興三路２４６號１樓,120.312,22.61558,(07)3319431,羅氏家用新冠病毒抗原自我檢測套組,7,2022/05/02 22:48:02,無
5907360628,風鈴藥局,高雄市前鎮區管仲路３７號,120.3117,22.60649,(07)5367833,羅氏家用新冠病毒抗原自我檢測套組,97,2022/05/02 22:48:02,販售快篩：19:30-21:30 依照配送調整販售時間（周日公休）
5907360664,忠純藥局,高雄市前鎮區中華五路１００９號１樓,120.3056,22.60341,(07)3366886,羅氏家用新冠病毒抗原自我檢測套組,2,2022/05/02 22:48:02,快篩實名制，每天16:00開始販售，售完為止。
5911041332,光華藥局,基隆市仁愛區成功一路１２９號１樓,121.7364,25.12786,(02)24338703,羅氏家用新冠病毒抗原自我檢測套組,78,2022/05/02 22:48:02,快篩試劑販賣下午六點販售
5911041690,佑聖藥局,基隆市仁愛區仁二路１８８號,121.7451,25.12864,(02)24201762,羅氏家用新冠病毒抗原自我檢測套組,78,2022/05/02 22:48:02,即日起口罩販售時間由下午兩點開始，周日公休
5911041958,百福仁愛專業藥局,基隆市仁愛區仁四路５０號１樓,121.7413,25.12829,(02)24266699,羅氏家用新冠病毒抗原自我檢測套組,78,2022/05/02 22:48:02,4／30起，早上8:00販售快篩
5911071607,家安藥師藥局,基隆市信義區信二路２５７、２５９號１樓,121.7478,25.1301,(02)24223917,羅氏家用新冠病毒抗原自我檢測套組,78,2022/05/02 22:48:02,星期一 ~ 星期五13:30開始銷售。
5912012059,幼安藥局,新竹市東區三民里民族路１２８號,120.9775,24.80799,(03)5316337,羅氏家用新冠病毒抗原自我檢測套組,78,2022/05/02 22:48:02,快篩販賣時間 : 早上  點開始至晚上點售完為止
5912013412,牛津藥局,新竹市東區民族路６２號１樓,120.9756,24.8067,(03)5320780,羅氏家用新冠病毒抗原自我檢測套組,78,2022/05/02 22:48:02,無
5912013690,佑全新竹食品藥局,新竹市東區食品路１７０號,120.9764,24.79735,(03)5627307,羅氏家用新冠病毒抗原自我檢測套組,68,2022/05/02 22:48:02,實名制快篩下午2點開賣1點40分發號碼牌實際庫存依物流到貨時間滾動式調整
5912042098,欣欣藥局,新竹市北區西大路736巷1號,120.9591,24.81011,(03)5351205,羅氏家用新冠病毒抗原自我檢測套組,1,2022/05/02 22:48:02,上午8:00-12:00 ；下午15:00-18:00 ；晚上18:30-21:30快篩代售周二~周五上午9點，周一跟周六下午4點，售完為止
5912042208,芳里藥局,新竹市北區延平路一段214巷2號,120.9544,24.80528,(03)5222989,羅氏家用新冠病毒抗原自我檢測套組,78,2022/05/02 22:48:02,星期日營業時間調整為9:00-18:00。快篩販售時間為早上8點，禮拜天為9點
5917021718,中大藥局,臺中市東區十甲路５０５號,120.7109,24.14466,(04)22131348,羅氏家用新冠病毒抗原自我檢測套組,27,2022/05/02 22:48:02,無
5917030726,元泉藥局,臺中市西區公益里中美街２５７號,120.6601,24.14874,(04)23015503,羅氏家用新冠病毒抗原自我檢測套組,1,2022/05/02 22:48:02,固定週一至週六早上8:30開始販售口罩.售完為止
5917030860,振聲藥局,臺中市西區公正里向上路１段４４７號１樓,120.6541,24.14654,(04)24721100,羅氏家用新冠病毒抗原自我檢測套組,78,2022/05/02 22:48:02,週一至週六早上9:00開始販售口罩，售完為止
5917032382,中港大藥局,臺中市西區臺灣大道２段１３２號,120.6714,24.14995,(04)22080708,羅氏家用新冠病毒抗原自我檢測套組,22,2022/05/02 22:48:02,無
5917032462,名亨藥局,臺中市西區五權路２９號１樓,120.6696,24.14423,(04)22201089,羅氏家用新冠病毒抗原自我檢測套組,78,2022/05/02 22:48:02,每日上午8:20至12，下午3至6時販售.周 日  休 息. 周 六    下 午 休 息 .
5917032471,銘津藥局,臺中市西區民生路３９０號１樓,120.6611,24.14444,(04)23021314,羅氏家用新冠病毒抗原自我檢測套組,6,2022/05/02 22:48:02,每日上午10:00至13:00，下午3:00至21:00 現場排隊，星期日下午休息
5917032891,中山福倫藥局,臺中市西區中山路４８３號１、２樓,120.6728,24.14668,(04)22026818,羅氏家用新冠病毒抗原自我檢測套組,5,2022/05/02 22:48:02,實名制快篩試劑中午12:15開賣，每月每人1卡1份（5入）
5917050719,百鴻藥局,臺中市北區金龍里北屯路１３－１號,120.6914,24.15981,(04)22336330,羅氏家用新冠病毒抗原自我檢測套組,78,2022/05/02 22:48:02,固定周一至周五10.00--16.00 17.00--21.00開始販售口罩售完為止
5917050933,英才藥局,臺中市北區英才路２２９號,120.674,24.15558,(04)22012325,羅氏家用新冠病毒抗原自我檢測套組,78,2022/05/02 22:48:02,上午9~10:30及下午5~6:30依序發售口罩，週日公休。
5917053550,嘉樂藥局,臺中市北區西屯路一段３５１－７號,120.6658,24.15956,(04)23263967,羅氏家用新冠病毒抗原自我檢測套組,79,2022/05/02 22:48:02,星期一~五8.30~12.30，14.00~21.30，星期六8.30-12.30
5917062406,健康藥局,臺中市西屯區何南里大墩１９街２６號１樓,120.6568,24.15693,(04)23190305,羅氏家用新冠病毒抗原自我檢測套組,78,2022/05/02 22:48:02,原則上W1-W6 10:00開始販售快篩（視排隊狀況提前），星期日休息
5917063676,百惠藥師藥局,臺中市西屯區漢口路二段２４７號,120.6649,24.16696,(04)23169852,羅氏家用新冠病毒抗原自我檢測套組,156,2022/05/02 22:48:02,實名制快篩購買時間:星期一至五:早上9-11  ， 星期六早上10-12 ，星期日店休.
5917063725,永旭大藥局,臺中市西屯區逢甲路９２號１樓,120.6439,24.17883,(04)27087952,羅氏家用新冠病毒抗原自我檢測套組,1,2022/05/02 22:48:02,星期一到六每日10:00開始販售。星期日中午12點開始販售，售完為止
5917072724,百芳大藥局,臺中市南屯區向上路二段４２１號,120.6377,24.1469,(04)23818307,羅氏家用新冠病毒抗原自我檢測套組,2,2022/05/02 22:48:02,周一到周六，晚上7:00開始販賣快篩，不發號碼牌。
5917080137,日盛藥局,臺中市北屯區東山路一段１４２-１１號,120.7036,24.16934,(04)24360810,羅氏家用新冠病毒抗原自我檢測套組,79,2022/05/02 22:48:02,每天（不含星期日）早上9點開始發售快篩，售完為止，歡迎洽購。
5917080762,順泰大藥局,臺中市北屯區北屯村北屯路１１５號,120.6939,24.165,(04)22341477,羅氏家用新冠病毒抗原自我檢測套組,78,2022/05/02 22:48:02,周三及周日公休，其餘時間每日上午9:00開賣，不需發號碼牌
5917080771,大生大藥局,臺中市北屯區三光里北屯路３３７號,120.6974,24.1703,(04)22337059,羅氏家用新冠病毒抗原自我檢測套組,7,2022/05/02 22:48:02,周一至周日每天早上8:30開始販售，無發放號碼牌，每天即時現場發售服務，售完為止。（週日正常發售服務）
5917082300,蔡宗耀中西藥局,臺中市北屯區平德里河北路２段６１號,120.6831,24.16994,(04)22341880,羅氏家用新冠病毒抗原自我檢測套組,4,2022/05/02 22:48:02,早上9點30分至下午12點30分，下午3點至8點發口罩，有發號碼牌。
5921010107,榮泰藥局,臺南市東區崇誨里林森路２段１９２巷４９號,120.2256,22.98973,(06)2369095,羅氏家用新冠病毒抗原自我檢測套組,2,2022/05/02 22:48:02,實名制快篩: 14:00 開始販售（週日店休）
5921010250,宏昌藥局,臺南市東區大同路１段２７１號,120.2116,22.98252,(06)2142459,羅氏家用新冠病毒抗原自我檢測套組,78,2022/05/02 22:48:02,星期一-六09:00開始 售完為止 星期日休息
5921020185,安心藥局,臺南市南區喜東里喜樹路１５１巷３３號,120.18,22.94099,(06)2622570,羅氏家用新冠病毒抗原自我檢測套組,78,2022/05/02 22:48:02,5月2日已售完  明日收到後再告示
5921021780,國山健保特約藥局,臺南市南區大同路２段４７８號,120.2145,22.97307,(06)2159570,羅氏家用新冠病毒抗原自我檢測套組,23,2022/05/02 22:48:02,無
5921030092,三芳藥局,臺南市中西區元安里大勇街５號,120.1954,22.98933,(06)2203084,羅氏家用新冠病毒抗原自我檢測套組,21,2022/05/02 22:48:02,週一至週五09:00~12:00  14:30~17:00執業
5921040221,好鄰居藥局,臺南市北區西華里公園路１２８號２樓７室,120.2076,22.99889,(06)2219015,羅氏家用新冠病毒抗原自我檢測套組,78,2022/05/02 22:48:02,固定星期一至星期六8:30-21:15販賣口罩，星期天休息
5921041835,一方藥局,臺南市北區開元路４８５巷４１弄２８號１樓,120.2239,23.01149,(06)2742419,羅氏家用新冠病毒抗原自我檢測套組,78,2022/05/02 22:48:02,星期一~六  09:30~~18:30
5921051582,丞功藥局,臺南市中西區成功路３１號,120.2095,22.99747,(06)2287641,羅氏家用新冠病毒抗原自我檢測套組,78,2022/05/02 22:48:02,星期一-六08:30-售完
5921060321,慈安藥局,臺南市安南區大安街５３號,120.1919,23.03148,(06)2551117,羅氏家用新冠病毒抗原自我檢測套組,78,2022/05/02 22:48:02,早上9:00-晚上11:00
5922010361,壽生堂藥局,嘉義市東區府路里延平街２８０號,120.4502,23.47683,(05)2225058,羅氏家用新冠病毒抗原自我檢測套組,20,2022/05/02 22:48:02,周一至周日上午09:00起，至20:00或售鑿為止。
5922010496,乙展藥局,嘉義市東區蘭井里蘭井街７０號,120.4551,23.47807,(05)2279556,羅氏家用新冠病毒抗原自我檢測套組,2,2022/05/02 22:48:02,快篩07:10開始至售完（星期日不定期休息）
5922010736,全民藥局,嘉義市東區新店里林森東路２８９ 號,120.4665,23.49007,(05)2777900,羅氏家用新冠病毒抗原自我檢測套組,78,2022/05/02 22:48:02,防疫口罩：週一至週六，早上9點，開始販售口罩。
5922010754,松柏藥局,嘉義市東區東平里民權路８７號,120.4618,23.48392,(05)2780909,羅氏家用新冠病毒抗原自我檢測套組,78,2022/05/02 22:48:02,防疫口罩及實名制快篩試劑於週一至週六，每日早上8:00開始販售，售完為止。
5922012874,德風藥局,嘉義市東區仁義里台林街１０８－４號１樓,120.4547,23.49514,(05)2716233,羅氏家用新冠病毒抗原自我檢測套組,78,2022/05/02 22:48:02,週一至週日 下午2:10開賣 售完為止
5922012909,昱安藥局,嘉義市東區成仁街１８０號,120.4521,23.48057,(05)2252395,羅氏家用新冠病毒抗原自我檢測套組,156,2022/05/02 22:48:02,購買時段星期（一）至（六）早上9:00-11:005（5／2星期一休息）
5922012945,大明藥局,嘉義市東區大雅路二段６８２號,120.4663,23.47719,(05)2760958,羅氏家用新冠病毒抗原自我檢測套組,1,2022/05/02 22:48:02,5／2 夜間還有9盒
5922012972,百佑藥局,嘉義市東區公明路８２號１樓,120.4602,23.48088,(05)2757387,羅氏家用新冠病毒抗原自我檢測套組,78,2022/05/02 22:48:02,固定周一至周六08:30開始發放號碼牌並依序販售，售完為止
5922013059,杏光藥局,嘉義市東區保健街１４７號附４,120.4492,23.50036,(05)2745642,羅氏家用新冠病毒抗原自我檢測套組,41,2022/05/02 22:48:02,週一至週五 下午1:00~5:00 （六日及國定假日停售）
5922013166,忠孝啄木鳥藥局,嘉義市東區忠孝北街１８５號,120.444,23.51618,(05)2204948,羅氏家用新冠病毒抗原自我檢測套組,4,2022/05/02 22:48:02,有收到配量即每日下午2:00販售
5922013175,森活中西藥局,嘉義市東區吳鳳北路２０８號一樓,120.4533,23.47931,(05)2288518,羅氏家用新冠病毒抗原自我檢測套組,75,2022/05/02 22:48:02,8:30開始發放號碼牌，12:00~14:00領取快篩
5922020376,勝華藥局,嘉義市西區垂楊路６２３號,120.4375,23.4726,(05)2856642,羅氏家用新冠病毒抗原自我檢測套組,19,2022/05/02 22:48:02,週一至週六早上 8:00開始販售口罩.週日休息.
5922020509,全德藥局,嘉義市西區福民里興業西路２８９號,120.4392,23.46776,(05)2854263,羅氏家用新冠病毒抗原自我檢測套組,22,2022/05/02 22:48:02,營業時間請電話洽詢，口罩販售：19點~21點
5922020563,信康藥局,嘉義市西區翠岱里仁愛路２２６號,120.443,23.46984,(05)2161680,羅氏家用新冠病毒抗原自我檢測套組,78,2022/05/02 22:48:02,快篩星期一至星期五早上11:00開賣 星期六下午14:00開賣
5922020769,安麗藥師藥局,嘉義市西區車店里廣州街２０６號,120.4302,23.46519,(05)2352395,羅氏家用新冠病毒抗原自我檢測套組,234,2022/05/02 22:48:02,快篩試劑販售時間早上9點~11點50分，下午1點30分~5:00點；六.日休息。5／1勞動節連休3天。
5922020894,平良藥局,嘉義市西區致遠里興業西路８４號１樓,120.4443,23.46856,(05)2235220,羅氏家用新冠病毒抗原自我檢測套組,18,2022/05/02 22:48:02,無
5931010708,一誠藥局,新北市板橋區府中路６２號,121.4569,25.00965,(02)29673956,羅氏家用新冠病毒抗原自我檢測套組,156,2022/05/02 22:48:02,無
5931011045,進發大藥局,新北市板橋區民治街１０１號,121.479,25.0315,(02)22528361,羅氏家用新冠病毒抗原自我檢測套組,78,2022/05/02 22:48:02,快篩08:00先收卡，排隊請不要擋到攤販，中午就可以領，開放80歲長者前天寄卡，謝謝。
5931011947,長弘藥局,新北市板橋區龍泉街１１０號,121.4568,25.02454,(02)22558789,羅氏家用新冠病毒抗原自我檢測套組,78,2022/05/02 22:48:02,無
5931013441,擎天藥局,新北市板橋區重慶路２３５號１樓,121.4632,25.0009,(02)89525981,羅氏家用新冠病毒抗原自我檢測套組,78,2022/05/02 22:48:02,每日到貨即開賣
5931013781,佳和藥局,新北市板橋區文化路１段３８７巷５號１樓,121.4667,25.02193,(02)22589598,羅氏家用新冠病毒抗原自我檢測套組,78,2022/05/02 22:48:02,快篩均分早上8:30 下午3:00販售-週日休
5931015687,正康健保藥局,新北市板橋區大觀路２段６５號１樓,121.4467,25.00246,(02)22756681,羅氏家用新冠病毒抗原自我檢測套組,78,2022/05/02 22:48:02,下午13:30依現場順序開始販售快篩，快篩配送絮亂庫存不準!!
5931015990,名安藥局,新北市板橋區龍興街５７號(１樓),121.4432,25.00115,(02)82751784,羅氏家用新冠病毒抗原自我檢測套組,78,2022/05/02 22:48:02,星 期日休息
5931016586,賜安藥局,新北市板橋區信義路６０號１樓,121.4571,24.99373,(02)29617483,羅氏家用新冠病毒抗原自我檢測套組,39,2022/05/02 22:48:02,4／28快篩每日配送到達公告於LINE@及FB粉絲專頁後開始銷售 售完為止 星期日公休
5931016611,民川藥局,新北市板橋區四川路１段９７號１樓,121.4598,25.00544,(02)29520090,羅氏家用新冠病毒抗原自我檢測套組,78,2022/05/02 22:48:02,星期一~星期六（快篩下午3:00販售）
5931016808,正安健保藥局,新北市板橋區民族路２２４號（１樓）,121.4687,25.00733,(02)29526813,羅氏家用新冠病毒抗原自我檢測套組,78,2022/05/02 22:48:02,17時依現場順序開始販售.週六12點.電腦配送庫存不準..以現場數量為準
5931017092,康橋藥局,新北市板橋區文化路１段２７３號,121.4646,25.01848,(02)22532560,羅氏家用新冠病毒抗原自我檢測套組,156,2022/05/02 22:48:02,快篩販售 周一到周六 14:00起  週日公休
5931017216,康鑫藥局,新北市板橋區文化路１段２０６號１樓,121.4664,25.02012,(02)82585135,羅氏家用新冠病毒抗原自我檢測套組,234,2022/05/02 22:48:02,無
5931017403,光澤醫美藥局,新北市板橋區四川路１段２１號（１樓）,121.4595,25.00689,(02)29551215,羅氏家用新冠病毒抗原自我檢測套組,78,2022/05/02 22:48:02,無
5931017636,福澤藥局,新北市板橋區南雅南路１段８５號（１樓）,121.4556,25.00543,(02)29690013,羅氏家用新冠病毒抗原自我檢測套組,12,2022/05/02 22:48:02,口罩代售9:00-23:00
5931017832,躍獅莒光藥局,新北市板橋區莒光路５８號１樓,121.4709,25.02421,(02)22556743,羅氏家用新冠病毒抗原自我檢測套組,78,2022/05/02 22:48:02,實名制快篩下午2點50發號碼牌，有收到貨才會販售
5931021532,龍門藥局,新北市三重區龍門路１８９號,121.4996,25.07322,(02)29756141,羅氏家用新冠病毒抗原自我檢測套組,81,2022/05/02 22:48:02,實名制快篩販售時間~星期一至星期六下午3點
5931024426,甜心健康生活藥局,新北市三重區福祉里集美街４５號１樓,121.488,25.05542,(02)29762223,羅氏家用新冠病毒抗原自我檢測套組,160,2022/05/02 22:48:02,無
5931025398,昌誠藥局,新北市三重區三和路４段１６１號１樓,121.4835,25.0785,(02)22876338,羅氏家用新冠病毒抗原自我檢測套組,156,2022/05/02 22:48:02,5／2 （休診）
5931025781,芯慈藥局,新北市三重區永安北路２段１０５號１樓,121.4831,25.08392,(02)28570670,羅氏家用新冠病毒抗原自我檢測套組,78,2022/05/02 22:48:02,國定假日有提供藥劑服務
5931030568,仲景藥局,新北市永和區竹林路２１３巷１號,121.521,25.00893,(02)89281687,羅氏家用新冠病毒抗原自我檢測套組,78,2022/05/02 22:48:02,營業時間早上9:30~晚上10:30
5931032133,宸安藥局,新北市永和區得和路３８５號１樓,121.5251,24.99943,(02)22328274,羅氏家用新冠病毒抗原自我檢測套組,1,2022/05/02 22:48:02,星期一至六 實名制快篩  PM2:00-3；00； 星期日公休
5931032955,博輝藥局,新北市永和區中興街６０號１樓,121.5171,25.01162,(02)89211766,羅氏家用新冠病毒抗原自我檢測套組,156,2022/05/02 22:48:02,無
5931033578,悅美保健藥局,新北市永和區保生路２２巷２１號１樓,121.5073,25.00839,(02)22323515,羅氏家用新冠病毒抗原自我檢測套組,78,2022/05/02 22:48:02,周一至周六 上午11點到晚上10點（周六下午一點開始）（二）快篩下午1:30開賣
5931033890,康杏安藥局,新北市永和區保平路９９號１樓,121.5114,25.00686,(02)29298968,羅氏家用新冠病毒抗原自我檢測套組,78,2022/05/02 22:48:02,快篩14:50~14:55發號碼牌.15:00開始販售
5931040215,華新藥局,新北市中和區華新街７３號,121.5082,24.98392,(02)29448345,羅氏家用新冠病毒抗原自我檢測套組,78,2022/05/02 22:48:02,無
5931043921,良安藥局,新北市中和區連城路４７７巷１號１樓,121.4833,24.99555,(02)22225798,羅氏家用新冠病毒抗原自我檢測套組,390,2022/05/02 22:48:02,週六日不開店
5931044786,坤暉藥局,新北市中和區中山路３段９４號２樓,121.4774,25.00583,(02)82217939,羅氏家用新冠病毒抗原自我檢測套組,78,2022/05/02 22:48:02,口罩發售時間早上9:00到11:00
5931045461,富康活力遠東藥局,新北市中和區建八路１０之１號１樓,121.4865,24.99805,(02)82262299,羅氏家用新冠病毒抗原自我檢測套組,234,2022/05/02 22:48:02,早上8:00~晚19:00
5931053267,富康活力惠國藥局,新北市新店區中正路７８號１樓,121.5439,24.97036,(02)29100066,羅氏家用新冠病毒抗原自我檢測套組,78,2022/05/02 22:48:02,實名制快篩，若當日有貨販售，於8:00準時開賣，請攜帶健保卡／居留證，謝謝您。
5931060557,一安藥局,新北市新莊區立德里新泰路２６８號,121.446,25.04029,(02)29941618,羅氏家用新冠病毒抗原自我檢測套組,78,2022/05/02 22:48:02,實名制快篩發放時間為15:00  其他詳情請上FB查詢
5931067403,建嘉藥局,新北市新莊區中誠街４２號１樓,121.4513,25.04812,(02)29925261,羅氏家用新冠病毒抗原自我檢測套組,78,2022/05/02 22:48:02,無
5931069201,招安藥師藥局,新北市新莊區西盛街３３８號１樓,121.428,25.01436,(02)22085138,羅氏家用新冠病毒抗原自我檢測套組,4,2022/05/02 22:48:02,5／1 5／2 並無快篩試劑到貨 請勿來電或來店購買
5931069498,新杏藥局,新北市新莊區新泰路９９號１樓,121.449,25.03497,(02)22011012,羅氏家用新冠病毒抗原自我檢測套組,78,2022/05/02 22:48:02,若有配貨，將固定於週一至週日14:50開始發放號碼牌、15:00開始依序販售快篩，售完為止。
5931069603,中信藥師藥局,新北市新莊區中信街８０號１樓,121.448,25.05311,(02)29969811,羅氏家用新冠病毒抗原自我檢測套組,78,2022/05/02 22:48:02,AM 07:30 開始
5931069701,日光藥局,新北市新莊區中港路４０４號１樓,121.4523,25.05003,(02)89937296,羅氏家用新冠病毒抗原自我檢測套組,156,2022/05/02 22:48:02,早上10點開始賣快篩 ， 沒有號碼牌 ， 現場排隊
593106A155,日榮藥局,新北市新莊區龍安路４６１號１樓,121.4248,25.0186,(02)22051523,羅氏家用新冠病毒抗原自我檢測套組,205,2022/05/02 22:48:02,無
593106A771,新佑康健保藥局,新北市新莊區中華路１段３５號１樓,121.4519,25.03765,(02)29947490,羅氏家用新冠病毒抗原自我檢測套組,1,2022/05/02 22:48:02,無
593106B081,平安藥局,新北市新莊區民安西路６０號２樓,121.4273,25.02037,(02)22082368,羅氏家用新冠病毒抗原自我檢測套組,136,2022/05/02 22:48:02,無
593106B125,樂安生活藥局,新北市新莊區雙鳳路２７號１、２樓,121.4165,25.02702,(02)29069899,羅氏家用新冠病毒抗原自我檢測套組,79,2022/05/02 22:48:02,無
5931071649,博生藥師藥局,新北市樹林區文化街３４號,121.419,24.98819,(02)26825798,羅氏家用新冠病毒抗原自我檢測套組,78,2022/05/02 22:48:02,口罩販賣早上8:45開始，售完為止
5931072066,琉璃水藥師藥局,新北市樹林區龍興街２１號１樓,121.403,25.01614,(02)26764262,羅氏家用新冠病毒抗原自我檢測套組,79,2022/05/02 22:48:02,無
5931072422,三樹食在好健康藥局,新北市樹林區學成路６００號１樓,121.3818,24.94584,(02)26807101,羅氏家用新冠病毒抗原自我檢測套組,312,2022/05/02 22:48:02,實名制快篩販售時間周一～周四19-20點（請自備散鈔）
5931081378,鶯歌宏達藥局,新北市鶯歌區國慶街１３８號１樓,121.3508,24.95347,(02)26709693,羅氏家用新冠病毒抗原自我檢測套組,2,2022/05/02 22:48:02,下午三點開始販售實名制快篩~不要打電話來問~藥師有其他工作要做
5931081494,康群藥局,新北市鶯歌區建國路２０２號１樓,121.3494,24.95357,(02)26796690,羅氏家用新冠病毒抗原自我檢測套組,234,2022/05/02 22:48:02,*星期五休診不發放口罩，其餘上班日上午九點開始發放*現場排隊
5931091810,誠美藥局,新北市三峽區復興路１０６號１樓,121.3727,24.9378,(02)26718131,羅氏家用新冠病毒抗原自我檢測套組,1,2022/05/02 22:48:02,星期1~6早上9點現場排隊購買口罩，4／4~4／5不販售防疫口罩
5931092040,一大藥局,新北市三峽區橫溪路２３號１樓,121.3964,24.93584,(02)86766677,羅氏家用新冠病毒抗原自我檢測套組,78,2022/05/02 22:48:02,無
5931092200,金美藥局,新北市三峽區大同路２３８號１樓,121.3663,24.92573,(02)86715859,羅氏家用新冠病毒抗原自我檢測套組,390,2022/05/02 22:48:02,無
5931110258,春德堂藥局,新北市汐止區新台五路１段２２０號,121.6561,25.06311,(02)26422048,羅氏家用新冠病毒抗原自我檢測套組,78,2022/05/02 22:48:02,實名制快篩 周一~周六 1300~1500 （今日販售完畢
5931111844,福恩藥師大藥局,新北市汐止區福德二路１７１之１號１樓,121.6307,25.06506,(02)26940835,羅氏家用新冠病毒抗原自我檢測套組,156,2022/05/02 22:48:02,無
5931112690,國升藥局,新北市汐止區建成路５９巷１號１樓,121.6618,25.0732,(02)26419459,羅氏家用新冠病毒抗原自我檢測套組,2,2022/05/02 22:48:02,無
5931112789,富康東科藥局,新北市汐止區新台五路１段９６號Ｃ棟１樓Ｃ１５號,121.6483,25.06047,(02)26969222,羅氏家用新冠病毒抗原自我檢測套組,234,2022/05/02 22:48:02,每日九點至下午六點開放購買口罩，周六周日公休
5931113142,林美藥局,新北市汐止區康寧街４６５號１樓,121.6318,25.06839,(02)26935696,羅氏家用新冠病毒抗原自我檢測套組,78,2022/05/02 22:48:02,每日14:00開始販售實名制快篩 禮拜天公休
5931132165,佳佳藥局,新北市土城區中央路２段２２３－９號２樓,121.4407,24.97319,(02)82614558,羅氏家用新冠病毒抗原自我檢測套組,81,2022/05/02 22:48:02,5／3起實名制快篩販售時間為19:30，採現場排隊（特殊情形例外）
5931132343,誠安藥局,新北市土城區中央路４段３６號１樓,121.4207,24.96088,(02)22677737,羅氏家用新冠病毒抗原自我檢測套組,236,2022/05/02 22:48:02,執業時段請電洽藥局
5931132807,健業藥局,新北市土城區中央路２段２２３－１０號,121.4407,24.97312,(02)22704798,羅氏家用新冠病毒抗原自我檢測套組,1,2022/05/02 22:48:02,無
5931133331,城安大藥局,新北市土城區金城路３段４０號,121.4656,24.98639,(02)22646561,羅氏家用新冠病毒抗原自我檢測套組,117,2022/05/02 22:48:02,快篩代售時間晚上8:30
5931133546,宏林保健藥局,新北市土城區裕民路１３４號（１樓）,121.4515,24.98622,(02)82615919,羅氏家用新冠病毒抗原自我檢測套組,1,2022/05/02 22:48:02,無
5931150163,德泰藥局,新北市五股區成泰路１段９號,121.4336,25.06674,(02)29095927,羅氏家用新冠病毒抗原自我檢測套組,156,2022/05/02 22:48:02,無
5931151660,祐康藥師藥局,新北市五股區五福路３６號１樓,121.4339,25.08922,(02)82921335,羅氏家用新冠病毒抗原自我檢測套組,78,2022/05/02 22:48:02,口罩代售時間:一至六早上8:30開始販售， 星期日早上9:00
5931151679,東興藥局,新北市五股區成泰路２段６９號２樓,121.4389,25.08635,(02)82922718,羅氏家用新冠病毒抗原自我檢測套組,78,2022/05/02 22:48:02,無
5931161577,立赫輔大藥局,新北市泰山區貴子路６５號１樓,121.4304,25.03971,(02)29060306,羅氏家用新冠病毒抗原自我檢測套組,78,2022/05/02 22:48:02,營業時間：週一~週五，9:30-19:30，5／2-5／4政府滾動式配送，實際發放時間依現場為主
5931171313,林口啄木鳥藥局,新北市林口區仁愛路２段８０號,121.3841,25.07552,(02)26027547,羅氏家用新冠病毒抗原自我檢測套組,1,2022/05/02 22:48:02,無
5931171340,家欣藥師藥局,新北市林口區文化二路１段５６７號１樓,121.3748,25.0777,(02)26025368,羅氏家用新冠病毒抗原自我檢測套組,78,2022/05/02 22:48:02,5／2（一）17:00開始販售實名制快篩，不發號碼牌，每日發放時間不同，請至粉專看
5931171779,全球忠孝藥局,新北市林口區忠孝路４９７號１樓,121.3708,25.07028,(02)26092139,羅氏家用新冠病毒抗原自我檢測套組,1,2022/05/02 22:48:02,營業時間:9:00-22:00
5931171822,榮昌藥局,新北市林口區仁愛路１段４１０號１樓,121.3867,25.07683,(02)26011312,羅氏家用新冠病毒抗原自我檢測套組,1,2022/05/02 22:48:02,實名制快篩15:00開賣唷！
5932011503,文安藥局,桃園市桃園區中正路６９９號,121.3032,25.00685,(03)3558999,羅氏家用新冠病毒抗原自我檢測套組,78,2022/05/02 22:48:02,實名制快篩領取時間早上07:00~0800止
5932011638,明光藥局,桃園市桃園區中山東路１１７之１號,121.317,24.9968,(03)3380427,羅氏家用新冠病毒抗原自我檢測套組,1,2022/05/02 22:48:02,口罩販賣時段：0900-1200--1400-1800
5932011870,永祥大藥局,桃園市桃園區永安路５２８號,121.2986,25.00181,(03)3337161,羅氏家用新冠病毒抗原自我檢測套組,50,2022/05/02 22:48:02,口罩販賣時段：週一至週六早上9點
5932014102,小飛象藥局,桃園市桃園區慈文路１９２號,121.3041,25.00907,(03)3552771,羅氏家用新冠病毒抗原自我檢測套組,78,2022/05/02 22:48:02,不發放號碼牌，請自己算人頭並評估身體狀況。5／3[09:30]開賣60份，[21:30]開賣18份。
5932014399,澄心藥局,桃園市桃園區桃鶯路３０５號１樓,121.3193,24.98265,(03)3771468,羅氏家用新冠病毒抗原自我檢測套組,78,2022/05/02 22:48:02,營業時間:8:00-22:00
5932019116,慈安藥局,桃園市桃園區永安路３８３號,121.299,25.00086,(03)3369599,羅氏家用新冠病毒抗原自我檢測套組,78,2022/05/02 22:48:02,快篩販賣時段：8:30~12:00 15:00~18:00 7:00~ 8:50
5932019581,莘莘藥局,桃園市桃園區莊敬路一段３６８號,121.2957,25.02375,(03)3170681,羅氏家用新冠病毒抗原自我檢測套組,234,2022/05/02 22:48:02,無
5932020360,日進藥局,桃園市中壢區中山東路二段１５６號,121.2394,24.95276,(03)4569132,羅氏家用新冠病毒抗原自我檢測套組,78,2022/05/02 22:48:02,營業時間:早上08:00至晚上09:30（週日下午休息）
5932021269,優良藥局,桃園市中壢區長春路２０號,121.2499,24.97907,(03)4612336,羅氏家用新冠病毒抗原自我檢測套組,1,2022/05/02 22:48:02,5／2快篩販售時段：13:30~15:00
5932023807,東興藥局,桃園市中壢區中北路２段３９號,121.224,24.95033,(03)4282611,羅氏家用新冠病毒抗原自我檢測套組,1,2022/05/02 22:48:02,快篩實名制，每天16:00開始販售，售完為止。
593202A244,澤仁藥局,桃園市中壢區中正路２６３號,121.2193,24.95495,(03)4252254,羅氏家用新冠病毒抗原自我檢測套組,78,2022/05/02 22:48:02,販賣時段：早上8:30-11:30
5932030080,吉壽藥局,桃園市大溪區員林路三段４２號,121.2648,24.88175,(03)3802049,羅氏家用新冠病毒抗原自我檢測套組,78,2022/05/02 22:48:02,快篩試劑販賣時段：星期一~五晚上7:00起及星期六、日上午8:30起
5932040246,龍泰藥局,桃園市楊梅區民族路五段１４７巷２號,121.1736,24.9586,(03)4901525,羅氏家用新冠病毒抗原自我檢測套組,80,2022/05/02 22:48:02,口罩販售時間：08:00開賣至11:00
5932051472,康而美聖安藥師藥局,桃園市蘆竹區南山路一段二之一號,121.2916,25.04879,(03)3228753,羅氏家用新冠病毒抗原自我檢測套組,77,2022/05/02 22:48:02,快篩套組販賣時段 早上7點至8點 售完為止
5932052979,南崁藥局,桃園市蘆竹區中正路２５１、２５３、２５５號,121.2921,25.04695,(03)3522022,羅氏家用新冠病毒抗原自我檢測套組,1,2022/05/02 22:48:02,快篩實名制，每天16:00開始販售，售完為止。
5932062402,德馨藥局,桃園市大園區中華路７２號,121.1993,25.06728,(03)3853586,羅氏家用新冠病毒抗原自我檢測套組,156,2022/05/02 22:48:02,快篩試劑 早上8點00分開始賣
5932076844,帕米爾藥局,桃園市龜山區萬壽路二段９９１號,121.3369,24.99464,(03)3295522,羅氏家用新冠病毒抗原自我檢測套組,39,2022/05/02 22:48:02,星期一~六:口罩販賣時段：14:30，星期日：09：00
5932077592,南崁南祥藥局,桃園市龜山區南祥路４６號,121.2975,25.04633,(03)2227733,羅氏家用新冠病毒抗原自我檢測套組,1,2022/05/02 22:48:02,快篩實名制，每天16:00開始販售，售完為止。
5932083303,吉康生活藥局,桃園市八德區義勇街１２０號,121.3045,24.96354,(03)3768577,羅氏家用新冠病毒抗原自我檢測套組,83,2022/05/02 22:48:02,周休二日，周一到周五09.:30發放快篩號碼牌
5932083974,晨鴻藥師藥局,桃園市八德區桃鶯路７號１樓,121.3265,24.97179,(03)3764299,羅氏家用新冠病毒抗原自我檢測套組,45,2022/05/02 22:48:02,快篩為早上8:30跟晚上6:00領取號碼牌，因有送貨時間及短少的因素，所以快篩地圖數量參考就好，請勿再打電話詢問 謝謝
5932084793,美康健保藥局,桃園市八德區桃鶯路９１號１、２樓,121.328,24.97036,(03)3613624,羅氏家用新冠病毒抗原自我檢測套組,78,2022/05/02 22:48:02,無
5932084846,豐田藥局,桃園市八德區豐田二路５２號,121.2882,24.92774,(03)3683168,羅氏家用新冠病毒抗原自我檢測套組,234,2022/05/02 22:48:02,無
5932101217,夢田藥局,桃園市平鎮區東光路１１３號１樓,121.2533,24.91609,(03)4601966,羅氏家用新冠病毒抗原自我檢測套組,234,2022/05/02 22:48:02,實名制快篩販售時間週一～週五『早上08:30開始』，一人僅限一張健保卡，請自備500元，不收銅板。售完為止
5933011178,康和藥局,新竹縣關西鎮正義路７９號,121.1759,24.79386,(03)5870068,羅氏家用新冠病毒抗原自我檢測套組,156,2022/05/02 22:48:02,依看診時間供民眾取藥
5933011258,安東藥師藥局,新竹縣關西鎮中山路６２號,121.1766,24.79147,(03)5872385,羅氏家用新冠病毒抗原自我檢測套組,78,2022/05/02 22:48:02,口罩販賣時段：星期一至六08:00-21:00、星期日08:00-17:00
5933031714,健康人生藥局,新竹縣竹東鎮中興路四段１９５號５２館Ｂ１１６室,121.0489,24.77287,(03)5910472,羅氏家用新冠病毒抗原自我檢測套組,234,2022/05/02 22:48:02,實名制快篩星期一到五13:50放發號碼牌，14:00開賣，領完號碼牌現場領取快篩試劑，請勿離開，離開視同放棄
5933031821,新月藥局,新竹縣竹東鎮永康街８１號１樓,121.0818,24.74841,(03)5960501,羅氏家用新冠病毒抗原自我檢測套組,156,2022/05/02 22:48:02,4／30快篩代售時間 14:00
5933052955,仁里藥局,新竹縣竹北市勝利二路１２５號,121.0278,24.82236,(03)6673878,羅氏家用新冠病毒抗原自我檢測套組,78,2022/05/02 22:48:02,口罩販賣時段：星期一~日10:00-12:00
5933053041,中一藥局,新竹縣竹北市文興路一段２４２號１樓,121.0287,24.81018,(03)6670827,羅氏家用新冠病毒抗原自我檢測套組,70,2022/05/02 22:48:02,更新:快篩販售時間下午16:00
5933053167,育禾藥局,新竹縣竹北市莊敬南路１８６號,121.0195,24.8157,(03)6683255,羅氏家用新冠病毒抗原自我檢測套組,5,2022/05/02 22:48:02,因人力不足，快篩發放時間為14:00至14:30，逾時不候，敬請見諒！
5933053345,仁品藥局,新竹縣竹北市福興東路二段１２６號,121.0281,24.81475,(03)6579718,羅氏家用新冠病毒抗原自我檢測套組,81,2022/05/02 22:48:02,8:00-22:00
5934010228,中一藥局,宜蘭縣宜蘭市慈安路４１－３號,121.7623,24.75944,(03)9385962,羅氏家用新冠病毒抗原自我檢測套組,78,2022/05/02 22:48:02,上午9:00開始販售快篩.售完為止
5934081156,樂心藥局,宜蘭縣冬山鄉義成路３段５０２號,121.7682,24.66745,(03)9585950,羅氏家用新冠病毒抗原自我檢測套組,78,2022/05/02 22:48:02,快篩顯示78支 實際已無存貨
5934091125,安心藥局,宜蘭縣五結鄉禮運路３８－１號,121.7768,24.68105,(03)9551670,羅氏家用新冠病毒抗原自我檢測套組,78,2022/05/02 22:48:02,實名制快篩販售時間為藥局營業時間，5／1：依照物流到貨為主
5935021261,永信藥師藥局,苗栗縣苑裡鎮和平路７２－１號,120.6549,24.44096,(037)857069,羅氏家用新冠病毒抗原自我檢測套組,1,2022/05/02 22:48:02,無
5935030171,立安藥局,苗栗縣通霄鎮信義路１０７號,120.6804,24.48877,(037)760100,羅氏家用新冠病毒抗原自我檢測套組,78,2022/05/02 22:48:02,快篩實名制 週一到週六下午15:00開始販售  售完為止
5935041781,惠家藥局,苗栗縣竹南鎮自強街３８號,120.8792,24.69138,(037)463635,羅氏家用新冠病毒抗原自我檢測套組,78,2022/05/02 22:48:02,口罩販賣時段：14:30-售完  星期日休息
5935041905,米樂中西健保藥局,苗栗縣竹南鎮大營路２０７號,120.8727,24.68686,(037)552116,羅氏家用新冠病毒抗原自我檢測套組,156,2022/05/02 22:48:02,各大醫院診所處方簽調劑窗口口罩販賣時段：（一）~（六）09:00開始至售完（六）營業時間08:30-16:00星期日休息
5935041987,杏一竹南中正藥局,苗栗縣竹南鎮中正路２５７號１樓,120.873,24.68344,(037)480602,羅氏家用新冠病毒抗原自我檢測套組,78,2022/05/02 22:48:02,口罩販賣時段：13:00-售完
5935061425,懷信中西藥局,苗栗縣後龍鎮中山路１０３號,120.7906,24.61415,(037)724618,羅氏家用新冠病毒抗原自我檢測套組,7,2022/05/02 22:48:02,下午1:00開始，售完為止。
5936012113,錦堂藥局,臺中市豐原區中正路１０６號,120.7208,24.25202,(04)25229969,羅氏家用新冠病毒抗原自我檢測套組,78,2022/05/02 22:48:02,今日已售完
5936021363,小太陽藥局,臺中市東勢區豐勢路４１２之１、４１６號１樓,120.8292,24.25525,(04)25773481,羅氏家用新冠病毒抗原自我檢測套組,78,2022/05/02 22:48:02,5／3早上7:30開始販售，週日公休（目前的數量是5／3的）
5936040135,德厚藥局,臺中市清水區慷榔里慷榔２街５０號,121.4874,25.07275,(04)26560733,羅氏家用新冠病毒抗原自我檢測套組,78,2022/05/02 22:48:02,實名制快篩試劑於12:00開賣，售完為止
5936081172,民翔藥局,臺中市神岡區昌平路５段４８０號,120.685,24.24623,(04)25633323,羅氏家用新冠病毒抗原自我檢測套組,78,2022/05/02 22:48:02,5／3日 星期二 快篩，因物流配送因素，改於下午3:30開賣
5936111111,政雄藥局,臺中市新社區興社街四段七五號,120.8083,24.24357,(04)25811087,羅氏家用新冠病毒抗原自我檢測套組,156,2022/05/02 22:48:02,12／31全天1／1-1／2休息
593620B138,聯生中西健保藥局,臺中市大里區現岱路１５８巷１１號,120.6919,24.10295,(04)24834058,羅氏家用新冠病毒抗原自我檢測套組,72,2022/05/02 22:48:02,早上八點半領號碼牌下午四點到六點領口罩W6W日早七點
593620B183,綠洲藥局,臺中市大里區塗城路６０３號,120.7038,24.08804,(04)24932626,羅氏家用新冠病毒抗原自我檢測套組,78,2022/05/02 22:48:02,快篩販售時間:週一至週五9:00開始.週六下午2點開始.週日休息
5937012117,媽咪藥局,彰化縣彰化市彰南路２段１１５號,120.5793,24.08538,(04)7321517,羅氏家用新冠病毒抗原自我檢測套組,29,2022/05/02 22:48:02,實名制快篩:周一至周六下午3:00開始販售，售完為止
5937013285,大仁藥局,彰化縣彰化市忠孝里辭修路８０號１樓,120.5385,24.08752,(04)7282678,羅氏家用新冠病毒抗原自我檢測套組,78,2022/05/02 22:48:02,5／2正常看診  5／8 5／15 5／22 5／29 休診 5／14 5／28晚上休診5／7 5／21下午晚上休診
5937013605,大佳好藥局,彰化縣彰化市平和七街６號,120.5293,24.06697,(09)33520331,羅氏家用新冠病毒抗原自我檢測套組,50,2022/05/02 22:48:02,0502快篩20:00後暫時停售，勿來電詢問
5937013730,佳漾藥局,彰化縣彰化市延平路５８８號１樓,120.5374,24.06301,(04)7135518,羅氏家用新冠病毒抗原自我檢測套組,234,2022/05/02 22:48:02,無
5937021330,順安藥局,彰化縣鹿港鎮泰興里復興路１２５號,120.4386,24.05279,(04)7765510,羅氏家用新冠病毒抗原自我檢測套組,78,2022/05/02 22:48:02,星期一至五與星期日:上班時間內皆可販售口罩    星期六停止販售口罩
5937040077,春安藥局,彰化縣北斗鎮五權里新市街４６號,120.526,23.87205,(04)8882546,羅氏家用新冠病毒抗原自我檢測套組,78,2022/05/02 22:48:02,早上8點起.販售口罩每周一公休.星期日營業至12點
5937050279,廣信藥局,彰化縣員林市三信里中山路二段２０１號,120.5711,23.96517,(04)8337085,羅氏家用新冠病毒抗原自我檢測套組,22,2022/05/02 22:48:02,早上8:30開始販賣快篩試劑
5937050313,東禾藥局,彰化縣員林市仁美里和平東街６２－１號,120.5754,23.9623,(04)8350030,羅氏家用新冠病毒抗原自我檢測套組,36,2022/05/02 22:48:02,每天早上八點半開始販售，售完為止
5937050322,必安藥局,彰化縣員林市仁美里育英路１７４號,120.5741,23.96417,(04)8324986,羅氏家用新冠病毒抗原自我檢測套組,47,2022/05/02 22:48:02,無
5937050377,廣生堂藥局,彰化縣員林市中山里中山路一段７４３、７４５號,120.5706,23.95915,(04)8320627,羅氏家用新冠病毒抗原自我檢測套組,2,2022/05/02 22:48:02,下午5點開始販賣口罩，不發號碼牌。
5937050411,高藥局,彰化縣員林市東和里員水路二段５０５號,120.5773,23.95592,(04)8327808,羅氏家用新冠病毒抗原自我檢測套組,13,2022/05/02 22:48:02,每日早上8:50開始販售防疫口罩，星期日公休
5937051703,員林健康藥局,彰化縣員林市中正路２２４號１樓,120.5747,23.95417,(04)8396798,羅氏家用新冠病毒抗原自我檢測套組,90,2022/05/02 22:48:02,10月11日雙十連假有營業
5937051847,天一藥局,彰化縣員林市光明里中正路４４１號,120.5724,23.95817,(04)8384875,羅氏家用新冠病毒抗原自我檢測套組,27,2022/05/02 22:48:02,固定周一到周六，早上14:30開始販賣防疫口罩（現場排隊）。
5937051865,萬年藥局,彰化縣員林市員水路２段２０９號,120.5841,23.95512,(04)8366522,羅氏家用新冠病毒抗原自我檢測套組,34,2022/05/02 22:48:02,09:15 起販售口罩。盒裝口罩販售中....
5937051963,東山永安藥局,彰化縣員林市南東里山腳路４段３１號,120.5988,23.96424,(04)8311471,羅氏家用新冠病毒抗原自我檢測套組,22,2022/05/02 22:48:02,快篩試劑販賣，有貨時下午開賣.
5937051981,康美藥局,彰化縣員林市南平里南平街２６號,120.5646,23.96301,(04)8395172,羅氏家用新冠病毒抗原自我檢測套組,38,2022/05/02 22:48:02,無
5937052031,天天藥局,彰化縣員林市鎮興里員東路一段５５號,120.5991,23.96355,(04)8385573,羅氏家用新冠病毒抗原自我檢測套組,92,2022/05/02 22:48:02,固定周一到周六上午8:30發放號碼牌，8:30開始販售口罩。
5937052246,新義藥局,彰化縣員林市南平里新義街２８８號,120.5678,23.96254,(04)8396788,羅氏家用新冠病毒抗原自我檢測套組,6,2022/05/02 22:48:02,配送物流的關係暫時無法確定販賣時間.請先電話訊問
5937052264,醫聯藥師藥局,彰化縣員林市三條里員東路二段４１０號１樓,120.5811,23.95898,(04)8360617,羅氏家用新冠病毒抗原自我檢測套組,35,2022/05/02 22:48:02,快篩實名制每天下午15:00開始販售，售完為止
5937052273,員林鼎澄藥局,彰化縣員林市仁愛里三民東街２５２號,120.58,23.95997,(04)8330918,羅氏家用新冠病毒抗原自我檢測套組,89,2022/05/02 22:48:02,實名制快篩，星期一-六每日下午2點開始依現場排隊販售
5937052282,丁丁藥局員林店,彰化縣員林市中山路二段８９號,120.5707,23.96247,(04)8373508,羅氏家用新冠病毒抗原自我檢測套組,1,2022/05/02 22:48:02,*星期一-日每日上午9點開始.售完為止。（全年無休）
5937052317,員郭藥局,彰化縣員林市三民街３８－１號,120.573,23.95862,(04)8356201,羅氏家用新冠病毒抗原自我檢測套組,55,2022/05/02 22:48:02,無
5937052353,壽春中西藥局,彰化縣員林市成功路５５號,120.5797,23.96462,(04)8361667,羅氏家用新冠病毒抗原自我檢測套組,7,2022/05/02 22:48:02,5／2（一）起。快篩因物流當日才配送，改為下午2點半後發售
5937052451,統信藥局,彰化縣員林市正興街３７２號,120.5722,23.95997,(04)8367089,羅氏家用新冠病毒抗原自我檢測套組,45,2022/05/02 22:48:02,無
5937052497,家家藥局,彰化縣員林市惠來街８７號,120.5704,23.95526,(04)8367007,羅氏家用新冠病毒抗原自我檢測套組,1,2022/05/02 22:48:02,無
5937052504,佑全員林中正藥局,彰化縣員林市中正路１３５，１３７號１樓,120.5714,23.96324,(04)8368669,羅氏家用新冠病毒抗原自我檢測套組,39,2022/05/02 22:48:02,無
5937052540,莒光啄木鳥藥局,彰化縣員林市中山路一段４５４號１樓,120.5668,23.95171,(04)8399625,羅氏家用新冠病毒抗原自我檢測套組,23,2022/05/02 22:48:02,無
5937052559,知心健康藥局,彰化縣員林市三民東街１９６號１樓,120.5788,23.95965,(04)8396161,羅氏家用新冠病毒抗原自我檢測套組,20,2022/05/02 22:48:02,無
5937061736,平和藥局,彰化縣溪湖鎮彰水路三段２７７、２７９號１樓,120.4801,23.95959,(04)8816880,羅氏家用新冠病毒抗原自我檢測套組,5,2022/05/02 22:48:02,快篩實名制，每天16:00開始販售，售完為止。
5937070011,明輝藥局,彰化縣田中鎮東路里新生街８７號,120.5871,23.86112,(04)8740433,羅氏家用新冠病毒抗原自我檢測套組,10,2022/05/02 22:48:02,111年起 營業時間為周一到周六早上8:00開始到晚上9:00
5937071385,正益藥局,彰化縣田中鎮北路里新福路５３巷１３號１樓,120.5865,23.86272,(04)8761001,羅氏家用新冠病毒抗原自我檢測套組,1,2022/05/02 22:48:02,固定08:00開始販售快篩（星期六，日只有早上）
5937071447,大安藥局,彰化縣田中鎮新福路５７號,120.586,23.86264,(04)8752201,羅氏家用新冠病毒抗原自我檢測套組,21,2022/05/02 22:48:02,早上8點販售至晚間9點。中午12:00~14:30休息。
5937071474,田中藥局,彰化縣田中鎮新生街１５０巷２號,120.5862,23.8621,(04)8761988,羅氏家用新冠病毒抗原自我檢測套組,14,2022/05/02 22:48:02,快篩實名制，每天16:00開始販售，售完為止。
5937080179,台明藥局,彰化縣二林鎮東和里斗苑路五段２１３號,120.3678,23.90095,(04)8966176,羅氏家用新冠病毒抗原自我檢測套組,37,2022/05/02 22:48:02,週一到六上午8:10口罩開賣，不抽號碼；週日未固定公休
5937081390,永全藥局,彰化縣二林鎮二溪路一段１８號,120.3696,23.90134,(04)8958878,羅氏家用新冠病毒抗原自我檢測套組,97,2022/05/02 22:48:02,週一到六上午8點半開賣，不抽號碼；週日休息；
5937081514,加佳藥局,彰化縣二林鎮東和里仁愛路６７８號１樓,120.3643,23.90212,(04)8963080,羅氏家用新冠病毒抗原自我檢測套組,95,2022/05/02 22:48:02,快篩販賣時間週一至週五早上09:30-11:45 下午2:45-5:20 晚上6:30-8:45。週六早上9:30-11:45 下午晚上休息，周日全日休息!!
5937101217,友誼藥局,彰化縣伸港鄉新港村中山路１５號,120.4864,24.14731,(047)980591,羅氏家用新冠病毒抗原自我檢測套組,170,2022/05/02 22:48:02,5／3 快篩早上10:30~12:00；星期一.六.日不發放快篩；免費領取各大醫院診所牙科衛生所處方箋
5937111062,福興永安藥局,彰化縣福興鄉沿海路４段７３７號,120.4258,24.04239,(04)7745268,羅氏家用新冠病毒抗原自我檢測套組,78,2022/05/02 22:48:02,5／1停止販售快篩試劑
5937131153,武田藥局,彰化縣花壇鄉長沙村中正路１２０號,120.5441,24.02719,(04)7878683,羅氏家用新冠病毒抗原自我檢測套組,156,2022/05/02 22:48:02,星期一至星期六早上8點30分開始販售  *星期日休息*
5937151128,五行藥局,彰化縣大村鄉黃厝村１２鄰山腳路２－２６號,120.5898,23.982,(04)8527603,羅氏家用新冠病毒抗原自我檢測套組,113,2022/05/02 22:48:02,週一至週六早上09:45開始販賣口罩。
5937170034,淑惠藥局,彰化縣埔心鄉亙北村員鹿路一段２４４號,120.5574,23.95515,(04)8297798,羅氏家用新冠病毒抗原自我檢測套組,98,2022/05/02 22:48:02,星期一~星期六16:00-18:00（2小時販售快篩試劑），星期日：休
5937180030,生春大藥局,彰化縣永靖鄉東門路２３３號,120.547,23.92143,(04)8220929,羅氏家用新冠病毒抗原自我檢測套組,77,2022/05/02 22:48:02,週一至週六早上7點50分開始營業 週日公休
5937180094,天喜生大藥局,彰化縣永靖鄉永西村西門路４１號,120.545,23.9228,(04)8221821,羅氏家用新冠病毒抗原自我檢測套組,78,2022/05/02 22:48:02,每個星期天暫停發放
5937181260,永茗藥局,彰化縣永靖鄉永東村東門路１９８號,120.5477,23.92182,(04)8242721,羅氏家用新冠病毒抗原自我檢測套組,81,2022/05/02 22:48:02,每日代售時間早上8:00-19:00，星期日公休
5937181279,佳恩藥局,彰化縣永靖鄉永西村瑚璉路３０２號,120.547,23.92421,(04)8235753,羅氏家用新冠病毒抗原自我檢測套組,38,2022/05/02 22:48:02,快篩實名制 :電話預約制，當日早上9點開始預約（5／2已額滿）
5937251150,竹塘健保藥局,彰化縣竹塘鄉竹塘村文化街５０號,120.428,23.8608,(04)8976180,羅氏家用新冠病毒抗原自我檢測套組,58,2022/05/02 22:48:02,無
5938011883,樂家藥局,南投縣南投市民族路１０５號１樓,120.6914,23.91003,(049)2207007,羅氏家用新冠病毒抗原自我檢測套組,156,2022/05/02 22:48:02,無
5938020257,德林藥局,南投縣埔里鎮大城路２０６號,120.9517,23.97306,(049)2915293,羅氏家用新冠病毒抗原自我檢測套組,1,2022/05/02 22:48:02,每日開始營業即販售口罩，直至當日應售數量完畢或店休為止。
5938021521,大家好藥局,南投縣埔里鎮中山路２段２６２－１號,120.9686,23.96652,(049)2995876,羅氏家用新冠病毒抗原自我檢測套組,78,2022/05/02 22:48:02,3／26下午休息，4／3-4／5休息
5938040151,快安藥局,南投縣竹山鎮延平里集山路三段１３號,120.7065,23.76677,(049)2643048,羅氏家用新冠病毒抗原自我檢測套組,78,2022/05/02 22:48:02,口罩代售時間週一~週六自08:00-21.00（週四.週六下午.週日公休但不定時營業
5938040286,皇英藥局,南投縣竹山鎮林圯街２７－１號,120.6809,23.7549,(049)2654006,羅氏家用新冠病毒抗原自我檢測套組,11,2022/05/02 22:48:02,每日早上8:30~晚上8:30販售快篩試劑
5938040295,氏林藥局,南投縣竹山鎮中山里雲林路７３號,120.6818,23.75463,(049)2645829,羅氏家用新冠病毒抗原自我檢測套組,11,2022/05/02 22:48:02,早上8:30開始營業，營業時間皆有販售.售完為止
5938040437,宏明堂藥局,南投縣竹山鎮竹山里橫街８８號,120.6831,23.75616,(049)2642202,羅氏家用新冠病毒抗原自我檢測套組,23,2022/05/02 22:48:02,早上7:30開始營業至晚上9:00。（全年無休）
5938041569,竹山福倫藥局,南投縣竹山鎮竹山里集山路三段858號,120.6857,23.75881,(049)2658518,羅氏家用新冠病毒抗原自我檢測套組,14,2022/05/02 22:48:02,下午1點現場排隊販售
5938041729,早安藥局,南投縣竹山鎮雲林路４１號,120.6834,23.75608,(049)2651032,羅氏家用新冠病毒抗原自我檢測套組,80,2022/05/02 22:48:02,實名制快篩試劑早上10點開始販售
5938041809,維淇藥師藥局,南投縣竹山鎮集山路三段８１６－１號,120.6863,23.75949,(049)2653689,羅氏家用新冠病毒抗原自我檢測套組,34,2022/05/02 22:48:02,早上8：30~晚上21：00，星期六下午晚上及星期日休息
5938041845,博愛藥局,南投縣竹山鎮雲林路３５號,120.6836,23.75612,(049)2642748,羅氏家用新冠病毒抗原自我檢測套組,50,2022/05/02 22:48:02,0830AM開始販售，售完為止
5938041881,明仁藥局,南投縣竹山鎮集山路三段９４８－２號,120.6834,23.75737,(049)2659650,羅氏家用新冠病毒抗原自我檢測套組,102,2022/05/02 22:48:02,防疫口罩販售時間：每日上午9時至12時
5938041916,大明藥局,南投縣竹山鎮大明路４８２號,120.6798,23.759,(049)2652500,羅氏家用新冠病毒抗原自我檢測套組,17,2022/05/02 22:48:02,快篩實名制，每天16:00開始販售，售完為止。
5938110023,杏仁藥局,南投縣水里鄉新城村民權路２３６號,120.8526,23.81758,(049)2776008,羅氏家用新冠病毒抗原自我檢測套組,80,2022/05/02 22:48:02,周一到周六，下午2:30販售快篩，售完為止，星期日休息
5939010504,桂賓藥局,雲林縣斗六市信義里鎮北路３號,120.5432,23.71143,(05)5332138,羅氏家用新冠病毒抗原自我檢測套組,1,2022/05/02 22:48:02,無
5939011832,汶藥局,雲林縣斗六市大同路１０３號２樓,120.5451,23.70965,(05)5344728,羅氏家用新冠病毒抗原自我檢測套組,77,2022/05/02 22:48:02,快篩實名制: 每天早上8:00開賣，售完為止。三、五下午，六晚上，日全天，以上時間休診。
5939012133,鎮東藥局,雲林縣斗六市中華路４６０號,120.5516,23.70846,(05)5332449,羅氏家用新冠病毒抗原自我檢測套組,30,2022/05/02 22:48:02,星期二. 五 下午及晚上休息  星期六全天休息 （國定假日 星期日 9:00開始 晚上7:30 休息 ）
5939032724,虎尾藥局,雲林縣虎尾鎮林森路二段１１７、１１９號,120.4298,23.70595,(05)6336330,羅氏家用新冠病毒抗原自我檢測套組,390,2022/05/02 22:48:02,新開業，健保系統線路建置中，尚無法使用健保系統販售實名制快篩試劑。
5939040164,一元藥局,雲林縣西螺鎮福興路１７５號,120.4605,23.80032,(05)5879987,羅氏家用新冠病毒抗原自我檢測套組,79,2022/05/02 22:48:02,販賣口罩時間:0800~售完為止
5939071276,慈生藥局,雲林縣古坑鄉麻園村平和２２號,120.5203,23.6351,(05)5828222,羅氏家用新冠病毒抗原自我檢測套組,131,2022/05/02 22:48:02,週三.四.六.日下午3-5點販售實名制快篩
5939071294,元林中西藥局,雲林縣古坑鄉西平村西平路９－２號１樓,120.5606,23.64679,(05)5828229,羅氏家用新冠病毒抗原自我檢測套組,1,2022/05/02 22:48:02,販賣口罩時間：08:00
5939091278,大美社區藥局,雲林縣莿桐鄉大美村２３－１號,120.5134,23.73695,(05)5848579,羅氏家用新冠病毒抗原自我檢測套組,79,2022/05/02 22:48:02,無
5939141139,東新藥局,雲林縣東勢鄉東勢西路５５號,120.2519,23.6761,(05)6998959,羅氏家用新冠病毒抗原自我檢測套組,85,2022/05/02 22:48:02,週一至五8-12 14-18 週六8-12點
5939161140,木川藥局,雲林縣台西鄉中山路３９３號,120.1931,23.70056,(05)6986220,羅氏家用新冠病毒抗原自我檢測套組,78,2022/05/02 22:48:02,口罩發放時間:星期一到星期六早上8:00開始，售完為止.星期日休息
5939171039,嘉民藥局,雲林縣元長鄉長南村元南路６２號,120.3124,23.64811,(05)7880513,羅氏家用新冠病毒抗原自我檢測套組,29,2022/05/02 22:48:02,無
5939171093,和平藥局,雲林縣元長鄉下寮村東興路３３號,120.334,23.61849,(05)7862551,羅氏家用新冠病毒抗原自我檢測套組,1,2022/05/02 22:48:02,販賣口罩時間：0800開賣，賣完為止
5939200011,優生藥局,雲林縣水林鄉水林路９９巷２號,120.247,23.57205,(05)7856307,羅氏家用新冠病毒抗原自我檢測套組,25,2022/05/02 22:48:02,販賣快篩試劑時間:5月1日早上8點有販售
5939200053,嘉南藥局,雲林縣水林鄉水北村自強街２號,120.245,23.57265,(05)7853216,羅氏家用新冠病毒抗原自我檢測套組,8,2022/05/02 22:48:02,早上7.30開始營業同時販賣快篩.試劑
5939201283,義生藥局,雲林縣水林鄉水林路１９７號,120.2445,23.57217,(05)7853701,羅氏家用新冠病毒抗原自我檢測套組,16,2022/05/02 22:48:02,販賣口罩時間:如營業時間
5940021086,進發藥局,嘉義縣布袋鎮興中里後寮路７２巷２７號,120.1586,23.37867,(05)3470388,羅氏家用新冠病毒抗原自我檢測套組,76,2022/05/02 22:48:02,防疫口罩銷售時間:星期一14:00起星期二~六07:45起售完為止
5940031359,家寶藥局,嘉義縣大林鎮平林里中興路２６４號,120.4613,23.60269,(05)2649000,羅氏家用新冠病毒抗原自我檢測套組,159,2022/05/02 22:48:02,08:00~售罄
5940040045,七星藥局,嘉義縣民雄鄉東榮村中樂路１６號,120.4313,23.55643,(05)2261977,羅氏家用新冠病毒抗原自我檢測套組,6,2022/05/02 22:48:02,周一~周日 08:00-售罄
5940040063,昇平藥局,嘉義縣民雄鄉大崎村十四甲１８－７號,120.466,23.50698,(05)2206835,羅氏家用新冠病毒抗原自我檢測套組,1,2022/05/02 22:48:02,周一~五0830~2200
5940040072,三和藥局,嘉義縣民雄鄉中樂村中樂路５３號,120.4302,23.55603,(05)2262488,羅氏家用新冠病毒抗原自我檢測套組,51,2022/05/02 22:48:02,販賣時間 上午10:00-12:00 ， 下午14:00-16:00 ， 星期日10:00-12:00 ，以現場為主售完就停止
5940040170,健安藥局,嘉義縣民雄鄉興南村頭橋４５號,120.439,23.52336,(05)2211797,羅氏家用新冠病毒抗原自我檢測套組,7,2022/05/02 22:48:02,營業:上午9點至下午9點.週日休-下午6點售快篩
5940040232,鈞安藥局,嘉義縣民雄鄉山中村１８７之５號,120.4103,23.51833,(05)2218622,羅氏家用新冠病毒抗原自我檢測套組,16,2022/05/02 22:48:02,上午7:00-晚上9:30，六日不定期休息
5940040321,上安藥局,嘉義縣民雄鄉西安路４６－２３號,120.4259,23.55737,(05)2261216,羅氏家用新冠病毒抗原自我檢測套組,23,2022/05/02 22:48:02,W1-W6上午八點-售罄（週日1600開始販售）
5940041435,嘉方藥局,嘉義縣民雄鄉中樂村昇平路５８號,120.4303,23.55781,(05)2066747,羅氏家用新冠病毒抗原自我檢測套組,38,2022/05/02 22:48:02,早上08:00開始販賣，賣完為止
5940041515,福樂藥局,嘉義縣民雄鄉福樂村建國路三段２５６號,120.4391,23.52621,(05)2130802,羅氏家用新冠病毒抗原自我檢測套組,78,2022/05/02 22:48:02,周一~周五08:00-12:00 16:00-20:00周六 08:00-12:00
5940041668,民雄照安藥局,嘉義縣民雄鄉中樂路２１號１樓,120.431,23.55621,(05)2060368,羅氏家用新冠病毒抗原自我檢測套組,14,2022/05/02 22:48:02,周一至周日8:00開始販售口罩，現場排隊，售完為止
5940041695,春森藥局,嘉義縣民雄鄉東榮村９鄰和平路３７號,120.4318,23.55674,(05)2266957,羅氏家用新冠病毒抗原自我檢測套組,16,2022/05/02 22:48:02,08:00~售罄
5940041748,大祐藥局,嘉義縣民雄鄉西安村西安路２１－１號１樓,120.4272,23.5564,(05)2067077,羅氏家用新冠病毒抗原自我檢測套組,73,2022/05/02 22:48:02,週日下午晚上休息
5940050069,明生藥局,嘉義縣溪口鄉溪東村民生街１５５號,120.3962,23.60334,(05)2698027,羅氏家用新冠病毒抗原自我檢測套組,1,2022/05/02 22:48:02,08:00~售罄
5940051119,宇安藥局,嘉義縣溪口鄉坪頂村溪民路３１號,120.4003,23.60387,(05)2697736,羅氏家用新冠病毒抗原自我檢測套組,15,2022/05/02 22:48:02,8:00-12:00，14:00-19:00，六日，8:00-12:00， 販售快篩
5940051164,濟安藥局,嘉義縣溪口鄉民生街５４號,120.3985,23.60407,(05)2696078,羅氏家用新冠病毒抗原自我檢測套組,12,2022/05/02 22:48:02,無
5940120137,德安藥局,嘉義縣水上鄉南和村後寮２６之６號,120.362,23.41007,(05)2688835,羅氏家用新冠病毒抗原自我檢測套組,78,2022/05/02 22:48:02,星期日公休
5940120191,大嘉藥局,嘉義縣水上鄉正義路１巷１６號,120.4006,23.43044,(05)2689031,羅氏家用新冠病毒抗原自我檢測套組,85,2022/05/02 22:48:02,08:00~售罄
5940121241,杏同藥局,嘉義縣水上鄉水頭村中正路１１６號,120.4022,23.4282,(05)2600037,羅氏家用新冠病毒抗原自我檢測套組,100,2022/05/02 22:48:02,周日休息 販售時間早上8:30~11:50 下午3:00~5:50 晚上7:00~8:00
5940121303,宏益藥局,嘉義縣水上鄉正義路５１號,120.3995,23.43025,(05)2601714,羅氏家用新冠病毒抗原自我檢測套組,23,2022/05/02 22:48:02,快篩販售時間: 禮拜一~禮拜日上午8:00~12:00   下午15:00~18:00  晚上18:30~20:30    售完為止
5940130106,榮芳藥局,嘉義縣中埔鄉金蘭村頂山門２８之２號,120.4942,23.44596,(05)2397405,羅氏家用新冠病毒抗原自我檢測套組,4,2022/05/02 22:48:02,無
5940141243,佑康藥局,嘉義縣竹崎鄉灣橋村五間厝３－２號１樓,120.5023,23.49275,(05)2792226,羅氏家用新冠病毒抗原自我檢測套組,5,2022/05/02 22:48:02,快篩販售時間:星期一到星期六，上午8點起至售完為止
5940141289,好鄰居藥局,嘉義縣竹崎鄉灣橋村灣橋３４１號,120.5053,23.49111,(05)2793899,羅氏家用新冠病毒抗原自我檢測套組,1,2022/05/02 22:48:02,周一至六 08:00；周日 09:00
5940141305,東義藥局,嘉義縣竹崎鄉獅埜村東義２０－１８號,120.4898,23.51273,(05)2110957,羅氏家用新冠病毒抗原自我檢測套組,78,2022/05/02 22:48:02,無
5941030089,新信安藥局,臺南市白河區中山路５１號,120.415,23.34964,(06)6852173,羅氏家用新冠病毒抗原自我檢測套組,3,2022/05/02 22:48:02,口罩販賣時間7:30至晚上8：30，星期日7：10至10：00
5941030114,協宏藥局,臺南市白河區竹門里９８之３號,120.4466,23.37697,(06)6852961,羅氏家用新冠病毒抗原自我檢測套組,53,2022/05/02 22:48:02,快篩  08 : 30-20:00
5941051579,永星藥局,臺南市佳里區文化路１７６號,120.1779,23.16325,(06)7234300,羅氏家用新冠病毒抗原自我檢測套組,79,2022/05/02 22:48:02,禮拜一~日 08:00–21:30
5941270163,太子藥局,臺南市仁德區太子里太子路３３８號,120.2577,22.99146,(06)2729906,羅氏家用新冠病毒抗原自我檢測套組,1,2022/05/02 22:48:02,快篩配貨時間不固定，故販售時間也不固定
5941280043,道仁藥局,臺南市歸仁區許厝里中山路一段４７８號,120.2973,22.96654,(06)2301967,羅氏家用新冠病毒抗原自我檢測套組,78,2022/05/02 22:48:02,08:00開始.12:00-13:30午休.售完為止
5941310082,良方藥局,臺南市永康區永康里中山路３９號,120.2567,23.0274,(06)2325057,羅氏家用新冠病毒抗原自我檢測套組,78,2022/05/02 22:48:02,快篩實名制:貨運到貨時間未定前，暫定下午17:00開賣.星期日沒有營業
5941312540,維康藥局奇美店,臺南市永康區正新街６５號,120.2222,23.02018,(06)2814441,羅氏家用新冠病毒抗原自我檢測套組,156,2022/05/02 22:48:02,無
5942010214,謝藥局,高雄市鳳山區南江街１２６號,120.3386,22.60139,(07)7226685,羅氏家用新冠病毒抗原自我檢測套組,35,2022/05/02 22:48:02,自2／11日~2／29日，營業日07:10~21:20為販賣口罩時間，售完為止
5942010349,長英藥局,高雄市鳳山區八德路二段２６７號,120.3519,22.64479,(07)7805002,羅氏家用新冠病毒抗原自我檢測套組,24,2022/05/02 22:48:02,4／29起-營業日15:00~17:00為快篩販賣時間，售完為止。
5942010812,一仁藥局,高雄市鳳山區自由路２００號,120.3495,22.62562,(07)7425004,羅氏家用新冠病毒抗原自我檢測套組,27,2022/05/02 22:48:02,實名快篩15:00 -20:00（售完為止）
5942011480,頂好藥師藥局,高雄市鳳山區光華東路１５號,120.3565,22.61923,(07)7430834,羅氏家用新冠病毒抗原自我檢測套組,18,2022/05/02 22:48:02,自2／11日~2／29日，營業日10:00~21:00為販賣口罩時間，售完為止
5942011524,中華藥局,高雄市鳳山區中山路１４２號,120.3572,22.62448,(07)7472853,羅氏家用新冠病毒抗原自我檢測套組,28,2022/05/02 22:48:02,每日需等政府配送.時間不定.配送到立即販售.售完為止
5942011766,見康藥局,高雄市鳳山區中崙路５７８號,120.3514,22.60205,(07)7535158,羅氏家用新冠病毒抗原自我檢測套組,7,2022/05/02 22:48:02,自2／11日~2／29日，營業日8:00發號碼牌12:00~22:00為販賣口罩時間，售完為止，
5942013448,祝安藥師藥局,高雄市鳳山區鳳松路３９之５號,120.3613,22.63387,(07)7476550,羅氏家用新冠病毒抗原自我檢測套組,12,2022/05/02 22:48:02,無
5942013902,順發藥局,高雄市鳳山區新強里新富路２３９號,120.3389,22.61296,(07)7630666,羅氏家用新冠病毒抗原自我檢測套組,90,2022/05/02 22:48:02,實名制快篩販售時間-早上8:30~11:30、午晚15:00~20:30，星期六午晚及星期日不販售。
5942013920,康博藥局,高雄市鳳山區新樂里南京路１５３－１２號,120.3452,22.60952,(07)7671755,羅氏家用新冠病毒抗原自我檢測套組,93,2022/05/02 22:48:02,6／3端午節不營業 每日營業時間:9:00--12:30   1500---2130 周日休息
5942020265,建元藥局,高雄市岡山區大仁北路１０４號,120.3018,22.80071,(07)6216672,羅氏家用新冠病毒抗原自我檢測套組,78,2022/05/02 22:48:02,販售時間早上八點售完為止 （如餘78份，屬隔日早上的數量）
5942030092,天明藥局,高雄市旗山區大同路至誠巷１５號,120.4818,22.88361,(07)6621311,羅氏家用新冠病毒抗原自我檢測套組,13,2022/05/02 22:48:02,營業日8:00~發號碼牌 8:30領至下午9:00為販賣口罩時間，售完為止8:00
5942030225,吉本藥局,高雄市旗山區旗南里中洲路４７４－１號,120.465,22.83976,(07)6663226,羅氏家用新冠病毒抗原自我檢測套組,16,2022/05/02 22:48:02,營業日0800~2200，14:00開始發號碼牌14:30起為配售口罩時間.售完為止；周六公休無配售口罩；
5942060385,義和藥局,高雄市大寮區義和里義和路１６１號,120.4205,22.64125,(07)6527206,羅氏家用新冠病毒抗原自我檢測套組,8,2022/05/02 22:48:02,無
5942100080,復元藥局,高雄市鳥松區鳥松村大仁南路５號,120.3626,22.66233,(07)7312979,羅氏家用新冠病毒抗原自我檢測套組,78,2022/05/02 22:48:02,家用快篩銷售時間1400開始   售完為止
5943013808,真心藥局,屏東縣屏東市廣東路１０２８號,120.4847,22.6877,(08)7334355,羅氏家用新冠病毒抗原自我檢測套組,156,2022/05/02 22:48:02,5／2休息
5943013880,一二藥局,屏東縣屏東市廣東路１０９４號,120.484,22.68769,(08)7324688,羅氏家用新冠病毒抗原自我檢測套組,78,2022/05/02 22:48:02,防疫快篩售完
5943201095,南州健人藥師藥局,屏東縣南州鄉三民路１４９號,120.5068,22.48985,(08)8646828,羅氏家用新冠病毒抗原自我檢測套組,27,2022/05/02 22:48:02,販售快篩試紙:周一至周六下午2:00~4:00，週日不販售快篩試紙
5945013057,富強健康藥局,花蓮縣花蓮市國裕里２２鄰富強路１２８號,121.5971,23.99707,(03)8571839,羅氏家用新冠病毒抗原自我檢測套組,1,2022/05/02 22:48:02,營業時間:  8:30~13:00 ／ 17:30~21:30 公休日:另行通知。
5945021086,安康鳳林藥局,花蓮縣鳳林鎮仁愛街１０號１樓,121.4503,23.74937,(03)8762227,羅氏家用新冠病毒抗原自我檢測套組,2,2022/05/02 22:48:02,快篩發放時間，依現場公告為主，售完為止。
5945051226,仁里藥局,花蓮縣吉安鄉中正路１段１６３號,121.5917,23.96568,(03)8512569,羅氏家用新冠病毒抗原自我檢測套組,78,2022/05/02 22:48:02,快篩領購時間:下午5~7點（週六日休息）
5945051520,洄瀾藥局,花蓮縣吉安鄉中山路三段２７９號,121.5708,23.97767,(03)8525217,羅氏家用新冠病毒抗原自我檢測套組,78,2022/05/02 22:48:02,5／3日快篩下午3:30開始販售
5945051575,宜康藥局,花蓮縣吉安鄉中華路二段１３４號,121.585,23.97395,(03)8512980,羅氏家用新冠病毒抗原自我檢測套組,156,2022/05/02 22:48:02,5／2（一）全天休診
5945051673,上善藥局,花蓮縣吉安鄉吉安路二段３９號,121.5617,23.97128,(03)8535618,羅氏家用新冠病毒抗原自我檢測套組,234,2022/05/02 22:48:02,4／30~5／2休息（快篩領取時間:上午9~11）
5945051682,享寧藥局,花蓮縣吉安鄉中正路一段２號１樓,121.594,23.96871,(03)8526532,羅氏家用新冠病毒抗原自我檢測套組,78,2022/05/02 22:48:02,W1-5為8:30-12及2pm-9pm、W6為8:30-12。口罩販賣時間:營業時間早上九點開始
5945051726,安康藥局,花蓮縣吉安鄉中山路３段３８４號,121.5689,23.97907,(03)8513951,羅氏家用新冠病毒抗原自我檢測套組,90,2022/05/02 22:48:02,口罩販售時間同營業時間
5945051735,杏一吉安建國藥局,花蓮縣吉安鄉建國路１段１４１、１４３號１樓,121.5911,23.98589,(03)8575611,羅氏家用新冠病毒抗原自我檢測套組,78,2022/05/02 22:48:02,（5月2日 12:30已售完） 平日中午12點開賣快篩
5945091088,立健藥局,花蓮縣瑞穗鄉中華路９２號,121.38,23.498,(03)8870184,羅氏家用新冠病毒抗原自我檢測套組,78,2022/05/02 22:48:02,服務時間：07:30-22:00
5946011931,中華藥局,臺東縣臺東市中華路二段３４５號,121.1354,22.74286,(089)322389,羅氏家用新冠病毒抗原自我檢測套組,234,2022/05/02 22:48:02,快篩試劑下午1:10開始販賣，之前會排隊發號碼牌。
5946012063,采宏健保藥局,臺東縣臺東市中正路２１１號,121.1543,22.75488,(089)330197,羅氏家用新冠病毒抗原自我檢測套組,156,2022/05/02 22:48:02,快篩發放時間10:00~
5946080552,伯安健康藥局,臺東縣長濱鄉長濱村１０鄰長濱路１０５號,121.4515,23.31496,(089)832519,羅氏家用新冠病毒抗原自我檢測套組,49,2022/05/02 22:48:02,無
5946101118,伯安藥局,臺東縣池上鄉新生路１１６號,121.2187,23.12315,(089)863585,羅氏家用新冠病毒抗原自我檢測套組,170,2022/05/02 22:48:02,早0800-1200，午1400-1800，晚1800-2000
