醫事機構代碼,醫事機構名稱,醫事機構地址,經度,緯度,醫事機構電話,廠牌項目,快篩試劑截至目前結餘存貨數量,來源資料時間,備註
2333140017,新竹縣五峰鄉衛生所,新竹縣五峰鄉大隘村六鄰９９號,121.1194,24.63184,(03)5851005,羅氏家用新冠病毒抗原自我檢測套組,16,2022/05/11 13:20:02,無
2338070010,南投縣鹿谷鄉衛生所,南投縣鹿谷鄉中正路二段２０號,120.7542,23.74488,(049)2752002,羅氏家用新冠病毒抗原自我檢測套組,78,2022/05/11 13:20:02,快篩試劑販售時間 上班日（星期一至星期五）14:00~16:00
2340170016,嘉義縣大埔鄉衛生所,嘉義縣大埔鄉大埔村５３－１號,120.5928,23.29397,(05)2521214,羅氏家用新冠病毒抗原自我檢測套組,51,2022/05/11 13:20:02,無
2342260013,高雄市桃源區衛生所,高雄市桃源區桃源里南進巷１８８－１號,120.7642,23.15845,(07)6861126,羅氏家用新冠病毒抗原自我檢測套組,3,2022/05/11 13:20:02,IDS提供24小時服務
2342270019,高雄市那瑪夏區衛生所,高雄市那瑪夏區瑪雅里６鄰平和巷２５２號,120.7024,23.24708,(07)6701142,羅氏家用新冠病毒抗原自我檢測套組,1,2022/05/11 13:20:02,春節期間正常門診
2344011036,澎湖縣馬公市第三衛生所,澎湖縣馬公市西文里１１８之２號,119.5836,23.56813,(06)9211723,羅氏家用新冠病毒抗原自我檢測套組,54,2022/05/11 13:20:02,本所快篩試劑只提供離島衛生室（虎井、桶盤）販售，時間週一至週五08:30-17:00售完為止，星期六、日國定假日09:00-12:00。
2344030022,澎湖縣白沙鄉鳥嶼衛生所,澎湖縣白沙鄉鳥嶼村漁港新村３號,119.6599,23.66008,(06)9916092,羅氏家用新冠病毒抗原自我檢測套組,173,2022/05/11 13:20:02,非上班時間提供急診服務
2344030031,澎湖縣白沙鄉吉貝衛生所,澎湖縣白沙鄉吉貝村８－１３號,119.6138,23.74056,(06)9911430,羅氏家用新冠病毒抗原自我檢測套組,264,2022/05/11 13:20:02,無
2344050015,澎湖縣望安鄉衛生所,澎湖縣望安鄉西安村３６－７號,119.4972,23.36161,(06)9991036,羅氏家用新冠病毒抗原自我檢測套組,52,2022/05/11 13:20:02,夜間急診。快篩試劑販售時間為:每日08:00-12:00、13:30-17:30售完為止，如有餘數為離島未售出（東嶼坪、花嶼）。
2344050024,澎湖縣望安鄉將軍衛生所,澎湖縣望安鄉將軍村１２鄰將軍澳１之３號,119.5216,23.3615,(06)9902066,羅氏家用新冠病毒抗原自我檢測套組,33,2022/05/11 13:20:02,24小時急診
2345120016,花蓮縣萬榮鄉衛生所,花蓮縣萬榮鄉萬榮村１鄰１６號,121.4092,23.71558,(03)8751651,羅氏家用新冠病毒抗原自我檢測套組,156,2022/05/11 13:20:02,快篩試劑代售時間：週一至週五下午2點至下午4點，販售為止。
2345130012,花蓮縣卓溪鄉衛生所,花蓮縣卓溪鄉卓溪村中正路６５號,121.3033,23.33294,(03)8882592,羅氏家用新冠病毒抗原自我檢測套組,20,2022/05/11 13:20:02,快篩試劑代售時間：週一至週五上午8：30-11：00（售完即結束）
2346070015,臺東縣東河鄉衛生所,臺東縣東河鄉東河村南東河路１０鄰３００號,121.3031,22.96846,(089)896289,羅氏家用新冠病毒抗原自我檢測套組,78,2022/05/11 13:20:02,快篩試劑販售時間:◆平日（星期一三四五）上午9-11時販售，星期二下午13-15時販售售完為止。
2346140012,台東縣達仁鄉衛生所,臺東縣達仁鄉安朔村復興路１２２號,120.8836,22.29488,(089)702209,羅氏家用新冠病毒抗原自我檢測套組,81,2022/05/11 13:20:02,12／31 元旦連假
2346160014,台東縣蘭嶼鄉衛生所,臺東縣蘭嶼鄉紅頭村３６號,121.5546,22.02493,(089)732575,羅氏家用新冠病毒抗原自我檢測套組,52,2022/05/11 13:20:02,販售口罩時間 星期一至星期五 8:00~12:00 13:30~17:30
2391020010,連江縣北竿鄉衛生所,連江縣北竿鄉塘岐村２８１－６號,119.9991,26.22617,(083)655592,羅氏家用新冠病毒抗原自我檢測套組,35,2022/05/11 13:20:02,新冠快篩試劑販售於週一至周六每日上午08:30-12:00開放購買。
2391030016,連江縣莒光鄉西莒衛生所,連江縣莒光鄉青帆村１４－１號,119.9331,25.97157,(083)689122,羅氏家用新冠病毒抗原自我檢測套組,207,2022/05/11 13:20:02,防疫口罩星期一至五09:00-17:00、（六）09:00-12:00現場購買
2391030026,連江縣莒光鄉東莒衛生所,連江縣莒光鄉大坪村３０－１號,119.9731,25.96113,(083)689038,羅氏家用新冠病毒抗原自我檢測套組,436,2022/05/11 13:20:02,防疫口罩星期一至星期日上午10:00-12:00收取健保卡，下午3:30至本所領取口罩。
5901010165,傑安藥局,臺北市松山區八德路２段４３７巷７弄８號１樓,121.5473,25.04914,(02)27524155,羅氏家用新冠病毒抗原自我檢測套組,3,2022/05/11 13:20:02,9:30開始發號碼牌
5901010192,益華藥局,臺北市松山區民生東路５段１３８巷６號,121.5615,25.05827,(02)27624898,羅氏家用新冠病毒抗原自我檢測套組,10,2022/05/11 13:20:02,無
5901010272,德靈藥局,臺北市松山區富錦街５４８號,121.5667,25.06178,(02)27646998,羅氏家用新冠病毒抗原自我檢測套組,2,2022/05/11 13:20:02,週日休 .
5901012570,予志藥局,臺北市松山區富錦街５２１號,121.5649,25.06119,(02)27623522,羅氏家用新冠病毒抗原自我檢測套組,1,2022/05/11 13:20:02,實名制快篩星期一到三下午2點、星期四到六晚上8點、星期日停售
5901012598,婕登藥局,臺北市松山區八德路４段６９９號,121.5766,25.05021,(02)27482893,羅氏家用新冠病毒抗原自我檢測套組,14,2022/05/11 13:20:02,今天快篩已經發送完畢（電腦庫存不準）
5901012749,躍獅松和藥局,臺北市松山區八德路四段６６６－１號,121.5761,25.04979,(02)27492569,羅氏家用新冠病毒抗原自我檢測套組,78,2022/05/11 13:20:02,實名制快篩販售時段，每日下午4點販售，售完為止
5901013095,康采藥局,臺北市松山區南京東路５段２９１巷１７－２號,121.5663,25.05236,(02)27670271,羅氏家用新冠病毒抗原自我檢測套組,15,2022/05/11 13:20:02,（已完售，庫存不準）快篩試劑每日16點販售，週日沒有販售
5901013399,一安正昇藥局,臺北市松山區南京東路５段３０９號,121.5667,25.05155,(02)27680993,羅氏家用新冠病毒抗原自我檢測套組,1,2022/05/11 13:20:02,快篩發放時間  下午14:30
5901013442,松山八德藥局,臺北市松山區八德路２段４００號,121.5466,25.04804,(02)27782773,羅氏家用新冠病毒抗原自我檢測套組,78,2022/05/11 13:20:02,快篩實名制，每天16:00開始販售，售完為止。
5901013595,巧心藥局,臺北市松山區八德路３段１２巷５７弄３９之３號１樓,121.5521,25.04567,(02)25703728,羅氏家用新冠病毒抗原自我檢測套組,127,2022/05/11 13:20:02,快篩試劑14:00販售，售完為止．
5901013693,民生盛康藥局,臺北市松山區民生東路５段２０４號１樓,121.5648,25.05826,(02)27460758,羅氏家用新冠病毒抗原自我檢測套組,88,2022/05/11 13:20:02,【每日70分】星期一~六9:00發號碼牌，11:00~20:00拿號碼牌回來領取，每人限1張號碼牌，逾時不候
5901013737,全欣藥局,臺北市松山區復興北路７３號２樓,121.5442,25.05104,(02)87729066,羅氏家用新冠病毒抗原自我檢測套組,48,2022/05/11 13:20:02,9:00am開始販售30人份15:00販售30人份:18:00販售17人份；週六:9:00販售39人份；週日:15:00販售39人份....排隊人數滿會先發號碼
5901020303,宏恩藥局,臺北市大安區大安路１段１８１號,121.5461,25.03619,(02)27000956,羅氏家用新冠病毒抗原自我檢測套組,5,2022/05/11 13:20:02,實名制快篩每周一~六，10:00發放號碼牌， 後於12:00~21:00自由擇時，持號碼牌領取快篩並收費
5901020385,延吉大藥局,臺北市大安區延吉街１５３號１樓,121.5548,25.04066,(02)27819227,羅氏家用新冠病毒抗原自我檢測套組,63,2022/05/11 13:20:02,無
5901024098,杏一瑞安藥局,臺北市大安區瑞安街２０８巷１１弄１號,121.5406,25.02866,(02)27096710,羅氏家用新冠病毒抗原自我檢測套組,78,2022/05/11 13:20:02,3點發快篩，前5分鐘發牌
5901024114,好安心藥局,臺北市大安區和平東路２段９８之２號,121.5415,25.02493,(02)23772166,羅氏家用新冠病毒抗原自我檢測套組,69,2022/05/11 13:20:02,快篩發放: 週一至週六 15:30現場開始販售（人滿提早發售），不發號碼牌。
5901024767,杏一樂業藥局,臺北市大安區樂業街１６２號,121.5535,25.01958,(02)27383194,羅氏家用新冠病毒抗原自我檢測套組,78,2022/05/11 13:20:02,週一~週六快篩下午三點現場直接販售（不發號碼牌），週日無販售。
5901024838,昶青藥局,臺北市大安區濟南路３段２２之１號,121.5346,25.04008,(02)27515678,羅氏家用新冠病毒抗原自我檢測套組,47,2022/05/11 13:20:02,每天下午13:00販售快篩實名制
5901024918,康祥藥局,臺北市大安區忠孝東路４段２１６巷２１號,121.5531,25.04025,(02)27817891,羅氏家用新冠病毒抗原自我檢測套組,2,2022/05/11 13:20:02,星期天11:00-19:00
5901025031,中力信義藥局,臺北市大安區信義路４段５１號（１樓）,121.545,25.03354,(02)23250266,羅氏家用新冠病毒抗原自我檢測套組,15,2022/05/11 13:20:02,下午一點到三點販售實名制快篩（周日不販售）
5901025059,博醫仁愛藥局,臺北市大安區仁愛路４段８巷２號１樓,121.5443,25.0375,(02)27019107,羅氏家用新冠病毒抗原自我檢測套組,22,2022/05/11 13:20:02,每天11:30發號碼牌，12:00~15:00憑號碼牌與健保卡購買實名制快篩
5901092103,新聖安藥局,臺北市大同區昌吉街１３０號,121.5143,25.06584,(02)25977877,羅氏家用新冠病毒抗原自我檢測套組,78,2022/05/11 13:20:02,每日下午2點開賣 （前10分鐘發號碼牌）
5901092130,大同民生藥局,臺北市大同區民生西路１２８號１樓、２樓及１３０號１樓、２樓,121.5191,25.05734,(02)25558886,羅氏家用新冠病毒抗原自我檢測套組,78,2022/05/11 13:20:02,快篩實名制，每天16:00開始販售，售完為止。
5901100422,滿順藥局,臺北市中山區伊通街５４號１樓,121.5347,25.05145,(02)25075283,羅氏家用新冠病毒抗原自我檢測套組,1,2022/05/11 13:20:02,快篩服務時間 AM 8:30 起 售完為止
5901101652,祥泰藥局,臺北市中山區林森北路１３６號,121.5251,25.05142,(02)25313097,羅氏家用新冠病毒抗原自我檢測套組,45,2022/05/11 13:20:02,快篩下午一點開始 星期六三點開始 現場排隊
5901101910,嘉恩藥局,臺北市中山區錦州街３２１號,121.5385,25.06033,(02)25181418,羅氏家用新冠病毒抗原自我檢測套組,101,2022/05/11 13:20:02,週一至週六下午一點販售快篩試劑
5901101929,樂活苑藥局,臺北市中山區北安路５４６號１樓,121.548,25.08014,(02)25323296,羅氏家用新冠病毒抗原自我檢測套組,120,2022/05/11 13:20:02,實名制快篩代售時間為18:00~19:00.現場排隊，不發號碼牌.
5901101992,大愛藥師藥局,臺北市中山區吉林路２５５號１樓,121.5304,25.06165,(02)25424723,羅氏家用新冠病毒抗原自我檢測套組,84,2022/05/11 13:20:02,週一~週五13:55發放號碼牌14:00發放快篩，週六、週日休息
5901102015,久大藥局,臺北市中山區林森北路４８０號,121.5255,25.06127,(02)25111594,羅氏家用新冠病毒抗原自我檢測套組,51,2022/05/11 13:20:02,即日起周一至周六下午1:00-4:00領取口罩。 周日休息
5901102837,正傑健保藥局,臺北市中山區長安東路２段１８１號,121.5426,25.04839,(02)27310181,羅氏家用新冠病毒抗原自我檢測套組,78,2022/05/11 13:20:02,下午四點開始販售
5901103192,昶青林森藥局,臺北市中山區林森北路１１９巷５２號,121.5269,25.05018,(02)25639939,羅氏家用新冠病毒抗原自我檢測套組,78,2022/05/11 13:20:02,口罩代售平日10:30-20:00，例假日13:30-18:00 售完為止
5901103325,仁一藥局,臺北市中山區林森北路５２０號,121.5255,25.06232,(02)25711742,羅氏家用新冠病毒抗原自我檢測套組,78,2022/05/11 13:20:02,快篩發放時間每日下午2點
5901103656,大樹龍江藥局,臺北市中山區龍江路２４２號,121.5406,25.05889,(02)25035666,羅氏家用新冠病毒抗原自我檢測套組,78,2022/05/11 13:20:02,快篩實名制，每天16:00開始販售，售完為止。
5901103736,杏一龍錦藥局,臺北市中山區龍江路２７９號１樓,121.5408,25.05973,(02)25174618,羅氏家用新冠病毒抗原自我檢測套組,5,2022/05/11 13:20:02,快篩提供時段週一到週六 9:00-12:00 週日不提供發放!!! 不發號碼牌 每日販售78人次 售完為止＞＜
5901103745,吉林藥局,臺北市中山區吉林路３７１號（１樓）,121.5305,25.06511,(02)25865990,羅氏家用新冠病毒抗原自我檢測套組,78,2022/05/11 13:20:02,快篩實名制，每天16:00開始販售，售完為止。
5901110133,泰成藥局,臺北市內湖區內湖路３段１３５號１樓,121.5899,25.08685,(02)27921231,羅氏家用新冠病毒抗原自我檢測套組,37,2022/05/11 13:20:02,口罩販售:上午9:00開始發號碼牌，9點同步販售.
5901110311,永安藥局,臺北市內湖區文德路２１０巷３０弄４８號,121.5852,25.07723,(02)26586658,羅氏家用新冠病毒抗原自我檢測套組,41,2022/05/11 13:20:02,口罩販售時間早上10點開始發號碼牌  同時販售
5901110624,宏光藥局,臺北市內湖區成功路２段２２１號１樓,121.5909,25.06738,(02)27919068,羅氏家用新冠病毒抗原自我檢測套組,76,2022/05/11 13:20:02,快篩實名制13:30開始販售（現場排隊不發號碼牌售完為止）
5901111890,安康藥局,臺北市內湖區安康路４８２號,121.6158,25.06785,(02)26327675,羅氏家用新冠病毒抗原自我檢測套組,78,2022/05/11 13:20:02,無
5901112351,康信藥局,臺北市內湖區民權東路６段２９６巷２９號,121.6062,25.07203,(02)26342088,羅氏家用新冠病毒抗原自我檢測套組,63,2022/05/11 13:20:02,無
5901112682,富康東湖藥局,臺北市內湖區東湖路１１９巷４９弄１６號,121.617,25.06988,(02)26323222,羅氏家用新冠病毒抗原自我檢測套組,70,2022/05/11 13:20:02,視快篩實際到貨時間販售；LINE社群搜尋「富康藥局東湖店」會有第一線消息
5901113018,桔子藥局,臺北市內湖區內湖路２段３３３號,121.5917,25.08319,(02)27930052,羅氏家用新冠病毒抗原自我檢測套組,78,2022/05/11 13:20:02,早0900-1200，午1400-1700，晚1900-2100
5901113385,躍獅康成藥局,臺北市內湖區成功路４段６１巷１１號,121.5928,25.0814,(02)87922031,羅氏家用新冠病毒抗原自我檢測套組,78,2022/05/11 13:20:02,如有收到政府配送，實名制快篩13:40發號碼牌，14:00開賣。實名制口罩已無販售。
5901113456,佑全內湖康寧藥局,臺北市內湖區康寧路３段３９號、３９號２樓、４１號、４３號,121.6078,25.07264,(02)26346578,羅氏家用新冠病毒抗原自我檢測套組,78,2022/05/11 13:20:02,實名制快篩14:00販售 13:50發號碼牌
5901113661,內湖藥局,臺北市內湖區康寧路１段１１６號１樓,121.5934,25.07948,(02)27940545,羅氏家用新冠病毒抗原自我檢測套組,78,2022/05/11 13:20:02,快篩實名制，每天16:00開始販售，售完為止。
5901121841,泓安藥局,臺北市南港區興華路７５號,121.6061,25.05517,(02)27861083,羅氏家用新冠病毒抗原自我檢測套組,14,2022/05/11 13:20:02,星期一至星期日早上10:00開賣快篩試劑
5901121912,成恩藥局,臺北市南港區成福路２３號,121.5867,25.04473,(02)27856602,羅氏家用新冠病毒抗原自我檢測套組,124,2022/05/11 13:20:02,快篩販賣時間：平日 周一到周五 下午3:00~5:00，現場排隊不發放號碼牌
5901150271,建芳藥局,臺北市士林區德行東路１４８號,121.5296,25.10804,(02)28357172,羅氏家用新冠病毒抗原自我檢測套組,14,2022/05/11 13:20:02,無
5901150575,日康藥局,臺北市士林區士東路１２號１樓,121.5267,25.11168,(02)28358558,羅氏家用新冠病毒抗原自我檢測套組,24,2022/05/11 13:20:02,無
5901152079,資生堂藥局,臺北市士林區承德路４段４０巷１７號１Ｆ,121.522,25.08107,(02)28857588,羅氏家用新冠病毒抗原自我檢測套組,107,2022/05/11 13:20:02,今日快篩已售完
5901152659,和樹藥局,臺北市士林區後港街４５巷１號１樓,121.5228,25.08444,(02)28821188,羅氏家用新冠病毒抗原自我檢測套組,78,2022/05/11 13:20:02,週日公休，周一早上9:30
5901152873,幸福藥局,臺北市士林區德行東路１０９巷８號,121.5284,25.10812,(02)28346650,羅氏家用新冠病毒抗原自我檢測套組,74,2022/05/11 13:20:02,Covid-19試劑販售時間:每日下午2點15分至下午5點販售（含星日（如果有貨））售完為止
5901153263,健揚藥局,臺北市士林區延平北路５段２５１號,121.5097,25.08483,(02)28163698,羅氏家用新冠病毒抗原自我檢測套組,6,2022/05/11 13:20:02,每日下午13:30開始販售
5901153610,家安健保藥局,臺北市士林區德行東路１０９巷１１９號,121.5288,25.11156,(02)28322182,羅氏家用新冠病毒抗原自我檢測套組,2,2022/05/11 13:20:02,因目前當日販售快篩當日配送，目前銷售時間改為下午4:00 造成不便 敬請見諒
5901153674,愛佳藥局,臺北市士林區承德路４段２２２之１號,121.5215,25.0885,(02)28811199,羅氏家用新冠病毒抗原自我檢測套組,78,2022/05/11 13:20:02,實名制快篩平日一~五下午5:00販售，假日（六、日）不販售
5901154000,文昌大藥局,臺北市士林區文昌路７２號１樓,121.5213,25.09634,(02)28376196,羅氏家用新冠病毒抗原自我檢測套組,61,2022/05/11 13:20:02,1.5／11-5／17 14:00販售實名制快篩  2.每日提供18份 醫護警消郵差憑證購買 限10:00開放 3.自費快篩已到貨
5901154019,忠義台安藥局,臺北市士林區忠義街７２號１樓,121.5315,25.106,(02)28380685,羅氏家用新冠病毒抗原自我檢測套組,68,2022/05/11 13:20:02,下午2點開始販售快篩試劑
5901154028,向宇藥局,臺北市士林區德行東路２１７號１樓,121.5328,25.10935,(02)88661101,羅氏家用新冠病毒抗原自我檢測套組,9,2022/05/11 13:20:02,無
5901154082,德行盛康藥局,臺北市士林區德行東路２０６之１號１樓,121.532,25.1089,(02)28348756,羅氏家用新冠病毒抗原自我檢測套組,4,2022/05/11 13:20:02,無
5901154135,誠泰中西藥局,臺北市士林區永平街１３號１樓,121.5051,25.08996,(02)88112352,羅氏家用新冠病毒抗原自我檢測套組,78,2022/05/11 13:20:02,周一到周六晚上7:00開始販賣，   周日上午10:00開賣到下午1:00
5901160062,丸三大藥局,臺北市北投區自強街１０５號,121.5153,25.11086,(02)28230637,羅氏家用新冠病毒抗原自我檢測套組,78,2022/05/11 13:20:02,實名制快篩試劑13:30開始販售
5901160099,進春藥局,臺北市北投區明德路１５１號,121.5206,25.11086,(02)28216938,羅氏家用新冠病毒抗原自我檢測套組,38,2022/05/11 13:20:02,無休 上午九點開始販售，現場排隊。（依現場公告為主）
5901160222,新祥藥局,臺北市北投區知行路２０８號－１,121.4668,25.11935,(02)28582551,羅氏家用新冠病毒抗原自我檢測套組,78,2022/05/11 13:20:02,實名制快篩下午1:30分發放號碼牌，隨後依照號碼牌發售，周日休息
5901160428,九福藥局,臺北市北投區公館路２３６號,121.5081,25.12612,(02)28953009,羅氏家用新冠病毒抗原自我檢測套組,51,2022/05/11 13:20:02,★週日店休未營業. 快篩下午1點發號碼牌
5901160517,弘安藥局,臺北市北投區懷德街３３號１樓,121.5193,25.11219,(02)28206390,羅氏家用新冠病毒抗原自我檢測套組,77,2022/05/11 13:20:02,快篩每日下午2:00開賣，現場購買售完為止
5901162833,維康藥局,臺北市北投區石牌路２段１９１．１９３號,121.5184,25.11874,(02)28206343,羅氏家用新冠病毒抗原自我檢測套組,2,2022/05/11 13:20:02,快篩發放時間為每日下午3點排隊，現場購賣
5901163269,佳祈健保藥局,臺北市北投區明德路１４４號,121.5208,25.11047,(02)28232535,羅氏家用新冠病毒抗原自我檢測套組,76,2022/05/11 13:20:02,無
5901163536,天富大藥局,臺北市北投區石牌路２段１７１號（實際使用：１樓）,121.518,25.11848,(02)28225812,羅氏家用新冠病毒抗原自我檢測套組,15,2022/05/11 13:20:02,週一至週六下午2-3點直接販售；週日暫停販售
5901163581,陳藥師藥局,臺北市北投區光明路２巷１３－２號（實際使用：１樓）,121.4997,25.13132,(02)28921971,羅氏家用新冠病毒抗原自我檢測套組,78,2022/05/11 13:20:02,無
5901163634,心樂藥局,臺北市北投區致遠一路２段１０５號１樓,121.5128,25.1131,(02)28210261,羅氏家用新冠病毒抗原自我檢測套組,36,2022/05/11 13:20:02,您好。發放快篩時間:周一二三五六早上8:30-09:00，週四加開早上10-11點，周一二三五 下午4:00-4:30，周日及國定假日休息
5901163652,康賢藥局,臺北市北投區西安街１段３５９號１樓,121.5153,25.11429,(02)28219295,羅氏家用新冠病毒抗原自我檢測套組,28,2022/05/11 13:20:02,週一至週六下午1:00起販售快篩，週日及國定假日公休。
5901170139,福華藥局,臺北市信義區吳興街２８１巷３號１樓,121.5643,25.02656,(02)27208527,羅氏家用新冠病毒抗原自我檢測套組,156,2022/05/11 13:20:02,現階段下午1:30配合政府發售快篩試劑
5901170184,臺陽藥局,臺北市信義區大道路６１號,121.5823,25.04136,(02)27283403,羅氏家用新冠病毒抗原自我檢測套組,7,2022/05/11 13:20:02,快篩試劑早上9:30現場販售，週日沒有販售
5901170648,立信藥局,臺北市信義區松山路４０３號,121.578,25.04144,(02)27687754,羅氏家用新冠病毒抗原自我檢測套組,3,2022/05/11 13:20:02,快篩試劑販賣時間:晚上七點至九點
5901170906,吳興藥局,臺北市信義區吳興街２７９號１樓,121.5642,25.02658,(02)27208328,羅氏家用新冠病毒抗原自我檢測套組,22,2022/05/11 13:20:02,實名制快篩販售時間，周一至周六13：00現場排隊購買（勿電話追問）
5901170915,杏仁藥局,臺北市信義區大道路１３５號,121.5834,25.03901,(02)27262541,羅氏家用新冠病毒抗原自我檢測套組,14,2022/05/11 13:20:02,實名制快篩:週一至週五下午3點販售，週六週日無販售
5901172179,新和平藥局,臺北市信義區虎林街１９８號１樓,121.5769,25.03844,(02)23460951,羅氏家用新冠病毒抗原自我檢測套組,19,2022/05/11 13:20:02,每星期一至星期六早上10點起   發放實名制快篩試劑 .星期日休息
5901172213,華泰藥局,臺北市信義區虎林街８２巷５號,121.5769,25.04335,(02)27601992,羅氏家用新冠病毒抗原自我檢測套組,3,2022/05/11 13:20:02,快篩 ／ 早上 8:30  開始販售 . 售完為止 .
5901172240,德康大藥局,臺北市信義區松山路５４１巷２１號,121.579,25.03794,(02)27272502,羅氏家用新冠病毒抗原自我檢測套組,4,2022/05/11 13:20:02,今日無快篩
5901172740,信桉藥局,臺北市信義區莊敬路２３６號,121.5621,25.0296,(02)87860005,羅氏家用新冠病毒抗原自我檢測套組,7,2022/05/11 13:20:02,快篩販售 W1-5 11:00-20:00，W6 11:00-15:00
5901173238,正和藥局,臺北市信義區吳興街２２５巷６號,121.5634,25.02782,(02)23455186,羅氏家用新冠病毒抗原自我檢測套組,61,2022/05/11 13:20:02,下午2點半發放快篩，週日無發放
5901173818,博亞藥局,臺北市信義區莊敬路４６２號,121.5677,25.02672,(02)27580506,羅氏家用新冠病毒抗原自我檢測套組,39,2022/05/11 13:20:02,平日早上8:30、晚上8:00；假日早上8:30，發放號碼牌，持號碼牌購買!
5901173881,壹間藥師藥局,臺北市信義區虎林街１２０巷１４８號,121.5742,25.04213,(02)27672833,羅氏家用新冠病毒抗原自我檢測套組,1,2022/05/11 13:20:02,5／11（三）10:30實名制快篩開始販售
5901173943,躍獅興雅藥局,臺北市信義區松德路１２８號,121.5745,25.03734,(02)87808429,羅氏家用新冠病毒抗原自我檢測套組,78,2022/05/11 13:20:02,14:00發號碼牌且同步開賣快篩，販賣至15:00或售完為止，週日無販售。
5901174057,詠晴中西藥局,臺北市信義區松山路４８４之４號（１樓含夾層）,121.5778,25.0389,(02)27266890,羅氏家用新冠病毒抗原自我檢測套組,81,2022/05/11 13:20:02,實名制快篩 - 16:30領號碼牌.當天取貨即可.避免群聚風險
5901174066,愛維喜藥局,臺北市信義區莊敬路２７８號１樓,121.5627,25.02882,(02)27586989,羅氏家用新冠病毒抗原自我檢測套組,75,2022/05/11 13:20:02,快篩周一至五15:30.周六8:30開賣.約30分前收健保卡現金500元1張.發號碼牌
5901174075,信義盛康藥局,臺北市信義區永吉路２８６號（１樓）,121.5744,25.04538,(02)23460521,羅氏家用新冠病毒抗原自我檢測套組,6,2022/05/11 13:20:02,無
5901174084,市政藥局,臺北市信義區忠孝東路５段１６９號１樓、１７１號１樓,121.5688,25.0412,(02)27560050,羅氏家用新冠病毒抗原自我檢測套組,78,2022/05/11 13:20:02,快篩實名制，每天16:00開始販售，售完為止。
5901184080,活力健康藥妝藥局,臺北市中正區中華路２段３１５巷１號,121.5062,25.02795,(02)23392625,羅氏家用新冠病毒抗原自我檢測套組,54,2022/05/11 13:20:02,快篩14:00-15:00， 建議提早排隊
5901184179,保德中華藥局,臺北市中正區中華路２段１５９號,121.5042,25.03101,(02)23027720,羅氏家用新冠病毒抗原自我檢測套組,78,2022/05/11 13:20:02,快篩下午三點開始發號碼牌及販售，限當日購買
5901184553,珍忻藥局,臺北市中正區南昌路１段６５號,121.5174,25.03107,(02)23965115,羅氏家用新冠病毒抗原自我檢測套組,45,2022/05/11 13:20:02,健保快篩發放:13:20及18:20分兩梯次發號碼牌
5901184679,汀州藥局,臺北市中正區汀州路１段１８７、１８９、１９１號（１樓）,121.5112,25.02704,(02)23090705,羅氏家用新冠病毒抗原自我檢測套組,78,2022/05/11 13:20:02,快篩實名制，每天16:00開始販售，售完為止。
5901190033,世欣藥局,臺北市萬華區東園街１７３號１Ｆ,121.4973,25.02419,(02)23074263,羅氏家用新冠病毒抗原自我檢測套組,78,2022/05/11 13:20:02,防疫快篩劑服務時間週一至五14:00-16:00週六10:00-12:00
5901190079,建和藥局,臺北市萬華區青年路１６８巷４４號,121.5016,25.01987,(02)23010838,羅氏家用新冠病毒抗原自我檢測套組,2,2022/05/11 13:20:02,春節期間看診時段請電洽
5901190426,皇祥藥局,臺北市萬華區萬青街１６５號１樓,121.5016,25.02279,(02)23375676,羅氏家用新冠病毒抗原自我檢測套組,77,2022/05/11 13:20:02,有貨時每天下午2點販售 五份醫護人員
5901190668,聯慶大藥局,臺北市萬華區萬大路３０６號１樓,121.5003,25.02495,(02)23039850,羅氏家用新冠病毒抗原自我檢測套組,1,2022/05/11 13:20:02,無
5901190784,欣安藥局,臺北市萬華區東園街１９０、１９２號,121.4983,25.02177,(02)23327830,羅氏家用新冠病毒抗原自我檢測套組,31,2022/05/11 13:20:02,販售時間13:00，售完為止
5901192448,健誠大藥局,臺北市萬華區環河南路２段１８５號,121.4919,25.03246,(02)23042223,羅氏家用新冠病毒抗原自我檢測套組,1,2022/05/11 13:20:02,實名制快篩販售：周一至周五早上9點開始，周六、周日早上10點開始
5901192975,萬華藥局,臺北市萬華區萬大路２４８號實際營業地址１樓、２樓,121.5003,25.02626,(02)23012221,羅氏家用新冠病毒抗原自我檢測套組,78,2022/05/11 13:20:02,快篩實名制，每天16:00開始販售，售完為止。
5901193070,榮勝藥局,臺北市萬華區萬大路２３３號,121.5006,25.02649,(02)23331121,羅氏家用新冠病毒抗原自我檢測套組,6,2022/05/11 13:20:02,每日快篩早上十一點開始販售
5901193221,正盛藥局,臺北市萬華區中華路２段４３４－１號,121.5064,25.02708,(02)23050386,羅氏家用新冠病毒抗原自我檢測套組,69,2022/05/11 13:20:02,【5／9自費快篩+血氧機到貨!!】1.一~六20點，周日不賣 2.排隊人潮多，建議7點左右提前候位 3.詳情看公告或板橋正康臉書
5901193310,和德藥局,臺北市萬華區西園路２段２９２號１樓,121.4935,25.02698,(02)23331522,羅氏家用新冠病毒抗原自我檢測套組,78,2022/05/11 13:20:02,快篩實名制，每天16:00開始販售，售完為止。
5901193329,西園宏越藥局,臺北市萬華區西園路２段２１３號,121.4942,25.02714,(02)23097336,羅氏家用新冠病毒抗原自我檢測套組,17,2022/05/11 13:20:02,實名制快篩下午4點~5點販售
5901193338,艾米力藥師藥局,臺北市萬華區西藏路１０７－２號１樓,121.5035,25.02955,(02)23036583,羅氏家用新冠病毒抗原自我檢測套組,75,2022/05/11 13:20:02,實名制快篩：周一~周五【晚上】7:00販售；周末（六日）早上9:00販售
5901200105,建興藥局,臺北市文山區木柵路２段８１號１樓,121.561,24.98889,(02)29399993,羅氏家用新冠病毒抗原自我檢測套組,23,2022/05/11 13:20:02,星期一至星期日早上8時30分現場販售實名制快篩試劑
5901200114,健群藥局,臺北市文山區景興路４１號,121.5448,24.99717,(02)29328898,羅氏家用新冠病毒抗原自我檢測套組,29,2022/05/11 13:20:02,無
5901201835,巧康藥局,臺北市文山區木新路３段２６２、２６４號,121.5585,24.98132,(02)29372061,羅氏家用新冠病毒抗原自我檢測套組,77,2022/05/11 13:20:02,每日下午2點發放號碼牌，2點15進行快篩販售。請勿離場，離場視同放棄。
5901202047,華君藥局,臺北市文山區興隆路２段６０號,121.5478,24.99955,(02)29319510,羅氏家用新冠病毒抗原自我檢測套組,5,2022/05/11 13:20:02,每天12:00開始販售快篩
5901202216,皇興藥師藥局,臺北市文山區木柵路２段１２１號,121.5621,24.98901,(02)29365553,羅氏家用新冠病毒抗原自我檢測套組,2,2022/05/11 13:20:02,無
5901202396,宇康藥局,臺北市文山區羅斯福路５段２１８巷７號,121.5383,25.00203,(02)29307066,羅氏家用新冠病毒抗原自我檢測套組,2,2022/05/11 13:20:02,無
5901202850,北一藥師藥局,臺北市文山區木新路３段４７號,121.5642,24.98236,(02)22348686,羅氏家用新冠病毒抗原自我檢測套組,5,2022/05/11 13:20:02,實名制快篩：週一至週五14:30開賣（直接排隊）、週六看狀況、週日停售
5901203062,大樹文山藥局,臺北市文山區興隆路３段１３號（１、２、３樓）,121.555,25.00088,(02)29342226,羅氏家用新冠病毒抗原自我檢測套組,78,2022/05/11 13:20:02,快篩實名制，每天16:00開始販售，售完為止。
5901203366,大樹木柵藥局,臺北市文山區木柵路３段１０８號、１１０號（１樓、２樓）,121.5676,24.98866,(02)22340110,羅氏家用新冠病毒抗原自我檢測套組,78,2022/05/11 13:20:02,快篩實名制，每天16:00開始販售，售完為止。
5901203375,大樹景美藥局,臺北市文山區羅斯福路６段２３４之１號,121.5404,24.99244,(02)29322951,羅氏家用新冠病毒抗原自我檢測套組,78,2022/05/11 13:20:02,快篩實名制，每天16:00開始販售，售完為止。
5901203400,富康活力睦新藥局,臺北市文山區木新路３段２１６號,121.5595,24.98153,(02)29393666,羅氏家用新冠病毒抗原自我檢測套組,78,2022/05/11 13:20:02,無
5901203482,健康家藥局,臺北市文山區興隆路２段１３３號１樓,121.5481,25.00011,(02)29330858,羅氏家用新冠病毒抗原自我檢測套組,38,2022/05/11 13:20:02,實名制快篩下午一點開始販售，5／1店休
5902010025,南京藥局,高雄市鹽埕區建國四路３８７號,120.284,22.63279,(07)5514652,羅氏家用新冠病毒抗原自我檢測套組,35,2022/05/11 13:20:02,早上9:00實名制口罩販賣；實名制快篩星期1-6為下午1:00開始販賣，星期日休息，售完為止
5902042661,元春中西藥師藥局,高雄市楠梓區後昌路８３７巷３７號,120.294,22.71109,(07)3605656,羅氏家用新冠病毒抗原自我檢測套組,78,2022/05/11 13:20:02,周1~周6下午16:00開賣快篩，售完為止
5902050592,建昌藥局,高雄市三民區十全一路１０５號１樓,120.3105,22.64469,(07)3232356,羅氏家用新冠病毒抗原自我檢測套組,17,2022/05/11 13:20:02,賣口罩時間：周一至週五下午1:00起，周六至週日上午10:00起，售完為止。
5902050636,嘉益藥局,高雄市三民區重慶街３０號,120.302,22.64223,(07)3110157,羅氏家用新冠病毒抗原自我檢測套組,60,2022/05/11 13:20:02,快篩實名制下午15：00開始販售.
5902050798,友泰藥局,高雄市三民區中和街１６９號,120.2868,22.6388,(07)3125236,羅氏家用新冠病毒抗原自我檢測套組,17,2022/05/11 13:20:02,無
5902050903,皇安藥局,高雄市三民區九如一路４６１號,120.3296,22.63865,(07)3866779,羅氏家用新冠病毒抗原自我檢測套組,1,2022/05/11 13:20:02,營業日0900可先領取號碼牌，上午9:00-12:00及下午3:00~10:.00為販賣快篩時間，售完為止
5902056718,岱安藥局,高雄市三民區熱河二街２３號,120.3018,22.6439,(07)3219946,羅氏家用新冠病毒抗原自我檢測套組,29,2022/05/11 13:20:02,下午1點~5點開始販售實名制快篩（日公休）
5902071528,岩生藥局,高雄市前金區自立一路１５－１號,120.2975,22.63437,(07)2863608,羅氏家用新冠病毒抗原自我檢測套組,66,2022/05/11 13:20:02,營業時間為24小時 過年期間正常營業
5902071546,中華藥局,高雄市前金區中華四路３６３號,120.2987,22.62137,(07)2712779,羅氏家用新冠病毒抗原自我檢測套組,18,2022/05/11 13:20:02,星期日固定休假， 快篩於工作天下午1.00 販售，  現場排隊！
5902100033,旗后藥局,高雄市旗津區中洲三路７１５號,120.2705,22.61096,(07)5715838,羅氏家用新冠病毒抗原自我檢測套組,32,2022/05/11 13:20:02,快篩每日下午1點開賣，售完為止.
5903010038,金宏健保藥局,臺中市豐原區安康路１０３號,120.7258,24.24303,(04)25288262,羅氏家用新冠病毒抗原自我檢測套組,21,2022/05/11 13:20:02,星期一至星期六上午9:00-晚上9:00下午1點販賣快篩
5903010261,豐原西勢藥局,臺中市豐原區西勢路２００號１樓,120.7067,24.24379,(04)25262330,羅氏家用新冠病毒抗原自我檢測套組,78,2022/05/11 13:20:02,今日快篩下午2:00開賣，1:50發號碼牌，因疫情無法店內排隊，不便之處敬請見諒。
5903010485,大樹圓環藥局,臺中市豐原區圓環東路６１７號１樓,120.7283,24.25084,(04)25122212,羅氏家用新冠病毒抗原自我檢測套組,78,2022/05/11 13:20:02,口罩販售時間：14:00 - 16:00
5903010556,升禾和大藥局,臺中市豐原區育英路２６號１樓,120.7163,24.24346,(04)25293099,羅氏家用新冠病毒抗原自我檢測套組,78,2022/05/11 13:20:02,快篩試劑18:00領取.採現場排隊.售完為止
5903050274,鹿寮藥局,臺中市沙鹿區中山路４６１、４６１－１號１、２樓,120.5615,24.24387,(04)26630677,羅氏家用新冠病毒抗原自我檢測套組,78,2022/05/11 13:20:02,快篩實名制，每天16:00開始販售，售完為止。
5903060092,佑全梧棲文化藥局,臺中市梧棲區文化路二段１５０號１樓,120.531,24.25526,(04)26566433,羅氏家用新冠病毒抗原自我檢測套組,78,2022/05/11 13:20:02,實名快篩下午1：50發號碼牌；14：00開始販售
5903070016,泉興中西大藥局,臺中市后里區甲后路一段５９８號,120.7171,24.30986,(04)25583883,羅氏家用新冠病毒抗原自我檢測套組,9,2022/05/11 13:20:02,無
5903080094,灃洲大藥局,臺中市神岡區豐洲路４６６－３號１樓,120.7045,24.26179,(04)25150169,羅氏家用新冠病毒抗原自我檢測套組,4,2022/05/11 13:20:02,星期日公休，實名制快篩販售時間為每日下午三點
5903080138,佑全神岡中山藥局,臺中市神岡區中山路５４９、５４９之１、５４９之２號１樓,120.6842,24.24638,(04)25634677,羅氏家用新冠病毒抗原自我檢測套組,78,2022/05/11 13:20:02,每日下午1點50分發號碼牌2點開賣
5903100135,大雅安德藥局,臺中市大雅區中清東路２２９號１樓,120.6469,24.22459,(04)25604133,羅氏家用新冠病毒抗原自我檢測套組,73,2022/05/11 13:20:02,5／11（三）。實名制快篩13:30領取號碼牌，14:00販賣，不找零，每張卡隔一個月買一次，限每人一卡一份
5903150153,溪南藥局,臺中市烏日區溪南路一段５６５號１樓,120.6431,24.07523,(04)23353666,羅氏家用新冠病毒抗原自我檢測套組,78,2022/05/11 13:20:02,快篩實名制，每天16:00開始販售，售完為止。
5903180062,霧峰安德藥局,臺中市霧峰區中正路１１３５號１樓,120.6992,24.07002,(04)23300365,羅氏家用新冠病毒抗原自我檢測套組,76,2022/05/11 13:20:02,快篩代售時間14:00。13:40發號碼牌，過號即代表放棄。售完為止。
5903180142,峰正藥局,臺中市霧峰區中正路８３０號１樓,120.6987,24.06244,(04)23303353,羅氏家用新冠病毒抗原自我檢測套組,78,2022/05/11 13:20:02,快篩實名制，每天16:00開始販售，售完為止。
5903190022,藥源藥局,臺中市太平區中山路４段２２０號,120.7019,24.14817,(04)23955108,羅氏家用新冠病毒抗原自我檢測套組,1,2022/05/11 13:20:02,無
5903190273,太平小林健保藥局,臺中市太平區育賢路５１８號,120.7133,24.15883,(04)23954436,羅氏家用新冠病毒抗原自我檢測套組,52,2022/05/11 13:20:02,每天早上8點發號碼牌，下午4:30販售口罩
5903190362,太平中山藥局,臺中市太平區中山路４段１１號,120.7139,24.14931,(04)23959200,羅氏家用新冠病毒抗原自我檢測套組,78,2022/05/11 13:20:02,快篩實名制，每天16:00開始販售，售完為止。
5903200229,信元藥局,臺中市大里區益民路２段３７２號１樓,120.684,24.11545,(04)24876051,羅氏家用新冠病毒抗原自我檢測套組,51,2022/05/11 13:20:02,下午5點發號碼牌並依序販賣
5903200443,佳霖藥局,臺中市大里區塗城路９６４號１樓,120.6933,24.09081,(04)24960895,羅氏家用新冠病毒抗原自我檢測套組,1,2022/05/11 13:20:02,健保卡快篩:（周日和周三停賣）.請備好健保卡和500元整.下午3點半開賣.現場排隊／售完為止
5903200685,塗城藥局,臺中市大里區中興路一段１８７、１８９、１９１號１樓,120.6933,24.09008,(04)24967234,羅氏家用新冠病毒抗原自我檢測套組,78,2022/05/11 13:20:02,快篩實名制，每天16:00開始販售，售完為止。
5903200756,佑全大里大明藥局,臺中市大里區大明路３６０、３６２號,120.6787,24.11511,(04)24818633,羅氏家用新冠病毒抗原自我檢測套組,79,2022/05/11 13:20:02,實名制快篩，開賣時間:下午14:00，售完為止
5903220141,雙十小林健保藥局,臺中市中區雙十路一段３５號,120.6855,24.14172,(04)22253662,羅氏家用新冠病毒抗原自我檢測套組,63,2022/05/11 13:20:02,每日8點販賣
5903220169,公園大藥局,臺中市中區公園路９５號１樓,120.6796,24.1462,(04)22062682,羅氏家用新冠病毒抗原自我檢測套組,41,2022/05/11 13:20:02,每日上午8點至下午11點59分
5903220178,佑全台中中華藥局,臺中市中區中華路一段１６２號１樓,120.6779,24.14605,(04)22291556,羅氏家用新冠病毒抗原自我檢測套組,78,2022/05/11 13:20:02,下午01:40開始發放號碼牌!! 售完為止!! 一人一卡一盒
5903230156,樂業小林健保藥局,臺中市東區樂業路４４３號１樓,120.7062,24.13693,(04)22139123,羅氏家用新冠病毒抗原自我檢測套組,8,2022/05/11 13:20:02,無
5903230218,十甲東亞藥師大藥局,臺中市東區十甲路４１０號１樓,120.7081,24.14425,(04)22118879,羅氏家用新冠病毒抗原自我檢測套組,34,2022/05/11 13:20:02,實名快篩 星期一至六 每日下午一點至五點販售 售完為止
5903230227,東區小林健保藥局,臺中市東區十甲路４８５號１樓,120.7104,24.14464,(04)22135148,羅氏家用新冠病毒抗原自我檢測套組,41,2022/05/11 13:20:02,無
5903240447,大樹五權藥局,臺中市西區五權路９７－１號１樓,120.6717,24.14626,(04)22022910,羅氏家用新冠病毒抗原自我檢測套組,78,2022/05/11 13:20:02,快篩實名制，每天16:00開始販售，售完為止。
5903240474,佑全台中向上藥局,臺中市西區向上路一段３８６、３８８號１樓,120.6559,24.14688,(04)23204732,羅氏家用新冠病毒抗原自我檢測套組,78,2022/05/11 13:20:02,因政府配貨時間不一，依照門市現場公告時間為主
5903250112,立成藥局,臺中市南區學府路１４３號,120.6739,24.1289,(04)22205915,羅氏家用新冠病毒抗原自我檢測套組,78,2022/05/11 13:20:02,快篩實名制，週一至週六13:30開賣，78份（390劑）售完為止，庫存依現場為準，星期日店休
5903250381,大樹美村藥局,臺中市南區美村南路１２４號,120.667,24.11499,(04)22621113,羅氏家用新冠病毒抗原自我檢測套組,78,2022/05/11 13:20:02,口罩販售時間：14:00 - 16:00
5903250658,田園藥局,臺中市南區學府路１６０號１樓,120.6742,24.12909,(04)22220605,羅氏家用新冠病毒抗原自我檢測套組,1,2022/05/11 13:20:02,每週三公休。每天13:30 開始販售，一人限一卡，依到貨數量販售
5903260449,喜樂藥局,臺中市北區中清路１段３１號,120.677,24.1529,(04)22060423,羅氏家用新冠病毒抗原自我檢測套組,18,2022/05/11 13:20:02,快篩實名制，每日早上9:30開始販售，售完為止。
5903260618,中清小林健保藥局,臺中市北區中清路一段８６、８８號１樓,120.6767,24.15622,(04)22034197,羅氏家用新冠病毒抗原自我檢測套組,45,2022/05/11 13:20:02,24小時營業無公休，早上八點發號碼牌，十二點以後過健保卡發放口罩.
5903260627,明曜藥局,臺中市北區北平路二段１９０號１樓,120.6784,24.17117,(04)22916775,羅氏家用新冠病毒抗原自我檢測套組,22,2022/05/11 13:20:02,快篩下午2點開始販售，現場直接排不發號碼牌。
5903260654,康新藥局,臺中市北區五權路２３２號,120.677,24.15078,(04)22020008,羅氏家用新冠病毒抗原自我檢測套組,12,2022/05/11 13:20:02,無
5903260663,佑全台中五權藥局,臺中市北區五權路４９６號,120.6833,24.15329,(04)22080702,羅氏家用新冠病毒抗原自我檢測套組,78,2022/05/11 13:20:02,因政府配貨時間不一，依照門市現場公告時間為主
5903260707,新藥林藥局,臺中市北區健行路４４５－５號１樓,120.6803,24.15896,(04)22053458,羅氏家用新冠病毒抗原自我檢測套組,77,2022/05/11 13:20:02,.快篩:星期一~星期五 下午3點開始，星期六下午一點，星期三.日公休，現場排隊
5903260734,立得藥局,臺中市北區忠太西路１１號１樓,120.6678,24.15997,(04)22080013,羅氏家用新冠病毒抗原自我檢測套組,31,2022/05/11 13:20:02,固定周一到周六，雨季期間；方便顧客；快篩隨到隨買
5903260798,光恒藥局,臺中市北區五權路２６１號１樓,120.6767,24.15097,(04)22068638,羅氏家用新冠病毒抗原自我檢測套組,56,2022/05/11 13:20:02,快篩 周一到周六早上8:00到12:00 開放購買
5903261008,台中大樹藥局,臺中市北區漢口路三段２６１號,120.6726,24.16703,(04)22981113,羅氏家用新冠病毒抗原自我檢測套組,78,2022/05/11 13:20:02,快篩實名制，每天16:00開始販售，售完為止。
5903261017,多倫多藥局,臺中市北區太原路二段１１號１樓,120.6753,24.16558,(04)22980210,羅氏家用新冠病毒抗原自我檢測套組,49,2022/05/11 13:20:02,無
5903270105,樂得好大藥局,臺中市西屯區上石路２號１樓,120.644,24.16669,(04)24521173,羅氏家用新冠病毒抗原自我檢測套組,2,2022/05/11 13:20:02,試劑09:00販賣（依到貨狀況滾動式調整）
5903270392,瑞德大藥局,臺中市西屯區中清西二街８４號,120.6671,24.17511,(04)22939820,羅氏家用新冠病毒抗原自我檢測套組,31,2022/05/11 13:20:02,固定周一至周日早上9:00開始販售口罩.售完為止
5903270721,舒健藥局,臺中市西屯區西屯路二段２５５號２樓,120.6459,24.17179,(04)27077858,羅氏家用新冠病毒抗原自我檢測套組,78,2022/05/11 13:20:02,公費快篩試劑於周一至周六晚上7點現場排隊購買，週日公休。
5903270865,尚禾藥局,臺中市西屯區青海路一段６５號,120.6548,24.16438,(04)23147688,羅氏家用新冠病毒抗原自我檢測套組,39,2022/05/11 13:20:02,實名制快篩發放：時段一中午12:30~14:00。時段二20：30~22：30。時段一若未發完，餘量將遞延至時段二發放。周日停售。
5903270883,祥和大藥局,臺中市西屯區青海路二段２４０－９號,120.6418,24.17323,(04)27000122,羅氏家用新冠病毒抗原自我檢測套組,38,2022/05/11 13:20:02,快篩下午1:00發放
5903270927,河南小林健保藥局,臺中市西屯區河南路二段２９８號１樓,120.6485,24.17477,(04)24512830,羅氏家用新冠病毒抗原自我檢測套組,10,2022/05/11 13:20:02,固定每日早上8點發放口罩號碼牌，下午4點半開始販售。
5903271022,西屯藥局,臺中市西屯區西屯路三段１５０－４５號１樓,120.621,24.18716,(04)24621822,羅氏家用新冠病毒抗原自我檢測套組,78,2022/05/11 13:20:02,快篩實名制，每天16:00開始販售，售完為止。
5903271031,美十樂中科藥局,臺中市西屯區西屯路三段１６６－６５號１樓,120.6129,24.19035,(04)24610219,羅氏家用新冠病毒抗原自我檢測套組,468,2022/05/11 13:20:02,醫事人員卡片損壞，暫時無法販賣快篩
5903271068,西墩藥局,臺中市西屯區黎明路三段２７５、２７７號１樓,120.6373,24.17812,(04)24510770,羅氏家用新冠病毒抗原自我檢測套組,78,2022/05/11 13:20:02,快篩實名制，每天16:00開始販售，售完為止。
5903271193,何安藥局,臺中市西屯區西屯路二段１０１號Ｂ棟１樓,120.6531,24.16616,(04)23161110,羅氏家用新冠病毒抗原自我檢測套組,78,2022/05/11 13:20:02,快篩實名制，每天16:00開始販售，售完為止。
5903271291,西屯長安藥局,臺中市西屯區成都路３６８號１樓,120.6641,24.17322,(04)22981221,羅氏家用新冠病毒抗原自我檢測套組,78,2022/05/11 13:20:02,快篩實名制，每天16:00開始販售，售完為止。
5903280101,成記大藥局,臺中市南屯區大墩１７街１２３號１樓,120.648,24.15557,(04)23288877,羅氏家用新冠病毒抗原自我檢測套組,28,2022/05/11 13:20:02,快篩實名制下午一點開始販售，現場排隊售完為止。（恕不找零）
5903280334,長益藥局,臺中市南屯區忠勇路９９號,120.6155,24.14971,(04)23899383,羅氏家用新冠病毒抗原自我檢測套組,25,2022/05/11 13:20:02,週一至週六下午13點開始開始販售口罩（當場排隊，不發號碼牌售完為止）
5903280576,佑全黎明藥局,臺中市南屯區黎明路２段２６６號,120.6359,24.14816,(04)23805560,羅氏家用新冠病毒抗原自我檢測套組,78,2022/05/11 13:20:02,實名制快篩販售時間為每日下午兩點，一點50分發放號碼牌
5903280718,樂活藥局,臺中市南屯區大聖街３３２號１樓,120.6508,24.15401,(04)23106301,羅氏家用新冠病毒抗原自我檢測套組,3,2022/05/11 13:20:02,無
5903280807,大樹南屯藥局,臺中市南屯區向上路一段６４３號１樓,120.6486,24.14659,(04)24758887,羅氏家用新冠病毒抗原自我檢測套組,78,2022/05/11 13:20:02,快篩實名制，每天16:00開始販售，售完為止。
5903280898,佑全台中忠勇藥局,臺中市南屯區忠勇路５１－８號１樓,120.614,24.14376,(04)23803282,羅氏家用新冠病毒抗原自我檢測套組,78,2022/05/11 13:20:02,每週一到週六實名制快篩販售14:00（限量78份）不發號碼牌售完為止
5903290063,承恩藥局,臺中市北屯區北屯路４４１－１號１樓,120.7008,24.17977,(04)22467857,羅氏家用新冠病毒抗原自我檢測套組,20,2022/05/11 13:20:02,實名制快篩販售時間為下午4點開始（12:00-15:00中午休息）；星期六休息
5903290394,億銓藥局,臺中市北屯區北屯路２１０－１號,120.6961,24.16756,(04)22313670,羅氏家用新冠病毒抗原自我檢測套組,55,2022/05/11 13:20:02,快篩實名制週一~週五下午1：00開賣、週六上午11：00開賣，週日公休。
5903290661,康博中西健保藥局,臺中市北屯區后庄一街７號１樓,120.6644,24.1865,(04)24252468,羅氏家用新冠病毒抗原自我檢測套組,44,2022/05/11 13:20:02,快篩下午01:00發售53份；晚上06:00銷售25份.週六.日及假日下午06:30開始依配送滾動調整
5903290821,昌平炘星藥局,臺中市北屯區昌平路二段１１－３６號,120.6886,24.18159,(04)22417616,羅氏家用新冠病毒抗原自我檢測套組,4,2022/05/11 13:20:02,快篩禮拜一到禮拜六8:30開賣，禮拜六18:00後公休，禮拜日全日公休
5903290867,軍功啄木鳥藥局,臺中市北屯區軍功路二段１７５號,120.7195,24.17982,(04)22390160,羅氏家用新冠病毒抗原自我檢測套組,78,2022/05/11 13:20:02,每日1520至售完為止
5903290876,北屯軍功藥局,臺中市北屯區軍功路一段７５２號,120.7193,24.17513,(04)24375111,羅氏家用新冠病毒抗原自我檢測套組,78,2022/05/11 13:20:02,快篩實名制，每天16:00開始販售，售完為止。
5903290947,德寶健保藥局,臺中市北屯區熱河路一段７０號１樓,120.687,24.1674,(04)22325511,羅氏家用新冠病毒抗原自我檢測套組,17,2022/05/11 13:20:02,快篩試劑九點開始銷售賣完為止
5903291042,全成北屯藥局,臺中市北屯區北屯路４３９－１１號１樓,120.7004,24.17913,(04)22463518,羅氏家用新冠病毒抗原自我檢測套組,75,2022/05/11 13:20:02,快篩每日下午3:00開始販售
5903291060,大樹北屯藥局,臺中市北屯區松竹路二段４１１號１樓,120.6895,24.18192,(04)22422262,羅氏家用新冠病毒抗原自我檢測套組,78,2022/05/11 13:20:02,快篩實名制，每天16:00開始販售，售完為止。
5903291248,潔西卡大藥局,臺中市北屯區崇德路二段３１４號１樓,120.686,24.1765,(04)22416879,羅氏家用新冠病毒抗原自我檢測套組,1,2022/05/11 13:20:02,無
5905010143,啄木鳥藥師藥局,臺南市新營區新南里民治路２４２號,120.3041,23.30767,(06)6590248,羅氏家用新冠病毒抗原自我檢測套組,77,2022/05/11 13:20:02,每天下午4:00開始販售，售完為止
5905010250,大樹新營藥局,臺南市新營區民權路７４、７６、７８號１樓,120.3127,23.30615,(06)6328300,羅氏家用新冠病毒抗原自我檢測套組,78,2022/05/11 13:20:02,快篩實名制，每天16:00開始販售，售完為止。
5905020023,大樹鹽水藥局,臺南市鹽水區朝琴路１２６－３號１樓,120.271,23.32228,(06)6520432,羅氏家用新冠病毒抗原自我檢測套組,78,2022/05/11 13:20:02,快篩實名制，每天16:00開始販售，售完為止。
5905030092,大樹白河藥局,臺南市白河區中山路１５３號１樓,120.417,23.35255,(06)6830006,羅氏家用新冠病毒抗原自我檢測套組,78,2022/05/11 13:20:02,快篩實名制，每天16:00開始販售，售完為止。
5905040141,大樹麻豆藥局,臺南市麻豆區中山路４８、５０號１樓,120.2469,23.18382,(06)5716556,羅氏家用新冠病毒抗原自我檢測套組,78,2022/05/11 13:20:02,快篩實名制，每天16:00開始販售，售完為止。
5905050209,大樹佳里藥局,臺南市佳里區延平路２３７號１樓,120.1783,23.1599,(06)7231323,羅氏家用新冠病毒抗原自我檢測套組,78,2022/05/11 13:20:02,快篩實名制，每天16:00開始販售，售完為止。
5905060198,大樹新化藥局,臺南市新化區中正路５３１號１樓,120.3072,23.03764,(06)5901331,羅氏家用新冠病毒抗原自我檢測套組,78,2022/05/11 13:20:02,快篩實名制，每天16:00開始販售，售完為止。
5905070121,大樹善化藥局,臺南市善化區民權路５４、５６、５８號１樓,120.3034,23.1322,(06)5830550,羅氏家用新冠病毒抗原自我檢測套組,78,2022/05/11 13:20:02,快篩實名制，每天16:00開始販售，售完為止。
5905070185,宇康藥局,臺南市善化區蓮潭里蓮潭南街１５０號１樓,120.3077,23.11199,(06)5830963,羅氏家用新冠病毒抗原自我檢測套組,78,2022/05/11 13:20:02,周一至周五快篩販售時間下午2-3點，售完為止
5905080056,大樹學甲藥局,臺南市學甲區中正路１３５號１樓,120.1793,23.23029,(06)7820001,羅氏家用新冠病毒抗原自我檢測套組,78,2022/05/11 13:20:02,快篩實名制，每天16:00開始販售，售完為止。
5905080065,生祥大藥局學甲店,臺南市學甲區仁得里華宗路３６９號１樓,120.1821,23.23223,(06)7838462,羅氏家用新冠病毒抗原自我檢測套組,1,2022/05/11 13:20:02,實名制快篩暫停發號碼牌，週一~週五下午1:00開賣~售完。週六下午2:00開賣~售完。
5905140039,安安藥局隆田店,臺南市官田區中山路一段１５號１樓,120.3186,23.1927,(06)5795705,羅氏家用新冠病毒抗原自我檢測套組,2,2022/05/11 13:20:02,全日口罩販賣
5905200085,大樹新市藥局,臺南市新市區中正路４９、５１號１樓,120.2916,23.07223,(06)5892552,羅氏家用新冠病毒抗原自我檢測套組,78,2022/05/11 13:20:02,快篩實名制，每天16:00開始販售，售完為止。
5905270176,大樹仁德藥局,臺南市仁德區中正路二段１１５２號１樓,120.2519,22.97062,(06)2797466,羅氏家用新冠病毒抗原自我檢測套組,78,2022/05/11 13:20:02,快篩實名制，每天16:00開始販售，售完為止。
5905280109,大樹青青藥局,臺南市歸仁區中山路三段１２號,120.2875,22.96765,(06)2300301,羅氏家用新冠病毒抗原自我檢測套組,78,2022/05/11 13:20:02,快篩實名制，每天16:00開始販售，售完為止。
5905290034,大樹關廟藥局,臺南市關廟區中央路２６３號１樓,120.3272,22.96109,(06)5965889,羅氏家用新冠病毒抗原自我檢測套組,78,2022/05/11 13:20:02,快篩實名制，每天16:00開始販售，售完為止。
5905311074,中華長億藥局,臺南市永康區中華路７３４、７３６號１樓,120.2288,23.0167,(06)3022322,羅氏家用新冠病毒抗原自我檢測套組,78,2022/05/11 13:20:02,快篩實名制，每天16:00開始販售，售完為止。
5905311083,心康藥局,臺南市永康區永大路二段１７９號１樓,120.2616,23.00665,(06)2055075,羅氏家用新冠病毒抗原自我檢測套組,36,2022/05/11 13:20:02,實名制快篩販售時間:周一至週五下午1點至3點，售完為止，讓領藥患者優先領藥，每人限購一份；周六周日不販售
5905311127,台南永康藥局,臺南市永康區中山南路８１６、８１６─１、２、３號１樓,120.2471,23.02099,(06)2020201,羅氏家用新冠病毒抗原自我檢測套組,78,2022/05/11 13:20:02,快篩實名制，每天16:00開始販售，售完為止。
5905320797,大樹自由藥局,臺南市東區自由路三段３８２號１樓,120.2373,22.98241,(06)2890800,羅氏家用新冠病毒抗原自我檢測套組,78,2022/05/11 13:20:02,快篩實名制，每天16:00開始販售，售完為止。
5905320804,大樹大同藥局,臺南市東區大同路二段２２７、２２９號１樓,120.2143,22.97567,(06)2158700,羅氏家用新冠病毒抗原自我檢測套組,78,2022/05/11 13:20:02,快篩實名制，每天16:00開始販售，售完為止。
5905320868,大樹東寧藥局,臺南市東區東寧路４３６號１樓,120.2291,22.9895,(06)2360006,羅氏家用新冠病毒抗原自我檢測套組,78,2022/05/11 13:20:02,快篩實名制，每天16:00開始販售，售完為止。
5905320886,中華崇德藥局,臺南市東區中華東路三段１８１、１８３號１樓,120.2259,22.97667,(06)2880800,羅氏家用新冠病毒抗原自我檢測套組,78,2022/05/11 13:20:02,快篩實名制，每天16:00開始販售，售完為止。
5905320911,大樹崇道藥局,臺南市東區崇道路６３號１樓,120.2272,22.97227,(06)2680456,羅氏家用新冠病毒抗原自我檢測套組,78,2022/05/11 13:20:02,快篩實名制，每天16:00開始販售，售完為止。
5905320948,崇明台安藥局,臺南市東區崇明路３０４號１樓,120.2198,22.97762,(06)2900350,羅氏家用新冠病毒抗原自我檢測套組,61,2022/05/11 13:20:02,快篩下午2點開始販售
5905330024,聖安健保藥局,臺南市南區健康路二段１７３號１樓,120.193,22.98142,(06)2916898,羅氏家用新冠病毒抗原自我檢測套組,41,2022/05/11 13:20:02,5／11 快篩 13:30開始販售!週日店休!
5905330284,大樹佳華藥局,臺南市南區金華路二段１２９號１樓,120.1911,22.98035,(06)2641238,羅氏家用新冠病毒抗原自我檢測套組,78,2022/05/11 13:20:02,快篩實名制，每天16:00開始販售，售完為止。
5905330426,繁華藥局,臺南市南區再興里金華路二段９６號１樓,120.1913,22.97807,(06)2656368,羅氏家用新冠病毒抗原自我檢測套組,25,2022/05/11 13:20:02,無
5905350231,祥好藥局,臺南市北區正風里公園路８７６號１樓,120.2128,23.01412,(06)2510366,羅氏家用新冠病毒抗原自我檢測套組,16,2022/05/11 13:20:02,營業日的下午1點發售快篩
5905370224,上振藥局,臺南市安南區安中路三段４３號１樓,120.1828,23.04721,(06)2551061,羅氏家用新冠病毒抗原自我檢測套組,78,2022/05/11 13:20:02,星期一~星期六 14:00~售完
5905370304,大樹安南藥局,臺南市安南區安和路四段５５７號１樓,120.2185,23.06181,(06)3563370,羅氏家用新冠病毒抗原自我檢測套組,78,2022/05/11 13:20:02,快篩實名制，每天16:00開始販售，售完為止。
5905370466,大樹北安藥局,臺南市安南區北安路三段１５８號１樓,120.2036,23.04256,(06)2553633,羅氏家用新冠病毒抗原自我檢測套組,78,2022/05/11 13:20:02,快篩實名制，每天16:00開始販售，售完為止。
5905380300,新高橋藥局台南永華店,臺南市安平區華平路２７９號１樓,120.1748,22.99031,(06)2992362,羅氏家用新冠病毒抗原自我檢測套組,1,2022/05/11 13:20:02,若有到貨早上九點五十分發放號碼牌十點開始販售
5907011095,鳳山五甲藥局,高雄市鳳山區正義里五甲二路１３９號１樓,120.3409,22.6014,(07)7269899,羅氏家用新冠病毒抗原自我檢測套組,78,2022/05/11 13:20:02,快篩實名制，每天16:00開始販售，售完為止。
5907011148,大樹國泰藥局,高雄市鳳山區興仁里五甲一路２９２號,120.3539,22.61698,(07)7407234,羅氏家用新冠病毒抗原自我檢測套組,78,2022/05/11 13:20:02,快篩實名制，每天16:00開始販售，售完為止。
5907011228,鳳山青年藥局,高雄市鳳山區文德里青年路二段３９９號１樓,120.3513,22.64292,(07)7678383,羅氏家用新冠病毒抗原自我檢測套組,78,2022/05/11 13:20:02,口罩販售時間：14:00 - 16:00
5907011317,凱旋藥局,高雄市鳳山區國隆里新富路３７３號１樓,120.3475,22.61494,(07)7671181,羅氏家用新冠病毒抗原自我檢測套組,78,2022/05/11 13:20:02,快篩實名制，每天16:00開始販售，售完為止。
5907011362,佑全鳳山藥局,高雄市鳳山區文德里青年路二段４６３號１－２樓,120.3498,22.64513,(07)7801568,羅氏家用新冠病毒抗原自我檢測套組,78,2022/05/11 13:20:02,實名制快篩14:00~18:00
5907011371,大樹五甲藥局,高雄市鳳山區福祥里五甲三路２４號１－２樓．２６號１－２樓,120.3278,22.59317,(07)8224926,羅氏家用新冠病毒抗原自我檢測套組,78,2022/05/11 13:20:02,快篩實名制，每天16:00開始販售，售完為止。
5907020085,大德藥局,高雄市岡山區大德一路９８號,120.3025,22.79689,(07)6221456,羅氏家用新冠病毒抗原自我檢測套組,78,2022/05/11 13:20:02,快篩實名制，每天16:00開始販售，售完為止。
5907030152,旗山藥局,高雄市旗山區中華路２３號,120.4841,22.88027,(07)6621158,羅氏家用新冠病毒抗原自我檢測套組,78,2022/05/11 13:20:02,快篩實名制，每天16:00開始販售，售完為止。
5907050029,林園健人藥師藥局,高雄市林園區林園北路３７２號,120.3951,22.5126,(07)6421598,羅氏家用新冠病毒抗原自我檢測套組,78,2022/05/11 13:20:02,營業日14:00~16:00為販賣時間，售完為止，週日不販售。
5907050092,林園啄木鳥藥局,高雄市林園區鳳林路二段８０３號１樓,120.3957,22.5135,(07)6414772,羅氏家用新冠病毒抗原自我檢測套組,69,2022/05/11 13:20:02,快篩實名制領取時間下午2點（若當天配送延誤，時間另行公布）
5907050109,林園藥局,高雄市林園區仁愛路１３號１樓,120.3928,22.50418,(07)6425855,羅氏家用新冠病毒抗原自我檢測套組,78,2022/05/11 13:20:02,快篩實名制，每天16:00開始販售，售完為止。
5907060267,加嘉藥局,高雄市大寮區山頂里內厝路１９１號１樓,120.3901,22.60793,(07)7860683,羅氏家用新冠病毒抗原自我檢測套組,1,2022/05/11 13:20:02,無
5907080189,德昌藥局仁雄店,高雄市仁武區灣內里仁雄路３８、３８－１、３８－２號,120.3506,22.68074,(07)3749166,羅氏家用新冠病毒抗原自我檢測套組,75,2022/05/11 13:20:02,固定週一至週日14:30~16:00開始發放號碼牌並依序販售快篩.售完為止
5907080250,仁同藥局,高雄市仁武區八卦里永仁街７０６號１樓,120.3313,22.69072,(07)3736142,羅氏家用新冠病毒抗原自我檢測套組,4,2022/05/11 13:20:02,可購買快篩試劑時間每日早上7:30到8:30
5907080303,群邦藥局,高雄市仁武區八德東路１８０號１樓,120.3422,22.68538,(07)3745985,羅氏家用新冠病毒抗原自我檢測套組,71,2022/05/11 13:20:02,每日下午2:00開始販售公費快篩（售完為止），星期日藥局早上8:30-9:30賣公費快篩
5907080321,德杏藥局,高雄市仁武區永仁街２０號１樓,120.3297,22.68191,(07)3735936,羅氏家用新冠病毒抗原自我檢測套組,29,2022/05/11 13:20:02,FB粉絲專頁會有即時公告喔@DEXINGPHARMACY   一~六預計13:00開賣 周日9:00開賣 賣完為止~
5907090167,大樹大社藥局,高雄市大社區中山路３０８號１樓,120.3503,22.73145,(07)3531682,羅氏家用新冠病毒抗原自我檢測套組,78,2022/05/11 13:20:02,快篩實名制，每天16:00開始販售，售完為止。
5907140108,德昌藥局阿蓮店,高雄市阿蓮區阿蓮里中正路４５６號,120.3321,22.88075,(07)6318868,羅氏家用新冠病毒抗原自我檢測套組,78,2022/05/11 13:20:02,固定周一至周日14:30-16:00販售快篩，售完為止
5907150097,金德昌藥師藥局,高雄市路竹區大社路９０之６號,120.263,22.86382,(07)6978143,羅氏家用新冠病毒抗原自我檢測套組,63,2022/05/11 13:20:02,快篩販售時間:14:30~16:00或售完為止
5907150257,大樹大立藥局,高雄市路竹區國昌路５１號,120.26,22.85409,(07)6961663,羅氏家用新冠病毒抗原自我檢測套組,78,2022/05/11 13:20:02,快篩實名制，每天16:00開始販售，售完為止。
5907160093,保生藥局,高雄市湖內區葉厝里保生路３４０．３４２號,120.2195,22.90733,(07)6990800,羅氏家用新冠病毒抗原自我檢測套組,79,2022/05/11 13:20:02,快篩實名制，每天16:00開始販售，售完為止。
5907240014,博林健保藥局,高雄市內門區觀亭里中正路１６０巷５１號,120.4539,22.9232,(07)6671883,羅氏家用新冠病毒抗原自我檢測套組,1,2022/05/11 13:20:02,自2／11日~2／29日，營業日07:40~18:00為販賣口罩時間，售完為止
5907280036,七賢藥局,高雄市鹽埕區七賢三路１６２號１樓,120.2829,22.62712,(07)5330616,羅氏家用新冠病毒抗原自我檢測套組,78,2022/05/11 13:20:02,快篩實名制，每天16:00開始販售，售完為止。
5907300168,金元藥局,高雄市左營區重愛路２２０號,120.3156,22.68562,(07)3458378,羅氏家用新冠病毒抗原自我檢測套組,1,2022/05/11 13:20:02,快篩試劑郵差配送，約10點至11點左右會送到藥局，即開始販售，星期四，六營業時間至中午12點
5907300926,高鐵藥局,高雄市左營區華夏路１３２２．１３２６號,120.312,22.68587,(07)3452797,羅氏家用新冠病毒抗原自我檢測套組,78,2022/05/11 13:20:02,快篩實名制，每天16:00開始販售，售完為止。
5907300980,大路藥局,高雄市左營區左營大路５５－２號１樓,120.2877,22.6813,(07)5851001,羅氏家用新冠病毒抗原自我檢測套組,78,2022/05/11 13:20:02,快篩實名制，每天16:00開始販售，售完為止。
5907301076,熊安心藥局華夏店,高雄市左營區華夏路１２１２號１樓,120.3104,22.68483,(07)3430632,羅氏家用新冠病毒抗原自我檢測套組,37,2022/05/11 13:20:02,快篩試劑-販售時間14:00起至售完為止
5907310173,安健藥局,高雄市楠梓區鳳楠路２５０號,120.3296,22.72617,(07)3520167,羅氏家用新冠病毒抗原自我檢測套組,32,2022/05/11 13:20:02,2／06起營業日早上8點開始販賣，周六日早上8:30 .售完為止
5907310262,大樹楠梓藥局,高雄市楠梓區軍校路９０８號,120.2919,22.71246,(07)3632322,羅氏家用新冠病毒抗原自我檢測套組,78,2022/05/11 13:20:02,快篩實名制，每天16:00開始販售，售完為止。
5907310404,藍田藥局,高雄市楠梓區藍田路１號,120.2953,22.72643,(07)3601236,羅氏家用新冠病毒抗原自我檢測套組,78,2022/05/11 13:20:02,快篩實名制，每天16:00開始販售，售完為止。
5907320302,新高橋藥局明誠店,高雄市三民區明誠一路４９２號,120.3226,22.66046,(07)3107072,羅氏家用新冠病毒抗原自我檢測套組,71,2022/05/11 13:20:02,早上10:00開始販售口罩
5907320375,聖一健保藥局,高雄市三民區鼎山街３６３號,120.322,22.65771,(07)3959300,羅氏家用新冠病毒抗原自我檢測套組,46,2022/05/11 13:20:02,無
5907321069,桂林活力藥局九如店,高雄市三民區懷安街１１２號１樓,120.3176,22.64095,(07)3981009,羅氏家用新冠病毒抗原自我檢測套組,78,2022/05/11 13:20:02,每天15:30發號碼牌，於18:00前兌換完畢，逾期棄權，剩餘則繼續發放
5907321121,九如順天藥局,高雄市三民區大連街９巷１８號,120.3045,22.64073,(07)3220706,羅氏家用新冠病毒抗原自我檢測套組,44,2022/05/11 13:20:02,實名制快篩為下午1點-6點開放領取，領完為止
5907350319,御康藥局,高雄市苓雅區光華一路３５號,120.3172,22.61918,(07)3313535,羅氏家用新冠病毒抗原自我檢測套組,29,2022/05/11 13:20:02,快篩實名制，每天下午1:00開始販售，現場排隊，售完為止
5907350480,健森藥局,高雄市苓雅區林森二路１３８號１、２樓,120.3066,22.62054,(07)3365169,羅氏家用新冠病毒抗原自我檢測套組,1,2022/05/11 13:20:02,早上9點領牌 下午3~5點領口罩
5907350506,大樹苓雅藥局,高雄市苓雅區中華四路１５３號,120.3001,22.61783,(07)5353111,羅氏家用新冠病毒抗原自我檢測套組,78,2022/05/11 13:20:02,快篩實名制，每天16:00開始販售，售完為止。
5907350551,大樹武廟藥局,高雄市苓雅區武廟路４３、４５號１樓,120.3314,22.63005,(07)7222268,羅氏家用新冠病毒抗原自我檢測套組,78,2022/05/11 13:20:02,快篩實名制，每天16:00開始販售，售完為止。
5907350631,三多藥局,高雄市苓雅區三多二路２９２號１樓,120.3173,22.61838,(07)3365889,羅氏家用新冠病毒抗原自我檢測套組,78,2022/05/11 13:20:02,快篩實名制，每天16:00開始販售，售完為止。
5907360520,大樹瑞福藥局,高雄市前鎮區瑞隆路１７０號１樓、２樓,120.3357,22.60598,(07)7271170,羅氏家用新冠病毒抗原自我檢測套組,78,2022/05/11 13:20:02,快篩實名制，每天16:00開始販售，售完為止。
5907360673,前鎮大樹藥局,高雄市前鎮區瑞隆路４７２號１樓,120.3291,22.60547,(07)7137171,羅氏家用新冠病毒抗原自我檢測套組,78,2022/05/11 13:20:02,快篩實名制，每天16:00開始販售，售完為止。
5907380255,安安藥師藥局,高雄市小港區孔鳳路５６５號１樓,120.3586,22.58393,(07)7915933,羅氏家用新冠病毒抗原自我檢測套組,78,2022/05/11 13:20:02,快篩實名制周一至周六下午14:00開始販售，售完為止
5907380264,大樹孔鳳藥局,高雄市小港區孔鳳路５１９、５２１號,120.3587,22.5828,(07)7918521,羅氏家用新冠病毒抗原自我檢測套組,78,2022/05/11 13:20:02,快篩實名制，每天16:00開始販售，售完為止。
5907380424,大樹小港藥局,高雄市小港區康莊路７５號１樓,120.3559,22.56853,(07)8068328,羅氏家用新冠病毒抗原自我檢測套組,78,2022/05/11 13:20:02,快篩實名制，每天16:00開始販售，售完為止。
5911011478,天康新豐藥局,基隆市中正區新豐街２５１巷４弄９號１樓,121.7885,25.13594,(02)24695168,羅氏家用新冠病毒抗原自我檢測套組,1,2022/05/11 13:20:02,無
5911011512,八斗子東亞藥局,基隆市中正區北寧路３７８號,121.7958,25.13944,(02)24698829,羅氏家用新冠病毒抗原自我檢測套組,14,2022/05/11 13:20:02,中午12點鐘開賣實名制快篩，售完為止
5911011638,中正藥局,基隆市中正區新豐街３８５號１、２樓,121.7856,25.13537,(02)24690660,羅氏家用新冠病毒抗原自我檢測套組,78,2022/05/11 13:20:02,快篩實名制，每天16:00開始販售，售完為止。
5911021438,正心藥局,基隆市七堵區南興路１０號１樓,121.7149,25.09755,(02)24563378,羅氏家用新冠病毒抗原自我檢測套組,1,2022/05/11 13:20:02,每日限量78盒， 星期一~六下午13:30發號碼牌，14:00開始販賣，星期日上午9:00發號碼牌，9:30開始販賣，12:00停止領取
5911040228,大田大藥局,基隆市仁愛區仁二路５號,121.7507,25.12744,(02)24258762,羅氏家用新冠病毒抗原自我檢測套組,78,2022/05/11 13:20:02,下午2:00發號碼牌並販售
5911040273,第一藥局,基隆市仁愛區愛三路１２０號３樓,121.7436,25.12963,(02)24292288,羅氏家用新冠病毒抗原自我檢測套組,11,2022/05/11 13:20:02,快篩試劑每天下午12點發號碼牌，12點20分到14點販售
5911041967,東隆藥局,基隆市仁愛區仁二路１０５號２樓,121.7482,25.12742,(02)24260727,羅氏家用新冠病毒抗原自我檢測套組,4,2022/05/11 13:20:02,無
5911051409,順豐藥局,基隆市中山區中華路４號,121.7388,25.14545,(02)24369176,羅氏家用新冠病毒抗原自我檢測套組,77,2022/05/11 13:20:02,家用快篩每日下午2點起隨到隨領售完為止。
5911051543,復興藥局,基隆市中山區復興路１２８、１３０、１３２、１３４號１、２樓,121.7262,25.1446,(02)24362566,羅氏家用新冠病毒抗原自我檢測套組,78,2022/05/11 13:20:02,快篩實名制，每天16:00開始販售，售完為止。
5911071483,蘋果藥局,基隆市信義區東明路９７號,121.7614,25.12757,(02)24685158,羅氏家用新冠病毒抗原自我檢測套組,2,2022/05/11 13:20:02,無
5911071590,基隆藥局,基隆市信義區東信路１６６、１６８號１、２樓,121.7646,25.12821,(02)24680955,羅氏家用新冠病毒抗原自我檢測套組,78,2022/05/11 13:20:02,快篩實名制，每天16:00開始販售，售完為止。
5912012433,安安大藥局,新竹市東區金山里光復路一段１６３巷２號,121.0223,24.78144,(03)5772655,羅氏家用新冠病毒抗原自我檢測套組,78,2022/05/11 13:20:02,快篩實名制  周一至周五14:30販售 週六.周日13:00販售
5912013654,七二八藥局,新竹市東區明湖路１２４５號１樓,120.979,24.76774,(03)5200530,羅氏家用新冠病毒抗原自我檢測套組,17,2022/05/11 13:20:02,5／10政府快篩，已經售完。5／11政府快篩，12:30開始販售。
5912013672,關東藥局,新竹市東區光復路１段３３２、３３４號１至２樓,121.0187,24.78289,(03)5777077,羅氏家用新冠病毒抗原自我檢測套組,78,2022/05/11 13:20:02,快篩實名制，每天16:00開始販售，售完為止。
5912042940,新竹北門藥局,新竹市北區中正路３６０、３６２號１樓,120.9629,24.81414,(03)5333234,羅氏家用新冠病毒抗原自我檢測套組,1,2022/05/11 13:20:02,快篩實名制，每天16:00開始販售，售完為止。
5917010082,仁壽藥局,臺中市中區東墩里三民路三段１號,120.6817,24.14482,(04)22228058,羅氏家用新冠病毒抗原自我檢測套組,1,2022/05/11 13:20:02,週一至週日上午9時30分起販售快篩劑
5917011945,正三吉藥局,臺中市中區臺灣大道一段９５號,120.6831,24.13911,(04)22207700,羅氏家用新冠病毒抗原自我檢測套組,94,2022/05/11 13:20:02,快篩販售時間 14:00~17:00
5917020060,來安藥局,臺中市東區十甲東路４８８號１樓,120.7073,24.13824,(04)22116977,羅氏家用新冠病毒抗原自我檢測套組,1,2022/05/11 13:20:02,發快篩時間早上8點
5917030226,九和大藥局向上店,臺中市西區向上路一段１９２號１樓,120.6605,24.14684,(04)23020148,羅氏家用新冠病毒抗原自我檢測套組,1,2022/05/11 13:20:02,周一~六08:00開始。周日08:00~中午12:00，下午休息。
5917030280,德星藥局,臺中市西區忠明里美村路一段９６號,120.6615,24.1521,(04)23212293,羅氏家用新冠病毒抗原自我檢測套組,5,2022/05/11 13:20:02,快篩周一到週五12:00 週六14:00開始販售營業時間10:00~20:00週六13:30~20:00營業，上午休息，週日休息
5917030600,永昇藥局,臺中市西區東昇里朝陽街４５號,120.6701,24.13522,(04)23717280,羅氏家用新冠病毒抗原自我檢測套組,8,2022/05/11 13:20:02,九時開賣快篩   周日休息
5917030646,華隆藥局,臺中市西區樂群街６之２號,120.6735,24.14025,(04)22243785,羅氏家用新冠病毒抗原自我檢測套組,2,2022/05/11 13:20:02,上午09:00開始販售快篩試劑，售完為止
5917032471,銘津藥局,臺中市西區民生路３９０號１樓,120.6611,24.14444,(04)23021314,羅氏家用新冠病毒抗原自我檢測套組,9,2022/05/11 13:20:02,每日上午10:00至13:00，下午3:00至21:00 現場排隊，星期日下午休息
5917032891,中山福倫藥局,臺中市西區中山路４８３號１、２樓,120.6728,24.14668,(04)22026818,羅氏家用新冠病毒抗原自我檢測套組,6,2022/05/11 13:20:02,實名制快篩試劑中午12:15開賣~下午3:00結束，現場排隊購買，每月每人1卡1份（5入）
5917050577,東生藥局,臺中市北區永興街１１２－１號１樓,120.6825,24.16152,(04)22358880,羅氏家用新冠病毒抗原自我檢測套組,2,2022/05/11 13:20:02,周一到周六上午8:30到晚上10:00開始販售口罩，周日公休
5917051449,格霖大藥局,臺中市北區山西路二段７０號１樓,120.6758,24.1689,(04)22925076,羅氏家用新冠病毒抗原自我檢測套組,5,2022/05/11 13:20:02,早上10點-晚上9點
5917053514,學士藥局,臺中市北區學士路１３號之１樓,120.6823,24.15372,(04)22015008,羅氏家用新冠病毒抗原自我檢測套組,35,2022/05/11 13:20:02,固定周一到周日，早上09:50開始發放號碼牌及販賣快篩
5917053550,嘉樂藥局,臺中市北區西屯路一段３５１－７號,120.6658,24.15956,(04)23263967,羅氏家用新冠病毒抗原自我檢測套組,15,2022/05/11 13:20:02,星期一~五8.30~12.30，14.00~21.30，星期六8.30-12.30
5917061061,佳蒝藥局,臺中市西屯區西屯路３段１５９之１０之５號１樓,120.6194,24.18731,(04)24617763,羅氏家用新冠病毒抗原自我檢測套組,15,2022/05/11 13:20:02,無
5917062353,典安大藥局,臺中市西屯區西屯路３段１５９－６０號,120.6177,24.18807,(04)24616571,羅氏家用新冠病毒抗原自我檢測套組,12,2022/05/11 13:20:02,每天10:00發放快篩
5917070659,德安藥局,臺中市南屯區文山里忠勇路１１５－６號１樓,120.6157,24.15096,(04)23894920,羅氏家用新冠病毒抗原自我檢測套組,6,2022/05/11 13:20:02,快篩實名制：週一至週六，下午1點販賣 （限量78份）
5917071996,乾生大藥局,臺中市南屯區大業路９５號,120.6524,24.15336,(04)23281277,羅氏家用新冠病毒抗原自我檢測套組,5,2022/05/11 13:20:02,09:00
5917080262,寶麒藥局,臺中市北屯區旅順路２段１５０號,120.6895,24.174,(04)22433918,羅氏家用新冠病毒抗原自我檢測套組,35,2022/05/11 13:20:02,周一~周日每天下午1:00開始販售實名制快篩試劑，售完為止。
5917080771,大生大藥局,臺中市北屯區三光里北屯路３３７號,120.6974,24.1703,(04)22337059,羅氏家用新冠病毒抗原自我檢測套組,1,2022/05/11 13:20:02,快篩試劑-周一至周日每天早上8:30開始販售，無發放號碼牌，每天即時現場販售服務，售完為止。（週日正常販售服務）
5917080780,吉英藥局,臺中市北屯區平順里昌平路一段４３４號１樓,120.6905,24.1763,(04)22448289,羅氏家用新冠病毒抗原自我檢測套組,3,2022/05/11 13:20:02,快篩實名制販賣
5917082300,蔡宗耀中西藥局,臺中市北屯區平德里河北路２段６１號,120.6831,24.16994,(04)22341880,羅氏家用新冠病毒抗原自我檢測套組,7,2022/05/11 13:20:02,早上9點30分至下午12點30分，下午3點至8點發口罩，有發號碼牌。
5917082364,慈慧藥師藥局,臺中市北屯區平田里昌平路１段１７８號１Ｆ,120.6887,24.17108,(04)22389846,羅氏家用新冠病毒抗原自我檢測套組,4,2022/05/11 13:20:02,星期一到星期日早上9點開始販售，5／6已販售完
5917083272,吉富康藥局,臺中市北屯區大連路三段９９號１樓,120.6935,24.17494,(04)22473057,羅氏家用新冠病毒抗原自我檢測套組,8,2022/05/11 13:20:02,營業時間早上9點至晚上9點，快篩早上9點開賣，中午12:30至14:00午休及清消，周日公休
5921012085,台安藥局,臺南市東區大同路一段１６３號,120.2113,22.98503,(06)2150011,羅氏家用新冠病毒抗原自我檢測套組,44,2022/05/11 13:20:02,快篩下午四點開始銷售
5921020112,裕仁藥局,臺南市南區新興里新興路１９４號１樓,120.1936,22.97731,(06)2614263,羅氏家用新冠病毒抗原自我檢測套組,22,2022/05/11 13:20:02,實名制快篩週一到週六13:00起依序發號碼牌售完為止，週日店休。
5921040301,永生藥局,臺南市北區六甲里公園路４８１號,120.2079,23.00898,(06)2813681,羅氏家用新冠病毒抗原自我檢測套組,4,2022/05/11 13:20:02,已全數售完／即日至15日暫停販售
5921040678,賀康藥局,臺南市北區公園路７０１號,120.2146,23.0167,(06)2819515,羅氏家用新冠病毒抗原自我檢測套組,20,2022/05/11 13:20:02,快篩試劑下午1點~2點販售
5921051582,丞功藥局,臺南市中西區成功路３１號,120.2095,22.99747,(06)2287641,羅氏家用新冠病毒抗原自我檢測套組,1,2022/05/11 13:20:02,星期一-六08:00-售完
5921060321,慈安藥局,臺南市安南區大安街５３號,120.1919,23.03148,(06)2551117,羅氏家用新冠病毒抗原自我檢測套組,29,2022/05/11 13:20:02,下午2:00
5921061720,康悅健藥師藥局,臺南市安南區安和路５段１４９-２號,120.2179,23.0659,(06)3556382,羅氏家用新冠病毒抗原自我檢測套組,15,2022/05/11 13:20:02,快篩-星期一-五13:00-售完   星期六-日15:00-售完
5921071226,康活藥局,臺南市安平區健康三街１８６號,120.1686,22.98883,(06)2936483,羅氏家用新冠病毒抗原自我檢測套組,8,2022/05/11 13:20:02,快篩晚上18:00開賣.
5921071244,全家藥局,臺南市安平區華平路１７０號,120.1749,22.98882,(06)2939000,羅氏家用新冠病毒抗原自我檢測套組,71,2022/05/11 13:20:02,下午2:30 開賣快篩  到貨時間不確定  一進一出  請準備剛好金額 謝謝  星期日不營業
5922010281,上安中西藥局,嘉義市東區府路里延平街２３８號之１,120.4502,23.47683,(05)2231005,羅氏家用新冠病毒抗原自我檢測套組,45,2022/05/11 13:20:02,星期一至星期五:上午7點半至8點，下午2點至3點，星期六:上午7點半至9點（售完提前截止）
5922010361,壽生堂藥局,嘉義市東區府路里延平街２８０號,120.4502,23.47683,(05)2225058,羅氏家用新冠病毒抗原自我檢測套組,5,2022/05/11 13:20:02,周一至周日上午09:00起，至20:00或售鑿為止。
5922011966,源豪藥局,嘉義市東區光華路８２號,120.4529,23.4782,(05)2169696,羅氏家用新冠病毒抗原自我檢測套組,23,2022/05/11 13:20:02,周一至周六，售鑿為止。周日休
5922012669,保健藥局,嘉義市東區義教里保建街１６１號,120.451,23.5003,(05)2712959,羅氏家用新冠病毒抗原自我檢測套組,7,2022/05/11 13:20:02,周一至周五下午1:00起，周六上午8時起。售鑿為止
5922012721,仁藥集藥局,嘉義市東區太平里新生路５３９號,120.4582,23.49167,(05)2755533,羅氏家用新冠病毒抗原自我檢測套組,10,2022/05/11 13:20:02,8:30-11:00收健保卡，14:00發快篩
5922012945,大明藥局,嘉義市東區大雅路二段６８２號,120.4663,23.47719,(05)2760958,羅氏家用新冠病毒抗原自我檢測套組,60,2022/05/11 13:20:02,5／11號碼牌已發完畢（星期一至六：11點發號碼牌12-14點開始販售）
5922013102,後庄藥局,嘉義市東區吳鳳南路６４９號,120.4594,23.45511,(05)2391233,羅氏家用新冠病毒抗原自我檢測套組,78,2022/05/11 13:20:02,快篩實名制，每天16:00開始販售，售完為止。
5922013111,富善藥局,嘉義市東區新生路２３４號,120.4609,23.48419,(05)2759559,羅氏家用新冠病毒抗原自我檢測套組,53,2022/05/11 13:20:02,5／13、14休假，實名制快篩早上9:30-12:00 號碼牌領取
5922013175,森活中西藥局,嘉義市東區吳鳳北路２０８號一樓,120.4533,23.47931,(05)2288518,羅氏家用新冠病毒抗原自我檢測套組,15,2022/05/11 13:20:02,8:30開始發放號碼牌，12:00~14:00領取快篩
5922013193,民權藥局,嘉義市東區民權路１５５號１樓、１５７號１樓,120.4604,23.48374,(05)2775322,羅氏家用新冠病毒抗原自我檢測套組,78,2022/05/11 13:20:02,快篩實名制，每天16:00開始販售，售完為止。
5922020358,泰春藥局,嘉義市西區學圃里民生北路６６號,120.4468,23.47543,(05)2224118,羅氏家用新冠病毒抗原自我檢測套組,8,2022/05/11 13:20:02,快篩試劑販售時間：早上9點至晚上9點
5922020563,信康藥局,嘉義市西區翠岱里仁愛路２２６號,120.443,23.46984,(05)2161680,羅氏家用新冠病毒抗原自我檢測套組,16,2022/05/11 13:20:02,快篩星期一至星期五早上10:00開賣 星期六下午14:00開賣
5922020634,利安藥局,嘉義市西區番社里中山路３４４號１樓,120.4473,23.47984,(05)2225756,羅氏家用新冠病毒抗原自我檢測套組,78,2022/05/11 13:20:02,快篩星期一~六下午13:30販賣，星期日另行公告
5922020812,海鴻藥師藥局,嘉義市西區民生南路５５２號,120.4433,23.45878,(05)2837758,羅氏家用新冠病毒抗原自我檢測套組,17,2022/05/11 13:20:02,固定每日上午8 : 00 直接排隊發放
5922020858,大統藥局,嘉義市西區慶安里北興街１３６號,120.4421,23.48389,(05)2330230,羅氏家用新冠病毒抗原自我檢測套組,25,2022/05/11 13:20:02,5月11日預約登記已滿.有預約的民眾請於上午9:00-11:00領取
5922020938,仁愛弘安藥局,嘉義市西區仁愛路３９３號１樓,120.442,23.47654,(05)2239000,羅氏家用新冠病毒抗原自我檢測套組,2,2022/05/11 13:20:02,早上八點開賣，賣完為止
5922020992,昭安藥局,嘉義市西區民生南路４７９號１樓,120.4437,23.45821,(05)2842240,羅氏家用新冠病毒抗原自我檢測套組,20,2022/05/11 13:20:02,無
5922021006,竹圍藥局,嘉義市西區友愛路２７０、２７２號,120.4339,23.4837,(05)2811233,羅氏家用新冠病毒抗原自我檢測套組,78,2022/05/11 13:20:02,快篩實名制，每天16:00開始販售，售完為止。
5922028783,勝成藥局,嘉義市西區南京路１２６巷１９號,120.4406,23.45687,(05)2360247,羅氏家用新冠病毒抗原自我檢測套組,21,2022/05/11 13:20:02,4月28日起9:30至12:00販賣快篩試劑，請於現場排隊，售完為止
5922028863,益生堂藥局,嘉義市西區杭州三街３０號,120.4446,23.46678,(05)2861415,羅氏家用新冠病毒抗原自我檢測套組,2,2022/05/11 13:20:02,平日（W一~W六）10:30
5931010342,宏達大藥局,新北市板橋區莒光路１７號,121.47,25.02478,(02)22572345,羅氏家用新冠病毒抗原自我檢測套組,2,2022/05/11 13:20:02,快篩 晚上20:00開始販售! 不要打電話來 問題這麼多就到現場 也不給你問
5931012051,全曜藥局,新北市板橋區民權路２６０巷６２號,121.4603,25.01495,(02)29682681,羅氏家用新冠病毒抗原自我檢測套組,1,2022/05/11 13:20:02,實名制快篩下午七點發放，依現場數量為準（星期日休）
5931012131,中山大藥局,新北市板橋區中山路１段１０７號,121.4618,25.01025,(02)29575029,羅氏家用新冠病毒抗原自我檢測套組,1,2022/05/11 13:20:02,口罩配發時間.星期一~六早上9點開始.星期日下午1點開始
5931012239,信昌藥局,新北市板橋區三民路２段２０２－９號,121.4789,25.0142,(02)29510784,羅氏家用新冠病毒抗原自我檢測套組,33,2022/05/11 13:20:02,防疫快篩依據每天到貨時間，另行公告
5931013389,谷全藥局,新北市板橋區裕民街４９號,121.4613,25.02851,(02)22561856,羅氏家用新冠病毒抗原自我檢測套組,1,2022/05/11 13:20:02,無
5931013781,佳和藥局,新北市板橋區文化路１段３８７巷５號１樓,121.4667,25.02193,(02)22589598,羅氏家用新冠病毒抗原自我檢測套組,38,2022/05/11 13:20:02,快篩週一 至五均分早上8:30 和下午3:00販售- 週六早上售完為止. 週日休
5931014046,欣安藥局,新北市板橋區懷德街１０９號１樓,121.4786,25.03147,(02)82570296,羅氏家用新冠病毒抗原自我檢測套組,1,2022/05/11 13:20:02,目前快篩送貨時間不定，發放時間依現場公告為主。
5931014420,萬泰藥局,新北市板橋區信義路２２１之１號,121.4597,24.99145,(02)89645570,羅氏家用新冠病毒抗原自我檢測套組,8,2022/05/11 13:20:02,無
5931014555,廣益藥局,新北市板橋區自由路２１號,121.4654,25.02296,(02)22545726,羅氏家用新冠病毒抗原自我檢測套組,156,2022/05/11 13:20:02,下午3點50發號碼牌，4點開始賣
5931014635,健全藥局,新北市板橋區實踐路１２５號１樓,121.4642,25.00488,(02)89533330,羅氏家用新冠病毒抗原自我檢測套組,29,2022/05/11 13:20:02,無
5931015687,正康健保藥局,新北市板橋區大觀路２段６５號１樓,121.4467,25.00246,(02)22756681,羅氏家用新冠病毒抗原自我檢測套組,35,2022/05/11 13:20:02,下午13:30依現場順序開始販售快篩，快篩配送絮亂庫存不準!!
5931016273,湯明藥局,新北市板橋區中山路２段３１９號１樓,121.479,25.01866,(02)29571980,羅氏家用新冠病毒抗原自我檢測套組,57,2022/05/11 13:20:02,週一到週五 下午四點  六日時間未定 排隊不發號碼
5931016504,仁泰藥局,新北市板橋區四川路２段３３號１樓,121.4543,24.99537,(02)89672133,羅氏家用新冠病毒抗原自我檢測套組,6,2022/05/11 13:20:02,無
5931016611,民川藥局,新北市板橋區四川路１段９７號１樓,121.4598,25.00544,(02)29520090,羅氏家用新冠病毒抗原自我檢測套組,29,2022/05/11 13:20:02,星期一~星期六（快篩上午9:00販售38份下午3:00販售40份）
5931016719,王林藥局,新北市板橋區忠孝路２４巷１５號（１樓）,121.4602,25.00135,(02)29636775,羅氏家用新冠病毒抗原自我檢測套組,11,2022/05/11 13:20:02,表列調劑時間才有販售快篩試劑，週六及國定假日只有早上  ， 下午及晚上休息
5931016808,正安健保藥局,新北市板橋區民族路２２４號（１樓）,121.4687,25.00733,(02)29526813,羅氏家用新冠病毒抗原自我檢測套組,72,2022/05/11 13:20:02,17時依現場順序開始販售.週六12點.電腦配送庫存不準..以現場數量為準
5931017216,康鑫藥局,新北市板橋區文化路１段２０６號１樓,121.4664,25.02012,(02)82585135,羅氏家用新冠病毒抗原自我檢測套組,47,2022/05/11 13:20:02,實名制快篩販售：周一至周五 下午五點整 開始販售
5931017261,正康新埔藥局,新北市板橋區介壽街４號（１樓）,121.467,25.02025,(02)82595882,羅氏家用新冠病毒抗原自我檢測套組,65,2022/05/11 13:20:02,下午2:30依現場順序開始販售快篩。週日無快篩!
5931017270,躍獅新埔藥局,新北市板橋區陽明街４７號１樓,121.4637,25.02386,(02)22543932,羅氏家用新冠病毒抗原自我檢測套組,4,2022/05/11 13:20:02,無
5931017547,好爸爸藥局,新北市板橋區民治街１０７號１樓,121.4788,25.03138,(02)22559955,羅氏家用新冠病毒抗原自我檢測套組,75,2022/05/11 13:20:02,無
5931017618,新埔健保藥局,新北市板橋區自由路２號１樓,121.4654,25.02222,(02)22558878,羅氏家用新冠病毒抗原自我檢測套組,40,2022/05/11 13:20:02,無
5931017654,葆康藥局,新北市板橋區四川路２段２４５巷３號（１樓）,121.4507,24.99346,(02)89678373,羅氏家用新冠病毒抗原自我檢測套組,3,2022/05/11 13:20:02,下午四點開始販售實名制快篩，不用抽號碼牌，直接排隊購買。
5931017663,盛生藥局,新北市板橋區合宜路９９號（１樓）,121.4479,24.9984,(02)89697299,羅氏家用新冠病毒抗原自我檢測套組,78,2022/05/11 13:20:02,政府快篩下午1:50發放號碼牌.下午2:00準時銷售..假日視政府配量（銷售時間相同）
5931017690,杏文藥局,新北市板橋區實踐路１００號（１樓）,121.464,25.00484,(02)29555699,羅氏家用新冠病毒抗原自我檢測套組,4,2022/05/11 13:20:02,無
5931017752,泓泰藥局,新北市板橋區館前西路１４０號２樓,121.4563,25.0081,(02)29686559,羅氏家用新冠病毒抗原自我檢測套組,64,2022/05/11 13:20:02,無
5931017770,光環藥局,新北市板橋區光環路２段１６號１樓,121.4822,25.01476,(02)89520920,羅氏家用新冠病毒抗原自我檢測套組,78,2022/05/11 13:20:02,無
5931017789,明翠藥局,新北市板橋區四維路１４６、１４８號１、２樓,121.4651,25.02555,(02)22550201,羅氏家用新冠病毒抗原自我檢測套組,78,2022/05/11 13:20:02,快篩實名制，每天16:00開始販售，售完為止。
5931017869,躍獅國慶藥局,新北市板橋區國慶路１７９號（１樓）,121.4626,24.99636,(02)29641548,羅氏家用新冠病毒抗原自我檢測套組,78,2022/05/11 13:20:02,快篩實名制，每天14:00開始販售，售完為止
5931017994,後埔藥局,新北市板橋區華興街９號（１樓）,121.459,25.00457,(02)89510306,羅氏家用新冠病毒抗原自我檢測套組,78,2022/05/11 13:20:02,5／10 下午2點發放號碼牌*確保作業流暢請自備500元*每天 78 份晚上10 點以前領取完畢（過卡時間差異剩餘數量僅供參考）
5931018099,廣品藥局,新北市板橋區漢生西路８２號（１樓）,121.4628,25.01934,(02)22576880,羅氏家用新冠病毒抗原自我檢測套組,1,2022/05/11 13:20:02,實名制快篩 周一~周五下午16；00發放 週六.日 早上09；30發放 請勿打電話詢問 感謝配合
5931020624,新英藥師藥局,新北市三重區雙園街３７號,121.4955,25.06775,(02)29824840,羅氏家用新冠病毒抗原自我檢測套組,38,2022/05/11 13:20:02,5／9快篩已售完
5931021532,龍門藥局,新北市三重區龍門路１８９號,121.4996,25.07322,(02)29756141,羅氏家用新冠病毒抗原自我檢測套組,78,2022/05/11 13:20:02,實名制快篩販售時間~星期一至星期六下午3點
5931023349,迪化藥局,新北市三重區中華路７７號,121.4836,25.06267,(02)29834445,羅氏家用新冠病毒抗原自我檢測套組,25,2022/05/11 13:20:02,實名制快篩每日早上九點發牌號／週日食藥署暫停供應快篩
5931023447,安泰藥局,新北市三重區正義北路３００－３號２樓,121.4953,25.06978,(02)89815379,羅氏家用新冠病毒抗原自我檢測套組,81,2022/05/11 13:20:02,5／2只有早上8:30--12:00營業下午.及晚上休息
5931023527,德慈藥局,新北市三重區重新路３段１６號１樓,121.4951,25.06138,(02)29736693,羅氏家用新冠病毒抗原自我檢測套組,8,2022/05/11 13:20:02,快篩試劑販售時間自每日13:00開始
5931024677,博愛藥局,新北市三重區三民街２２０號１樓,121.4803,25.06712,(02)29711606,羅氏家用新冠病毒抗原自我檢測套組,78,2022/05/11 13:20:02,快篩實名制，如有貨都將於下午2點開始發放，不接受電話只能現場排隊領取，謝謝
5931025398,昌誠藥局,新北市三重區三和路４段１６１號１樓,121.4835,25.0785,(02)22876338,羅氏家用新冠病毒抗原自我檢測套組,5,2022/05/11 13:20:02,5／2 （休診）
5931025441,尚好藥局,新北市三重區力行路２段１４２號１樓,121.4823,25.07611,(02)22863232,羅氏家用新冠病毒抗原自我檢測套組,11,2022/05/11 13:20:02,星期一~星期六下午一點開賣實名制
5931025567,閎安藥局,新北市三重區重新路２段８５號１樓、２樓,121.4962,25.06181,(02)29881968,羅氏家用新冠病毒抗原自我檢測套組,1,2022/05/11 13:20:02,快篩代售時間:每日14:00發號碼牌（以在場者為主），15:00發快篩，當日領取至21:00
5931025610,大樹三重藥局,新北市三重區正義北路６６號１樓,121.4972,25.06415,(02)29713188,羅氏家用新冠病毒抗原自我檢測套組,78,2022/05/11 13:20:02,快篩實名制，每天16:00開始販售，售完為止。
5931025914,仁美藥局,新北市三重區慈愛街５１號１、２樓,121.4861,25.07908,(02)22805150,羅氏家用新冠病毒抗原自我檢測套組,78,2022/05/11 13:20:02,快篩實名制，每天16:00開始販售，售完為止。
5931025996,信義忠孝藥局,新北市三重區忠孝路２段４０號１樓,121.4854,25.07056,(02)89813529,羅氏家用新冠病毒抗原自我檢測套組,5,2022/05/11 13:20:02,早上8:30發放號碼牌 自備500+健保卡 12:00以後領取快篩歸還健保卡
5931026082,大有藥局,新北市三重區中正北路２１３號１、２樓及２１５號１、２樓,121.4763,25.07013,(02)29885771,羅氏家用新冠病毒抗原自我檢測套組,78,2022/05/11 13:20:02,快篩實名制，每天16:00開始販售，售完為止。
5931030568,仲景藥局,新北市永和區竹林路２１３巷１號,121.521,25.00893,(02)89281687,羅氏家用新冠病毒抗原自我檢測套組,78,2022/05/11 13:20:02,實名制快篩每日總量78份，下午2點現場排隊過卡，1人1卡每月限領1次，不發號碼牌；營業時間9:30-10:30
5931032188,原大藥局,新北市永和區永和路１段２０號１樓,121.513,25.00471,(02)29272767,羅氏家用新冠病毒抗原自我檢測套組,24,2022/05/11 13:20:02,快篩下午1點開始
5931032811,華特健康藥局,新北市永和區永貞路３６２號１樓,121.5102,25.00667,(02)29264391,羅氏家用新冠病毒抗原自我檢測套組,38,2022/05/11 13:20:02,快篩販賣時間13:00-15:00
5931032875,上安藥局,新北市永和區仁愛路８０號１樓,121.5128,25.01337,(02)22328565,羅氏家用新冠病毒抗原自我檢測套組,5,2022/05/11 13:20:02,無
5931033201,級立健保藥局,新北市永和區保平路１３９號１樓,121.5102,25.00608,(02)29299995,羅氏家用新冠病毒抗原自我檢測套組,78,2022/05/11 13:20:02,快篩代售時間為下午15:00，週日不銷售
5931033925,康和藥局,新北市永和區中和路５８９號１樓,121.5122,25.00407,(02)22310300,羅氏家用新冠病毒抗原自我檢測套組,50,2022/05/11 13:20:02,實名制快篩下午1點開賣（現場排隊售完為止），星期日無販售
5931033961,永和大樹藥局,新北市永和區福和路１４３號１、２樓,121.5207,25.00766,(02)29233377,羅氏家用新冠病毒抗原自我檢測套組,78,2022/05/11 13:20:02,快篩實名制，每天16:00開始販售，售完為止。
5931034057,佑全永和中山藥局,新北市永和區中山路１段２２７、２２９、２３１號１樓,121.508,25.00776,(02)22331546,羅氏家用新冠病毒抗原自我檢測套組,36,2022/05/11 13:20:02,實際配送時間不定，上午12:50現場開始發放號碼牌。
5931034119,仁愛陽光藥局,新北市永和區仁愛路１４３號１樓,121.5114,25.01293,(02)89213691,羅氏家用新冠病毒抗原自我檢測套組,3,2022/05/11 13:20:02,快篩代售時段14:00，售完為止...
5931034146,亮點藥局,新北市永和區竹林路７１號１樓,121.5186,25.01355,(02)89253895,羅氏家用新冠病毒抗原自我檢測套組,42,2022/05/11 13:20:02,快篩發放時段 下午16:30-18:00
5931040617,田邊藥局,新北市中和區泰和街４３號１樓,121.4991,24.99942,(02)22407725,羅氏家用新冠病毒抗原自我檢測套組,13,2022/05/11 13:20:02,W1~W6 下午1點發售快篩 （5／1 晚上7點開始發售快篩）
5931042371,真成大藥局,新北市中和區光華街３８號,121.5048,25.00389,(02)22447008,羅氏家用新冠病毒抗原自我檢測套組,21,2022/05/11 13:20:02,實名快篩周一至周六下午1:30發放號碼牌 周日早上9:30點~12點前領完 週日無販售
5931043234,康荃優生保健藥局,新北市中和區福祥路６６號１樓,121.4994,25.00494,(02)22486532,羅氏家用新冠病毒抗原自我檢測套組,8,2022/05/11 13:20:02,無
5931043798,永成藥局,新北市中和區景平路１５６號１樓,121.5176,24.99222,(02)29407619,羅氏家用新冠病毒抗原自我檢測套組,78,2022/05/11 13:20:02,實名制快篩，下午三點領取號碼並開始販售（每日78份）
5931043921,良安藥局,新北市中和區連城路４７７巷１號１樓,121.4833,24.99555,(02)22225798,羅氏家用新冠病毒抗原自我檢測套組,78,2022/05/11 13:20:02,週六日不開店，實名制快篩，晚上9:00開始販售
5931043976,詠邑藥局,新北市中和區南華路４３號１樓,121.5038,24.99671,(02)22445630,羅氏家用新冠病毒抗原自我檢測套組,78,2022/05/11 13:20:02,無
5931044768,民樂健保藥局,新北市中和區員山路２２６巷３弄５號１樓,121.4817,25.00103,(02)22228999,羅氏家用新冠病毒抗原自我檢測套組,70,2022/05/11 13:20:02,13:30-16:00
5931045032,朝安藥局,新北市中和區復興路２６２號１樓,121.5035,24.99038,(02)31511269,羅氏家用新冠病毒抗原自我檢測套組,78,2022/05/11 13:20:02,實名制快篩下午2點過卡販售，每人限持一卡，不發號碼牌。（任何異動依現場公告為準）
5931045130,四維藥局,新北市中和區四維街３７巷２號１樓,121.5124,24.98679,(02)86681345,羅氏家用新冠病毒抗原自我檢測套組,78,2022/05/11 13:20:02,快篩實名制，每天16:00開始販售，售完為止。
5931045229,佑全中和景新藥局,新北市中和區景新街３９５號１樓,121.5126,24.98995,(02)29431408,羅氏家用新冠病毒抗原自我檢測套組,78,2022/05/11 13:20:02,實名制快篩試劑---14:00 開始販售78份
5931045345,芳碩藥局,新北市中和區連城路４７巷２號１樓,121.4982,25.00162,(02)82458816,羅氏家用新冠病毒抗原自我檢測套組,2,2022/05/11 13:20:02,販售時間星期一~星期六下午14:00-21:00 （星期日休息）
5931045416,信毅藥局,新北市中和區捷運路５６號１樓,121.5081,24.99078,(02)29423663,羅氏家用新冠病毒抗原自我檢測套組,77,2022/05/11 13:20:02,無
5931050364,瑞欣藥局,新北市新店區吉安街３３號,121.5159,24.96594,(02)22112723,羅氏家用新冠病毒抗原自我檢測套組,27,2022/05/11 13:20:02,（星期日無販售）週一到週六營業
5931052313,欣康藥局,新北市新店區中正路２９３號１樓,121.5372,24.97449,(02)89113166,羅氏家用新冠病毒抗原自我檢測套組,25,2022/05/11 13:20:02,快篩試劑，下午一點發號碼牌同步販售
5931053196,康心藥局,新北市新店區北新路３段１０４號１樓,121.5419,24.9812,(02)86655858,羅氏家用新冠病毒抗原自我檢測套組,78,2022/05/11 13:20:02,快篩販售：周一～週六15:00開始，周日無販售。以現場排隊為主，無發號碼牌，庫存有數量就是有貨
5931053310,安和藥局,新北市新店區安和路３段１３７號１樓,121.517,24.9853,(02)86685309,羅氏家用新冠病毒抗原自我檢測套組,6,2022/05/11 13:20:02,每天下午一點開始販售快篩，差不多12:55發放號碼牌，請各位注意
5931053347,健詮藥局,新北市新店區建國路１１９號１樓,121.5398,24.97777,(02)29116312,羅氏家用新冠病毒抗原自我檢測套組,27,2022/05/11 13:20:02,11點發號碼牌，12點半-3點過卡買快篩。最新消息會公佈在臉書「健詮藥局」
5931060262,明生藥局,新北市新莊區福樂街１３號,121.4578,25.04504,(02)29913260,羅氏家用新冠病毒抗原自我檢測套組,42,2022/05/11 13:20:02,無
5931060557,一安藥局,新北市新莊區立德里新泰路２６８號,121.446,25.04029,(02)29941618,羅氏家用新冠病毒抗原自我檢測套組,82,2022/05/11 13:20:02,實名制快篩發放時間為15:00  其他詳情請上FB查詢
5931060646,王藥局,新北市新莊區昌盛街３８號,121.4544,25.04988,(02)29922404,羅氏家用新冠病毒抗原自我檢測套組,69,2022/05/11 13:20:02,今天快篩試劑   下午2:00開始販售! 售完為止!
5931060824,禮安藥師藥局,新北市新莊區自立街１０９號１樓,121.4555,25.0455,(02)29942891,羅氏家用新冠病毒抗原自我檢測套組,79,2022/05/11 13:20:02,無
5931067216,鍵豐藥局,新北市新莊區中和街１５８號１樓,121.4474,25.04878,(02)29917452,羅氏家用新冠病毒抗原自我檢測套組,56,2022/05/11 13:20:02,無
5931068160,三大藥局,新北市新莊區建安里民安路１９７號,121.4262,25.02256,(02)22030503,羅氏家用新冠病毒抗原自我檢測套組,41,2022/05/11 13:20:02,實名制快篩13:00發號碼.發完號碼開始領快篩及收費
5931068464,健安藥局,新北市新莊區光和里民安西路２０９號１樓,121.4261,25.0147,(02)22043765,羅氏家用新冠病毒抗原自我檢測套組,78,2022/05/11 13:20:02,無
5931068599,建昌藥局,新北市新莊區福營里中正路５５７號,121.435,25.03254,(02)29015422,羅氏家用新冠病毒抗原自我檢測套組,76,2022/05/11 13:20:02,快篩代售時間:週一至週日14:30現場排隊購買，售完為止。（物流配送不及則例外，以門市公告為主）
5931068759,森活藥局,新北市新莊區民安路２２０－１號,121.426,25.02259,(02)22027927,羅氏家用新冠病毒抗原自我檢測套組,77,2022/05/11 13:20:02,實名快篩15點開賣
5931068819,東京大藥局,新北市新莊區民安路１７６號１樓,121.4251,25.02392,(02)22063806,羅氏家用新冠病毒抗原自我檢測套組,69,2022/05/11 13:20:02,口罩代售時間為9:30開始現場排隊販售
5931068875,旭生藥局,新北市新莊區裕民街４２號１樓,121.4188,25.02498,(02)29021289,羅氏家用新冠病毒抗原自我檢測套組,78,2022/05/11 13:20:02,無
593106A379,輔大美康藥局,新北市新莊區中正路５１０號之１，１樓,121.4341,25.03294,(02)29013056,羅氏家用新冠病毒抗原自我檢測套組,4,2022/05/11 13:20:02,實名制快篩9:20發號碼牌／9:30過卡+收費
593106A388,元大藥局,新北市新莊區富國路２０４號１、２樓,121.4249,25.02427,(02)22020082,羅氏家用新冠病毒抗原自我檢測套組,76,2022/05/11 13:20:02,無
593106A771,新佑康健保藥局,新北市新莊區中華路１段３５號１樓,121.4519,25.03765,(02)29947490,羅氏家用新冠病毒抗原自我檢測套組,78,2022/05/11 13:20:02,無
593106A833,欣國藥局,新北市新莊區富國路５７號１樓、２樓,121.4196,25.02625,(02)29080958,羅氏家用新冠病毒抗原自我檢測套組,4,2022/05/11 13:20:02,每天快篩劑發號碼牌AM09:30販賣AM09:30售完為止
593106A931,建安藥局,新北市新莊區建安街１１７號、１１９號１樓,121.4262,25.02406,(02)22051969,羅氏家用新冠病毒抗原自我檢測套組,78,2022/05/11 13:20:02,快篩實名制，每天16:00開始販售，售完為止。
593106B036,家嘉藥局,新北市新莊區自立街１０３號（１樓）,121.4553,25.04549,(02)89926488,羅氏家用新冠病毒抗原自我檢測套組,25,2022/05/11 13:20:02,今天號碼牌都已發放完畢
5931070080,耀鴻藥局,新北市樹林區中山路３段７６號,121.3936,24.97239,(02)26808989,羅氏家用新冠病毒抗原自我檢測套組,78,2022/05/11 13:20:02,每天都有發放口罩
5931072388,愛立康藥局,新北市樹林區大雅路２８６號１樓,121.3797,24.94749,(02)89706878,羅氏家用新冠病毒抗原自我檢測套組,32,2022/05/11 13:20:02,無
5931072575,永賀藥局,新北市樹林區中山路１段１２７號１樓,121.4227,24.99003,(02)26815801,羅氏家用新冠病毒抗原自我檢測套組,78,2022/05/11 13:20:02,無
5931081378,鶯歌宏達藥局,新北市鶯歌區國慶街１３８號１樓,121.3508,24.95347,(02)26709693,羅氏家用新冠病毒抗原自我檢測套組,1,2022/05/11 13:20:02,下午三點開始販售實名制快篩~不要打電話來問~藥師有其他工作要做
5931081510,鶯歌藥局,新北市鶯歌區鶯桃路２段１１號１樓,121.3258,24.97205,(02)86778778,羅氏家用新冠病毒抗原自我檢測套組,78,2022/05/11 13:20:02,快篩實名制，每天16:00開始販售，售完為止。
5931081547,信義健保藥局,新北市鶯歌區信義街６３號１樓,121.3534,24.95571,(02)86775563,羅氏家用新冠病毒抗原自我檢測套組,59,2022/05/11 13:20:02,發放時間以現場公告為主
5931091696,祥祐藥局,新北市三峽區文化路１２５號１樓,121.3699,24.93598,(02)26738080,羅氏家用新冠病毒抗原自我檢測套組,4,2022/05/11 13:20:02,實名制快篩下午2點開始販售
5931091892,三峽藥局,新北市三峽區介壽路１段２７號１樓,121.3757,24.93321,(02)26738868,羅氏家用新冠病毒抗原自我檢測套組,1,2022/05/11 13:20:02,快篩實名制，每天16:00開始販售，售完為止。
5931092059,三峽啄木鳥藥局,新北市三峽區中正路１段１４１號１樓,121.3735,24.92875,(02)26744321,羅氏家用新冠病毒抗原自我檢測套組,5,2022/05/11 13:20:02,實名制快篩 中午:12:30開始發號碼牌
5931100074,邱藥局,新北市淡水區中山路２７號,121.444,25.17006,(02)26214255,羅氏家用新冠病毒抗原自我檢測套組,78,2022/05/11 13:20:02,無
5931100154,尚運藥局,新北市淡水區學府路５１巷１弄２０號,121.4473,25.16892,(02)26225149,羅氏家用新冠病毒抗原自我檢測套組,77,2022/05/11 13:20:02,無
5931100305,璉恩藥局,新北市淡水區北新路１３１、１３３號,121.4739,25.185,(02)26298454,羅氏家用新冠病毒抗原自我檢測套組,34,2022/05/11 13:20:02,無
5931101464,伯聯藥局,新北市淡水區清水街９－１０號１樓,121.4444,25.17023,(02)26255847,羅氏家用新冠病毒抗原自我檢測套組,1,2022/05/11 13:20:02,快篩實名制星期一到六08:00開賣（如有到貨），星期日無販售
5931102103,四季寶健保藥局,新北市淡水區新市一路３段１１７－１號（含夾層）,121.4468,25.18314,(02)26283199,羅氏家用新冠病毒抗原自我檢測套組,79,2022/05/11 13:20:02,無
5931102354,天康大藥局,新北市淡水區學府路４９號１樓,121.4479,25.16929,(02)26206523,羅氏家用新冠病毒抗原自我檢測套組,73,2022/05/11 13:20:02,無
5931102425,日森人文藥局淡海店,新北市淡水區新市五路３段３８６號１樓,121.4388,25.19728,(02)26221313,羅氏家用新冠病毒抗原自我檢測套組,25,2022/05/11 13:20:02,無
5931102461,淡水藥局,新北市淡水區中山路１２７號（１、２樓）,121.4414,25.17107,(02)86313663,羅氏家用新冠病毒抗原自我檢測套組,78,2022/05/11 13:20:02,快篩實名制，每天16:00開始販售，售完為止。
5931102489,水源藥局,新北市淡水區水源街１段１３３號１樓,121.447,25.172,(02)26295233,羅氏家用新冠病毒抗原自我檢測套組,78,2022/05/11 13:20:02,快篩實名制，每天16:00開始販售，售完為止。
5931110258,春德堂藥局,新北市汐止區新台五路１段２２０號,121.6561,25.06311,(02)26422048,羅氏家用新冠病毒抗原自我檢測套組,27,2022/05/11 13:20:02,實名制快篩 周一~周六 1300開始，售完為止（無發放號碼牌
5931112047,吉安康健保藥師藥局,新北市汐止區宜興街１１號１樓,121.6213,25.0416,(02)26405881,羅氏家用新冠病毒抗原自我檢測套組,39,2022/05/11 13:20:02,營業時間以現場公告為主
5931112645,健成藥局,新北市汐止區新興路２０號１樓,121.6564,25.06456,(02)26428989,羅氏家用新冠病毒抗原自我檢測套組,31,2022/05/11 13:20:02,無
5931113071,蒲公英藥局,新北市汐止區連興街１２６號（１樓）,121.6538,25.06188,(02)26907770,羅氏家用新冠病毒抗原自我檢測套組,78,2022/05/11 13:20:02,實名制快篩銷售時間:下午17:00-19:00（無發放號碼牌）
5931120049,本平藥局,新北市瑞芳區瑞芳街４５號,121.8076,25.10913,(02)24972167,羅氏家用新冠病毒抗原自我檢測套組,2,2022/05/11 13:20:02,無
5931121279,大埔藥局,新北市瑞芳區大埔路１２８－３號１樓,121.762,25.10079,(02)24587020,羅氏家用新冠病毒抗原自我檢測套組,12,2022/05/11 13:20:02,無
5931121466,瑞芳藥局,新北市瑞芳區明燈路３段５９之１及５９之２號,121.8057,25.10812,(02)24966588,羅氏家用新冠病毒抗原自我檢測套組,78,2022/05/11 13:20:02,快篩實名制，每天16:00開始販售，售完為止。
5931130152,博惠藥局,新北市土城區中央路１段２４９巷２０號,121.4463,24.98538,(02)22618337,羅氏家用新冠病毒抗原自我檢測套組,73,2022/05/11 13:20:02,14:00開始販售政府快篩，不發號碼牌
5931131579,祥安大藥局,新北市土城區立德路４２－１號,121.4636,24.98727,(02)22629707,羅氏家用新冠病毒抗原自我檢測套組,60,2022/05/11 13:20:02,無
5931131908,璨鴻藥局,新北市土城區延和路１９１號,121.4692,24.99035,(02)82622588,羅氏家用新冠病毒抗原自我檢測套組,6,2022/05/11 13:20:02,快篩發放時間星期一至五
5931132343,誠安藥局,新北市土城區中央路４段３６號１樓,121.4207,24.96088,(02)22677737,羅氏家用新冠病毒抗原自我檢測套組,79,2022/05/11 13:20:02,快篩代售時段：平日晚上8點，售完為止
5931132538,宏奇藥局,新北市土城區延吉街１２６號１樓,121.4695,24.98586,(02)82619585,羅氏家用新冠病毒抗原自我檢測套組,74,2022/05/11 13:20:02,無
5931132950,美康藥妝藥局,新北市土城區延吉街２５４號１樓,121.4664,24.98465,(02)22616868,羅氏家用新冠病毒抗原自我檢測套組,44,2022/05/11 13:20:02,實名制快篩前一天若有到貨，則隔日三點販售
5931133126,成康藥局,新北市土城區學府路１段１８８號１樓,121.4532,24.98614,(02)22706596,羅氏家用新冠病毒抗原自我檢測套組,3,2022/05/11 13:20:02,春節期間看診時段請電洽
5931133331,城安大藥局,新北市土城區金城路３段４０號,121.4656,24.98639,(02)22646561,羅氏家用新冠病毒抗原自我檢測套組,39,2022/05/11 13:20:02,快篩代售時間晚上8:30
5931133546,宏林保健藥局,新北市土城區裕民路１３４號（１樓）,121.4515,24.98622,(02)82615919,羅氏家用新冠病毒抗原自我檢測套組,77,2022/05/11 13:20:02,無
5931133635,順儷學府藥局,新北市土城區學府路１段１４４巷２號１樓,121.4549,24.98728,(02)22701979,羅氏家用新冠病毒抗原自我檢測套組,73,2022/05/11 13:20:02,無
5931140318,慧安藥局,新北市蘆洲區長安街２１４號１樓,121.4585,25.08436,(02)28477845,羅氏家用新冠病毒抗原自我檢測套組,2,2022/05/11 13:20:02,實名制快篩依現場公告現場販售
5931141726,松展多利日式連鎖藥粧藥局,新北市蘆洲區民族路１６１號,121.4793,25.08817,(02)22882586,羅氏家用新冠病毒抗原自我檢測套組,1,2022/05/11 13:20:02,防疫物資每日下午02:00開始販售
5931141904,杏昌藥局,新北市蘆洲區民族路８６號,121.4778,25.0849,(02)82831985,羅氏家用新冠病毒抗原自我檢測套組,33,2022/05/11 13:20:02,無
5931142670,陽光幸福藥局,新北市蘆洲區重陽街８８號１樓,121.4821,25.08454,(02)28486566,羅氏家用新冠病毒抗原自我檢測套組,1,2022/05/11 13:20:02,快篩實名制 早上9點開始販售 採現場排隊
5931143275,集賢藥局,新北市蘆洲區信義路２２２巷６１號１、２樓,121.4813,25.08535,(02)22882400,羅氏家用新冠病毒抗原自我檢測套組,78,2022/05/11 13:20:02,快篩實名制，每天16:00開始販售，售完為止。
5931143319,大樹長榮藥局,新北市蘆洲區長榮路６１、６１－１號１樓,121.4624,25.0833,(02)28480567,羅氏家用新冠病毒抗原自我檢測套組,78,2022/05/11 13:20:02,快篩實名制，每天16:00開始販售，售完為止。
5931151713,五股藥局,新北市五股區成泰路１段２３５之２號（１樓）,121.4363,25.07968,(02)22951150,羅氏家用新冠病毒抗原自我檢測套組,77,2022/05/11 13:20:02,快篩實名制，每天16:00開始販售，售完為止。
5931160132,健康藥師藥局,新北市泰山區明志路２段３２３號,121.4264,25.046,(02)22972121,羅氏家用新冠病毒抗原自我檢測套組,58,2022/05/11 13:20:02,周日公休
5931161353,台灣藥局,新北市泰山區明志路１段２８２－２８６號,121.4319,25.06002,(02)22971969,羅氏家用新冠病毒抗原自我檢測套組,70,2022/05/11 13:20:02,下午2:20發號碼牌2:30販售實名制快篩試劑
5931161620,華特藥局,新北市泰山區明志路１段２６０號１樓,121.4321,25.06052,(02)29095662,羅氏家用新冠病毒抗原自我檢測套組,120,2022/05/11 13:20:02,5／10（二）-5／13（五） 晚上7:00開始販售，數量當天晚上會公布
5931171251,喜樂藥師藥局,新北市林口區麗林里公園路１５號１樓,121.3665,25.06762,(02)26005566,羅氏家用新冠病毒抗原自我檢測套組,78,2022/05/11 13:20:02,快篩實名制，每天13:30發號碼牌，14:00開始販售，醫護執照優先10份，週日休息
5931171582,綠園藥局,新北市林口區仁愛路２段１０５號１樓,121.3843,25.07507,(02)86012258,羅氏家用新冠病毒抗原自我檢測套組,12,2022/05/11 13:20:02,上午8:30-12:00、下午2:30-18:00、晚上18:00-21:30
5931171706,榮新藥局,新北市林口區忠孝路３８３號１樓,121.3695,25.0713,(02)26089789,羅氏家用新冠病毒抗原自我檢測套組,1,2022/05/11 13:20:02,快篩發放時間  14:50發放號碼牌下午15:00開賣（直至賣完）
5931171724,林康藥局,新北市林口區文化二路１段２２２號１樓,121.3695,25.07226,(02)26088869,羅氏家用新冠病毒抗原自我檢測套組,78,2022/05/11 13:20:02,快篩於下午2點販售，周日公休
5931171831,沐霖藥局,新北市林口區文化三路２段２８６號１樓,121.3775,25.08304,(02)26032086,羅氏家用新冠病毒抗原自我檢測套組,78,2022/05/11 13:20:02,5／11 （三） 17:30 發放號碼牌
5931171886,林口辰安藥局,新北市林口區文化三路１段１９１巷５號１樓,121.3619,25.07016,(02)26099151,羅氏家用新冠病毒抗原自我檢測套組,78,2022/05/11 13:20:02,快篩1600開始販售，現場排隊領取
5931181104,介新大藥局,新北市深坑區文化街９４號,121.6172,25.002,(02)26648149,羅氏家用新冠病毒抗原自我檢測套組,1,2022/05/11 13:20:02,執業時段請電洽藥局
5931181159,信東深坑北深藥局,新北市深坑區北深路３段１０３號１樓,121.6056,25.00171,(02)77092976,羅氏家用新冠病毒抗原自我檢測套組,23,2022/05/11 13:20:02,快篩代售時間自13:00 ； 現場排隊
5931231127,杏家藥局,新北市八里區中華路２段２５６號１樓,121.4053,25.14971,(02)26105369,羅氏家用新冠病毒抗原自我檢測套組,39,2022/05/11 13:20:02,無
5931250015,松南藥局,新北市雙溪區中華路２９號,121.8658,25.03728,(02)24931085,羅氏家用新冠病毒抗原自我檢測套組,28,2022/05/11 13:20:02,實名制快篩12點半發號碼牌並販售，​但若排隊人數已超過數量，將視情況提早發放。週日快篩無販售。
5932010631,新華興清溪藥局,桃園市桃園區東門里中山東路１０號１樓,121.3136,24.99548,(03)3330011,羅氏家用新冠病毒抗原自我檢測套組,1,2022/05/11 13:20:02,實名制快篩週一~週日14:30，不發號碼牌請依序排隊購買
5932010908,大愛藥師藥局,桃園市桃園區中正路４３５號,121.307,25.00095,(03)3376771,羅氏家用新冠病毒抗原自我檢測套組,61,2022/05/11 13:20:02,快篩販售時間:星期1~5，下午一點開賣
5932011370,家福聯合藥局,桃園市桃園區中山路６２３號,121.2939,24.99093,(03)2289492,羅氏家用新冠病毒抗原自我檢測套組,36,2022/05/11 13:20:02,0503人數已滿，1點發快篩
5932011692,正安藥局,桃園市桃園區東山里安東街５８號,121.3158,24.99265,(03)3329461,羅氏家用新冠病毒抗原自我檢測套組,1,2022/05/11 13:20:02,營業時間 09:00~21:30
5932011870,永祥大藥局,桃園市桃園區永安路５２８號,121.2986,25.00181,(03)3337161,羅氏家用新冠病毒抗原自我檢測套組,3,2022/05/11 13:20:02,口罩販賣時段：週一至週六早上9點
5932012813,桃園大興藥局,桃園市桃園區大興西路二段７６巷３號,121.2984,25.01183,(03)3013222,羅氏家用新冠病毒抗原自我檢測套組,96,2022/05/11 13:20:02,快篩實名制，每天16:00開始販售，售完為止。
5932013392,桃園中正藥局,桃園市桃園區中正路３７３號,121.3079,24.99955,(03)3381600,羅氏家用新冠病毒抗原自我檢測套組,91,2022/05/11 13:20:02,快篩實名制，每天16:00開始販售，售完為止。
5932013605,新華興藥局,桃園市桃園區中正路６６５號,121.3038,25.00597,(03)3267777,羅氏家用新冠病毒抗原自我檢測套組,35,2022/05/11 13:20:02,實名制快篩週一~週日13:00，不發號碼牌請依序排隊購買
5932013614,桃元松藥局,桃園市桃園區建華三街４２號,121.3118,24.98294,(03)3611066,羅氏家用新冠病毒抗原自我檢測套組,44,2022/05/11 13:20:02,13:00 開始販售實名制快篩
5932013687,桃園春日藥局,桃園市桃園區春日路８７８號,121.3096,25.01561,(03)3580101,羅氏家用新冠病毒抗原自我檢測套組,78,2022/05/11 13:20:02,快篩實名制，每天16:00開始販售，售完為止。
5932013749,桃園寶山藥局,桃園市桃園區寶山街７２號,121.3175,25.01291,(03)3250562,羅氏家用新冠病毒抗原自我檢測套組,78,2022/05/11 13:20:02,快篩實名制，每天16:00開始販售，售完為止。
5932013990,福澤大業藥局,桃園市桃園區大業路１段４２２號１樓,121.3118,25.01473,(03)3563865,羅氏家用新冠病毒抗原自我檢測套組,66,2022/05/11 13:20:02,家用快篩販賣時段15:30至售完為止
5932014102,小飛象藥局,桃園市桃園區慈文路１９２號,121.3041,25.00907,(03)3552771,羅氏家用新冠病毒抗原自我檢測套組,31,2022/05/11 13:20:02,5／11[15:10]開賣31份，再打來問就掛電話。不發號碼牌。即起調劑確診者視訊處方，請自保。
5932014246,中平啄木鳥藥局,桃園市桃園區中平路１３６號,121.2931,24.9861,(03)2207457,羅氏家用新冠病毒抗原自我檢測套組,6,2022/05/11 13:20:02,快篩實名制，每天中午12點20分發號碼牌，12點30份販售，售完為止
5932014273,藝文藥局,桃園市桃園區大興西路１段１６５號,121.3049,25.01414,(03)3261789,羅氏家用新冠病毒抗原自我檢測套組,78,2022/05/11 13:20:02,快篩實名制，每天16:00開始販售，售完為止。
5932014291,躍獅民生藥局,桃園市桃園區民生路２２８號１樓,121.313,24.99472,(03)3362359,羅氏家用新冠病毒抗原自我檢測套組,34,2022/05/11 13:20:02,下午1點開始販售，會發號碼牌，購買權保留至下午6點
5932014344,豐藝藥局,桃園市桃園區泰昌三街２３號１樓,121.2943,24.98954,(03)2200977,羅氏家用新冠病毒抗原自我檢測套組,78,2022/05/11 13:20:02,實名制快篩下午3點販售，依序排隊購買，售完為止。
5932014424,桃園中山藥局,桃園市桃園區中山路７０７號,121.2914,24.99079,(03)2207168,羅氏家用新冠病毒抗原自我檢測套組,78,2022/05/11 13:20:02,快篩實名制，每天16:00開始販售，售完為止。
5932014442,新光藥局,桃園市桃園區大有路１７２號,121.3209,25.00752,(03)3310133,羅氏家用新冠病毒抗原自我檢測套組,177,2022/05/11 13:20:02,營業時間:週一至週五10:00-22:00；快篩下午2:00開始，賣完為止，不發號碼牌
5932014460,桃鶯藥局,桃園市桃園區桃鶯路１０２號,121.318,24.98516,(03)3675100,羅氏家用新冠病毒抗原自我檢測套組,78,2022/05/11 13:20:02,快篩實名制，每天16:00開始販售，售完為止。
5932014479,康是美藥局吉昌店,桃園市桃園區中平路２９、２９之１號１、２樓,121.2923,24.98974,(03)2289258,羅氏家用新冠病毒抗原自我檢測套組,4,2022/05/11 13:20:02,快篩 5／10（二） ~ 5／11（三） 中午12:30開賣，造成不便敬請見諒
5932014488,琦舜藥師藥局,桃園市桃園區文中三路６３號,121.2885,24.99724,(03)3695001,羅氏家用新冠病毒抗原自我檢測套組,7,2022/05/11 13:20:02,營業時間: 9:00-21:30　　　　　　　　快篩販售時間於到貨後公布於FB【琦舜藥師藥局-桃園中路】粉絲專頁
5932018520,保安藥師藥局,桃園市桃園區春日路一三七二號,121.3058,25.0269,(03)3578722,羅氏家用新冠病毒抗原自我檢測套組,2,2022/05/11 13:20:02,快篩代售時間:中午12:30開賣（售完為止）
5932018593,品一藥局,桃園市桃園區建新街７６號,121.3118,24.98261,(03)3638510,羅氏家用新冠病毒抗原自我檢測套組,7,2022/05/11 13:20:02,快篩販賣時間：週一至週五早上9：30；週六下午1：00（星期天休息），會發號碼牌（今天已發完）
5932019116,慈安藥局,桃園市桃園區永安路３８３號,121.299,25.00086,(03)3369599,羅氏家用新冠病毒抗原自我檢測套組,1,2022/05/11 13:20:02,快篩販賣時段：8:30~10:30，過時後，另78份係隔日販賣的量.
5932019581,莘莘藥局,桃園市桃園區莊敬路一段３６８號,121.2957,25.02375,(03)3170681,羅氏家用新冠病毒抗原自我檢測套組,78,2022/05/11 13:20:02,實名制快篩週一至週六 下午2點開始 售完為止
593201A604,藝文啄木鳥藥局,桃園市桃園區中正路１３５７、１３５９、１３６１號,121.2951,25.02292,(03)3467698,羅氏家用新冠病毒抗原自我檢測套組,8,2022/05/11 13:20:02,口罩販賣時段：週一至週日13:00起
5932021670,日光健康藥局,桃園市中壢區華祥一街２號１樓,121.2606,24.94827,(03)4383559,羅氏家用新冠病毒抗原自我檢測套組,78,2022/05/11 13:20:02,快篩販賣時段：星期一~星期六下午13:30開始，售完為止
5932022631,中壢中正藥局,桃園市中壢區中正路３６３、３６５號,121.2163,24.95532,(03)4014100,羅氏家用新冠病毒抗原自我檢測套組,78,2022/05/11 13:20:02,快篩實名制，每天16:00開始販售，售完為止。
5932022980,美佑康活力藥局,桃園市中壢區五福里中正路６２７號,121.2108,24.95947,(03)2810018,羅氏家用新冠病毒抗原自我檢測套組,78,2022/05/11 13:20:02,快篩販賣時段：周一到周日每天14:00
5932023334,欣安藥局,桃園市中壢區龍岡路三段１７６號,121.2335,24.93561,(03)4285880,羅氏家用新冠病毒抗原自我檢測套組,16,2022/05/11 13:20:02,快篩販賣時段：13:00
5932023487,新賀生大藥局,桃園市中壢區中山東路三段２６０號,121.2505,24.94174,(03)4163900,羅氏家用新冠病毒抗原自我檢測套組,20,2022/05/11 13:20:02,營業時間:9:00-21:00 ／ 快篩13:00開始販賣
5932023647,樂謙藥師藥局,桃園市中壢區龍東路１３４號,121.2522,24.92929,(03)4662775,羅氏家用新冠病毒抗原自我檢測套組,43,2022/05/11 13:20:02,實名快篩每日下午2點、晚上6點 各發39份
5932023889,華勛藥局,桃園市中壢區華勛街１１２、１１４號,121.2597,24.95065,(03)4161881,羅氏家用新冠病毒抗原自我檢測套組,2,2022/05/11 13:20:02,快篩實名制，每天16:00開始販售，售完為止。
5932024055,福安藥局,桃園市中壢區元化路２３２號,121.2263,24.9616,(03)4266000,羅氏家用新冠病毒抗原自我檢測套組,28,2022/05/11 13:20:02,每日13:00開始販售快篩，售完為止
5932024108,佳愷藥局,桃園市中壢區中北路４７號,121.2368,24.95614,(03)4664735,羅氏家用新冠病毒抗原自我檢測套組,59,2022/05/11 13:20:02,視配貨狀況禮拜三、禮拜五、禮拜六早上9點至11點販售。若未到貨則無法開賣，有任何疑問請致電聯繫許藥師0933-595-819
5932024251,佑全中壢中山藥局,桃園市中壢區中山東路２段２７號１樓,121.2374,24.95443,(03)4385373,羅氏家用新冠病毒抗原自我檢測套組,1,2022/05/11 13:20:02,家用快篩販售時間：下午1400-售完為止
5932024297,新資生弘揚大藥局,桃園市中壢區弘揚路６４號１樓,121.2411,24.95337,(03)3606180,羅氏家用新冠病毒抗原自我檢測套組,37,2022/05/11 13:20:02,無
593202A244,澤仁藥局,桃園市中壢區中正路２６３號,121.2193,24.95495,(03)4252254,羅氏家用新冠病毒抗原自我檢測套組,67,2022/05/11 13:20:02,販賣時段：下午 2:30 - 售完為止
593202A833,君安藥局,桃園市中壢區中北路二段３９０號,121.2318,24.95388,(03)4685484,羅氏家用新冠病毒抗原自我檢測套組,77,2022/05/11 13:20:02,快篩實名制，週一至週五晚上7點，週六週日早上9點，視現場狀況，45分鐘前發號碼牌，發完隨即販售，過號視同放棄
593202A931,佳佑藥局,桃園市中壢區環中東路二四一號,121.2573,24.96345,(03)4356190,羅氏家用新冠病毒抗原自我檢測套組,8,2022/05/11 13:20:02,口罩販賣時段：09:00以後發號碼牌，售完為止
593202B296,慧康藥局,桃園市中壢區中北路二段１０１號１樓,121.2255,24.95122,(03)2840064,羅氏家用新冠病毒抗原自我檢測套組,80,2022/05/11 13:20:02,快篩販售時間：13:30
593202B447,榮善堂藥局,桃園市中壢區前龍街九號,121.2535,24.9298,(03)4564946,羅氏家用新冠病毒抗原自我檢測套組,55,2022/05/11 13:20:02,全台第一自助快篩領取系統，快篩販賣星期一至四：晚上七點。星期五至六：下午二點。星期天：早上八點
5932031890,福生藥局,桃園市大溪區民權東路１０３號１樓,121.2919,24.88209,(03)3873533,羅氏家用新冠病毒抗原自我檢測套組,55,2022/05/11 13:20:02,早上八點開始發放快篩試劑
5932043130,宜康美藥局,桃園市楊梅區環東路４５２號,121.1571,24.91005,(03)4883805,羅氏家用新冠病毒抗原自我檢測套組,77,2022/05/11 13:20:02,快篩販賣時段：早上09:30~10:30（20份）下午15:30~16:30（38份）晚上19:30~20:30（20份）
5932043381,楊梅丁丁藥局,桃園市楊梅區中山北路２段２２７號,121.1729,24.90958,(03)4815486,羅氏家用新冠病毒抗原自我檢測套組,78,2022/05/11 13:20:02,依照配送時間預計下午.發放號碼牌時間.請加LINE社群關注
5932051472,康而美聖安藥師藥局,桃園市蘆竹區南山路一段二之一號,121.2916,25.04879,(03)3228753,羅氏家用新冠病毒抗原自我檢測套組,1,2022/05/11 13:20:02,暫停止販售
5932052004,英登藥局,桃園市蘆竹區南崁路三四四號,121.2913,25.05039,(03)2124606,羅氏家用新冠病毒抗原自我檢測套組,75,2022/05/11 13:20:02,無
5932052737,知博藥師藥局,桃園市蘆竹區營盤里中山路１６０號,121.2977,25.05702,(03)2221886,羅氏家用新冠病毒抗原自我檢測套組,1,2022/05/11 13:20:02,快篩販賣時段：暫定週一至週五16:00-17:00 週六.日不發放.以現場公告時間為主
5932052835,悅兒藥局,桃園市蘆竹區忠孝西路１８６號,121.2892,25.04011,(03)3126967,羅氏家用新冠病毒抗原自我檢測套組,69,2022/05/11 13:20:02,快篩販賣時段：週一到週日 14:30 開賣
5932052979,南崁藥局,桃園市蘆竹區中正路２５１、２５３、２５５號,121.2921,25.04695,(03)3522022,羅氏家用新冠病毒抗原自我檢測套組,157,2022/05/11 13:20:02,快篩實名制，每天16:00開始販售，售完為止。
5932053001,安祐大藥局,桃園市蘆竹區忠孝西路１９２號,121.2891,25.03989,(03)2229195,羅氏家用新冠病毒抗原自我檢測套組,78,2022/05/11 13:20:02,口罩販賣時段：一~六 14:00
5932053065,民生藥局,桃園市蘆竹區南昌路４５號,121.2876,25.04245,(03)3216784,羅氏家用新冠病毒抗原自我檢測套組,77,2022/05/11 13:20:02,快篩開賣時間:星期一到五16點. 星期六10:30. 星期日休息.
5932071009,德佑藥局,桃園市龜山區大崗里新興街２９３號,121.3558,25.04531,(03)3283556,羅氏家用新冠病毒抗原自我檢測套組,4,2022/05/11 13:20:02,快篩試劑販賣時段為每日晚上07:30開始（星期日暫停販售）
5932076791,誠安生活藥局,桃園市龜山區文化七路７９之２號,121.3635,25.05166,(03)3271997,羅氏家用新冠病毒抗原自我檢測套組,200,2022/05/11 13:20:02,即日起停止販售快篩
5932076844,帕米爾藥局,桃園市龜山區萬壽路二段９９１號,121.3369,24.99464,(03)3295522,羅氏家用新冠病毒抗原自我檢測套組,8,2022/05/11 13:20:02,星期一~六家用快篩試劑販賣時段：19:00~20:30。不發號碼牌，請直接排隊購買。
5932077270,明昌藥局,桃園市龜山區中興里萬壽路二段１１９１－６號,121.3318,24.99291,(03)3501205,羅氏家用新冠病毒抗原自我檢測套組,79,2022/05/11 13:20:02,無
5932077378,佑昌藥局,桃園市龜山區民生北路一段５３４號,121.298,25.044,(03)3120760,羅氏家用新冠病毒抗原自我檢測套組,63,2022/05/11 13:20:02,實名制快篩發放時間 14:00
5932077510,左外野藥局,桃園市龜山區文光街６號１樓,121.3802,25.05471,(03)3271503,羅氏家用新冠病毒抗原自我檢測套組,65,2022/05/11 13:20:02,快篩販售:晚上19:30至20:30（週五公休）*不發號碼牌 請直接排隊購買
5932077529,泰麟大藥局,桃園市龜山區自強西路２３８號１樓,121.3325,24.99625,(03)2133728,羅氏家用新冠病毒抗原自我檢測套組,76,2022/05/11 13:20:02,無
5932077627,文興藥局,桃園市龜山區復興一路１０２號１、２、３樓,121.368,25.0592,(03)3285330,羅氏家用新冠病毒抗原自我檢測套組,78,2022/05/11 13:20:02,快篩實名制，每天16:00開始販售，售完為止。
5932080080,厚仁藥局,桃園市八德區大義里永福街１１號,121.3008,24.96265,(03)3611071,羅氏家用新冠病毒抗原自我檢測套組,16,2022/05/11 13:20:02,販賣時段：13:00
5932083670,保健藥局,桃園市八德區介壽路一段８３３號２樓,121.3,24.96168,(03)3669486,羅氏家用新冠病毒抗原自我檢測套組,66,2022/05/11 13:20:02,無
5932083974,晨鴻藥師藥局,桃園市八德區桃鶯路７號１樓,121.3265,24.97179,(03)3764299,羅氏家用新冠病毒抗原自我檢測套組,53,2022/05/11 13:20:02,快篩為早上8:30跟晚上6:00領取號碼牌，星期六早上一次發78份，快篩地圖數量參考就好，請勿再打電話詢問 謝謝
5932084248,佑兒康藥局,桃園市八德區永豐路５７０號,121.2718,24.97541,(03)3709680,羅氏家用新冠病毒抗原自我檢測套組,2,2022/05/11 13:20:02,快篩販售時間:  每週一.二.四.五.六 下午2:30 開始 ； 每週三.日 晚上8:50開始
5932084373,悅康藥局,桃園市八德區介壽路一段９１６號,121.2993,24.95943,(03)3662930,羅氏家用新冠病毒抗原自我檢測套組,73,2022/05/11 13:20:02,全年無休、快篩販賣時段：13:30-17:00
5932084640,嘉家藥局,桃園市八德區介壽路一段７８２號,121.2999,24.96304,(03)3749192,羅氏家用新冠病毒抗原自我檢測套組,22,2022/05/11 13:20:02,快篩領取時間以當天到貨狀況為主
5932084677,杏一八德介壽藥局,桃園市八德區介壽路一段７７１號１樓,121.3003,24.96305,(03)3665542,羅氏家用新冠病毒抗原自我檢測套組,78,2022/05/11 13:20:02,假日及國定假日不賣快篩.平日早上10點 開始賣
5932084828,阿爾富山藥局,桃園市八德區桃鶯路４號１樓,121.3261,24.97167,(03)3763350,羅氏家用新冠病毒抗原自我檢測套組,72,2022/05/11 13:20:02,本藥局實名制快篩於每日晚間7點以實際到貨數量發放，唯保留可視現場排隊人數額滿情況.酌情提前發號碼牌並受理購買!
5932084855,中山啄木鳥藥局,桃園市八德區中山路２１１號、２１３號、２１５號、２１７號１樓,121.2849,24.92539,(03)3656375,羅氏家用新冠病毒抗原自我檢測套組,15,2022/05/11 13:20:02,無
5932084864,阿寶藥局,桃園市八德區東勇一路６號,121.3064,24.96452,(03)3750060,羅氏家用新冠病毒抗原自我檢測套組,78,2022/05/11 13:20:02,實名制快篩詳細公告請參閱阿寶藥局官方臉書
5932084873,宏昌藥局,桃園市八德區介壽路１段８９０號,121.2994,24.95998,(03)3639797,羅氏家用新冠病毒抗原自我檢測套組,68,2022/05/11 13:20:02,每日13:30開賣 星期日休息
5932099892,百年聯和藥局,桃園市龍潭區中豐路３００號,121.2119,24.87808,(03)4895268,羅氏家用新冠病毒抗原自我檢測套組,78,2022/05/11 13:20:02,快篩實名制：自5／9起13:30準時發放
5932100185,德聯藥師藥局,桃園市平鎮區龍南路３１號,121.2452,24.92473,(03)4603613,羅氏家用新冠病毒抗原自我檢測套組,71,2022/05/11 13:20:02,快篩    5月11日   下午2點開始賣
5932100809,福澤民族藥局,桃園市平鎮區民族路二段１３９號１樓,121.2048,24.95706,(03)4014747,羅氏家用新冠病毒抗原自我檢測套組,72,2022/05/11 13:20:02,家用快篩販賣時段15:30至售完為止
5932101253,新大賀藥局,桃園市平鎮區新榮路２５９號１樓,121.2135,24.94617,(03)4927100,羅氏家用新冠病毒抗原自我檢測套組,79,2022/05/11 13:20:02,下午兩點開始發號碼牌販售快篩
5932108574,天健示範藥局,桃園市平鎮區文化街２５２號,121.2032,24.95127,(03)4937169,羅氏家用新冠病毒抗原自我檢測套組,1,2022/05/11 13:20:02,快篩實名制每天8點販售，七點發號碼牌
593210A238,美樂蒂藥局,桃園市平鎮區民族路二三七號二樓,121.2091,24.95658,(03)4023131,羅氏家用新冠病毒抗原自我檢測套組,1,2022/05/11 13:20:02,以調劑為主  開賣時間不固定 勿提早排隊  等越久染疫風險越大
5933010144,佳仁藥局,新竹縣關西鎮中興路１２號,121.1771,24.79227,(035)872298,羅氏家用新冠病毒抗原自我檢測套組,50,2022/05/11 13:20:02,全年無休（星期日不定期）
5933011196,高平堂藥局,新竹縣關西鎮正義路66號,121.1762,24.79269,(03)5872263,羅氏家用新冠病毒抗原自我檢測套組,74,2022/05/11 13:20:02,相關公告 請搜尋FB【高平堂藥局】
5933031769,竹東朝陽藥局,新竹縣竹東鎮朝陽路１號１、２樓,121.0852,24.74199,(03)5111166,羅氏家用新冠病毒抗原自我檢測套組,78,2022/05/11 13:20:02,快篩實名制，每天16:00開始販售，售完為止。
5933031821,新月藥局,新竹縣竹東鎮永康街８１號１樓,121.0818,24.74841,(03)5960501,羅氏家用新冠病毒抗原自我檢測套組,78,2022/05/11 13:20:02,快篩代售時間 14:00（39份） 19:00（39份）
5933031885,東林藥局,新竹縣竹東鎮東林路８０號,121.0913,24.73683,(03)5961321,羅氏家用新冠病毒抗原自我檢測套組,78,2022/05/11 13:20:02,快篩實名制，每天16:00開始販售，售完為止。
5933052517,振元藥師藥局,新竹縣竹北市自強南路２０１號,121.0238,24.81364,(03)6587052,羅氏家用新冠病毒抗原自我檢測套組,78,2022/05/11 13:20:02,下午14:00銷售快篩，周日不販售.
5933052660,阿姆斯壯藥局,新竹縣竹北市六家五路一段１２５號,121.0254,24.80966,(03)6589178,羅氏家用新冠病毒抗原自我檢測套組,78,2022/05/11 13:20:02,快篩5／3早上9:00開始販售，5／4起改下午5點。
5933052866,晶華藥局,新竹縣竹北市莊敬南路１１０號１樓,121.0203,24.81736,(03)5502107,羅氏家用新冠病毒抗原自我檢測套組,28,2022/05/11 13:20:02,公費快篩販售時間請看FB公告
5933052982,如佳藥局,新竹縣竹北市中正西路１８９號,120.9989,24.84168,(03)5533161,羅氏家用新冠病毒抗原自我檢測套組,78,2022/05/11 13:20:02,每日下午13:30發放號碼牌，14:00開始販售
5933053381,佑全竹北中正藥局,新竹縣竹北市中正西路１７６、１７８號１樓,120.9991,24.84149,(03)5556235,羅氏家用新冠病毒抗原自我檢測套組,77,2022/05/11 13:20:02,每日下午13:50發號碼牌 14:00開始販售 不能離開現場
5933053489,十興藥局,新竹縣竹北市莊敬五街７５號,121.0268,24.82346,(03)6684889,羅氏家用新冠病毒抗原自我檢測套組,78,2022/05/11 13:20:02,快篩實名制，每天16:00開始販售，售完為止。
5933053550,六家藥局,新竹縣竹北市六家一路一段１６３號,121.0289,24.80958,(03)6578456,羅氏家用新冠病毒抗原自我檢測套組,78,2022/05/11 13:20:02,快篩實名制，每天16:00開始販售，售完為止。
5933053596,中華藥局,新竹縣竹北市中華路２２６號１、２樓,121.0028,24.83118,(03)5513031,羅氏家用新冠病毒抗原自我檢測套組,78,2022/05/11 13:20:02,快篩實名制，每天16:00開始販售，售完為止。
5933081536,昌昌藥局,新竹縣新豐鄉新市路１９３號,120.9846,24.90465,(03)5598077,羅氏家用新冠病毒抗原自我檢測套組,7,2022/05/11 13:20:02,5／11（二）號碼牌發完
5933081607,新豐藥局,新竹縣新豐鄉中興路２０８、２１０號,120.9949,24.87571,(03)5575005,羅氏家用新冠病毒抗原自我檢測套組,78,2022/05/11 13:20:02,快篩實名制，每天16:00開始販售，售完為止。
5933081616,立果藥局,新竹縣新豐鄉尚仁街１３８號,120.9927,24.86946,(03)5571766,羅氏家用新冠病毒抗原自我檢測套組,72,2022/05/11 13:20:02,實名制快篩1400準時開售。營業時間並非販售快篩時間，請勿一早就來排隊
5933081625,仁川藥局,新竹縣新豐鄉建興路二段７４７號,120.9869,24.89939,(03)5599838,羅氏家用新冠病毒抗原自我檢測套組,40,2022/05/11 13:20:02,快篩實名制，下午13:00開始販售，售完為止
5934011958,栢心藥局,宜蘭縣宜蘭市宜興路１段１１１號,121.7561,24.7514,(03)9357277,羅氏家用新冠病毒抗原自我檢測套組,78,2022/05/11 13:20:02,週一~週六14:00發號碼牌，下午14:30開始販售.（週四下午17:30發號碼牌，18:00開賣）
5934012473,宜蘭藥局,宜蘭縣宜蘭市泰山路３６號,121.7485,24.75524,(03)9365168,羅氏家用新冠病毒抗原自我檢測套組,78,2022/05/11 13:20:02,快篩實名制，每天16:00開始販售，售完為止。
5934020073,長生藥局,宜蘭縣羅東鎮復興路１段１號,121.7713,24.682,(03)9553222,羅氏家用新冠病毒抗原自我檢測套組,78,2022/05/11 13:20:02,快篩試劑販售時間為週一到週六下午2:00開始 ；星期日早上08:30 開始販售
5935012413,苗栗藥局,苗栗縣苗栗市光復路５５號,120.8165,24.5532,(037)360789,羅氏家用新冠病毒抗原自我檢測套組,78,2022/05/11 13:20:02,快篩實名制，每天16:00開始販售，售完為止。
5935030171,立安藥局,苗栗縣通霄鎮信義路１０７號,120.6804,24.48877,(037)760100,羅氏家用新冠病毒抗原自我檢測套組,73,2022/05/11 13:20:02,快篩實名制 週一到週六下午15:00開始販售  售完為止
5935042091,好心健保藥局,苗栗縣竹南鎮中華路１５７號,120.9236,24.71002,(037)687088,羅氏家用新冠病毒抗原自我檢測套組,59,2022/05/11 13:20:02,快篩販售時間:下午01:00
5935042108,好康健保藥局,苗栗縣竹南鎮科專七路２１９號１樓,120.9025,24.70536,(037)680877,羅氏家用新冠病毒抗原自我檢測套組,78,2022/05/11 13:20:02,快篩販售時間：下午3：00
5935050182,民昌藥局,苗栗縣頭份市忠孝里信東路１３０號,120.9095,24.68911,(037)673 232,羅氏家用新冠病毒抗原自我檢測套組,2,2022/05/11 13:20:02,無
5935050208,三峰藥局,苗栗縣頭份市新華里中正一路７８號,120.9259,24.68655,(037)668239,羅氏家用新冠病毒抗原自我檢測套組,2,2022/05/11 13:20:02,實名制快篩：週一至週六下午1點排隊直接購買；週日休息。
5935051929,仁方藥局,苗栗縣頭份市自強路１５０巷２－５號１樓,120.907,24.68785,(037)687238,羅氏家用新冠病毒抗原自我檢測套組,36,2022/05/11 13:20:02,正常營業AM08:00-PM10:00
5935051983,日康藥局,苗栗縣頭份市中央路４０２號１樓,120.8995,24.69356,(037)660061,羅氏家用新冠病毒抗原自我檢測套組,78,2022/05/11 13:20:02,快篩發放時間為每日13:30分 可能因物流配送影響發放時間，請見諒
5935060053,鴻輝大藥局,苗栗縣後龍鎮北龍里中華路６４－１號,120.7879,24.61557,(037)721952,羅氏家用新冠病毒抗原自我檢測套組,4,2022/05/11 13:20:02,AM07:50~PM10:00
5935090015,永信藥局,苗栗縣公館鄉館中村榮光街１６號,120.8271,24.50226,(037)223597,羅氏家用新冠病毒抗原自我檢測套組,78,2022/05/11 13:20:02,每日下午3點開始販售快篩
5935091245,芳鄰藥局,苗栗縣公館鄉玉泉村玉泉３６８之１１號,120.8267,24.50749,(037)223727,羅氏家用新冠病毒抗原自我檢測套組,78,2022/05/11 13:20:02,口罩販賣時段：13:00~售完
5936010244,惠生藥局,臺中市豐原區社皮里中正路９１８號,120.6996,24.24913,(04)25225760,羅氏家用新冠病毒抗原自我檢測套組,24,2022/05/11 13:20:02,無
5936010628,協安大藥局,臺中市豐原區府前街６３號,120.7184,24.24957,(04)25200808,羅氏家用新冠病毒抗原自我檢測套組,82,2022/05/11 13:20:02,實名制快篩販售時間為每日下午兩點。
5936050248,濟生一藥局,臺中市沙鹿區沙田路１４６號,120.5596,24.2365,(04)26626826,羅氏家用新冠病毒抗原自我檢測套組,78,2022/05/11 13:20:02,快篩試劑下午2點-人潮多就提早30分開始 **醫院處方 牙科 備藥齊全 全年無休*
5936150332,真安大藥局,臺中市烏日區興祥街３號,120.6389,24.10483,(04)23360401,羅氏家用新冠病毒抗原自我檢測套組,156,2022/05/11 13:20:02,快篩周一到周六 下午1:30販售
5936180152,祥暘藥局,臺中市霧峰區中正路１１６２號,120.6996,24.07068,(04)23391346,羅氏家用新冠病毒抗原自我檢測套組,78,2022/05/11 13:20:02,快篩實名制，每天16:00開始販售，售完為止。
5936190327,富眾藥局,臺中市太平區永豐路３５號,120.7131,24.12447,(04)22706009,羅氏家用新冠病毒抗原自我檢測套組,18,2022/05/11 13:20:02,111年平安吉祥年:星期一至星期六.下午1點.星期日:休息.
5936190649,杏原藥局,臺中市太平區新坪里樹孝路７７號,120.7199,24.15663,(04)23918768,羅氏家用新冠病毒抗原自我檢測套組,15,2022/05/11 13:20:02,早上9點現場排隊販賣口罩.快篩試劑
5936190676,中美藥師藥局,臺中市太平區中山路３段８５號,120.7173,24.14861,(04)22778238,羅氏家用新冠病毒抗原自我檢測套組,78,2022/05/11 13:20:02,無
5936209287,德芳大藥局,臺中市大里區益民路二段３０４號１、２樓,120.684,24.11183,(04)24815932,羅氏家用新冠病毒抗原自我檢測套組,3,2022/05/11 13:20:02,快篩販售時間:下午3點~6點
593620B138,聯生中西健保藥局,臺中市大里區現岱路１５８巷１１號,120.6919,24.10295,(04)24834058,羅氏家用新冠病毒抗原自我檢測套組,81,2022/05/11 13:20:02,早上八點半領號碼牌下午四點到六點領口罩W6W日早七點
5937012117,媽咪藥局,彰化縣彰化市彰南路２段１１５號,120.5793,24.08538,(04)7321517,羅氏家用新冠病毒抗原自我檢測套組,65,2022/05/11 13:20:02,實名制快篩:周一至周六下午3:00，週日早上9:00開始販售，售完為止
5937012251,慶全藥局,彰化縣彰化市福山里福山街１８９號,120.5714,24.0829,(04)7386747,羅氏家用新冠病毒抗原自我檢測套組,4,2022/05/11 13:20:02,口罩代售時間7:00（星期一至日，無休），現場排隊
5937013132,正光藥局彰南店,彰化縣彰化市中庄里彰南路１段２１號,120.5662,24.08841,(04)7321003,羅氏家用新冠病毒抗原自我檢測套組,78,2022/05/11 13:20:02,領藥來正光.防疫實名制快篩13:30開始販售
5937013347,康禾藥局,彰化縣彰化市崙平里建和街５２號,120.5322,24.07063,(04)7624077,羅氏家用新冠病毒抗原自我檢測套組,28,2022/05/11 13:20:02,固定周一至周五下午一點發放快篩試劑，售完為止
5937013365,正光藥局民族店,彰化縣彰化市彰安里民族路２１１號,120.5389,24.07076,(04)7234876,羅氏家用新冠病毒抗原自我檢測套組,78,2022/05/11 13:20:02,每天下午1點30分開始\現場發號碼牌依序販售快篩試劑
5937013418,曉陽藥局,彰化縣彰化市西安里曉陽路２０２號,120.5373,24.07311,(04)7270989,羅氏家用新冠病毒抗原自我檢測套組,14,2022/05/11 13:20:02,現場排隊，請自備零錢。週一至週五早上9：30，週六下午3：30 ，售完為止（休息：中午12：00-15：30，18：00-19：30 ）
5937013703,友誼藥局自強店,彰化縣彰化市自強路４６號,120.5393,24.08961,(04)7233471,羅氏家用新冠病毒抗原自我檢測套組,78,2022/05/11 13:20:02,5／11快篩實名制販售時間15:00~16:00以現場量為主，免費領取各大醫院連續處方，診所、衛生所處方，歡迎諮詢友誼藥局
5937013767,民族藥局,彰化縣彰化市民族路２１２號１樓,120.5393,24.071,(04)7261221,羅氏家用新冠病毒抗原自我檢測套組,79,2022/05/11 13:20:02,快篩實名制，每天16:00開始販售，售完為止。
5937020119,永吉藥局,彰化縣鹿港鎮大有里大明路４８號,120.4331,24.05459,(04)7772391,羅氏家用新冠病毒抗原自我檢測套組,23,2022/05/11 13:20:02,快篩下午一點開賣 ， 週日無販售快篩 ， 請見諒
5937021750,正光藥局鹿港店,彰化縣鹿港鎮永安里復興路２５１號,120.438,24.05569,(04)7775769,羅氏家用新冠病毒抗原自我檢測套組,78,2022/05/11 13:20:02,每日13點30分開始販售快篩
5937021849,大樹鹿港藥局,彰化縣鹿港鎮中正路１９３號,120.4405,24.05491,(04)7772226,羅氏家用新冠病毒抗原自我檢測套組,78,2022/05/11 13:20:02,快篩實名制，每天16:00開始販售，售完為止。
5937031747,大樹和美藥局,彰化縣和美鎮道周路５０１號,120.494,24.10896,(04)7550090,羅氏家用新冠病毒抗原自我檢測套組,78,2022/05/11 13:20:02,快篩實名制，每天16:00開始販售，售完為止。
5937050135,信昇藥局,彰化縣員林市大同路二段１８２－１號,120.575,23.96908,(04)8358827,羅氏家用新冠病毒抗原自我檢測套組,77,2022/05/11 13:20:02,快篩試劑販售時間-每日下午2點半開始.售完為止
5937051981,康美藥局,彰化縣員林市南平里南平街２６號,120.5646,23.96301,(04)8395172,羅氏家用新冠病毒抗原自我檢測套組,44,2022/05/11 13:20:02,無
5937052264,醫聯藥師藥局,彰化縣員林市三條里員東路二段４１０號１樓,120.5811,23.95898,(04)8360617,羅氏家用新冠病毒抗原自我檢測套組,7,2022/05/11 13:20:02,無
5937052335,大樹三民藥局,彰化縣員林市三民東街３５６號,120.5825,23.96065,(04)8372837,羅氏家用新冠病毒抗原自我檢測套組,78,2022/05/11 13:20:02,快篩實名制，每天16:00開始販售，售完為止。
5937052380,日信藥局員林店,彰化縣員林市中正路２５５號,120.5741,23.95487,(04)8352030,羅氏家用新冠病毒抗原自我檢測套組,78,2022/05/11 13:20:02,快篩試劑每天下午2點開始販售，售完為止
5937052479,莒光藥局,彰化縣員林市莒光路３１６號１樓,120.5669,23.95942,(04)8361388,羅氏家用新冠病毒抗原自我檢測套組,79,2022/05/11 13:20:02,快篩實名制，每天16:00開始販售，售完為止。
5937052488,大樹員林藥局,彰化縣員林市大同路二段２０７號,120.5745,23.96891,(04)8331353,羅氏家用新冠病毒抗原自我檢測套組,78,2022/05/11 13:20:02,快篩實名制，每天16:00開始販售，售完為止。
5937052497,家家藥局,彰化縣員林市惠來街８７號,120.5704,23.95526,(04)8367007,羅氏家用新冠病毒抗原自我檢測套組,1,2022/05/11 13:20:02,無
5937052504,佑全員林中正藥局,彰化縣員林市中正路１３５，１３７號１樓,120.5714,23.96324,(04)8368669,羅氏家用新冠病毒抗原自我檢測套組,78,2022/05/11 13:20:02,無
5937061594,正光藥局溪湖店,彰化縣溪湖鎮大竹里平和街２０２、２０４號,120.4797,23.95728,(04)8825138,羅氏家用新冠病毒抗原自我檢測套組,78,2022/05/11 13:20:02,領藥來正光，快篩實名13：30開始販售。
5937061727,溪湖藥局,彰化縣溪湖鎮西環路３６５、３７１號１樓,120.4771,23.96099,(04)8818617,羅氏家用新冠病毒抗原自我檢測套組,12,2022/05/11 13:20:02,目前顯示剩餘數量皆為5／8當天因電腦系統當機來排隊客人的快篩，造成不變敬請見諒
5937071474,田中藥局,彰化縣田中鎮新生街１５０巷２號,120.5862,23.8621,(04)8761988,羅氏家用新冠病毒抗原自我檢測套組,78,2022/05/11 13:20:02,快篩實名制，每天16:00開始販售，售完為止。
5937081541,康好藥局二林店,彰化縣二林鎮南光里大成路一段５６１號,120.3636,23.89337,(04)8966015,羅氏家用新冠病毒抗原自我檢測套組,78,2022/05/11 13:20:02,快篩實名，5／11起下午3點開始販售，售完為止。
5937081578,二林貓頭鷹藥局,彰化縣二林鎮中正路２４、２６號,120.3689,23.8992,(04)8952299,羅氏家用新冠病毒抗原自我檢測套組,64,2022/05/11 13:20:02,營業時間 發放號碼牌
5937081596,二林藥局,彰化縣二林鎮斗苑路五段３９號,120.3709,23.89951,(04)8950010,羅氏家用新冠病毒抗原自我檢測套組,78,2022/05/11 13:20:02,快篩實名制，每天16:00開始販售，售完為止。
5937121317,彰水藥局,彰化縣秀水鄉彰水路二段４２５、４２７、４２９號１樓,120.4943,24.02791,(04)7685880,羅氏家用新冠病毒抗原自我檢測套組,78,2022/05/11 13:20:02,快篩實名制，每天16:00開始販售，售完為止。
5937140045,新得大藥局,彰化縣芬園鄉社口村彰南路四段７４號,120.6285,24.01306,(049)2521753,羅氏家用新冠病毒抗原自我檢測套組,29,2022/05/11 13:20:02,快篩實名制，13:00開始販售，售完為止。
5937151137,萬來藥局,彰化縣大村鄉福興村山腳路８０－９號,120.5856,23.98996,(04)8535565,羅氏家用新冠病毒抗原自我檢測套組,41,2022/05/11 13:20:02,下午3點販售政府快篩，星期六，母親節休息。
5937170034,淑惠藥局,彰化縣埔心鄉亙北村員鹿路一段２４４號,120.5574,23.95515,(04)8297798,羅氏家用新冠病毒抗原自我檢測套組,76,2022/05/11 13:20:02,星期一~星期六16:00-18:00（2小時販售快篩試劑），星期日：休
5937181251,金和堂藥局,彰化縣永靖鄉永靖街１０２號,120.5463,23.92206,(04)8221759,羅氏家用新冠病毒抗原自我檢測套組,21,2022/05/11 13:20:02,快篩實名制開賣時間 ，現在貨運延遲，如果有到貨下午1:00開賣
5937181279,佳恩藥局,彰化縣永靖鄉永西村瑚璉路３０２號,120.547,23.92421,(04)8235753,羅氏家用新冠病毒抗原自我檢測套組,74,2022/05/11 13:20:02,快篩實名制 :電話預約制，當日早上9點開始預約（已額滿）
5937191300,社頭藥局,彰化縣社頭鄉社斗路一段３７３號,120.5846,23.89651,(04)8720030,羅氏家用新冠病毒抗原自我檢測套組,78,2022/05/11 13:20:02,快篩實名制，每天16:00開始販售，售完為止。
5937201061,長春藥局,彰化縣二水鄉文化村光文路１０３號,120.6167,23.81189,(04)8795289,羅氏家用新冠病毒抗原自我檢測套組,52,2022/05/11 13:20:02,早上8:00發放號碼牌，13:00開始販售至17:00止
5937201105,安利藥局,彰化縣二水鄉光化村員集路４段３號,120.6159,23.81147,(04)8794933,羅氏家用新冠病毒抗原自我檢測套組,72,2022/05/11 13:20:02,快篩下午3點現場販售 不發號碼牌 身障.醫護可優先購買
5937211094,田尾藥局,彰化縣田尾鄉饒平村光復路２段６６９號,120.5313,23.89053,(04)8836725,羅氏家用新冠病毒抗原自我檢測套組,10,2022/05/11 13:20:02,無
5938011838,愛馨藥局,南投縣南投市中山街１４巷１５號,120.687,23.90573,(049)2206006,羅氏家用新冠病毒抗原自我檢測套組,78,2022/05/11 13:20:02,周一至周六14:30開始販售，周日9:00販售
5938011909,彰南藥局,南投縣南投市彰南路二段２１號,120.6845,23.90847,(049)2230005,羅氏家用新冠病毒抗原自我檢測套組,78,2022/05/11 13:20:02,無
5938021781,幸福藥局,南投縣埔里鎮中正路５４８號,120.9643,23.96946,(049)2999800,羅氏家用新冠病毒抗原自我檢測套組,72,2022/05/11 13:20:02,快篩13:30發放號碼牌，發完號碼牌即開始販售。
5938022064,大樹埔里藥局,南投縣埔里鎮中正路４３８號,120.9632,23.97263,(049)2980805,羅氏家用新冠病毒抗原自我檢測套組,78,2022/05/11 13:20:02,快篩實名制，每天16:00開始販售，售完為止。
5938032300,康好藥局,南投縣草屯鎮太平路一段２２５號,120.6813,23.96097,(049)2358838,羅氏家用新冠病毒抗原自我檢測套組,9,2022/05/11 13:20:02,週一至週六13:00-18:00賣口罩，週日沒販售口罩
5938032560,祥陽藥局,南投縣草屯鎮中正路８２２、８２４號,120.6854,23.98276,(049)2353393,羅氏家用新冠病毒抗原自我檢測套組,78,2022/05/11 13:20:02,快篩實名制，每天16:00開始販售，售完為止。
5938041569,竹山福倫藥局,南投縣竹山鎮竹山里集山路三段858號,120.6857,23.75881,(049)2658518,羅氏家用新冠病毒抗原自我檢測套組,34,2022/05/11 13:20:02,下午1點現場排隊販售
5938041729,早安藥局,南投縣竹山鎮雲林路４１號,120.6834,23.75608,(049)2651032,羅氏家用新冠病毒抗原自我檢測套組,1,2022/05/11 13:20:02,實名制快篩試劑早上10點開始販售
5938041916,大明藥局,南投縣竹山鎮大明路４８２號,120.6798,23.759,(049)2652500,羅氏家用新冠病毒抗原自我檢測套組,78,2022/05/11 13:20:02,快篩實名制，每天16:00開始販售，售完為止。
5938110023,杏仁藥局,南投縣水里鄉新城村民權路２３６號,120.8526,23.81758,(049)2776008,羅氏家用新冠病毒抗原自我檢測套組,78,2022/05/11 13:20:02,周一到周六，下午2:30販售快篩，售完為止，星期日休息
5938110078,立特藥局,南投縣水里鄉中央村中正路６８號,120.8543,23.81587,(049)2775837,羅氏家用新冠病毒抗原自我檢測套組,1,2022/05/11 13:20:02,每天早上8點現場排隊持健保卡領號碼牌，中午12點至晚上9點半持號碼牌領快篩劑.
5939010504,桂賓藥局,雲林縣斗六市信義里鎮北路３號,120.5432,23.71143,(05)5332138,羅氏家用新冠病毒抗原自我檢測套組,153,2022/05/11 13:20:02,週五.六.日 休息 沒售快篩
5939011832,汶藥局,雲林縣斗六市大同路１０３號２樓,120.5451,23.70965,(05)5344728,羅氏家用新冠病毒抗原自我檢測套組,1,2022/05/11 13:20:02,快篩實名制: 每天早上80:00開賣，售完為止。三、五下午，六晚上，日全天，以上時間休診。
5939012062,榮譽藥局,雲林縣斗六市永安路５３號,120.548,23.70944,(05)5343503,羅氏家用新冠病毒抗原自我檢測套組,14,2022/05/11 13:20:02,快篩販售時間（星期一至五下午13:00開始販售）.六日時間不定
5939012240,究安藥局,雲林縣斗六市雲林路二段２０２號,120.5311,23.70307,(05)5375697,羅氏家用新冠病毒抗原自我檢測套組,10,2022/05/11 13:20:02,今日快篩下午一點發貨，請到現場拿貨.，不要電話諮詢，人力不夠
5939012599,斗六藥局,雲林縣斗六市雲林路二段１１３號,120.534,23.70477,(05)5372300,羅氏家用新冠病毒抗原自我檢測套組,78,2022/05/11 13:20:02,快篩實名制，每天16:00開始販售，售完為止。
5939020091,全安藥局,雲林縣斗南鎮中天里中正路１２３號,120.4783,23.67655,(05)5965255,羅氏家用新冠病毒抗原自我檢測套組,5,2022/05/11 13:20:02,10點開始販售快篩 售完為止
5939021294,玲津藥局,雲林縣斗南鎮中山路１７之２號,120.4801,23.67372,(05)5972889,羅氏家用新冠病毒抗原自我檢測套組,4,2022/05/11 13:20:02,周一至周六.上午8-12 14:30-18 週日9-11
5939021463,安瑞藥局,雲林縣斗南鎮新興街９４號,120.48,23.67483,(05)5972099,羅氏家用新冠病毒抗原自我檢測套組,16,2022/05/11 13:20:02,因物流配送時間不一定，原則上9:00販售
5939021614,斗南藥局,雲林縣斗南鎮南昌路１１２號,120.4791,23.67321,(05)5960102,羅氏家用新冠病毒抗原自我檢測套組,78,2022/05/11 13:20:02,無
5939031585,利芳藥局,雲林縣虎尾鎮光復路３１０號,120.4385,23.71011,(05)6311016,羅氏家用新冠病毒抗原自我檢測套組,8,2022/05/11 13:20:02,販賣口罩時間:0830-賣完為止
5939031996,端發藥局,雲林縣虎尾鎮林森路一段３２９號,120.4368,23.71237,(05)6314168,羅氏家用新冠病毒抗原自我檢測套組,50,2022/05/11 13:20:02,販賣快篩時間:每日14:30-售完為止請提早排隊
5939032420,虎尾台丞藥局,雲林縣虎尾鎮林森路一段３４６號,120.4364,23.7122,(05)6325698,羅氏家用新冠病毒抗原自我檢測套組,9,2022/05/11 13:20:02,（如果前一天有到貨）快篩開賣時間:星期一至五早上08:15-11:30；星期六下午14:15-17:00，皆現場排隊購買
5939032724,虎尾藥局,雲林縣虎尾鎮林森路二段１１７、１１９號,120.4298,23.70595,(05)6336330,羅氏家用新冠病毒抗原自我檢測套組,1,2022/05/11 13:20:02,新開業， 5／4網路建置完成 每日下午16:00開始販售
5939041849,西螺藥局,雲林縣西螺鎮光復西路１２３、１２５號,120.4612,23.79675,(05)5872112,羅氏家用新冠病毒抗原自我檢測套組,78,2022/05/11 13:20:02,快篩實名制，每天16:00開始販售，售完為止。
5939041947,林森育安藥局,雲林縣西螺鎮中正路１６０號,120.4603,23.79864,(05)5878769,羅氏家用新冠病毒抗原自我檢測套組,30,2022/05/11 13:20:02,無
5939051238,天愛藥局,雲林縣土庫鎮中山路８０號,120.3903,23.6749,(05)6629923,羅氏家用新冠病毒抗原自我檢測套組,73,2022/05/11 13:20:02,無
5939061850,北港家源藥局,雲林縣北港鎮大同路３０３號,120.2983,23.57261,(05)7832104,羅氏家用新冠病毒抗原自我檢測套組,47,2022/05/11 13:20:02,以健保卡購買快篩實名制，每天下午13:00開賣，現場排隊，售完為止。
5939061930,德豐藥局,雲林縣北港鎮公園路１２號,120.303,23.5735,(05)7835338,羅氏家用新冠病毒抗原自我檢測套組,8,2022/05/11 13:20:02,平日中午十二點到兩點休息，下午六點到六點半休息，週日全天休息
5939061949,大樹北港藥局,雲林縣北港鎮華勝路９９號,120.2986,23.57559,(05)7830783,羅氏家用新冠病毒抗原自我檢測套組,78,2022/05/11 13:20:02,快篩實名制，每天16:00開始販售，售完為止。
5939071276,慈生藥局,雲林縣古坑鄉麻園村平和２２號,120.5203,23.6351,(05)5828222,羅氏家用新冠病毒抗原自我檢測套組,220,2022/05/11 13:20:02,週三.四.六.日下午3-5點販售實名制快篩
5939071285,振明藥局,雲林縣古坑鄉中山路１７０號,120.5619,23.64612,(05)5821229,羅氏家用新冠病毒抗原自我檢測套組,10,2022/05/11 13:20:02,無
5939071310,禾安藥局,雲林縣古坑鄉朝陽村中山路１３６－１號,120.562,23.64552,(05)5828318,羅氏家用新冠病毒抗原自我檢測套組,13,2022/05/11 13:20:02,口罩代售時間每日上午8:00發號碼販售，售完為止
5939071329,光明藥局,雲林縣古坑鄉東和村文化路１３９－９號,120.5675,23.68493,(05)5263736,羅氏家用新冠病毒抗原自我檢測套組,15,2022/05/11 13:20:02,快篩試劑販賣時間：11點
5939101126,昇陽大藥局,雲林縣林內鄉中西路１７號,120.6139,23.75795,(05)5899896,羅氏家用新冠病毒抗原自我檢測套組,15,2022/05/11 13:20:02,快篩販賣:週一至週日下午13:00售完為止
5939131151,三芳藥局,雲林縣麥寮鄉橋頭村仁德路１７６號,120.2758,23.79673,(05)6911053,羅氏家用新冠病毒抗原自我檢測套組,78,2022/05/11 13:20:02,快篩星期一至日下午1:50開始販售，售完為止
5939131400,正鴻健保藥局,雲林縣麥寮鄉表福路３５號,120.255,23.74769,(05)6938786,羅氏家用新冠病毒抗原自我檢測套組,13,2022/05/11 13:20:02,周一至周五早上八點到晚上八點，星期六早上八點到下午四點
5939131473,立昇藥局,雲林縣麥寮鄉華興路９１號,120.251,23.74982,(05)6933066,羅氏家用新冠病毒抗原自我檢測套組,70,2022/05/11 13:20:02,1330-2200
5939131482,麥津藥局,雲林縣麥寮鄉中山路３１３、３１５號,120.2527,23.74947,(05)6932258,羅氏家用新冠病毒抗原自我檢測套組,78,2022/05/11 13:20:02,快篩實名制，每天16:00開始販售，售完為止。
5939150012,博順藥局,雲林縣褒忠鄉中正路３２５之３號,120.3081,23.69338,(05)6971048,羅氏家用新冠病毒抗原自我檢測套組,3,2022/05/11 13:20:02,快篩試劑每天早上9點開始販售至售完止
5939150067,召安大藥局,雲林縣褒忠鄉中勝村中正路４５０號,120.306,23.69264,(05)6976066,羅氏家用新冠病毒抗原自我檢測套組,75,2022/05/11 13:20:02,實名制快篩發放每日下午約1:30
5939181339,威仁藥局,雲林縣四湖鄉中山西路７０號,120.2237,23.6378,(05)7875041,羅氏家用新冠病毒抗原自我檢測套組,10,2022/05/11 13:20:02,無
5940011544,弘安藥局,嘉義縣朴子市新進路３１號,120.2415,23.46202,(05)3707000,羅氏家用新冠病毒抗原自我檢測套組,1,2022/05/11 13:20:02,8:00-22；00
5940031368,溝背藥局,嘉義縣大林鎮義和里三塊厝７－７號,120.4859,23.61441,(05)2955878,羅氏家用新冠病毒抗原自我檢測套組,1,2022/05/11 13:20:02,快篩早上10點開始販賣，週日不販賣快篩.營業時間星期一至星期六0800-1200；1430-1930.星期日0800-1200，下午晚上休息.
5940031386,大樹大林藥局,嘉義縣大林鎮祥和路１９２號,120.4527,23.60447,(05)2641800,羅氏家用新冠病毒抗原自我檢測套組,78,2022/05/11 13:20:02,快篩實名制，每天16:00開始販售，售完為止。
5940040232,鈞安藥局,嘉義縣民雄鄉山中村１８７之５號,120.4103,23.51833,(05)2218622,羅氏家用新冠病毒抗原自我檢測套組,58,2022/05/11 13:20:02,上午7:00-晚上9:30，六日不定期休息
5940040349,正道藥局,嘉義縣民雄鄉中樂村復興路３８號,120.4304,23.55706,(05)2268345,羅氏家用新冠病毒抗原自我檢測套組,26,2022/05/11 13:20:02,周一~周六 15:00-售罄周日 視人力彈性發放08:30-12:00
5940041435,嘉方藥局,嘉義縣民雄鄉中樂村昇平路５８號,120.4303,23.55781,(05)2066747,羅氏家用新冠病毒抗原自我檢測套組,41,2022/05/11 13:20:02,早上08:00開始販賣，賣完為止，周六晚休、周日午晚休
5940041622,大順藥局,嘉義縣民雄鄉福樂村埤角１３９號,120.44,23.52429,(05)2201138,羅氏家用新冠病毒抗原自我檢測套組,1,2022/05/11 13:20:02,快篩領取:星期一至日下午2點，售完為止
5940041739,民雄藥局,嘉義縣民雄鄉東榮村００５鄰建國路一段１１７號,120.4333,23.55681,(05)2264566,羅氏家用新冠病毒抗原自我檢測套組,78,2022/05/11 13:20:02,快篩實名制，每天16:00開始販售，售完為止。
5940041748,大祐藥局,嘉義縣民雄鄉西安村西安路２１－１號１樓,120.4272,23.5564,(05)2067077,羅氏家用新冠病毒抗原自我檢測套組,45,2022/05/11 13:20:02,週日下午晚上休息
5940111469,嘉安藥局,嘉義縣太保市麻寮里中山路２段４６號,120.3746,23.49908,(05)2387670,羅氏家用新冠病毒抗原自我檢測套組,34,2022/05/11 13:20:02,快篩到貨時開始販售，售完為止
5940120039,李藥局,嘉義縣水上鄉民生村忠孝街１１１號,120.4341,23.44735,(05)2355389,羅氏家用新冠病毒抗原自我檢測套組,37,2022/05/11 13:20:02,每天下午1:00開始販售.周日休息
5940121303,宏益藥局,嘉義縣水上鄉正義路５１號,120.3995,23.43025,(05)2601714,羅氏家用新冠病毒抗原自我檢測套組,7,2022/05/11 13:20:02,快篩販售時間: 禮拜一~禮拜日上午8:00~12:00   下午15:00~18:00  晚上18:30~20:30    售完為止
5940121358,嘉泰健保藥局,嘉義縣水上鄉水頭村中興路３０７號,120.4012,23.43059,(05)2681028,羅氏家用新冠病毒抗原自我檢測套組,8,2022/05/11 13:20:02,08:00~售罄
5940140148,仁壽藥局,嘉義縣竹崎鄉竹崎村中山路１８９號,120.5499,23.51987,(05)2612328,羅氏家用新冠病毒抗原自我檢測套組,1,2022/05/11 13:20:02,每天１５：３０開放領購快篩試劑，售完為止。
5940141314,竹崎啄木鳥藥師藥局,嘉義縣竹崎鄉竹崎村中華路９２號,120.5481,23.52055,(05)2617786,羅氏家用新冠病毒抗原自我檢測套組,1,2022/05/11 13:20:02,09:00~售罄
5941041322,紘信藥局,臺南市麻豆區民生路３６之７號１樓,120.2541,23.18173,(06)5711289,羅氏家用新冠病毒抗原自我檢測套組,73,2022/05/11 13:20:02,早上8~12點 下午 3~9點  周六下午 3~5:30   周日 下午 5~9點
5941051417,賀康藥局,臺南市佳里區文化路２０７號,120.1771,23.16297,(06)7221447,羅氏家用新冠病毒抗原自我檢測套組,14,2022/05/11 13:20:02,快篩販售時間 13:00~售完
5941070074,弘松健保藥局,臺南市善化區中興路１０８號,120.2913,23.13166,(06)5819146,羅氏家用新冠病毒抗原自我檢測套組,63,2022/05/11 13:20:02,週一~週六 下午15：00
5941181054,年豐藥局,臺南市將軍區忠嘉里忠興４２－１０號１樓,120.158,23.20163,(06)7946247,羅氏家用新冠病毒抗原自我檢測套組,68,2022/05/11 13:20:02,星期一、四、五、六08:00~09:00 星期二~三08:30~09:30（5／11上午休息）買快篩時間
5941270163,太子藥局,臺南市仁德區太子里太子路３３８號,120.2577,22.99146,(06)2729906,羅氏家用新冠病毒抗原自我檢測套組,1,2022/05/11 13:20:02,5／9快篩.已售完.
5941271517,慧安藥師藥局,臺南市仁德區後壁里德糖路３８９號１樓,120.2534,22.95157,(06)2706638,羅氏家用新冠病毒抗原自我檢測套組,40,2022/05/11 13:20:02,快篩販售時間：1-6下午13:00統一販售，週日不販售
5941291180,安麗兒藥局關廟店,臺南市關廟區中山路２段５０號,120.3269,22.96017,(06)5951952,羅氏家用新冠病毒抗原自我檢測套組,78,2022/05/11 13:20:02,快篩下午2點開始.營業時間08:00AM-21:30PM.假日營業至21:00
5942011819,鳳山丁丁藥局,高雄市鳳山區協和里自由路１５１號１樓,120.3517,22.62565,(07)7101080,羅氏家用新冠病毒抗原自我檢測套組,3,2022/05/11 13:20:02,自5／01日~12／31日，營業日09:00發號碼牌~22:00為販賣實名制快篩劑時間，售完為止，
5942013699,新怡安藥局,高雄市鳳山區海洋里新富路５１２號,120.3474,22.61403,(07)7633565,羅氏家用新冠病毒抗原自我檢測套組,82,2022/05/11 13:20:02,快篩如果送貨正常一般都早上九點販售  如果供貨時間異常就下午兩點
5942013804,長喜連鎖藥局,高雄市鳳山區鳳甲路４９２號,120.3462,22.59758,(07)7961070,羅氏家用新冠病毒抗原自我檢測套組,73,2022/05/11 13:20:02,快篩販賣周一~周六下午2:00 周日上午9:00~10:00
5942051555,健人藥師藥局,高雄市林園區東林里東林東路２０號,120.3964,22.50372,(07)6463158,羅氏家用新冠病毒抗原自我檢測套組,37,2022/05/11 13:20:02,實名制防疫快篩販售時間:周一 ~六:下午1點~3點，周日不販售
5942060027,福民藥局,高雄市大寮區鳳林三路４０８號之１,120.3964,22.6036,(07)7816570,羅氏家用新冠病毒抗原自我檢測套組,2,2022/05/11 13:20:02,8:15發口罩號碼牌售完為止
5942060161,信元藥師藥局,高雄市大寮區鳳林三路３２９號,120.3979,22.6013,(07)7836313,羅氏家用新冠病毒抗原自我檢測套組,1,2022/05/11 13:20:02,政府實名制快篩販售時間要參考政府是否配貨，可來電詢問
5942061739,安泰專業藥局,高雄市大寮區鳳林三路８３５號,120.3901,22.61282,(07)7819515,羅氏家用新冠病毒抗原自我檢測套組,78,2022/05/11 13:20:02,每日14:45開始發號碼牌算人數至售完為止
5943013853,復順藥局,屏東縣屏東市公園東路８４－２號,120.4986,22.67217,(08)7215662,羅氏家用新冠病毒抗原自我檢測套組,19,2022/05/11 13:20:02,自2／11日~12／31日，快篩需預約排隊登記，今日無餘額
5943013915,怡安生活藥粧藥局,屏東縣屏東市大連里瑞光路２段１３８號１樓,120.5092,22.67687,(08)7377162,羅氏家用新冠病毒抗原自我檢測套組,1,2022/05/11 13:20:02,快篩販售時間：週一至周六下午1點販售.現場排隊售完為止，週日機動調整販售，，一次僅限一人入場購買。
5943014092,屏東藥局,屏東縣屏東市自由路６３１號,120.4824,22.683,(08)7323331,羅氏家用新冠病毒抗原自我檢測套組,78,2022/05/11 13:20:02,快篩實名制，每天16:00開始販售，售完為止。
5943014145,廣東藥局,屏東縣屏東市廣東路６８２－２．６８４號,120.4966,22.68527,(08)7362210,羅氏家用新冠病毒抗原自我檢測套組,78,2022/05/11 13:20:02,快篩實名制，每天16:00開始販售，售完為止。
5943014234,屏大藥局,屏東縣屏東市民生路５７－２１號,120.5038,22.66399,(08)7220369,羅氏家用新冠病毒抗原自我檢測套組,78,2022/05/11 13:20:02,快篩實名制，每天16:00開始販售，售完為止。
5943014332,千甲台安藥局,屏東縣屏東市武廟里逢甲路９２號,120.4867,22.67045,(08)7330663,羅氏家用新冠病毒抗原自我檢測套組,78,2022/05/11 13:20:02,因政府物流不穩定 每日塊篩販售時間公告於LINE社群https:／／reurl.cc／M0b5VX
5943014341,和平藥局,屏東縣屏東市和平路３５號,120.4785,22.66651,(08)7556696,羅氏家用新冠病毒抗原自我檢測套組,78,2022/05/11 13:20:02,快篩實名制，每天16:00開始販售，售完為止。
5943020367,安欣藥師藥局,屏東縣潮州鎮延平路一六八號,120.5404,22.55572,(08)7805759,羅氏家用新冠病毒抗原自我檢測套組,20,2022/05/11 13:20:02,自2／11日~2／29日，營業日13:00~15:00為販賣口罩時間，售完為止
5943021720,潮州藥局,屏東縣潮州鎮介壽路１－１號,120.536,22.54448,(08)7894000,羅氏家用新冠病毒抗原自我檢測套組,78,2022/05/11 13:20:02,快篩實名制，每天16:00開始販售，售完為止。
5943031619,健人藥局,屏東縣東港鎮中正路１４２號,120.4506,22.46791,(08)8333828,羅氏家用新冠病毒抗原自我檢測套組,56,2022/05/11 13:20:02,快篩試劑:週一 ~ 週六，下午1:00~3:00，周日不販售
5943031771,東港藥局,屏東縣東港鎮中正路２５７˙２５７－１號,120.4523,22.47022,(08)8325133,羅氏家用新冠病毒抗原自我檢測套組,78,2022/05/11 13:20:02,快篩實名制，每天16:00開始販售，售完為止。
5943031833,東港啄木鳥藥局,屏東縣東港鎮興東二街１６號,120.4642,22.47816,(08)8327125,羅氏家用新冠病毒抗原自我檢測套組,74,2022/05/11 13:20:02,下午2:00 （若當天配送延誤，時間另行公布）
5943031851,大眾藥局,屏東縣東港鎮朝隆路７６號,120.4463,22.46862,(08)8354752,羅氏家用新冠病毒抗原自我檢測套組,78,2022/05/11 13:20:02,實名制快篩下午三點開始販售
5943041320,南門大藥局,屏東縣恆春鎮中正路８４號,120.7446,22.00343,(08)8894335,羅氏家用新冠病毒抗原自我檢測套組,78,2022/05/11 13:20:02,營業日16:00-21:00 販賣實名制快篩（賣完為止），星期日不販售
5943041357,西門藥局,屏東縣恆春鎮西門路１０８號,120.7437,22.00793,(08)8896980,羅氏家用新冠病毒抗原自我檢測套組,76,2022/05/11 13:20:02,快篩實名制，每天16:00開始販售，販售完為止
5943050169,新萬安藥局,屏東縣萬丹鄉萬安村萬丹路一段１１３號,120.4894,22.58628,(08)7772035,羅氏家用新冠病毒抗原自我檢測套組,4,2022/05/11 13:20:02,實名制快篩領取號碼牌早上9點
5943060058,臺灣人藥師藥局,屏東縣長治鄉崙上村崑崙路１８８－１０號,120.5333,22.68979,(08)7625315,羅氏家用新冠病毒抗原自我檢測套組,12,2022/05/11 13:20:02,表訂下午2點開賣 1點45開始排隊 人數到就滾動式開賣  建議提早來 免得撲空
5943091151,祥安藥局,屏東縣里港鄉玉田村玉田路６３－２號,120.4905,22.77635,(08)7757652,羅氏家用新冠病毒抗原自我檢測套組,22,2022/05/11 13:20:02,中午1點快篩開始販售
5943110053,葉藥局,屏東縣高樹鄉高樹村南興路１３５號１樓,120.6014,22.8239,(08)7967883,羅氏家用新冠病毒抗原自我檢測套組,21,2022/05/11 13:20:02,實名制快篩販賣時間：下午1:00開始-售完為止
5943125189,寶合康藥局,屏東縣萬巒鄉佳和村佳興路３６－８號,120.596,22.57264,(08)7831017,羅氏家用新冠病毒抗原自我檢測套組,37,2022/05/11 13:20:02,營業日13:00至17:00為販賣快篩時間
5943131561,南寧藥局,屏東縣內埔鄉南寧路２３號,120.5655,22.61723,(08)7690330,羅氏家用新冠病毒抗原自我檢測套組,78,2022/05/11 13:20:02,快篩實名制，每天16:00開始販售，售完為止。
5943151027,安泰藥局新埤店,屏東縣新埤鄉新華路１６３號,120.5513,22.47006,(08)7973793,羅氏家用新冠病毒抗原自我檢測套組,11,2022/05/11 13:20:02,實名制快篩，每日13:00開始販售
5943170095,長安中西藥局,屏東縣新園鄉中洲村南興路１９４號,120.4586,22.48776,(08)8336986,羅氏家用新冠病毒抗原自我檢測套組,1,2022/05/11 13:20:02,自2／11~2／29日，販賣口罩時間9:00起，售完為止。
5945012434,博文藥局,花蓮縣花蓮市光復街２２號,121.6088,23.97541,(03)8345657,羅氏家用新冠病毒抗原自我檢測套組,2,2022/05/11 13:20:02,銷售快篩試劑時間週一至周六:上午08:30現場預約收件，下午3 點以後發放試劑
5945013119,北國泰藥局,花蓮縣花蓮市府前路５８２號１樓,121.6195,24.00325,(03)8236256,羅氏家用新冠病毒抗原自我檢測套組,15,2022/05/11 13:20:02,實名制快篩12點販售（實際販售時間到貨時間後起算）
5945013244,花蓮丁丁藥局,花蓮縣花蓮市中山路５５３號,121.6009,23.98754,(03)8360312,羅氏家用新冠病毒抗原自我檢測套組,1,2022/05/11 13:20:02,快篩販售時間早上9點開賣
5945051271,小叮噹藥局,花蓮縣吉安鄉建國路１段６３號１樓,121.5945,23.98501,(03)8576886,羅氏家用新冠病毒抗原自我檢測套組,3,2022/05/11 13:20:02,星期一至星期六早上8:30左右開始領購快篩
5945051520,洄瀾藥局,花蓮縣吉安鄉中山路三段２７９號,121.5708,23.97767,(03)8525217,羅氏家用新冠病毒抗原自我檢測套組,9,2022/05/11 13:20:02,快篩一，二，四，五下午3:30開始販售，三，六中午12；30-13:30販售，週日休息
5945051584,安欣藥局,花蓮縣吉安鄉建國路一段７９號,121.5939,23.98513,(03)8563186,羅氏家用新冠病毒抗原自我檢測套組,78,2022/05/11 13:20:02,視收貨時間  今日下午3點40分販售
5946011931,中華藥局,臺東縣臺東市中華路二段３４５號,121.1354,22.74286,(089)322389,羅氏家用新冠病毒抗原自我檢測套組,208,2022/05/11 13:20:02,快篩試劑下午1:10開始販賣，之前會排隊發號碼牌。
5946080552,伯安健康藥局,臺東縣長濱鄉長濱村１０鄰長濱路１０５號,121.4515,23.31496,(089)832519,羅氏家用新冠病毒抗原自我檢測套組,39,2022/05/11 13:20:02,無
5946101118,伯安藥局,臺東縣池上鄉新生路１１６號,121.2187,23.12315,(089)863585,羅氏家用新冠病毒抗原自我檢測套組,80,2022/05/11 13:20:02,早0800-1200，午1400-1800，晚1800-2000
