醫事機構代碼,醫事機構名稱,醫事機構地址,經度,緯度,醫事機構電話,廠牌項目,快篩試劑截至目前結餘存貨數量,來源資料時間,備註
2336210034,臺中市和平區梨山衛生所,臺中市和平區中正路１２號１樓、６８號１樓,121.2592,24.25678,(04)25989540,羅氏家用新冠病毒抗原自我檢測套組,6,2022/05/08 10:08:34,提供24小時急診待診服務，111年4月28日起，快篩試劑販售時段為周一至周五0900-12:00，六日及國定假日為0900-1100
2340170016,嘉義縣大埔鄉衛生所,嘉義縣大埔鄉大埔村５３－１號,120.5928,23.29397,(05)2521214,羅氏家用新冠病毒抗原自我檢測套組,78,2022/05/08 10:08:34,無
2342270019,高雄市那瑪夏區衛生所,高雄市那瑪夏區瑪雅里６鄰平和巷２５２號,120.7024,23.24708,(07)6701142,羅氏家用新冠病毒抗原自我檢測套組,181,2022/05/08 10:08:34,春節期間正常門診
2343230019,屏東縣車城鄉衛生所,屏東縣車城鄉福安村福安路２之３０號,120.7125,22.06986,(08)8821300,羅氏家用新冠病毒抗原自我檢測套組,66,2022/05/08 10:08:34,無
2343310012,屏東縣春日鄉衛生所,屏東縣春日鄉春日村春日路１７６號,120.6251,22.37008,(08)8780358,羅氏家用新冠病毒抗原自我檢測套組,13,2022/05/08 10:08:34,無
2343320018,屏東縣獅子鄉衛生所,屏東縣獅子鄉楓林村楓林二巷３１號,120.7057,22.18402,(08)8771324,羅氏家用新冠病毒抗原自我檢測套組,1,2022/05/08 10:08:34,特休日：每年農曆除夕、初一
2343330014,屏東縣牡丹鄉衛生所,屏東縣牡丹鄉石門村１９號,120.7469,22.10105,(08)8831013,羅氏家用新冠病毒抗原自我檢測套組,17,2022/05/08 10:08:34,早上9:00 實名制快篩販售（售完為止）
2344011036,澎湖縣馬公市第三衛生所,澎湖縣馬公市西文里１１８之２號,119.5836,23.56813,(06)9211723,羅氏家用新冠病毒抗原自我檢測套組,121,2022/05/08 10:08:34,本所快篩試劑只提供離島衛生室（虎井、桶盤）販售，時間週一至週五08:30-17:00售完為止，星期六、日國定假日09:00-12:00。
2344030022,澎湖縣白沙鄉鳥嶼衛生所,澎湖縣白沙鄉鳥嶼村漁港新村３號,119.6599,23.66008,(06)9916092,羅氏家用新冠病毒抗原自我檢測套組,95,2022/05/08 10:08:34,非上班時間提供急診服務
2344030031,澎湖縣白沙鄉吉貝衛生所,澎湖縣白沙鄉吉貝村８－１３號,119.6138,23.74056,(06)9911430,羅氏家用新冠病毒抗原自我檢測套組,195,2022/05/08 10:08:34,無
2344050015,澎湖縣望安鄉衛生所,澎湖縣望安鄉西安村３６－７號,119.4972,23.36161,(06)9991036,羅氏家用新冠病毒抗原自我檢測套組,74,2022/05/08 10:08:34,夜間急診。口罩、快篩試劑販售時間為:每日08:00-12:00、13:30-17:30售完為止，如有餘數為離島未售出（東嶼坪、花嶼）。
2344050024,澎湖縣望安鄉將軍衛生所,澎湖縣望安鄉將軍村１２鄰將軍澳１之３號,119.5216,23.3615,(06)9902066,羅氏家用新冠病毒抗原自我檢測套組,128,2022/05/08 10:08:34,24小時急診
2344060011,澎湖縣七美鄉衛生所,澎湖縣七美鄉中和村埔內５４號,119.431,23.2041,(06)9971005,羅氏家用新冠病毒抗原自我檢測套組,73,2022/05/08 10:08:34,無
2345080017,衛生福利部花蓮醫院豐濱原住民分院,花蓮縣豐濱鄉豐濱村光豐路４１號,121.5215,23.60195,(03)8358141,羅氏家用新冠病毒抗原自我檢測套組,78,2022/05/08 10:08:34,*本院口罩每天販售，時間自上午8點至晚上9點  *本院週一至週五上下午皆有門診，星期六隔週提供門診，及24小時急診。
5901012749,躍獅松和藥局,臺北市松山區八德路四段６６６－１號,121.5761,25.04979,(02)27492569,羅氏家用新冠病毒抗原自我檢測套組,78,2022/05/08 10:08:34,實名制快篩販售時段，每日下午4點販售，售完為止
5901012767,晨新藥局,臺北市松山區八德路４段９１巷１－１號,121.5608,25.04894,(02)27422951,羅氏家用新冠病毒抗原自我檢測套組,66,2022/05/08 10:08:34,本店星期一不販售快篩，其餘時間為下午2點至5點。若有修正依店內公告為主。
5901013362,啄木鳥藥局,臺北市松山區八德路４段２０９號、２１１號（１、２層）,121.564,25.04894,(02)27422413,羅氏家用新冠病毒抗原自我檢測套組,56,2022/05/08 10:08:34,每日早上10點開始販售實名制快篩
5901013371,玖田藥局,臺北市松山區八德路４段６５５號,121.5755,25.05018,(02)27666578,羅氏家用新冠病毒抗原自我檢測套組,21,2022/05/08 10:08:34,實名制快篩：09:40開始，售完為止！
5901020616,龍護大藥局,臺北市大安區大安路１段２２４巷７號１Ｆ,121.5454,25.03401,(02)23250686,羅氏家用新冠病毒抗原自我檢測套組,68,2022/05/08 10:08:34,無
5901020661,泰佑藥局,臺北市大安區安和路２段７２號１Ｆ,121.5517,25.03011,(02)27056841,羅氏家用新冠病毒抗原自我檢測套組,23,2022/05/08 10:08:34,每日早上九點半
5901024114,好安心藥局,臺北市大安區和平東路２段９８之２號,121.5415,25.02493,(02)23772166,羅氏家用新冠病毒抗原自我檢測套組,42,2022/05/08 10:08:34,快篩發放: 週一至週六 15:30現場開始販售（人滿提早發售），不發號碼牌。
5901024490,明星大藥局,臺北市大安區光復南路４３０之１號,121.5574,25.03618,(02)27023747,羅氏家用新冠病毒抗原自我檢測套組,2,2022/05/08 10:08:34,無
5901024945,威康藥局,臺北市大安區和平東路２段２９７號,121.5447,25.02495,(02)27061149,羅氏家用新冠病毒抗原自我檢測套組,19,2022/05/08 10:08:34,無
5901025040,弘昌藥局,臺北市大安區通化街１３９號１樓,121.554,25.02901,(02)27321616,羅氏家用新冠病毒抗原自我檢測套組,33,2022/05/08 10:08:34,無
5901025059,博醫仁愛藥局,臺北市大安區仁愛路４段８巷２號１樓,121.5443,25.0375,(02)27019107,羅氏家用新冠病毒抗原自我檢測套組,53,2022/05/08 10:08:34,每天11:30發號碼牌，12:00~15:00憑號碼牌與健保卡購買實名制快篩
5901090243,建祥藥局,臺北市大同區寧夏路１７號、１７－１號,121.515,25.05485,(02)25556476,羅氏家用新冠病毒抗原自我檢測套組,50,2022/05/08 10:08:34,10：00~18：00
5901091884,躍獅雙蓮藥局,臺北市大同區涼州街４號,121.5147,25.06078,(02)25537551,羅氏家用新冠病毒抗原自我檢測套組,108,2022/05/08 10:08:34,實名制快篩：平日週一～五 下午３點開賣 （六、日停售）
5901092130,大同民生藥局,臺北市大同區民生西路１２８號１樓、２樓及１３０號１樓、２樓,121.5191,25.05734,(02)25558886,羅氏家用新冠病毒抗原自我檢測套組,78,2022/05/08 10:08:34,快篩實名制，每天16:00開始販售，售完為止。
5901100057,百源堂大藥局,臺北市中山區長安東路２段４７－５號,121.5322,25.04857,(02)25364362,羅氏家用新冠病毒抗原自我檢測套組,26,2022/05/08 10:08:34,週休2 日及國定假日休營業時間上午8時30分至晚間7點
5901100155,大信藥局,臺北市中山區林森北路１５９巷６號,121.5255,25.0517,(02)25719080,羅氏家用新冠病毒抗原自我檢測套組,1,2022/05/08 10:08:34,無
5901100628,貢玄藥局,臺北市中山區錦州街２０７號,121.532,25.06039,(02)25637847,羅氏家用新冠病毒抗原自我檢測套組,60,2022/05/08 10:08:34,早上10點~11點領口罩
5901101072,長青藥局,臺北市中山區興安街５５號１樓,121.5419,25.05621,(02)25053160,羅氏家用新冠病毒抗原自我檢測套組,14,2022/05/08 10:08:34,無
5901103558,佳頤中西藥局,臺北市中山區長春路１４７之１號,121.5323,25.05495,(02)25641479,羅氏家用新冠病毒抗原自我檢測套組,87,2022/05/08 10:08:34,實名制快篩販售時間為下午1點起，售完為止，其他販售細節以店內公告為主
5901103745,吉林藥局,臺北市中山區吉林路３７１號（１樓）,121.5305,25.06511,(02)25865990,羅氏家用新冠病毒抗原自我檢測套組,78,2022/05/08 10:08:34,快篩實名制，每天16:00開始販售，售完為止。
5901103781,龍江台安藥局,臺北市中山區龍江路２４７號（１樓）,121.5408,25.05862,(02)25091007,羅氏家用新冠病毒抗原自我檢測套組,78,2022/05/08 10:08:34,實名制快篩下午2:00開始拿號碼牌
5901110311,永安藥局,臺北市內湖區文德路２１０巷３０弄４８號,121.5852,25.07723,(02)26586658,羅氏家用新冠病毒抗原自我檢測套組,8,2022/05/08 10:08:34,口罩販售時間早上10點開始發號碼牌  同時販售
5901110339,富山藥局,臺北市內湖區麗山街３６４巷２號１樓,121.5728,25.08168,(02)27996446,羅氏家用新冠病毒抗原自我檢測套組,63,2022/05/08 10:08:34,周日公休，政府供貨不穩定，請搜尋facebook「富山生活藥妝」查看每日公告
5901113018,桔子藥局,臺北市內湖區內湖路２段３３３號,121.5917,25.08319,(02)27930052,羅氏家用新冠病毒抗原自我檢測套組,78,2022/05/08 10:08:34,早0900-1200，午1400-1700，晚1900-2100
5901113143,躍獅寶湖藥局,臺北市內湖區民權東路６段１２３巷２８號,121.5928,25.0701,(02)87928335,羅氏家用新冠病毒抗原自我檢測套組,1,2022/05/08 10:08:34,實名制快篩: 每日上午9:30 開始販售 現場排隊 售完為止 詳細細節請注意店內公告
5901113296,喜越藥局,臺北市內湖區內湖路１段２８５巷５９弄７號,121.5673,25.08377,(02)26271955,羅氏家用新冠病毒抗原自我檢測套組,1,2022/05/08 10:08:34,無
5901113385,躍獅康成藥局,臺北市內湖區成功路４段６１巷１１號,121.5928,25.0814,(02)87922031,羅氏家用新冠病毒抗原自我檢測套組,78,2022/05/08 10:08:34,如有收到政府配送，實名制快篩13:40發號碼牌，14:00開賣。實名制口罩已無販售。
5901113652,加一藥師藥局,臺北市內湖區星雲街２４號１樓,121.5908,25.07804,(02)87912653,羅氏家用新冠病毒抗原自我檢測套組,167,2022/05/08 10:08:34,無
5901113732,富康活力誠功藥局,臺北市內湖區成功路４段３０巷２０號１樓,121.5916,25.08235,(02)27960222,羅氏家用新冠病毒抗原自我檢測套組,1,2022/05/08 10:08:34,正常供應的話都是每日16:00開始販售快篩，建議來現場加入**LINE社群**，可以獲得最新第一手資訊
5901120175,新錦安藥局,臺北市南港區南港路３段３４號,121.5922,25.05429,(02)27825218,羅氏家用新冠病毒抗原自我檢測套組,78,2022/05/08 10:08:34,快篩販售時間星期一到星期六上午8:30開始   星期日上午10:30開始
5901121841,泓安藥局,臺北市南港區興華路７５號,121.6061,25.05517,(02)27861083,羅氏家用新冠病毒抗原自我檢測套組,65,2022/05/08 10:08:34,星期一至星期日早上10:00開賣快篩試劑
5901121850,健涵藥局,臺北市南港區舊莊街１段１４７號,121.6205,25.03985,(02)27837285,羅氏家用新冠病毒抗原自我檢測套組,79,2022/05/08 10:08:34,發快篩時間：每日下午一點
5901121930,小藥師健保藥局,臺北市南港區福德街３２０之１號,121.588,25.03948,(02)27867002,羅氏家用新冠病毒抗原自我檢測套組,56,2022/05/08 10:08:34,快篩販售時間，每天早上10點開始販售，售完為止
5901121985,勝安藥局,臺北市南港區舊莊街１段１６５號,121.6211,25.03949,(02)27828450,羅氏家用新冠病毒抗原自我檢測套組,36,2022/05/08 10:08:34,實名制快篩晚上21:00提供，倘提早額滿且經現場排隊者全體同意，則即時銷售 5／8正常
5901122080,成福大藥局,臺北市南港區成福路８號,121.5859,25.04578,(02)27859221,羅氏家用新冠病毒抗原自我檢測套組,78,2022/05/08 10:08:34,無
5901150815,陽明藥局,臺北市士林區菁山路１０號１樓,121.5469,25.13797,(02)28612863,羅氏家用新冠病毒抗原自我檢測套組,13,2022/05/08 10:08:34,早上9點30到12點健保卡排隊.（作業時間2小時）下午1點到晚上6點領回口罩及健保卡
5901152453,家赫藥局,臺北市士林區忠義街８０號１樓,121.5317,25.10614,(02)28346453,羅氏家用新冠病毒抗原自我檢測套組,78,2022/05/08 10:08:34,每日下午2:40開始發號碼牌販售實名制快篩
5901152471,得安藥局,臺北市士林區文林路１４０號,121.5267,25.08878,(02)28836336,羅氏家用新冠病毒抗原自我檢測套組,78,2022/05/08 10:08:34,星期三五六下午3:30---10:00   星期二 四日下午5:00--10:00
5901153825,太和堂中西藥局,臺北市士林區大東路７４號（實際使用：１樓）,121.5257,25.09037,(02)28814122,羅氏家用新冠病毒抗原自我檢測套組,1,2022/05/08 10:08:34,上午8:30現場領號碼牌。週日公休
5901154000,文昌大藥局,臺北市士林區文昌路７２號１樓,121.5213,25.09634,(02)28376196,羅氏家用新冠病毒抗原自我檢測套組,54,2022/05/08 10:08:34,1.周一至周日下午15:00販售實名制快篩，請自備零錢 2.每日提供18份，讓醫護警消憑證購買，請pm14:30前來
5901154028,向宇藥局,臺北市士林區德行東路２１７號１樓,121.5328,25.10935,(02)88661101,羅氏家用新冠病毒抗原自我檢測套組,42,2022/05/08 10:08:34,無
5901154055,天母盛康藥局,臺北市士林區天母東路８巷８４號１樓,121.5304,25.11483,(02)28720208,羅氏家用新冠病毒抗原自我檢測套組,67,2022/05/08 10:08:34,實名制快篩每日14:00開始，賣完為止。
5901163563,躍獅光明藥局,臺北市北投區光明路５１號、５３號（實際使用：１樓）,121.4998,25.13286,(02)28915993,羅氏家用新冠病毒抗原自我檢測套組,38,2022/05/08 10:08:34,今日快篩已全數販售完畢，請不要再打電話詢問，謝謝
5901170184,臺陽藥局,臺北市信義區大道路６１號,121.5823,25.04136,(02)27283403,羅氏家用新冠病毒抗原自我檢測套組,7,2022/05/08 10:08:34,快篩試劑早上9:30現場販售，週日沒有販售
5901172268,皇佳大藥局,臺北市信義區松山路５４１巷１９號,121.5789,25.03793,(02)27269868,羅氏家用新冠病毒抗原自我檢測套組,51,2022/05/08 10:08:34,早上10:00 持健保卡領取實名制快篩，每人限領一份，請自備500元
5901172651,康杏藥局,臺北市信義區福德街３０６號１樓,121.5874,25.03931,(02)27591510,羅氏家用新冠病毒抗原自我檢測套組,27,2022/05/08 10:08:34,無
5901173283,上禾藥師藥局,臺北市信義區林口街２７號,121.5792,25.03741,(02)27592686,羅氏家用新冠病毒抗原自我檢測套組,60,2022/05/08 10:08:34,無
5901173872,柏愛藥局,臺北市信義區基隆路２段１３１之９號,121.5567,25.02788,(02)27325472,羅氏家用新冠病毒抗原自我檢測套組,1,2022/05/08 10:08:34,國定假日營業時間為09:30-17:30；實名制快篩09:30開賣
5901174084,市政藥局,臺北市信義區忠孝東路５段１６９號１樓、１７１號１樓,121.5688,25.0412,(02)27560050,羅氏家用新冠病毒抗原自我檢測套組,78,2022/05/08 10:08:34,快篩實名制，每天16:00開始販售，售完為止。
5901180206,大安藥局,臺北市中正區新生南路１段１０６號,121.5326,25.03969,(02)23213186,羅氏家用新冠病毒抗原自我檢測套組,58,2022/05/08 10:08:34,週一到週六
5901180322,南昌大藥局,臺北市中正區南昌路１段８６號１樓,121.5174,25.03086,(02)23510322,羅氏家用新冠病毒抗原自我檢測套組,1,2022/05/08 10:08:34,早上10點發號碼牌，下午2點前來購買，逾期作廢。
5901183645,大愛生活藥局,臺北市中正區汀州路２段２３２號,121.5243,25.02189,(02)23661155,羅氏家用新冠病毒抗原自我檢測套組,109,2022/05/08 10:08:34,下午14:30開始發放快篩（不發號碼牌直接買）~~不要太早開始排隊啊啊啊啊
5901184080,活力健康藥妝藥局,臺北市中正區中華路２段３１５巷１號,121.5062,25.02795,(02)23392625,羅氏家用新冠病毒抗原自我檢測套組,2,2022/05/08 10:08:34,快篩14:00-15:00， 建議提早排隊
5901184473,中力藥局,臺北市中正區襄陽路１３之５號、１５號,121.5155,25.04349,(02)23313768,羅氏家用新冠病毒抗原自我檢測套組,14,2022/05/08 10:08:34,實名制快篩 販售時間：09:30~售完為止
5901184535,桐心藥局,臺北市中正區金華街１８之６號１樓,121.5202,25.03175,(02)23581663,羅氏家用新冠病毒抗原自我檢測套組,4,2022/05/08 10:08:34,無
5901184633,躍獅東門藥局,臺北市中正區金山南路１段１０８之１號（１樓）,121.5273,25.03538,(02)23920339,羅氏家用新冠病毒抗原自我檢測套組,9,2022/05/08 10:08:34,5／8起早上9點開始販售，不提早發放號碼牌
5901184697,中英大藥局,臺北市中正區永綏街６號１樓,121.5112,25.043,(02)23617551,羅氏家用新冠病毒抗原自我檢測套組,24,2022/05/08 10:08:34,無
5901192448,健誠大藥局,臺北市萬華區環河南路２段１８５號,121.4919,25.03246,(02)23042223,羅氏家用新冠病毒抗原自我檢測套組,31,2022/05/08 10:08:34,實名制快篩販售：周一至周五早上9點開始，周六、周日早上10點開始
5901201568,康宜庭生活藥局,臺北市文山區興隆路４段６４號,121.5613,24.98514,(02)29385363,羅氏家用新冠病毒抗原自我檢測套組,6,2022/05/08 10:08:34,實名快篩14:00開賣 現場排隊
5901202047,華君藥局,臺北市文山區興隆路２段６０號,121.5478,24.99955,(02)29319510,羅氏家用新冠病毒抗原自我檢測套組,78,2022/05/08 10:08:34,每天12:00開始販售快篩
5901203062,大樹文山藥局,臺北市文山區興隆路３段１３號（１、２、３樓）,121.555,25.00088,(02)29342226,羅氏家用新冠病毒抗原自我檢測套組,78,2022/05/08 10:08:34,快篩實名制，每天16:00開始販售，售完為止。
5901203375,大樹景美藥局,臺北市文山區羅斯福路６段２３４之１號,121.5404,24.99244,(02)29322951,羅氏家用新冠病毒抗原自我檢測套組,78,2022/05/08 10:08:34,快篩實名制，每天16:00開始販售，售完為止。
5901203455,全球萬芳藥局,臺北市文山區興隆路３段６３號（１樓）,121.5562,25.00024,(02)89352147,羅氏家用新冠病毒抗原自我檢測套組,3,2022/05/08 10:08:34,營業時間9:00~22:00
5902011291,長庚藥局,高雄市鹽埕區五福四路１６３號一樓,120.2834,22.62347,(07)5513436,羅氏家用新冠病毒抗原自我檢測套組,70,2022/05/08 10:08:34,無
5902022972,高雄藥局,高雄市鼓山區九如四路９２４號,120.2793,22.65466,(07)5214266,羅氏家用新冠病毒抗原自我檢測套組,35,2022/05/08 10:08:34,無
5902030634,有機藥局,高雄市左營區榮耀街３號,120.3216,22.67935,(07)3596429,羅氏家用新冠病毒抗原自我檢測套組,3,2022/05/08 10:08:34,平日:7:40~22:00 六:08:00~22:00 星期日公休
5902032674,辰暘藥局,高雄市左營區富民路１２０號１、２樓,120.3054,22.66066,(07)5588545,羅氏家用新冠病毒抗原自我檢測套組,50,2022/05/08 10:08:34,無
5902040210,益民藥局,高雄市楠梓區建楠路４７號,120.3287,22.72659,(07)3522161,羅氏家用新冠病毒抗原自我檢測套組,77,2022/05/08 10:08:34,開門時間10:00
5902040229,進昇藥局,高雄市楠梓區德賢路２０２號,120.3068,22.72694,(07)3652334,羅氏家用新冠病毒抗原自我檢測套組,15,2022/05/08 10:08:34,實名制快篩每日上午10點販售，售完為止
5902050903,皇安藥局,高雄市三民區九如一路４６１號,120.3296,22.63865,(07)3866779,羅氏家用新冠病毒抗原自我檢測套組,66,2022/05/08 10:08:34,營業日0900可先領取號碼牌，上午9:00-12:00及下午3:00~10:.00為販賣快篩時間，售完為止
5902051222,利民藥局,高雄市三民區孝順街７４號,120.3128,22.6431,(07)3125436,羅氏家用新冠病毒抗原自我檢測套組,10,2022/05/08 10:08:34,快篩實名制下午3點30分開始販售，發號碼牌           **5／6（五）快篩實名制上午9點30分開始販售，發號碼牌
5902056807,長慶藥局,高雄市三民區金鼎路３１０號,120.3207,22.66513,(07)3105835,羅氏家用新冠病毒抗原自我檢測套組,33,2022/05/08 10:08:34,無
5902057144,欣仁惠藥局,高雄市三民區大昌二路２４８號,120.3323,22.64529,(07)3837833,羅氏家用新冠病毒抗原自我檢測套組,44,2022/05/08 10:08:34,無
5902060150,永明藥局,高雄市新興區仁智街２２３號,120.3027,22.62084,(07)2619832,羅氏家用新冠病毒抗原自我檢測套組,11,2022/05/08 10:08:34,政府專用快篩劑限量販售中，週一至週日早上十時起。5月7日（六）早上9點半開始售完為止！
5902080474,弘宗藥局,高雄市苓雅區武智街２號,120.3356,22.62303,(07)7211088,羅氏家用新冠病毒抗原自我檢測套組,2,2022/05/08 10:08:34,家用實名制快篩試劑，早上8時開始販售。
5902081328,東信藥局,高雄市苓雅區三多一路１８９號,120.3313,22.62258,(07)7613309,羅氏家用新冠病毒抗原自我檢測套組,2,2022/05/08 10:08:34,早上8:30開始發送號碼牌販售口罩，售完為止，假日正常販售
5902092910,健家藥局,高雄市前鎮區二聖二路４５號,120.3165,22.61293,(07)3389986,羅氏家用新冠病毒抗原自我檢測套組,1,2022/05/08 10:08:34,早上9:30營業，售完為止
5902110628,悅是康藥局,高雄市小港區漢民路２７６號,120.3536,22.56665,(07)8010012,羅氏家用新冠病毒抗原自我檢測套組,44,2022/05/08 10:08:34,每日早上10:00開賣、不須拿號碼牌、領完為止。
5902111670,桂林活力藥師藥局,高雄市小港區桂陽路４０號,120.3575,22.58194,(07)7931248,羅氏家用新冠病毒抗原自我檢測套組,3,2022/05/08 10:08:34,營業日09:00發放實名制快篩號碼牌.售完為止
5903040107,佑全清水中山三藥局,臺中市清水區中山路２４、２６、２８號１樓,120.572,24.26043,(04)26224469,羅氏家用新冠病毒抗原自我檢測套組,7,2022/05/08 10:08:34,5／8（日）實名制快篩發放時間更改為早上9:30，9:20發號碼牌，敬請注意。請關注本藥局臉書。慢箋牙科箋領藥全年無休。
5903060092,佑全梧棲文化藥局,臺中市梧棲區文化路二段１５０號１樓,120.531,24.25526,(04)26566433,羅氏家用新冠病毒抗原自我檢測套組,78,2022/05/08 10:08:34,實名快篩下午1：50發號碼牌；14：00開始販售
5903070169,佑全后里甲后藥局,臺中市后里區甲后路一段７２８號１、２樓,120.7193,24.30951,(04)25583116,羅氏家用新冠病毒抗原自我檢測套組,27,2022/05/08 10:08:34,實名制快篩每日14:00販售。13:50發放號碼牌。
5903080030,捷達藥局,臺中市神岡區大漢街２５號,120.6974,24.25352,(04)25225207,羅氏家用新冠病毒抗原自我檢測套組,4,2022/05/08 10:08:34,周一到周六上午8:00開始販售，售完為止。
5903080138,佑全神岡中山藥局,臺中市神岡區中山路５４９、５４９之１、５４９之２號１樓,120.6842,24.24638,(04)25634677,羅氏家用新冠病毒抗原自我檢測套組,78,2022/05/08 10:08:34,每日下午1點50分發號碼牌2點開賣
5903100037,大雅東亞藥師大藥局,臺中市大雅區民生路１段２２、２２－１號,120.6543,24.22924,(04)25605233,羅氏家用新冠病毒抗原自我檢測套組,5,2022/05/08 10:08:34,5／8號.....早上9點半開賣....
5903100046,躍獅佑仁藥局,臺中市大雅區雅環路２段２８７號,120.6488,24.22919,(04)25608256,羅氏家用新冠病毒抗原自我檢測套組,78,2022/05/08 10:08:34,家用快篩販售-星期一~星期五 晚上7點（19:00）開始.時間更新異動請參閱粉專
5903160088,必安藥局,臺中市大肚區沙田路二段６３４號,120.5455,24.15084,(04)26992116,羅氏家用新冠病毒抗原自我檢測套組,79,2022/05/08 10:08:34,**限購1份**早上8點販售**每天固定78份，非156**
5903190139,劍橋藥局,臺中市太平區宜昌路５５２號１樓,120.7157,24.14758,(04)22776619,羅氏家用新冠病毒抗原自我檢測套組,2,2022/05/08 10:08:34,星期一到星期日
5903200229,信元藥局,臺中市大里區益民路２段３７２號１樓,120.684,24.11545,(04)24876051,羅氏家用新冠病毒抗原自我檢測套組,48,2022/05/08 10:08:34,下午5點發號碼牌並依序販賣
5903200756,佑全大里大明藥局,臺中市大里區大明路３６０、３６２號,120.6787,24.11511,(04)24818633,羅氏家用新冠病毒抗原自我檢測套組,78,2022/05/08 10:08:34,實名制快篩，開賣時間:下午14:00，售完為止
5903220196,日安藥局,臺中市中區臺灣大道一段３３０號１樓,120.6801,24.1422,(04)22234246,羅氏家用新冠病毒抗原自我檢測套組,9,2022/05/08 10:08:34,週一至週六 下午2:30開始販售快篩   週日 早上9:30開始販售
5903260912,莒光藥局,臺中市北區錦南街１２號１樓,120.6886,24.15399,(04)22336663,羅氏家用新冠病毒抗原自我檢測套組,35,2022/05/08 10:08:34,每日下午3點開賣 78份售完為止 星期日另外公告 臉書搜尋莒光藥局
5903270392,瑞德大藥局,臺中市西屯區中清西二街８４號,120.6671,24.17511,(04)22939820,羅氏家用新冠病毒抗原自我檢測套組,36,2022/05/08 10:08:34,固定周一至周日早上9:00開始販售口罩.售完為止
5903270614,至善德侑藥局,臺中市西屯區至善路６０號,120.6395,24.17141,(04)24518729,羅氏家用新冠病毒抗原自我檢測套組,2,2022/05/08 10:08:34,實名制快篩下午14:00開始發號碼牌.14:15開始販售
5903270776,河南丁丁藥局,臺中市西屯區河南路４段１９１號,120.6367,24.15565,(04)22511658,羅氏家用新冠病毒抗原自我檢測套組,3,2022/05/08 10:08:34,周一至周日每天上午9:00開始販售口罩[有口罩庫存時]
5903270847,分子藥局,臺中市西屯區惠來路二段２３６－１號,120.6421,24.16318,(04)22513080,羅氏家用新冠病毒抗原自我檢測套組,95,2022/05/08 10:08:34,發放時間週一至週日早上10點起售完為止
5903271291,西屯長安藥局,臺中市西屯區成都路３６８號１樓,120.6641,24.17322,(04)22981221,羅氏家用新冠病毒抗原自我檢測套組,78,2022/05/08 10:08:34,快篩實名制，每天16:00開始販售，售完為止。
5903280334,長益藥局,臺中市南屯區忠勇路９９號,120.6155,24.14971,(04)23899383,羅氏家用新冠病毒抗原自我檢測套組,2,2022/05/08 10:08:34,週一至週六下午13點開始開始販售口罩（當場排隊，不發號碼牌售完為止）
5903290045,康美得藥局,臺中市北屯區昌平路１段１０５－８號,120.6903,24.17373,(04)22467128,羅氏家用新冠病毒抗原自我檢測套組,48,2022/05/08 10:08:34,早上9:30開始。W日早上10點販售。快篩使用方法請上（康美得藥局）官方臉書
5903290661,康博中西健保藥局,臺中市北屯區后庄一街７號１樓,120.6644,24.1865,(04)24252468,羅氏家用新冠病毒抗原自我檢測套組,1,2022/05/08 10:08:34,快篩下午01:00發售53份；晚上06:00銷售25份.週六.日及假日下午06:30開始依配送滾動調整
5903290947,德寶健保藥局,臺中市北屯區熱河路一段７０號１樓,120.687,24.1674,(04)22325511,羅氏家用新冠病毒抗原自我檢測套組,78,2022/05/08 10:08:34,下午二點開始販賣快篩試劑
5903291006,五和健保藥局,臺中市北屯區崇德路二段４６０號１樓,120.6863,24.18001,(04)22415533,羅氏家用新冠病毒抗原自我檢測套組,6,2022/05/08 10:08:34,週六公休 。周一至周五 14:30 發號碼牌 14:40販售； 週日 8:30發號碼牌 隨後販售
5903291168,日初藥局,臺中市北屯區軍功路一段４８２－３號１樓,120.7188,24.17102,(04)24363150,羅氏家用新冠病毒抗原自我檢測套組,36,2022/05/08 10:08:34,無
5903291202,好心情藥局,臺中市北屯區昌平路一段１７之３號,120.6941,24.16607,(04)22335663,羅氏家用新冠病毒抗原自我檢測套組,1,2022/05/08 10:08:34,快篩販售時間 14:30 ~售完為止 ， 12:30~13:30 請勿來電，謝謝配合
5905010036,橘子藥局,臺南市新營區民權路１１８之２號,120.312,23.30989,(06)6351881,羅氏家用新冠病毒抗原自我檢測套組,56,2022/05/08 10:08:34,10:00-19:00（目前六.日有配合實名制快篩販售）；快篩相關訊息，請看FB（臉書）橘子藥局.粉絲專頁
5905010330,新進啄木鳥藥局,臺南市新營區新進路２段２５４號１樓,120.3056,23.30074,(06)6565303,羅氏家用新冠病毒抗原自我檢測套組,64,2022/05/08 10:08:34,自5／7起每日上午10:00開賣，售完為止..
5905060054,全家康藥師藥局,臺南市新化區北勢里中正路１２０７號,120.2968,23.05935,(06)5980866,羅氏家用新冠病毒抗原自我檢測套組,46,2022/05/08 10:08:34,週一~週日早上10:00開始賣實名制快篩，售完為止
5905060198,大樹新化藥局,臺南市新化區中正路５３１號１樓,120.3072,23.03764,(06)5901331,羅氏家用新冠病毒抗原自我檢測套組,78,2022/05/08 10:08:34,快篩實名制，每天16:00開始販售，售完為止。
5905070121,大樹善化藥局,臺南市善化區民權路５４、５６、５８號１樓,120.3034,23.1322,(06)5830550,羅氏家用新冠病毒抗原自我檢測套組,78,2022/05/08 10:08:34,快篩實名制，每天16:00開始販售，售完為止。
5905140039,安安藥局隆田店,臺南市官田區中山路一段１５號１樓,120.3186,23.1927,(06)5795705,羅氏家用新冠病毒抗原自我檢測套組,2,2022/05/08 10:08:34,全日口罩販賣
5905160013,長榮藥局,臺南市西港區新興街１２巷１４號１樓,120.2019,23.12005,(06)7952617,羅氏家用新冠病毒抗原自我檢測套組,23,2022/05/08 10:08:34,實名制快篩，早上十點開始販售
5905200085,大樹新市藥局,臺南市新市區中正路４９、５１號１樓,120.2916,23.07223,(06)5892552,羅氏家用新冠病毒抗原自我檢測套組,78,2022/05/08 10:08:34,快篩實名制，每天16:00開始販售，售完為止。
5905310157,信仁藥局,臺南市永康區中華西街１４９號,120.2257,23.01581,(06)2337755,羅氏家用新冠病毒抗原自我檢測套組,20,2022/05/08 10:08:34,實名制快篩販售時間 : 9:30起至售完為止
5905310817,永大啄木鳥藥局,臺南市永康區永大路二段３９７號１樓,120.2632,23.01227,(06)2071575,羅氏家用新冠病毒抗原自我檢測套組,78,2022/05/08 10:08:34,快篩販售星期一~星期日14:00~售完（當天配送若延誤，時間另行公佈）
5905311074,中華長億藥局,臺南市永康區中華路７３４、７３６號１樓,120.2288,23.0167,(06)3022322,羅氏家用新冠病毒抗原自我檢測套組,78,2022/05/08 10:08:34,快篩實名制，每天16:00開始販售，售完為止。
5905311145,慈惠中西藥局,臺南市永康區北興里北興路３５８號１樓,120.2709,23.01289,(06)2050956,羅氏家用新冠病毒抗原自我檢測套組,38,2022/05/08 10:08:34,快篩實名制：週一至週日上午10點開始販售（以實際到貨時間為主）
5905320466,佑全中華藥局,臺南市東區中華東路三段２１５號,120.2253,22.97603,(06)2906386,羅氏家用新冠病毒抗原自我檢測套組,1,2022/05/08 10:08:34,星期一-六08:00-21:00
5905320653,東門台安藥局,臺南市東區中華東路三段２號１樓,120.2291,22.98105,(06)2904377,羅氏家用新冠病毒抗原自我檢測套組,73,2022/05/08 10:08:34,國定假日不開放領口罩
5905320797,大樹自由藥局,臺南市東區自由路三段３８２號１樓,120.2373,22.98241,(06)2890800,羅氏家用新冠病毒抗原自我檢測套組,78,2022/05/08 10:08:34,快篩實名制，每天16:00開始販售，售完為止。
5905320939,東門啄木鳥藥局,臺南市東區東門路三段２４１號１樓,120.2358,22.97662,(06)2884569,羅氏家用新冠病毒抗原自我檢測套組,62,2022/05/08 10:08:34,貨運可能延遲以現場公告或來電詢問為準
5905330417,明興啄木鳥藥局,臺南市南區明興路５１號１樓,120.1883,22.95974,(06)2620793,羅氏家用新冠病毒抗原自我檢測套組,58,2022/05/08 10:08:34,每日10:00開始賣實名制快篩，若配送延遲則14:30開始。
5907010098,建明藥局,高雄市鳳山區海洋一路１２２號,120.3449,22.60985,(07)7668550,羅氏家用新冠病毒抗原自我檢測套組,3,2022/05/08 10:08:34,實名制快篩試劑9:30開始販售，售完為止
5907010276,愛家社區藥局,高雄市鳳山區福德街１４１號,120.3267,22.59042,(07)8123698,羅氏家用新冠病毒抗原自我檢測套組,5,2022/05/08 10:08:34,星期一~星期日早上9:30開始販售快篩，現場發號碼牌，售完為止
5907011095,鳳山五甲藥局,高雄市鳳山區正義里五甲二路１３９號１樓,120.3409,22.6014,(07)7269899,羅氏家用新冠病毒抗原自我檢測套組,78,2022/05/08 10:08:34,快篩實名制，每天16:00開始販售，售完為止。
5907011193,新高橋藥局新富店,高雄市鳳山區新泰里新富路４２８號１樓,120.3451,22.61288,(07)9630233,羅氏家用新冠病毒抗原自我檢測套組,47,2022/05/08 10:08:34,早上10:00開始販售口罩
5907011200,和成藥局,高雄市鳳山區南成里和成路６５號１樓,120.3379,22.58986,(07)7961566,羅氏家用新冠病毒抗原自我檢測套組,9,2022/05/08 10:08:34,自2／11日~2／29日，營業日08:00~10:00為販賣口罩時間
5907011228,鳳山青年藥局,高雄市鳳山區文德里青年路二段３９９號１樓,120.3513,22.64292,(07)7678383,羅氏家用新冠病毒抗原自我檢測套組,78,2022/05/08 10:08:34,口罩販售時間：14:00 - 16:00
5907011273,鳳山服安藥局,高雄市鳳山區忠義里中山西路３８０號１樓,120.3409,22.62906,(07)7406330,羅氏家用新冠病毒抗原自我檢測套組,35,2022/05/08 10:08:34,自3／1日~3／31日，營業日08:00~21:00為販賣口罩時間
5907011291,桂林活力藥師藥局鳳山店,高雄市鳳山區中正里瑞興路４８８號１樓,120.3719,22.63089,(07)7012827,羅氏家用新冠病毒抗原自我檢測套組,8,2022/05/08 10:08:34,早上9點發放號碼牌，發完號碼牌即售完
5907011317,凱旋藥局,高雄市鳳山區國隆里新富路３７３號１樓,120.3475,22.61494,(07)7671181,羅氏家用新冠病毒抗原自我檢測套組,78,2022/05/08 10:08:34,快篩實名制，每天16:00開始販售，售完為止。
5907011371,大樹五甲藥局,高雄市鳳山區福祥里五甲三路２４號１－２樓．２６號１－２樓,120.3278,22.59317,(07)8224926,羅氏家用新冠病毒抗原自我檢測套組,79,2022/05/08 10:08:34,快篩實名制，每天16:00開始販售，售完為止。
5907050109,林園藥局,高雄市林園區仁愛路１３號１樓,120.3928,22.50418,(07)6425855,羅氏家用新冠病毒抗原自我檢測套組,78,2022/05/08 10:08:34,快篩實名制，每天16:00開始販售，售完為止。
5907060098,佳和健保藥局,高雄市大寮區鳳林三路５１２號,120.3954,22.60616,(07)7821500,羅氏家用新冠病毒抗原自我檢測套組,2,2022/05/08 10:08:34,自2／11日~2／29日，營業日8:30~12:00、15:00-21:00為販賣口罩時間，售完為止。
5907080214,新高橋藥局八德中店,高雄市仁武區八卦里八德中路８６、８８、９０號,120.3393,22.68489,(07)3485857,羅氏家用新冠病毒抗原自我檢測套組,54,2022/05/08 10:08:34,藥局電話 07-3736437
5907080223,新高橋藥局仁雄店,高雄市仁武區赤山里仁雄路８９－３號,120.3457,22.67722,(07)3485857,羅氏家用新冠病毒抗原自我檢測套組,57,2022/05/08 10:08:34,藥局電話07-3743243
5907090121,新高橋藥局大社店,高雄市大社區中山路２７７號１樓,120.3496,22.73189,(07)3520061,羅氏家用新冠病毒抗原自我檢測套組,7,2022/05/08 10:08:34,5／6早上9:50發號碼牌 10:00開始販售
5907160075,安麗兒藥局東方店,高雄市湖內區湖東里東方路９０號,120.2483,22.87968,(07)6936029,羅氏家用新冠病毒抗原自我檢測套組,70,2022/05/08 10:08:34,領快篩時間一~日早上11點開始~售完 （以郵局配送時間為主）
5907160093,保生藥局,高雄市湖內區葉厝里保生路３４０．３４２號,120.2195,22.90733,(07)6990800,羅氏家用新冠病毒抗原自我檢測套組,1,2022/05/08 10:08:34,快篩實名制，每天16:00開始販售，售完為止。
5907290327,金好藥局,高雄市鼓山區青海路４１８號１樓,120.2845,22.65177,(07)5869556,羅氏家用新冠病毒抗原自我檢測套組,66,2022/05/08 10:08:34,無
5907300024,重愛藥局,高雄市左營區文自路９３０號１樓,120.3161,22.68547,(07)3501870,羅氏家用新冠病毒抗原自我檢測套組,68,2022/05/08 10:08:34,下午2:30開始販售口罩
5907300168,金元藥局,高雄市左營區重愛路２２０號,120.3156,22.68562,(07)3458378,羅氏家用新冠病毒抗原自我檢測套組,7,2022/05/08 10:08:34,快篩試劑郵差配送，約10點至11點左右會送到藥局，即開始販售，星期四，六營業時間至中午12點
5907300506,躍獅祐恩藥局,高雄市左營區明華一路１３２號１樓,120.3073,22.66307,(07)5508706,羅氏家用新冠病毒抗原自我檢測套組,78,2022/05/08 10:08:34,到貨時間不固定，到貨會FB通知並立即販售，售完為止~
5907300659,維康藥局高榮店,高雄市左營區榮總路１６３號、１６５號,120.3216,22.6809,(07)3494540,羅氏家用新冠病毒抗原自我檢測套組,59,2022/05/08 10:08:34,平常日0900-1700為快篩販賣時間賣完為止！假日1000-1800
5907300800,元大藥師健保藥局,高雄市左營區榮德街３２７號,120.3211,22.68636,(07)3507531,羅氏家用新冠病毒抗原自我檢測套組,53,2022/05/08 10:08:34,無
5907310404,藍田藥局,高雄市楠梓區藍田路１號,120.2953,22.72643,(07)3601236,羅氏家用新冠病毒抗原自我檢測套組,78,2022/05/08 10:08:34,快篩實名制，每天16:00開始販售，售完為止。
5907310477,新高橋藥局藍昌店,高雄市楠梓區藍昌路３８７號１樓,120.2915,22.72658,(07)3485857,羅氏家用新冠病毒抗原自我檢測套組,49,2022/05/08 10:08:34,無
5907320302,新高橋藥局明誠店,高雄市三民區明誠一路４９２號,120.3226,22.66046,(07)3107072,羅氏家用新冠病毒抗原自我檢測套組,56,2022/05/08 10:08:34,早上10:00開始販售口罩
5907321078,振源藥局,高雄市三民區熱河一街３５５號１樓,120.3061,22.64365,(07)3112541,羅氏家用新冠病毒抗原自我檢測套組,11,2022/05/08 10:08:34,4／30起15:00開始販售快篩，六日皆有營業
5907350328,安杏藥局,高雄市苓雅區四維二路９４－１７號,120.3197,22.62273,(07)7511739,羅氏家用新冠病毒抗原自我檢測套組,3,2022/05/08 10:08:34,快篩試劑代售時間自早上9:00點服務
5907360520,大樹瑞福藥局,高雄市前鎮區瑞隆路１７０號１樓、２樓,120.3357,22.60598,(07)7271170,羅氏家用新冠病毒抗原自我檢測套組,78,2022/05/08 10:08:34,快篩實名制，每天16:00開始販售，售完為止。
5907360600,桂林活力藥師藥局草衙店,高雄市前鎮區草衙二路３６０號,120.323,22.57801,(07)8131819,羅氏家用新冠病毒抗原自我檢測套組,3,2022/05/08 10:08:34,9:00發放實名制快篩號碼牌.售完為止
5907360664,忠純藥局,高雄市前鎮區中華五路１００９號１樓,120.3056,22.60341,(07)3366886,羅氏家用新冠病毒抗原自我檢測套組,78,2022/05/08 10:08:34,快篩實名制，每天16:00開始販售，售完為止。
5907380399,百鴻藥局,高雄市小港區康莊路１１５號,120.3549,22.56888,(07)8024141,羅氏家用新冠病毒抗原自我檢測套組,47,2022/05/08 10:08:34,無
5907380424,大樹小港藥局,高雄市小港區康莊路７５號１樓,120.3559,22.56853,(07)8068328,羅氏家用新冠病毒抗原自我檢測套組,78,2022/05/08 10:08:34,快篩實名制，每天16:00開始販售，售完為止。
5911011638,中正藥局,基隆市中正區新豐街３８５號１、２樓,121.7856,25.13537,(02)24690660,羅氏家用新冠病毒抗原自我檢測套組,78,2022/05/08 10:08:34,快篩實名制，每天16:00開始販售，售完為止。
5911031176,家宏藥局,基隆市暖暖區源遠路２８１之２號１樓,121.7563,25.0992,(02)24595982,羅氏家用新冠病毒抗原自我檢測套組,28,2022/05/08 10:08:34,4／30~5／3無配送實名制快篩試劑，4天無試劑販售.
5911041350,何房藥局,基隆市仁愛區忠三路８１號,121.7389,25.12931,(02)24222978,羅氏家用新冠病毒抗原自我檢測套組,65,2022/05/08 10:08:34,無
5911041403,佑昌藥局,基隆市仁愛區南榮路１７號,121.7423,25.12697,(02)24293309,羅氏家用新冠病毒抗原自我檢測套組,53,2022/05/08 10:08:34,無
5911041958,百福仁愛專業藥局,基隆市仁愛區仁四路５０號１樓,121.7413,25.12829,(02)24266699,羅氏家用新冠病毒抗原自我檢測套組,1,2022/05/08 10:08:34,4／30起，早上8:00販售快篩
5911051409,順豐藥局,基隆市中山區中華路４號,121.7388,25.14545,(02)24369176,羅氏家用新冠病毒抗原自我檢測套組,78,2022/05/08 10:08:34,家用快篩每日下午2點起隨到隨領售完為止。
5911071590,基隆藥局,基隆市信義區東信路１６６、１６８號１、２樓,121.7646,25.12821,(02)24680955,羅氏家用新冠病毒抗原自我檢測套組,78,2022/05/08 10:08:34,快篩實名制，每天16:00開始販售，售完為止。
5911071607,家安藥師藥局,基隆市信義區信二路２５７、２５９號１樓,121.7478,25.1301,(02)24223917,羅氏家用新冠病毒抗原自我檢測套組,1,2022/05/08 10:08:34,星期一 ~ 星期六14:00開始銷售。
5912013207,明湖健保藥局,新竹市東區明湖路３９８號,120.9675,24.78555,(03)5191788,羅氏家用新冠病毒抗原自我檢測套組,49,2022/05/08 10:08:34,快篩來貨時間不一，請隨時注意FB發佈的動態消息
5912013494,田美藥局,新竹市東區田美三街３５之１號１樓,120.9767,24.81572,(03)5350233,羅氏家用新冠病毒抗原自我檢測套組,78,2022/05/08 10:08:34,快篩實名制，每天16:00開始販售，售完為止。
5912013609,丁丁藥局,新竹市東區中華路二段９１號,120.9812,24.80794,(03)6117888,羅氏家用新冠病毒抗原自我檢測套組,1,2022/05/08 10:08:34,無
5912013654,七二八藥局,新竹市東區明湖路１２４５號１樓,120.979,24.76774,(03)5200530,羅氏家用新冠病毒抗原自我檢測套組,79,2022/05/08 10:08:34,5／8政府快篩，12:30開始販售。
5912042066,佑健藥局,新竹市北區經國路二段５３１號１樓,120.9556,24.80447,(03)5230356,羅氏家用新冠病毒抗原自我檢測套組,3,2022/05/08 10:08:34,快篩販賣時段:早上9:30現場排隊至售完為止
5912042235,均祐健康藥局,新竹市北區境福里１５鄰中正路３８９號１樓,120.961,24.81546,(03)5325369,羅氏家用新冠病毒抗原自我檢測套組,68,2022/05/08 10:08:34,口罩販售時間：09:00
5917010082,仁壽藥局,臺中市中區東墩里三民路三段１號,120.6817,24.14482,(04)22228058,羅氏家用新冠病毒抗原自我檢測套組,31,2022/05/08 10:08:34,週一至週日上午9時30分起販售快篩劑
5917011945,正三吉藥局,臺中市中區臺灣大道一段９５號,120.6831,24.13911,(04)22207700,羅氏家用新冠病毒抗原自我檢測套組,78,2022/05/08 10:08:34,快篩販售時間 14:00~17:00
5917030128,太信藥局,臺中市西區三民路一段９５－１號１樓,120.6698,24.13322,(04)23718318,羅氏家用新冠病毒抗原自我檢測套組,12,2022/05/08 10:08:34,健保卡快篩請0900自備500元／份
5917032382,中港大藥局,臺中市西區臺灣大道２段１３２號,120.6714,24.14995,(04)22080708,羅氏家用新冠病毒抗原自我檢測套組,10,2022/05/08 10:08:34,無
5917032471,銘津藥局,臺中市西區民生路３９０號１樓,120.6611,24.14444,(04)23021314,羅氏家用新冠病毒抗原自我檢測套組,71,2022/05/08 10:08:34,每日上午10:00至13:00，下午3:00至21:00 現場排隊，星期日下午休息
5917032908,佑恩藥師藥局,臺中市西區精誠路６７號１樓,120.6553,24.15224,(04)23100058,羅氏家用新冠病毒抗原自我檢測套組,39,2022/05/08 10:08:34,實名制快篩周一到周六，早上9:00，周日下午2:10開始販賣
5917050880,欣康藥局,臺中市北區館前路２１號,120.6657,24.15543,(04)23226837,羅氏家用新冠病毒抗原自我檢測套組,45,2022/05/08 10:08:34,週一至週六上午9時開始發放號碼牌，週日上午10時開始發放號碼牌。
5917051056,育光中西藥局,臺中市北區健行里梅亭街６６０號１樓,120.6655,24.16055,(04)22037520,羅氏家用新冠病毒抗原自我檢測套組,45,2022/05/08 10:08:34,9點排隊開始開賣
5917062353,典安大藥局,臺中市西屯區西屯路３段１５９－６０號,120.6177,24.18807,(04)24616571,羅氏家用新冠病毒抗原自我檢測套組,95,2022/05/08 10:08:34,每天10:00發放快篩
5917063725,永旭大藥局,臺中市西屯區逢甲路９２號１樓,120.6439,24.17883,(04)27087952,羅氏家用新冠病毒抗原自我檢測套組,1,2022/05/08 10:08:34,5／6起實名快篩，星期一到五早上10點開始，星期六日中午12點開始排隊販售。
5917070186,濟安堂藥局,臺中市南屯區南屯路二段７８８號,120.6378,24.14028,(04)23899603,羅氏家用新冠病毒抗原自我檢測套組,2,2022/05/08 10:08:34,快篩販售時間都固定每天早上7點40分開始（現場排隊.）
5917072724,百芳大藥局,臺中市南屯區向上路二段４２１號,120.6377,24.1469,(04)23818307,羅氏家用新冠病毒抗原自我檢測套組,1,2022/05/08 10:08:34,晚上7:00開始販賣快篩，不發號碼牌。
5917080771,大生大藥局,臺中市北屯區三光里北屯路３３７號,120.6974,24.1703,(04)22337059,羅氏家用新冠病毒抗原自我檢測套組,2,2022/05/08 10:08:34,快篩試劑-周一至周日每天早上8:30開始販售，無發放號碼牌，每天即時現場販售服務，售完為止。（週日正常販售服務）
5917083334,瑞東大藥局,臺中市北屯區東山路一段２４６之３號,120.7179,24.17542,(04)24373799,羅氏家用新冠病毒抗原自我檢測套組,39,2022/05/08 10:08:34,5／6 快篩 已售完
5917083343,豋盛藥局,臺中市北屯區北平路三段１０７號,120.6827,24.17117,(04)22373863,羅氏家用新冠病毒抗原自我檢測套組,61,2022/05/08 10:08:34,實名制快篩販賣時間:5／8日上午10點開賣
5921020336,欣昌藥局,臺南市南區興南街１１５號,120.1824,22.92162,(06)2623217,羅氏家用新冠病毒抗原自我檢測套組,35,2022/05/08 10:08:34,週一~週六 早上7：15開始代售實名制快篩試劑、週日上午十點開始
5921021584,大愛藥局,臺南市南區大同路２段１８２號１樓,120.2135,22.97705,(06)2137587,羅氏家用新冠病毒抗原自我檢測套組,1,2022/05/08 10:08:34,星期一~日 09:00–售完 （全年無休）
5921050138,金德藥局,臺南市中西區府前路１段３３號,120.2108,22.98881,(06)2149082,羅氏家用新冠病毒抗原自我檢測套組,70,2022/05/08 10:08:34,星期一-日08:00-23:00
5921050423,吉仁大藥局,臺南市中西區白金里民權路２段８６號,120.2045,22.99468,(06)2263777,羅氏家用新冠病毒抗原自我檢測套組,6,2022/05/08 10:08:34,周ㄧ09:30~10:30到周日11:00~12:00開始依序購買快篩，售完為止。
5921060143,嘉庭藥局,臺南市安南區海佃里國安街１１８號,120.1887,23.0224,(06)2581618,羅氏家用新冠病毒抗原自我檢測套組,15,2022/05/08 10:08:34,快篩試劑.進貨時間不確定.貨到即賣.請來電洽詢
5921060376,涂逸權藥師藥局,臺南市安南區長溪路一段３１４號,120.2074,23.03892,(06)2560583,羅氏家用新冠病毒抗原自我檢測套組,18,2022/05/08 10:08:34,星期一~星期六 08:00-22:00
5921060385,樂成藥局,臺南市安南區安和路一段１５９巷８３號,120.2115,23.03032,(06)2568576,羅氏家用新冠病毒抗原自我檢測套組,5,2022/05/08 10:08:34,無
5922020858,大統藥局,嘉義市西區慶安里北興街１３６號,120.4421,23.48389,(05)2330230,羅氏家用新冠病毒抗原自我檢測套組,56,2022/05/08 10:08:34,5月8日預約登記已滿.有預約的民眾請於上午9:00-12:00領取
5922028596,一安藥局,嘉義市西區福民里興業西路３１１號,120.4387,23.4677,(05)2859275,羅氏家用新冠病毒抗原自我檢測套組,51,2022/05/08 10:08:34,周一至周日早上9點至晚上10點半依發放號碼排依序售完
5931010888,俊昌藥局,新北市板橋區三民路２段２４５巷１２號,121.4797,25.0125,(02)29642498,羅氏家用新冠病毒抗原自我檢測套組,12,2022/05/08 10:08:34,AM.9:15發號碼牌9:30開始販售
5931011161,全國藥局,新北市板橋區四川路１段２３１號,121.4601,25.00297,(02)29511212,羅氏家用新冠病毒抗原自我檢測套組,53,2022/05/08 10:08:34,健保快篩發放時間:星期一到星期六下午2點發放號碼牌~歡迎大家來領喔!
5931011223,民侑藥局,新北市板橋區大觀路２段３７巷３１０號,121.45,25.00221,(02)22755938,羅氏家用新冠病毒抗原自我檢測套組,6,2022/05/08 10:08:34,快篩號碼牌發放時間為早上9點。12點前須拿號碼牌完成購買。
5931011250,錦龍藥局,新北市板橋區長安街１３８巷１弄１１４號,121.4743,25.0103,(02)29522290,羅氏家用新冠病毒抗原自我檢測套組,3,2022/05/08 10:08:34,週一至周日早上8:30~開始發售， 售完為止。
5931013478,富盛藥局,新北市板橋區四維路２９１巷４弄２４號１樓,121.4622,25.02879,(02)22596016,羅氏家用新冠病毒抗原自我檢測套組,64,2022/05/08 10:08:34,快篩試劑.下午2點販售.預防群聚 滾動式調整時間.請勿打電話詢問.謝謝
5931015721,新進發大藥局,新北市板橋區大同街２４號１樓,121.4787,25.0275,(02)22593926,羅氏家用新冠病毒抗原自我檢測套組,44,2022/05/08 10:08:34,快篩上午10點開門即賣，排隊不發號碼
5931016273,湯明藥局,新北市板橋區中山路２段３１９號１樓,121.479,25.01866,(02)29571980,羅氏家用新冠病毒抗原自我檢測套組,67,2022/05/08 10:08:34,週一到週五 下午四點  六日時間未定 排隊不發號碼
5931017707,上嘉藥局,新北市板橋區四維路２９６號１樓,121.4628,25.02936,(02)22582278,羅氏家用新冠病毒抗原自我檢測套組,78,2022/05/08 10:08:34,無
5931017869,躍獅國慶藥局,新北市板橋區國慶路１７９號（１樓）,121.4626,24.99636,(02)29641548,羅氏家用新冠病毒抗原自我檢測套組,156,2022/05/08 10:08:34,快篩實名制，每天14:00開始販售，售完為止
5931017994,後埔藥局,新北市板橋區華興街９號（１樓）,121.459,25.00457,(02)89510306,羅氏家用新冠病毒抗原自我檢測套組,78,2022/05/08 10:08:34,5／8 下午2點發放號碼牌*確保作業流暢請自備500元*每天 78 份晚上10 點以前領取完畢（過卡時間差異剩餘數量僅供參考）
5931018017,有田藥局,新北市板橋區忠孝路１８１號（１樓）,121.4642,25.00262,(02)29598095,羅氏家用新冠病毒抗原自我檢測套組,128,2022/05/08 10:08:34,早上十點開始販售，售完為止
5931020400,新迪化中西藥局,新北市三重區三陽路２７號１樓,121.4855,25.05893,(02)29884755,羅氏家用新冠病毒抗原自我檢測套組,78,2022/05/08 10:08:34,快篩實名制中午12點開始販售，發號碼牌
5931020562,力健藥局,新北市三重區自強路３段３８號,121.4868,25.07266,(02)29856255,羅氏家用新冠病毒抗原自我檢測套組,12,2022/05/08 10:08:34,無
5931020688,厚德藥局,新北市三重區大智街１７５號１樓,121.4898,25.07265,(02)29717277,羅氏家用新冠病毒抗原自我檢測套組,1,2022/05/08 10:08:34,防疫口罩於早上0830發放，售完為止
5931020704,建芳藥局,新北市三重區集美街１７４號,121.4904,25.05321,(02)29763351,羅氏家用新冠病毒抗原自我檢測套組,52,2022/05/08 10:08:34,無
5931021372,福昌大藥局,新北市三重區溪尾街２０５號,121.4886,25.08081,(02)29714069,羅氏家用新冠病毒抗原自我檢測套組,37,2022/05/08 10:08:34,口罩販賣時間上午9點至晚上11點
5931024962,建祥三和藥局,新北市三重區三和路２段１６０號１樓,121.4992,25.06853,(02)29703379,羅氏家用新冠病毒抗原自我檢測套組,123,2022/05/08 10:08:34,實名制快篩10:00發放號碼牌
5931025567,閎安藥局,新北市三重區重新路２段８５號１樓、２樓,121.4962,25.06181,(02)29881968,羅氏家用新冠病毒抗原自我檢測套組,79,2022/05/08 10:08:34,每日皆執行調劑業務，快篩代售時間每日下午三點發號碼牌並領取
5931025807,永福藥局,新北市三重區永福街３號１樓,121.4827,25.07837,(02)22861161,羅氏家用新冠病毒抗原自我檢測套組,76,2022/05/08 10:08:34,15:00排隊拿號碼牌買快篩
5931025898,新宜安中西藥局,新北市三重區三陽路３０號１樓,121.4854,25.05867,(02)29883693,羅氏家用新冠病毒抗原自我檢測套組,23,2022/05/08 10:08:34,【實名制快篩試劑】依每日物流到貨狀況，請加LINE ID：「@692qferj」或FB：新宜安中西藥局公告告知。
5931025914,仁美藥局,新北市三重區慈愛街５１號１、２樓,121.4861,25.07908,(02)22805150,羅氏家用新冠病毒抗原自我檢測套組,78,2022/05/08 10:08:34,快篩實名制，每天16:00開始販售，售完為止。
5931032759,友辰藥局,新北市永和區中正路３８０號１樓,121.5177,25.00123,(02)29267131,羅氏家用新冠病毒抗原自我檢測套組,2,2022/05/08 10:08:34,無
5931034128,富康活力永和藥局,新北市永和區中和路４２９號１樓,121.5094,25.00093,(02)29263191,羅氏家用新冠病毒抗原自我檢測套組,46,2022/05/08 10:08:34,無
5931034146,亮點藥局,新北市永和區竹林路７１號１樓,121.5186,25.01355,(02)89253895,羅氏家用新冠病毒抗原自我檢測套組,58,2022/05/08 10:08:34,快篩發放時段 下午16:30-18:00
5931042371,真成大藥局,新北市中和區光華街３８號,121.5048,25.00389,(02)22447008,羅氏家用新冠病毒抗原自我檢測套組,1,2022/05/08 10:08:34,實名快篩平日 早上9:30發放號碼牌 當日早上10點~12點前領完 週日無販售
5931042648,恩溢藥局,新北市中和區復興路７９號１樓.２樓,121.5035,24.9902,(02)22452450,羅氏家用新冠病毒抗原自我檢測套組,2,2022/05/08 10:08:34,無
5931042817,家嘉藥局,新北市中和區員山路３７７號,121.4811,25.00237,(02)82281388,羅氏家用新冠病毒抗原自我檢測套組,10,2022/05/08 10:08:34,快篩訊息請關注FB粉專，搜尋 [ 家家藥粧 員山店 ]
5931043421,錦和藥局,新北市中和區錦和路１６４號１樓,121.4898,24.99585,(02)82282296,羅氏家用新冠病毒抗原自我檢測套組,51,2022/05/08 10:08:34,週一~週六，早上10點開始發售快篩試劑，週日公休。
5931043430,慶華藥師藥局,新北市中和區華新街９０號１樓,121.5085,24.9832,(02)29420666,羅氏家用新冠病毒抗原自我檢測套組,65,2022/05/08 10:08:34,無
5931044044,宥元藥局,新北市中和區德光路６２號１樓,121.4696,25.00398,(02)89535473,羅氏家用新冠病毒抗原自我檢測套組,7,2022/05/08 10:08:34,週一至周六10:30-22:00發放口罩
5931044133,康富力藥局,新北市中和區仁愛街３２號１樓,121.5109,24.98843,(02)29429896,羅氏家用新冠病毒抗原自我檢測套組,78,2022/05/08 10:08:34,快篩代售時間：周一至周五9:30、週六14:00
5931044393,躍獅康銓藥局,新北市中和區莒光路１４６號１樓,121.4725,25.00088,(02)29646452,羅氏家用新冠病毒抗原自我檢測套組,25,2022/05/08 10:08:34,實名制快篩 每日上午09:10開始販售，週日店休
5931044884,壹品藥局,新北市中和區福祥路５５號１樓,121.4992,25.00474,(02)22481818,羅氏家用新冠病毒抗原自我檢測套組,74,2022/05/08 10:08:34,實名制快篩下午1點發放號碼牌
5931044982,萊恩藥局,新北市中和區景安路２０９號１樓,121.5046,24.99192,(02)29468395,羅氏家用新冠病毒抗原自我檢測套組,83,2022/05/08 10:08:34,每週星期一到星期六（星期天依店內公告），早上9點發號碼牌押健保卡，12點後領取快篩
5931045210,廣來藥師藥局,新北市中和區員山路３９３號１樓,121.4811,25.00293,(02)32340393,羅氏家用新冠病毒抗原自我檢測套組,78,2022/05/08 10:08:34,代為販售實名制快篩，販售時間：每天上午11點到中午12點為止。
5931045327,景新藥局,新北市中和區景新街４２９號１樓,121.513,24.98908,(02)86686091,羅氏家用新冠病毒抗原自我檢測套組,62,2022/05/08 10:08:34,無
5931045372,伍品藥局,新北市中和區莊敬路３５號１樓,121.5007,25.00503,(02)82456789,羅氏家用新冠病毒抗原自我檢測套組,67,2022/05/08 10:08:34,實名制快篩下午14:00點發號碼牌，請自備500元紙鈔　－　15:00後取回健保卡 感謝！（週日）停止販售快篩！
5931045461,富康活力遠東藥局,新北市中和區建八路１０之１號１樓,121.4865,24.99805,(02)82262299,羅氏家用新冠病毒抗原自我檢測套組,156,2022/05/08 10:08:34,因屬園區大樓，販售時間請依LINE社群公告
5931050131,再生藥局,新北市新店區北新路３段６５巷９號,121.5412,24.981,(02)29113781,羅氏家用新冠病毒抗原自我檢測套組,12,2022/05/08 10:08:34,5／7之後上午9點半販售實名制快篩試劑 請自備500元
5931050417,世明藥局,新北市新店區北新路３段１２０號１樓,121.5417,24.98174,(02)29122139,羅氏家用新冠病毒抗原自我檢測套組,78,2022/05/08 10:08:34,快篩實名制販售時間：下午13:00~14:00
5931052313,欣康藥局,新北市新店區中正路２９３號１樓,121.5372,24.97449,(02)89113166,羅氏家用新冠病毒抗原自我檢測套組,78,2022/05/08 10:08:34,快篩試劑，下午一點發號碼牌同步販售
5931052699,維顥藥局,新北市新店區中興路１段２７９號１樓,121.5451,24.9683,(02)29171986,羅氏家用新冠病毒抗原自我檢測套組,7,2022/05/08 10:08:34,無
5931052715,陽光健康藥局,新北市新店區安民街２１４號,121.5174,24.9722,(02)22123919,羅氏家用新冠病毒抗原自我檢測套組,22,2022/05/08 10:08:34,實名制快篩於早上9點開始販售  以現場排隊為主
5931053070,美康中正藥局,新北市新店區中正路２１５號１、２樓,121.5397,24.97284,(02)29112669,羅氏家用新冠病毒抗原自我檢測套組,78,2022/05/08 10:08:34,無號牌.自主排隊.自主管理.快篩 1430-2200 唷~
5931053169,貳品藥局,新北市新店區新和街７５號１樓,121.5205,24.98612,(02)89418890,羅氏家用新冠病毒抗原自我檢測套組,78,2022/05/08 10:08:34,實名制快篩下午一點半依排隊順序發售
5931053178,長照藥局,新北市新店區如意街１６號１樓,121.4944,24.94838,(02)22153325,羅氏家用新冠病毒抗原自我檢測套組,28,2022/05/08 10:08:34,請注意5／8快篩上午10:00開賣 現場自主排隊不發號碼牌（請勿再來電詢問了）
5931053285,北新212藥局,新北市新店區北新路３段２１２號（２樓）,121.5413,24.98429,(02)29183212,羅氏家用新冠病毒抗原自我檢測套組,19,2022/05/08 10:08:34,依照行一昌勳診所門診時間營業
5931060262,明生藥局,新北市新莊區福樂街１３號,121.4578,25.04504,(02)29913260,羅氏家用新冠病毒抗原自我檢測套組,11,2022/05/08 10:08:34,無
5931060628,錄新藥局,新北市新莊區後港一路７６巷１０弄１號,121.427,25.02604,(02)22051849,羅氏家用新冠病毒抗原自我檢測套組,156,2022/05/08 10:08:34,無
5931069201,招安藥師藥局,新北市新莊區西盛街３３８號１樓,121.428,25.01436,(02)22085138,羅氏家用新冠病毒抗原自我檢測套組,16,2022/05/08 10:08:34,5／1 5／2 並無快篩試劑到貨 請勿來電或來店購買
5931069603,中信藥師藥局,新北市新莊區中信街８０號１樓,121.448,25.05311,(02)29969811,羅氏家用新冠病毒抗原自我檢測套組,37,2022/05/08 10:08:34,AM 07:30 開始
593106A897,陽光豐年藥局,新北市新莊區豐年街１４號１樓,121.4463,25.03287,(02)22060665,羅氏家用新冠病毒抗原自我檢測套組,81,2022/05/08 10:08:34,無
593106A995,美德心藥局,新北市新莊區中平路３６７號１樓,121.4446,25.05226,(02)29989025,羅氏家用新冠病毒抗原自我檢測套組,67,2022/05/08 10:08:34,快篩實名制，每天14:30發號碼牌，持號碼牌依現場順序排隊購買，售完為止。（如物流配送不及，則另行公告）
593106B036,家嘉藥局,新北市新莊區自立街１０３號（１樓）,121.4553,25.04549,(02)89926488,羅氏家用新冠病毒抗原自我檢測套組,1,2022/05/08 10:08:34,今天號碼牌都已發放完畢
593106B232,新康健保藥局,新北市新莊區自立街１７２號１樓,121.4557,25.04537,(02)29962558,羅氏家用新冠病毒抗原自我檢測套組,77,2022/05/08 10:08:34,無
593106B303,新莊丁丁藥局,新北市新莊區民安西路２３７號１樓,121.4261,25.01398,(02)22022388,羅氏家用新冠病毒抗原自我檢測套組,60,2022/05/08 10:08:34,無
5931070062,鴻真藥局,新北市樹林區保安街１段２０巷６號,121.4277,24.99363,(02)26828977,羅氏家用新冠病毒抗原自我檢測套組,4,2022/05/08 10:08:34,無
5931071836,弘昌藥師藥局,新北市樹林區保安街１段６５號１樓,121.4232,24.99491,(02)26871276,羅氏家用新冠病毒抗原自我檢測套組,63,2022/05/08 10:08:34,執業時段請電洽藥局
5931071881,盛立藥局,新北市樹林區大雅路２８５號１樓,121.3795,24.94735,(02)35018218,羅氏家用新冠病毒抗原自我檢測套組,78,2022/05/08 10:08:34,政府快篩平日下午1:50發號碼牌，下午2:00準時販售，假日視政府配量（販售時間相同）
5931072431,樹林大樹藥局,新北市樹林區育英街５４號１－２樓,121.4213,24.98928,(02)26815488,羅氏家用新冠病毒抗原自我檢測套組,78,2022/05/08 10:08:34,快篩實名制，每天16:00開始販售，售完為止。
5931072468,樹林丁丁藥局,新北市樹林區中華路１７４號１樓,121.4208,24.9819,(02)86851518,羅氏家用新冠病毒抗原自我檢測套組,7,2022/05/08 10:08:34,無
5931081510,鶯歌藥局,新北市鶯歌區鶯桃路２段１１號１樓,121.3258,24.97205,(02)86778778,羅氏家用新冠病毒抗原自我檢測套組,78,2022/05/08 10:08:34,快篩實名制，每天16:00開始販售，售完為止。
5931081547,信義健保藥局,新北市鶯歌區信義街６３號１樓,121.3534,24.95571,(02)86775563,羅氏家用新冠病毒抗原自我檢測套組,39,2022/05/08 10:08:34,發放時間以現場公告為主
5931091865,大新藥局,新北市三峽區大義路２５９號１樓,121.3774,24.94638,(02)86713204,羅氏家用新冠病毒抗原自我檢測套組,3,2022/05/08 10:08:34,實名制快篩下午2:50開始發號碼牌 3:00販售
5931091892,三峽藥局,新北市三峽區介壽路１段２７號１樓,121.3757,24.93321,(02)26738868,羅氏家用新冠病毒抗原自我檢測套組,1,2022/05/08 10:08:34,快篩實名制，每天16:00開始販售，售完為止。
5931092219,北大藥局,新北市三峽區大義路９號１樓,121.3788,24.94372,(02)26738535,羅氏家用新冠病毒抗原自我檢測套組,48,2022/05/08 10:08:34,快篩發放依政府實際到貨時間為主會公告在臉書粉專
5931102103,四季寶健保藥局,新北市淡水區新市一路３段１１７－１號（含夾層）,121.4468,25.18314,(02)26283199,羅氏家用新冠病毒抗原自我檢測套組,1,2022/05/08 10:08:34,無
5931102336,淡大郭藥局,新北市淡水區英專路３２號１樓,121.4456,25.17008,(02)26229966,羅氏家用新冠病毒抗原自我檢測套組,60,2022/05/08 10:08:34,如前日有收到快篩，隔日販售時間為上午10點。（以現場公告為主）
5931102372,日揚藥局,新北市淡水區民族路３０巷５號,121.4612,25.13623,(02)26242059,羅氏家用新冠病毒抗原自我檢測套組,52,2022/05/08 10:08:34,5／7（六）下午1:00快篩實名制。5／8（日）公休無代售快篩實名制。
5931111988,滿益藥局,新北市汐止區仁愛路１３０號,121.6632,25.06397,(02)86421562,羅氏家用新冠病毒抗原自我檢測套組,59,2022/05/08 10:08:34,口罩代售時間自13:30 ， 現場排隊
5931112314,杏光藥局,新北市汐止區建成路５９巷１９號１樓,121.6617,25.07287,(02)26411340,羅氏家用新冠病毒抗原自我檢測套組,53,2022/05/08 10:08:34,快篩每日早上十點販售  不發號碼牌
5931112645,健成藥局,新北市汐止區新興路２０號１樓,121.6564,25.06456,(02)26428989,羅氏家用新冠病毒抗原自我檢測套組,4,2022/05/08 10:08:34,無
5931121279,大埔藥局,新北市瑞芳區大埔路１２８－３號１樓,121.762,25.10079,(02)24587020,羅氏家用新冠病毒抗原自我檢測套組,78,2022/05/08 10:08:34,無
5931121466,瑞芳藥局,新北市瑞芳區明燈路３段５９之１及５９之２號,121.8057,25.10812,(02)24966588,羅氏家用新冠病毒抗原自我檢測套組,78,2022/05/08 10:08:34,快篩實名制，每天16:00開始販售，售完為止。
5931132245,萬昌健保藥局,新北市土城區中央路４段１６０號,121.417,24.95827,(02)22678057,羅氏家用新冠病毒抗原自我檢測套組,32,2022/05/08 10:08:34,3月2日起周一至周五15:00發號碼牌及販賣口罩  周六 10:00直接販售
5931132389,凱一藥局,新北市土城區裕民路９２巷２１弄８號１樓,121.4501,24.98629,(02)22707679,羅氏家用新冠病毒抗原自我檢測套組,129,2022/05/08 10:08:34,服務時間10:00~21:00，每週二休息。實名制快篩皆於營業日的10:00開賣。
5931132405,小倉藥局,新北市土城區青雲路１９０號１樓,121.4591,24.98221,(02)22744257,羅氏家用新冠病毒抗原自我檢測套組,36,2022/05/08 10:08:34,快篩發放早上八點領號碼牌，一人卡限一張號碼牌，隨即憑號碼牌購買快篩，賣完為止。
5931133037,國安健保藥局,新北市土城區延和路１０９號１樓,121.4678,24.99033,(02)22614933,羅氏家用新冠病毒抗原自我檢測套組,23,2022/05/08 10:08:34,無
5931133653,家泰藥局,新北市土城區青雲路１８１號１、２樓,121.4593,24.98285,(02)22749490,羅氏家用新冠病毒抗原自我檢測套組,14,2022/05/08 10:08:34,上午9：00發號碼牌14：00-21：00攜帶號碼牌及費用領快篩
5931140318,慧安藥局,新北市蘆洲區長安街２１４號１樓,121.4585,25.08436,(02)28477845,羅氏家用新冠病毒抗原自我檢測套組,78,2022/05/08 10:08:34,實名制快篩依現場公告現場販售
5931141637,華興藥師藥局,新北市蘆洲區中山一路１８４號１樓,121.4739,25.08104,(02)22893899,羅氏家用新冠病毒抗原自我檢測套組,14,2022/05/08 10:08:34,防疫口罩：早上10點直接販售
5931143275,集賢藥局,新北市蘆洲區信義路２２２巷６１號１、２樓,121.4813,25.08535,(02)22882400,羅氏家用新冠病毒抗原自我檢測套組,78,2022/05/08 10:08:34,快篩實名制，每天16:00開始販售，售完為止。
5931151302,宏安藥局,新北市五股區成泰路２段１３６號,121.4382,25.08369,(02)22915932,羅氏家用新冠病毒抗原自我檢測套組,79,2022/05/08 10:08:34,口罩販售時間:每日08:15~23:00售完為止 星期日如果前一日還有庫存，當日照常販售
5931151615,陽光健保藥局,新北市五股區五福路５４號１樓,121.4335,25.08973,(02)22922400,羅氏家用新冠病毒抗原自我檢測套組,69,2022/05/08 10:08:34,5／8（日）預計10:00開始販售 若現場人數眾多 視情況調整販售時間
5931151713,五股藥局,新北市五股區成泰路１段２３５之２號（１樓）,121.4363,25.07968,(02)22951150,羅氏家用新冠病毒抗原自我檢測套組,78,2022/05/08 10:08:34,快篩實名制，每天16:00開始販售，售完為止。
5931161353,台灣藥局,新北市泰山區明志路１段２８２－２８６號,121.4319,25.06002,(02)22971969,羅氏家用新冠病毒抗原自我檢測套組,70,2022/05/08 10:08:34,下午2:20發號碼牌2:30販售實名制快篩試劑
5931161620,華特藥局,新北市泰山區明志路１段２６０號１樓,121.4321,25.06052,(02)29095662,羅氏家用新冠病毒抗原自我檢測套組,108,2022/05/08 10:08:34,5／7（六）-5／8（日）人力調度停止販售快篩 大家辛苦了 多多關心身邊的家人 加油 我們星期一再繼續奮鬥!!
5931171644,蛋寶寶藥局,新北市林口區民有街１５８號１樓,121.3725,25.07595,(02)26097371,羅氏家用新冠病毒抗原自我檢測套組,2,2022/05/08 10:08:34,5／21起 周六不販售快篩
5931250042,信芳藥局,新北市雙溪區中華路５０號,121.866,25.03761,(02)24931301,羅氏家用新冠病毒抗原自我檢測套組,2,2022/05/08 10:08:34,無
5931280013,萬里藥局,新北市萬里區瑪鍊路９０號,121.6837,25.18504,(02)24922235,羅氏家用新冠病毒抗原自我檢測套組,213,2022/05/08 10:08:34,無
5932011610,郁祥藥局,桃園市桃園區成功里春日路２１６號,121.3156,24.99722,(03)3335495,羅氏家用新冠病毒抗原自我檢測套組,31,2022/05/08 10:08:34,無
5932012813,桃園大興藥局,桃園市桃園區大興西路二段７６巷３號,121.2984,25.01183,(03)3013222,羅氏家用新冠病毒抗原自我檢測套組,18,2022/05/08 10:08:34,快篩實名制，每天16:00開始販售，售完為止。
5932013123,桃康藥局,桃園市桃園區桃鶯路２０３號,121.3184,24.98495,(03)3641815,羅氏家用新冠病毒抗原自我檢測套組,62,2022/05/08 10:08:34,實名制快篩：早上10點發號碼牌，每日78份
5932013392,桃園中正藥局,桃園市桃園區中正路３７３號,121.3079,24.99955,(03)3381600,羅氏家用新冠病毒抗原自我檢測套組,91,2022/05/08 10:08:34,快篩實名制，每天16:00開始販售，售完為止。
5932013687,桃園春日藥局,桃園市桃園區春日路８７８號,121.3096,25.01561,(03)3580101,羅氏家用新冠病毒抗原自我檢測套組,80,2022/05/08 10:08:34,快篩實名制，每天16:00開始販售，售完為止。
5932013721,桃園民光藥局,桃園市桃園區中正路５６９號,121.3049,25.0041,(03)3364888,羅氏家用新冠病毒抗原自我檢測套組,78,2022/05/08 10:08:34,快篩實名制，每天16:00開始販售，售完為止。
5932013749,桃園寶山藥局,桃園市桃園區寶山街７２號,121.3175,25.01291,(03)3250562,羅氏家用新冠病毒抗原自我檢測套組,78,2022/05/08 10:08:34,快篩實名制，每天16:00開始販售，售完為止。
5932014031,大廟藥局,桃園市桃園區中山路１５８號１樓,121.3091,24.99342,(03)3337006,羅氏家用新冠病毒抗原自我檢測套組,5,2022/05/08 10:08:34,無
5932014059,桃園南平藥局,桃園市桃園區南平路３０２－１號１樓,121.2989,25.01855,(03)3165222,羅氏家用新冠病毒抗原自我檢測套組,78,2022/05/08 10:08:34,快篩實名制，每天16:00開始販售，售完為止。
5932014148,躍獅興業藥局,桃園市桃園區大業路２段１５號１樓,121.3112,25.01628,(03)3163569,羅氏家用新冠病毒抗原自我檢測套組,78,2022/05/08 10:08:34,快篩下午一點販售，現場排隊
5932014166,華康中西藥局,桃園市桃園區中埔六街３號１號,121.2964,25.01549,(03)3166920,羅氏家用新冠病毒抗原自我檢測套組,78,2022/05/08 10:08:34,營業時間:週一~周六:9:00-21:30。週日10:00-18:30 （5／7快篩已售完）（5／8實名快篩早上10:20領號碼牌）
5932014184,浤安藥局,桃園市桃園區慈德街１號１樓,121.3019,25.00685,(03)3577665,羅氏家用新冠病毒抗原自我檢測套組,78,2022/05/08 10:08:34,14:00開始發放實名制快篩
5932014273,藝文藥局,桃園市桃園區大興西路１段１６５號,121.3049,25.01414,(03)3261789,羅氏家用新冠病毒抗原自我檢測套組,78,2022/05/08 10:08:34,快篩實名制，每天16:00開始販售，售完為止。
5932014317,躍獅省桃藥局,桃園市桃園區龍壽街２４號,121.2697,24.97836,(03)3791488,羅氏家用新冠病毒抗原自我檢測套組,63,2022/05/08 10:08:34,週1-7實名制快篩10:00開賣，5／6開始每日10點販售，沒發號碼牌
593201A506,永忻藥局,桃園市桃園區大興路一九三號一樓,121.312,25.01564,(03)3585569,羅氏家用新冠病毒抗原自我檢測套組,18,2022/05/08 10:08:34,口罩販賣時段：週一~週六 15:00~1700
593201A631,大國民藥局,桃園市桃園區中正路５７８號１樓,121.3053,25.00403,(03)3355575,羅氏家用新冠病毒抗原自我檢測套組,78,2022/05/08 10:08:34,下午1點開始販售（現場排隊售完為止 不發號碼牌）
5932020548,生富藥師藥局,桃園市中壢區新明里中央西路二段７６號,121.2162,24.95848,(03)4941475,羅氏家用新冠病毒抗原自我檢測套組,12,2022/05/08 10:08:34,快篩劑販賣時段：
5932021269,優良藥局,桃園市中壢區長春路２０號,121.2499,24.97907,(03)4612336,羅氏家用新冠病毒抗原自我檢測套組,31,2022/05/08 10:08:34,快篩販售時間10:00
5932021689,立康專業藥局,桃園市中壢區莊敬路８６５號,121.2543,24.96376,(03)4553121,羅氏家用新冠病毒抗原自我檢測套組,69,2022/05/08 10:08:34,快篩實名制販售時間週一到週五下午14:00販售 週六週日早上10:00販售 現場排隊
5932022524,家佳聯合藥局,桃園市中壢區中光路１４號,121.2256,24.95717,(03)4273960,羅氏家用新冠病毒抗原自我檢測套組,1,2022/05/08 10:08:34,實名制快篩:12：00販賣，售完為止
5932022631,中壢中正藥局,桃園市中壢區中正路３６３、３６５號,121.2163,24.95532,(03)4014100,羅氏家用新冠病毒抗原自我檢測套組,78,2022/05/08 10:08:34,快篩實名制，每天16:00開始販售，售完為止。
5932023656,思琁藥師藥局,桃園市中壢區中北路二段４３０號,121.2331,24.95448,(03)4162189,羅氏家用新冠病毒抗原自我檢測套組,1,2022/05/08 10:08:34,週一~週五早上10:30發快篩..週六公休..週日看到貨狀況再另行公告
5932023889,華勛藥局,桃園市中壢區華勛街１１２、１１４號,121.2597,24.95065,(03)4161881,羅氏家用新冠病毒抗原自我檢測套組,1,2022/05/08 10:08:34,快篩實名制，每天16:00開始販售，售完為止。
5932024260,新資生福州大藥局,桃園市中壢區福州二街４０９號,121.232,24.96789,(03)3606180,羅氏家用新冠病毒抗原自我檢測套組,17,2022/05/08 10:08:34,營業時間：星期六 日 上午0900至下午1000
5932029676,中日大藥局,桃園市中壢區中北路二段７８號,121.225,24.95063,(03)4285068,羅氏家用新冠病毒抗原自我檢測套組,78,2022/05/08 10:08:34,快篩11點前到貨，11點開始販售；11點後到貨，到貨開始販售
5932031863,大溪啄木鳥藥局,桃園市大溪區員林路１段１７３號１、２樓,121.2792,24.89706,(03)3809116,羅氏家用新冠病毒抗原自我檢測套組,78,2022/05/08 10:08:34,12:30開始發號碼牌
5932031890,福生藥局,桃園市大溪區民權東路１０３號１樓,121.2919,24.88209,(03)3873533,羅氏家用新冠病毒抗原自我檢測套組,1,2022/05/08 10:08:34,早上八點開始發放快篩試劑
5932031907,福澤大溪藥局,桃園市大溪區復興路１０５號１樓,121.2911,24.87917,(03)3884886,羅氏家用新冠病毒抗原自我檢測套組,3,2022/05/08 10:08:34,家用快篩販賣時段15:30至售完為止
5932040246,龍泰藥局,桃園市楊梅區民族路五段１４７巷２號,121.1736,24.9586,(03)4901525,羅氏家用新冠病毒抗原自我檢測套組,1,2022/05/08 10:08:34,快篩販售時間:早上7:30領號碼牌下午2點至4點領快篩（當日有效） 六日中午10點至12點領快篩
5932050215,九德藥局,桃園市蘆竹區中山路６９號,121.3003,25.05242,(03)3116868,羅氏家用新冠病毒抗原自我檢測套組,107,2022/05/08 10:08:34,口罩販賣時段：中午12點
5932052951,永青健康人生藥局,桃園市蘆竹區奉化路１４２號１樓,121.289,25.03917,(03)3528361,羅氏家用新冠病毒抗原自我檢測套組,78,2022/05/08 10:08:34,實名制快篩每日兩點開賣，人潮眾多額滿會提早開始
5932052979,南崁藥局,桃園市蘆竹區中正路２５１、２５３、２５５號,121.2921,25.04695,(03)3522022,羅氏家用新冠病毒抗原自我檢測套組,157,2022/05/08 10:08:34,快篩實名制，每天16:00開始販售，售完為止。
5932070253,高田藥師藥局,桃園市龜山區山鶯路７６號,121.3237,24.99004,(03)3336363,羅氏家用新冠病毒抗原自我檢測套組,4,2022/05/08 10:08:34,口罩販賣時段：早上11:00-早上11:30
5932076862,和信藥局,桃園市龜山區南祥路５８號１樓,121.2979,25.04629,(03)2124028,羅氏家用新冠病毒抗原自我檢測套組,2,2022/05/08 10:08:34,快篩販賣時段：每日中午12點，5／8（日）母親節公休一日。
5932077118,文青藥局,桃園市龜山區文青路２０２號,121.3878,25.04034,(03)3270581,羅氏家用新冠病毒抗原自我檢測套組,20,2022/05/08 10:08:34,快篩販賣時段：上午10點到12點。（星期一下午2點開始），快篩無每日配送
5932077305,全興藥局,桃園市龜山區光峰路１５３號１樓,121.3427,25.0026,(03)3597901,羅氏家用新冠病毒抗原自我檢測套組,2,2022/05/08 10:08:34,上午8:30開始販售實名制快篩試劑，禮拜日公休。
5932077510,左外野藥局,桃園市龜山區文光街６號１樓,121.3802,25.05471,(03)3271503,羅氏家用新冠病毒抗原自我檢測套組,75,2022/05/08 10:08:34,快篩販售:晚上19:30至20:30（週五公休）*不發號碼牌 請直接排隊購買
5932077609,新資生中興大藥局,桃園市龜山區中興路３５０號１樓,121.3352,24.9917,(03)3596959,羅氏家用新冠病毒抗原自我檢測套組,9,2022/05/08 10:08:34,快篩試劑早上10點開始到中午12點止 不發號碼牌
5932077618,大山藥局,桃園市龜山區中興路１段１８、２２、２４號１樓,121.3379,24.99376,(03)3191057,羅氏家用新冠病毒抗原自我檢測套組,75,2022/05/08 10:08:34,無
5932077627,文興藥局,桃園市龜山區復興一路１０２號１、２、３樓,121.368,25.0592,(03)3285330,羅氏家用新冠病毒抗原自我檢測套組,78,2022/05/08 10:08:34,快篩實名制，每天16:00開始販售，售完為止。
5932083670,保健藥局,桃園市八德區介壽路一段８３３號２樓,121.3,24.96168,(03)3669486,羅氏家用新冠病毒抗原自我檢測套組,258,2022/05/08 10:08:34,無
5932099892,百年聯和藥局,桃園市龍潭區中豐路３００號,121.2119,24.87808,(03)4895268,羅氏家用新冠病毒抗原自我檢測套組,78,2022/05/08 10:08:34,快篩實名制：自5／9起13:30準時發放
5932099972,全球龍正藥局,桃園市龍潭區中正路２３１號１樓,121.2172,24.86388,(03)4899639,羅氏家用新冠病毒抗原自我檢測套組,2,2022/05/08 10:08:34,營業時間:9:00-22:00
5932100185,德聯藥師藥局,桃園市平鎮區龍南路３１號,121.2452,24.92473,(03)4603613,羅氏家用新冠病毒抗原自我檢測套組,36,2022/05/08 10:08:34,快篩 5月8日 上午9:30點開始賣
5932101137,平鎮延平藥局,桃園市平鎮區延平路二段４３０巷７９—１６號,121.206,24.94458,(03)4918187,羅氏家用新冠病毒抗原自我檢測套組,166,2022/05/08 10:08:34,周一~周六，下午1點~3點販售公費快篩，12:58發放號碼牌，每日30份，請自備500元，不找零
593210A078,康健複合式連鎖藥局,桃園市平鎮區金陵路三段９１號,121.2276,24.92882,(03)4684601,羅氏家用新冠病毒抗原自我檢測套組,1,2022/05/08 10:08:34,實名制快篩試劑13:00開始，不發號碼牌，現場排隊售完為止，一人一卡，自備500元，恕不找零，不收銅板，謝謝配合
5933052875,健樹藥局,新竹縣竹北市莊敬三路３９號１樓,121.0249,24.82242,(03)5505262,羅氏家用新冠病毒抗原自我檢測套組,58,2022/05/08 10:08:34,如期收到快篩時，每日早上10點開始販售，可追蹤啄木鳥耳鼻喉科臉書公告
5933052955,仁里藥局,新竹縣竹北市勝利二路１２５號,121.0278,24.82236,(03)6673878,羅氏家用新冠病毒抗原自我檢測套組,55,2022/05/08 10:08:34,實名制快篩販賣時段：星期一~日 上午10:00至售完為止
5933081536,昌昌藥局,新竹縣新豐鄉新市路１９３號,120.9846,24.90465,(03)5598077,羅氏家用新冠病毒抗原自我檢測套組,74,2022/05/08 10:08:34,5／8（日）號碼牌已發放完畢。5／9（一）上午8:00開始發放號碼牌。
5934012357,品康藥局,宜蘭縣宜蘭市中山路２段３１０號,121.754,24.74988,(03)9359320,羅氏家用新冠病毒抗原自我檢測套組,76,2022/05/08 10:08:34,快篩實名制:週一~週日每日販售時間為早上10:00。現場排隊，售完為止!
5934021856,正欣藥局,宜蘭縣羅東鎮興東南路２２８巷８號,121.7674,24.67398,(03)9556786,羅氏家用新冠病毒抗原自我檢測套組,49,2022/05/08 10:08:34,快篩w1~w6領取時間為早上9點，周日為早上10點
5934022077,天一藥師藥局,宜蘭縣羅東鎮南昌街９５號１樓,121.7705,24.67232,(03)9541160,羅氏家用新冠病毒抗原自我檢測套組,59,2022/05/08 10:08:34,快篩開賣時間早上8點開始，排隊過卡售完為止，禮拜天公休
5934031281,佑全蘇澳中山藥局,宜蘭縣蘇澳鎮中山路一段２３１號,121.8446,24.59558,(03)9961063,羅氏家用新冠病毒抗原自我檢測套組,37,2022/05/08 10:08:34,實名制快篩於早上10:00開始販售，售完為止
5935011738,佳禾藥局,苗栗縣苗栗市青苗里建台街7號,120.821,24.55742,(037)373041,羅氏家用新冠病毒抗原自我檢測套組,2,2022/05/08 10:08:34,快篩試劑7：30發號碼牌8：00開始販賣，販賣時段：營業時間至售完為止
5935012324,上林藥局,苗栗縣苗栗市建功里２４鄰府前路９１號,120.8195,24.56146,(037)320685,羅氏家用新冠病毒抗原自我檢測套組,1,2022/05/08 10:08:34,實名制快篩:早上9:30~售完
5935021261,永信藥師藥局,苗栗縣苑裡鎮和平路７２－１號,120.6549,24.44096,(037)857069,羅氏家用新冠病毒抗原自我檢測套組,52,2022/05/08 10:08:34,無
5935030171,立安藥局,苗栗縣通霄鎮信義路１０７號,120.6804,24.48877,(037)760100,羅氏家用新冠病毒抗原自我檢測套組,1,2022/05/08 10:08:34,快篩實名制 週一到週六下午15:00開始販售  售完為止
5935030180,通霄藥局,苗栗縣通霄鎮中山路１３１號,120.678,24.48903,(037)755155,羅氏家用新冠病毒抗原自我檢測套組,2,2022/05/08 10:08:34,快篩實名制，每天16:00開始販售，售完為止。
5935040266,鴻仁大藥局,苗栗縣竹南鎮竹南里博愛街１８１號,120.8741,24.68686,(037)462396,羅氏家用新冠病毒抗原自我檢測套組,3,2022/05/08 10:08:34,無
5935042091,好心健保藥局,苗栗縣竹南鎮中華路１５７號,120.9236,24.71002,(037)687088,羅氏家用新冠病毒抗原自我檢測套組,78,2022/05/08 10:08:34,快篩販售時間:下午01:00
5935051858,樂田藥妝藥局,苗栗縣頭份市信東路１３５號,120.9094,24.68924,(037)598995,羅氏家用新冠病毒抗原自我檢測套組,78,2022/05/08 10:08:34,口罩販售時間:早上11點（實際狀況依臉書公告為準）
5935060053,鴻輝大藥局,苗栗縣後龍鎮北龍里中華路６４－１號,120.7879,24.61557,(037)721952,羅氏家用新冠病毒抗原自我檢測套組,3,2022/05/08 10:08:34,AM07:50~PM10:00
5935061452,後龍藥局,苗栗縣後龍鎮中山路２０９號１樓,120.7931,24.6127,(037)723660,羅氏家用新冠病毒抗原自我檢測套組,78,2022/05/08 10:08:34,快篩實名制，每天16:00開始販售，售完為止。
5935090015,永信藥局,苗栗縣公館鄉館中村榮光街１６號,120.8271,24.50226,(037)223597,羅氏家用新冠病毒抗原自我檢測套組,78,2022/05/08 10:08:34,每日下午3點開始販售快篩
5936010628,協安大藥局,臺中市豐原區府前街６３號,120.7184,24.24957,(04)25200808,羅氏家用新冠病毒抗原自我檢測套組,4,2022/05/08 10:08:34,實名制快篩販售時間為每日下午兩點。
5936020080,仁生藥局,臺中市東勢區東安里豐勢路４２１號,120.8286,24.25644,(04)25872245,羅氏家用新冠病毒抗原自我檢測套組,55,2022/05/08 10:08:34,以實際到貨為準*開始販售*售完為止！ （13:00-15:00 休息）週日有庫存會持續販售，均以現場為準！
5936190710,東亞藥師大藥局,臺中市太平區中興路６６號,120.7167,24.12806,(04)22787987,羅氏家用新冠病毒抗原自我檢測套組,50,2022/05/08 10:08:34,每日早上9:00先領號碼牌下午2:00~10:00領快篩試劑
5936191913,興明健保藥局,臺中市太平區樹德路９７－６號,120.7113,24.15324,(04)23955521,羅氏家用新冠病毒抗原自我檢測套組,57,2022/05/08 10:08:34,週一至週六下午2:30開始販售實名制快篩劑.週日早上10:00至12:00販售
5936192267,和康中西藥局,臺中市太平區新城里樹孝路１３１號,120.7177,24.15301,(04)23937297,羅氏家用新冠病毒抗原自我檢測套組,32,2022/05/08 10:08:34,快篩星期一至六 每日下午2 點 （發號碼牌）至庫存無貨停止販售。（星期日門口另行公告販售時間）
5936200097,大里啄木鳥藥局,臺中市大里區中興路２段７２號,120.6871,24.09733,(04)24865725,羅氏家用新冠病毒抗原自我檢測套組,67,2022/05/08 10:08:34,快篩開賣時間AM10.00
593620B138,聯生中西健保藥局,臺中市大里區現岱路１５８巷１１號,120.6919,24.10295,(04)24834058,羅氏家用新冠病毒抗原自我檢測套組,16,2022/05/08 10:08:34,早上八點半領號碼牌下午四點到六點領口罩W6W日早七點
5937013196,彰化啄木鳥藥局,彰化縣彰化市茄南里金馬路２段２７號,120.5483,24.09616,(04)7330661,羅氏家用新冠病毒抗原自我檢測套組,27,2022/05/08 10:08:34,無
5937013570,彰化藥局,彰化縣彰化市永安街２７８、２８０號,120.5438,24.08977,(04)7287877,羅氏家用新冠病毒抗原自我檢測套組,78,2022/05/08 10:08:34,快篩實名制，每天16:00開始販售，售完為止。
5937013749,中央啄木鳥藥局,彰化縣彰化市中央路２０６號,120.5285,24.06637,(04)7639581,羅氏家用新冠病毒抗原自我檢測套組,1,2022/05/08 10:08:34,13:30開始販售，若未收到配送，則以收到時間開始
5937021401,展宏藥局,彰化縣鹿港鎮中山路５號,120.4367,24.05042,(04)7749001,羅氏家用新冠病毒抗原自我檢測套組,61,2022/05/08 10:08:34,周一至周日早上10點以後領快篩試劑
5937031452,春生藥局愛民店,彰化縣和美鎮愛民路１０６號,120.4995,24.1099,(04)7566092,羅氏家用新冠病毒抗原自我檢測套組,47,2022/05/08 10:08:34,每日早上十點販售快篩試劑，若到貨延遲，則另行公佈販售時間
5937031747,大樹和美藥局,彰化縣和美鎮道周路５０１號,120.494,24.10896,(04)7550090,羅氏家用新冠病毒抗原自我檢測套組,78,2022/05/08 10:08:34,快篩實名制，每天16:00開始販售，售完為止。
5937031783,和美啄木鳥藥局,彰化縣和美鎮德美路２７０號,120.502,24.11371,(04)7552924,羅氏家用新冠病毒抗原自我檢測套組,78,2022/05/08 10:08:34,領藥到啄木鳥~5／8實名制快篩早上10點開始販賣
5937041485,北斗啄木鳥藥局,彰化縣北斗鎮復興路２６９號,120.528,23.87822,(04)8875611,羅氏家用新冠病毒抗原自我檢測套組,37,2022/05/08 10:08:34,無
5937050279,廣信藥局,彰化縣員林市三信里中山路二段２０１號,120.5711,23.96517,(04)8337085,羅氏家用新冠病毒抗原自我檢測套組,1,2022/05/08 10:08:34,早上10點開始販賣快篩試劑
5937052246,新義藥局,彰化縣員林市南平里新義街２８８號,120.5678,23.96254,(04)8396788,羅氏家用新冠病毒抗原自我檢測套組,44,2022/05/08 10:08:34,每天早上10點販賣
5937052264,醫聯藥師藥局,彰化縣員林市三條里員東路二段４１０號１樓,120.5811,23.95898,(04)8360617,羅氏家用新冠病毒抗原自我檢測套組,25,2022/05/08 10:08:34,無
5937052335,大樹三民藥局,彰化縣員林市三民東街３５６號,120.5825,23.96065,(04)8372837,羅氏家用新冠病毒抗原自我檢測套組,76,2022/05/08 10:08:34,快篩實名制，每天16:00開始販售，售完為止。
5937052479,莒光藥局,彰化縣員林市莒光路３１６號１樓,120.5669,23.95942,(04)8361388,羅氏家用新冠病毒抗原自我檢測套組,1,2022/05/08 10:08:34,快篩實名制，每天16:00開始販售，售完為止。
5937081470,尚禾藥局,彰化縣二林鎮西平里中山路２３０號,120.3646,23.89936,(04)8963810,羅氏家用新冠病毒抗原自我檢測套組,1,2022/05/08 10:08:34,固定周一至周六
5937081541,康好藥局二林店,彰化縣二林鎮南光里大成路一段５６１號,120.3636,23.89337,(04)8966015,羅氏家用新冠病毒抗原自我檢測套組,6,2022/05/08 10:08:34,快篩實名制，早上09:00開始販售，售完為止。
5937181304,永靖藥局,彰化縣永靖鄉瑚璉路１１６號,120.5505,23.92624,(04)8230220,羅氏家用新冠病毒抗原自我檢測套組,78,2022/05/08 10:08:34,快篩實名制，每天16:00開始販售，售完為止。
5937201105,安利藥局,彰化縣二水鄉光化村員集路４段３號,120.6159,23.81147,(04)8794933,羅氏家用新冠病毒抗原自我檢測套組,63,2022/05/08 10:08:34,快篩下午3點現場販售 不發號碼牌 身障.醫護可優先購買
5937221198,祐幼藥局,彰化縣埤頭鄉合興村彰水路3段496號,120.4594,23.89158,(04)8911910,羅氏家用新冠病毒抗原自我檢測套組,17,2022/05/08 10:08:34,無
5937230053,彰芳藥局,彰化縣芳苑鄉和平村芳漢路王功段３９１號,120.3382,23.96268,(04)8932321,羅氏家用新冠病毒抗原自我檢測套組,15,2022/05/08 10:08:34,每日上午9點至12點 下午2點半至5點半開始販售 若配送延遲則延至送達整理後即開賣 星期日下午休息
5937261236,溪州貓頭鷹藥局,彰化縣溪州鄉中山路三段臨２９１號、２９３號,120.4933,23.85328,(04)8890101,羅氏家用新冠病毒抗原自我檢測套組,4,2022/05/08 10:08:34,無
5938011918,聖宸健保藥局,南投縣南投市彰南路三段１６２號１樓,120.6744,23.92727,(049)2251741,羅氏家用新冠病毒抗原自我檢測套組,45,2022/05/08 10:08:34,早上10點發號碼牌銷售 離開視同放棄
5938020079,仁和藥局,南投縣埔里鎮薰化里中山路三段９７號,120.9631,23.96619,(049)2985470,羅氏家用新冠病毒抗原自我檢測套組,50,2022/05/08 10:08:34,固定周一至周日上午10.00快篩開賣，售完為止
5938020257,德林藥局,南投縣埔里鎮大城路２０６號,120.9517,23.97306,(049)2915293,羅氏家用新冠病毒抗原自我檢測套組,31,2022/05/08 10:08:34,每日10點開始販售快篩試劑，直至當日應售數量完畢或店休為止。
5938021914,好安心藥局,南投縣埔里鎮中山路二段３２７號,120.9669,23.96458,(049)2990377,羅氏家用新冠病毒抗原自我檢測套組,1,2022/05/08 10:08:34,快篩販售時間: 8:30起~售完為止
5938032435,順安藥局,南投縣草屯鎮中正路７６８號,120.6848,23.98161,(049)2333228,羅氏家用新冠病毒抗原自我檢測套組,54,2022/05/08 10:08:34,實名制快篩試劑於早上10 點開始販售，售完為止
5938041756,集山啄木鳥藥局,南投縣竹山鎮集山路３段４０５號,120.696,23.76179,(049)2659287,羅氏家用新冠病毒抗原自我檢測套組,2,2022/05/08 10:08:34,口罩代售時間無限制
5938110078,立特藥局,南投縣水里鄉中央村中正路６８號,120.8543,23.81587,(049)2775837,羅氏家用新冠病毒抗原自我檢測套組,2,2022/05/08 10:08:34,每天早上8點現場排隊持健保卡領號碼牌，下午3點至晚上9點半持號碼牌領快篩劑.5／7（六）休息.5／8（日）正常販售
5939011850,明真西藥局,雲林縣斗六市自由路１號,120.5447,23.70513,(05)5321605,羅氏家用新冠病毒抗原自我檢測套組,32,2022/05/08 10:08:34,口罩販售:早上0800-1200中午1200-1400休息下午1400到2100賣完為止
5939012428,德昌藥局,雲林縣斗六市明德路１０１號,120.5374,23.69834,(05)5340870,羅氏家用新冠病毒抗原自我檢測套組,5,2022/05/08 10:08:34,快篩每日9點30至11點30現場排隊.當日有剩.下午3點30至售完
5939020091,全安藥局,雲林縣斗南鎮中天里中正路１２３號,120.4783,23.67655,(05)5965255,羅氏家用新冠病毒抗原自我檢測套組,25,2022/05/08 10:08:34,10點開始販售快篩 售完為止
5939030284,張維修藥局,雲林縣虎尾鎮林森路一段３６６號,120.436,23.71179,(05)6326456,羅氏家用新冠病毒抗原自我檢測套組,1,2022/05/08 10:08:34,販賣快篩時間:09:00-賣完為止
5939030355,祥惠藥局,雲林縣虎尾鎮惠來里惠來８１之５號,120.4892,23.72847,(05)6224308,羅氏家用新冠病毒抗原自我檢測套組,76,2022/05/08 10:08:34,週日請先電話洽詢
5939031576,良方藥局,雲林縣虎尾鎮中山路５７號,120.4344,23.70764,(05)6312106,羅氏家用新冠病毒抗原自我檢測套組,78,2022/05/08 10:08:34,周日休息.5／9（一）上午8點開賣78份，另下午2點半開賣78份.現場排隊!!
5939031996,端發藥局,雲林縣虎尾鎮林森路一段３２９號,120.4368,23.71237,(05)6314168,羅氏家用新冠病毒抗原自我檢測套組,64,2022/05/08 10:08:34,販賣快篩時間:每日14:30-售完為止請提早排隊
5939050044,健康藥局,雲林縣土庫鎮順天里中正路１１號,120.388,23.6739,(05)6622889,羅氏家用新冠病毒抗原自我檢測套組,58,2022/05/08 10:08:34,代售口罩時間早上七點三十五分開始，現場排隊，售完為止
5939051238,天愛藥局,雲林縣土庫鎮中山路８０號,120.3903,23.6749,(05)6629923,羅氏家用新冠病毒抗原自我檢測套組,78,2022/05/08 10:08:34,無
5939060120,民生藥局,雲林縣北港鎮民生路７０號,120.3027,23.56495,(05)7822476,羅氏家用新冠病毒抗原自我檢測套組,5,2022/05/08 10:08:34,上午8:30-晚上9:30，週末請先電話洽詢
5939060317,益安大藥局,雲林縣北港鎮華勝里公園路１８之２號,120.3028,23.57434,(05)7730779,羅氏家用新冠病毒抗原自我檢測套組,16,2022/05/08 10:08:34,篩劑...每天貨到販售..賣完為止
5939061850,北港家源藥局,雲林縣北港鎮大同路３０３號,120.2983,23.57261,(05)7832104,羅氏家用新冠病毒抗原自我檢測套組,78,2022/05/08 10:08:34,以健保卡購買快篩實名制，每天下午13:00開賣，現場排隊，售完為止。
5939071276,慈生藥局,雲林縣古坑鄉麻園村平和２２號,120.5203,23.6351,(05)5828222,羅氏家用新冠病毒抗原自我檢測套組,116,2022/05/08 10:08:34,週三.四.六.日下午3-5點販售實名制快篩
5939071310,禾安藥局,雲林縣古坑鄉朝陽村中山路１３６－１號,120.562,23.64552,(05)5828318,羅氏家用新冠病毒抗原自我檢測套組,47,2022/05/08 10:08:34,口罩代售時間每日上午8:00發號碼販售，售完為止
5939171093,和平藥局,雲林縣元長鄉下寮村東興路３３號,120.334,23.61849,(05)7862551,羅氏家用新冠病毒抗原自我檢測套組,15,2022/05/08 10:08:34,販賣口罩時間：0800開賣，賣完為止
5939191326,順生藥局,雲林縣口湖鄉口湖村口湖路３２４號,120.1811,23.58524,(05)7895799,羅氏家用新冠病毒抗原自我檢測套組,91,2022/05/08 10:08:34,早上10點開放購買快篩試劑 賣完為止（星期六休息）
5940030058,萬有藥局,嘉義縣大林鎮平林里民權路３６號,120.4599,23.60009,(05)2654246,羅氏家用新冠病毒抗原自我檢測套組,54,2022/05/08 10:08:34,周一～周六 08:00-21:30週日 08:00-12:00
5940031386,大樹大林藥局,嘉義縣大林鎮祥和路１９２號,120.4527,23.60447,(05)2641800,羅氏家用新冠病毒抗原自我檢測套組,78,2022/05/08 10:08:34,快篩實名制，每天16:00開始販售，售完為止。
5940040170,健安藥局,嘉義縣民雄鄉興南村頭橋４５號,120.439,23.52336,(05)2211797,羅氏家用新冠病毒抗原自我檢測套組,3,2022/05/08 10:08:34,營業:上午9點至下午9點.週日休-下午6點售快篩
5940040232,鈞安藥局,嘉義縣民雄鄉山中村１８７之５號,120.4103,23.51833,(05)2218622,羅氏家用新冠病毒抗原自我檢測套組,78,2022/05/08 10:08:34,上午7:00-晚上9:30，六日不定期休息
5940041622,大順藥局,嘉義縣民雄鄉福樂村埤角１３９號,120.44,23.52429,(05)2201138,羅氏家用新冠病毒抗原自我檢測套組,1,2022/05/08 10:08:34,快篩領取:星期一至日下午2點，售完為止
5940121349,照安藥局,嘉義縣水上鄉水頭村中興路４０８號,120.4003,23.4311,(05)2687897,羅氏家用新冠病毒抗原自我檢測套組,1,2022/05/08 10:08:34,領快篩時間:早上8:00~售馨
5940131283,一心藥局,嘉義縣中埔鄉富收村頂中下街３１、３１－１號１樓,120.4885,23.45077,(05)2303553,羅氏家用新冠病毒抗原自我檢測套組,60,2022/05/08 10:08:34,無
5940141305,東義藥局,嘉義縣竹崎鄉獅埜村東義２０－１８號,120.4898,23.51273,(05)2110957,羅氏家用新冠病毒抗原自我檢測套組,5,2022/05/08 10:08:34,無
5940141314,竹崎啄木鳥藥師藥局,嘉義縣竹崎鄉竹崎村中華路９２號,120.5481,23.52055,(05)2617786,羅氏家用新冠病毒抗原自我檢測套組,10,2022/05/08 10:08:34,09:00~售罄
5940150073,科有藥局,嘉義縣梅山鄉北興街１２號,120.5591,23.58304,(05)2621106,羅氏家用新冠病毒抗原自我檢測套組,56,2022/05/08 10:08:34,08:30~售罄
5941011851,新日康藥局,臺南市新營區三仙里民權路６３之３號,120.3125,23.30658,(06)6332833,羅氏家用新冠病毒抗原自我檢測套組,59,2022/05/08 10:08:34,口罩販售時間：08:00~售完
5941020038,惠生藥局,臺南市鹽水區中正路３１號,120.2679,23.31999,(06)6522279,羅氏家用新冠病毒抗原自我檢測套組,57,2022/05/08 10:08:34,配合送貨，預計上午10點開賣
5941080016,世酆藥局,臺南市學甲區仁得里成功路１１－１號,120.1805,23.23176,(06)7838779,羅氏家用新冠病毒抗原自我檢測套組,64,2022/05/08 10:08:34,口罩販售時間：07:30-120 份  15:00-80份
5941080043,心得藥局,臺南市學甲區仁得里建國路８２號,120.1791,23.23062,(06)7835087,羅氏家用新冠病毒抗原自我檢測套組,17,2022/05/08 10:08:34,實名制快篩:早上09:30發號碼牌，早上09:40開始販售至售完
5941131161,竹軒大藥局,臺南市六甲區甲南里民生街１５８號,120.3533,23.23001,(06)6982258,羅氏家用新冠病毒抗原自我檢測套組,49,2022/05/08 10:08:34,週日一至周日，上午10開始販售
5941270163,太子藥局,臺南市仁德區太子里太子路３３８號,120.2577,22.99146,(06)2729906,羅氏家用新冠病毒抗原自我檢測套組,2,2022/05/08 10:08:34,5／8快篩.已售完.
5941280043,道仁藥局,臺南市歸仁區許厝里中山路一段４７８號,120.2973,22.96654,(06)2301967,羅氏家用新冠病毒抗原自我檢測套組,3,2022/05/08 10:08:34,08:00開始.12:00-13:30午休.售完為止
5941310715,都都藥局,臺南市永康區中山南路１２８號,120.2302,23.01319,(06)2037887,羅氏家用新冠病毒抗原自我檢測套組,78,2022/05/08 10:08:34,快篩實名制:每日11:00開始販售
5941310840,北一藥局,臺南市永康區中山南路４３巷５號,120.2268,23.01223,(06)2012215,羅氏家用新冠病毒抗原自我檢測套組,44,2022/05/08 10:08:34,快篩實名制販售時間：星期一~星期六  08:50~售完.（星期日 10:00-12:00）
5941312755,佑健康藥師藥局,臺南市永康區文化路２０２之３號,120.2559,23.0154,(06)2316257,羅氏家用新冠病毒抗原自我檢測套組,13,2022/05/08 10:08:34,快篩販售時間：星期一~星期六08:30~售完
5942013331,泰安藥局,高雄市鳳山區仁愛路６－１號,120.3731,22.6226,(07)7037838,羅氏家用新冠病毒抗原自我檢測套組,13,2022/05/08 10:08:34,自4月起，中午時間（12：30~2：30）不販售實名制口罩。
5942013699,新怡安藥局,高雄市鳳山區海洋里新富路５１２號,120.3474,22.61403,(07)7633565,羅氏家用新冠病毒抗原自我檢測套組,1,2022/05/08 10:08:34,快篩如果送貨正常一般都早上九點販售  如果供貨時間異常就下午兩點
5942020050,惠光西藥局,高雄市岡山區維仁路１４７號,120.2925,22.79481,(07)6212163,羅氏家用新冠病毒抗原自我檢測套組,36,2022/05/08 10:08:34,販賣時間:周一至周六下午2:00售完為止周日上午10.30銷售）
5942030225,吉本藥局,高雄市旗山區旗南里中洲路４７４－１號,120.465,22.83976,(07)6663226,羅氏家用新冠病毒抗原自我檢測套組,69,2022/05/08 10:08:34,營業日0800~2200，14:00開始發號碼牌14:30起為配售口罩時間.售完為止；周六公休無配售口罩；
5942060385,義和藥局,高雄市大寮區義和里義和路１６１號,120.4205,22.64125,(07)6527206,羅氏家用新冠病毒抗原自我檢測套組,46,2022/05/08 10:08:34,無
5942080038,日建藥局,高雄市仁武區灣內里仁忠路３２號,120.3545,22.67639,(07)3713497,羅氏家用新冠病毒抗原自我檢測套組,2,2022/05/08 10:08:34,早上六點開門 採取先收健保卡  中午撥空過卡  下午您們在來拿健保卡快篩及收500元  不用大熱天下排隊且不群聚
5942081222,星億藥局,高雄市仁武區中正路１６７、１６９號,120.3511,22.71778,(07)3712815,羅氏家用新冠病毒抗原自我檢測套組,62,2022/05/08 10:08:34,快篩實名制早上9:30開始販售!
5942171123,安麗兒藥局,高雄市茄萣區嘉賜里仁愛路三段２２０號,120.1839,22.90352,(07)6906029,羅氏家用新冠病毒抗原自我檢測套組,69,2022/05/08 10:08:34,營業時間:8:00~22:00點.快篩販賣時間:8點至售完為止.
5942190039,立達藥局,高雄市彌陀區中正西路２５９－２號,120.2453,22.785,(07)6179277,羅氏家用新冠病毒抗原自我檢測套組,83,2022/05/08 10:08:34,5／8（日） 上午11:00開賣，不分單雙，一人一卡。
5943010101,正欣藥局,屏東縣屏東市前進里清進巷１０７號,120.4644,22.64938,(08)7524138,羅氏家用新冠病毒抗原自我檢測套組,2,2022/05/08 10:08:34,自3／01日~3／31日，營業日09:00~21:30銷售，發完為止
5943012892,立健藥局,屏東縣屏東市勝利里廣東路９６２號,120.4862,22.68773,(08)7328039,羅氏家用新冠病毒抗原自我檢測套組,1,2022/05/08 10:08:34,快篩每日早上9:00開始銷售~
5943013915,怡安生活藥粧藥局,屏東縣屏東市大連里瑞光路２段１３８號１樓,120.5092,22.67687,(08)7377162,羅氏家用新冠病毒抗原自我檢測套組,56,2022/05/08 10:08:34,快篩販售時間：週一至周六下午1點販售.現場排隊售完為止，週日機動調整販售，，一次僅限一人入場購買。
5943013951,大林藥師藥局,屏東縣屏東市平和里仁愛路５９號１樓,120.4924,22.67133,(08)7320680,羅氏家用新冠病毒抗原自我檢測套組,1,2022/05/08 10:08:34,平日14:00~21:00為販賣快篩時間，售完為止
5943014332,千甲台安藥局,屏東縣屏東市武廟里逢甲路９２號,120.4867,22.67045,(08)7330663,羅氏家用新冠病毒抗原自我檢測套組,67,2022/05/08 10:08:34,因政府物流不穩定 每日塊篩販售時間公告於LINE社群https:／／reurl.cc／M0b5VX
5943021588,成昌藥局,屏東縣潮州鎮永春里光春路９６號１樓,120.5375,22.54291,(08)7801199,羅氏家用新冠病毒抗原自我檢測套組,78,2022/05/08 10:08:34,實名制快篩販賣時間為每天早上11點開始販售
5943030103,保生藥局,屏東縣東港鎮中山路５６號,120.4505,22.46674,(08)8322818,羅氏家用新冠病毒抗原自我檢測套組,1,2022/05/08 10:08:34,上午8:10開始發號碼牌，發完等同售完.
5943031851,大眾藥局,屏東縣東港鎮朝隆路７６號,120.4463,22.46862,(08)8354752,羅氏家用新冠病毒抗原自我檢測套組,78,2022/05/08 10:08:34,實名制快篩下午三點開始販售
5943031897,欣大眾藥局,屏東縣東港鎮中正路一段９２號,120.4569,22.47272,(08)8351177,羅氏家用新冠病毒抗原自我檢測套組,78,2022/05/08 10:08:34,無
5943041348,恆春啄木鳥藥局,屏東縣恆春鎮恒南路２８號,120.7476,21.99145,(08)8883990,羅氏家用新冠病毒抗原自我檢測套組,39,2022/05/08 10:08:34,自2／11日~2／29日，營業日8:30~21:00，為販賣口罩時間，若11:00過後仍有剩餘口罩則16:00-18:00繼續販賣，賣完為止
5943131436,東東藥局,屏東縣內埔鄉內田村廣濟路４９號,120.5653,22.61005,(08)7780183,羅氏家用新冠病毒抗原自我檢測套組,64,2022/05/08 10:08:34,05／08早上10:00開始販售，05／09起改為早上08:30開始，不發號碼牌
5943160035,隆山藥局,屏東縣枋寮鄉安樂村中山路１１５－２號,120.5978,22.36342,(08)8785700,羅氏家用新冠病毒抗原自我檢測套組,23,2022/05/08 10:08:34,自2／11~2／29日，販賣口罩時間8:00起，售完為止。
5943170077,健安藥局,屏東縣新園鄉中洲村南興路１７０號,120.4586,22.4872,(08)8322649,羅氏家用新冠病毒抗原自我檢測套組,44,2022/05/08 10:08:34,自4／11~4／30日，販賣口罩時間至8:00起，售完為止。
5943170095,長安中西藥局,屏東縣新園鄉中洲村南興路１９４號,120.4586,22.48776,(08)8336986,羅氏家用新冠病毒抗原自我檢測套組,1,2022/05/08 10:08:34,自2／11~2／29日，販賣口罩時間9:00起，售完為止。
5943221051,明德藥局,屏東縣琉球鄉本福村中山路１５１號,120.3818,22.35203,(08)8611278,羅氏家用新冠病毒抗原自我檢測套組,41,2022/05/08 10:08:34,8:30 發放號碼牌  10:00-12:00 販賣實名制快篩
5944010043,新見安藥局,澎湖縣馬公市光明里光復路９５號,119.5703,23.57152,(06)9277346,羅氏家用新冠病毒抗原自我檢測套組,48,2022/05/08 10:08:34,販賣口罩時間:早上7:30-12:30，下午2:30-6:00，晚上7:00-9:30。
5945010118,永昇藥局,花蓮縣花蓮市化道路２１２之１號,121.6203,24.00201,(03)8225887,羅氏家用新冠病毒抗原自我檢測套組,63,2022/05/08 10:08:34,服務時段：早上8:30-晚上9點，快篩試劑販售時段：早上10點-下午4點。
5945011795,晉嘉藥局,花蓮縣花蓮市明禮路７１－９號１樓,121.6082,23.98242,(03)8347329,羅氏家用新冠病毒抗原自我檢測套組,1,2022/05/08 10:08:34,販售快篩時間，星期一到星期日，早上09:30開始，售完為止
5945012970,東大藥局,花蓮縣花蓮市富吉路４號,121.599,23.99447,(03)8463231,羅氏家用新冠病毒抗原自我檢測套組,1,2022/05/08 10:08:34,實名制快篩販賣時間：早上10；00至售完為止
5945013048,幸福花蓮藥局,花蓮縣花蓮市中正路１７９號,121.5987,23.97165,(03)8361412,羅氏家用新冠病毒抗原自我檢測套組,24,2022/05/08 10:08:34,快篩販售時間週一至週六下午2點開始.售完為止.周日彈性販售.
5945013226,國泰藥局,花蓮縣花蓮市中華路４５９－１號,121.5902,23.97388,(03)8530959,羅氏家用新冠病毒抗原自我檢測套組,1,2022/05/08 10:08:34,快篩販售時間以實際收到貨時間再訂販賣時間
5945051646,花蓮建國藥局,花蓮縣吉安鄉建國路１段１３７－１號,121.5915,23.98574,(03)8461699,羅氏家用新冠病毒抗原自我檢測套組,4,2022/05/08 10:08:34,快篩實名制，每天16:00開始販售，售完為止。
5990010695,百泰藥局,金門縣金城鎮西海路１段１號,118.2864,24.41566,(082)312832,羅氏家用新冠病毒抗原自我檢測套組,156,2022/05/08 10:08:34,快篩實名制，每天16:00開始販售，售完為止。
