醫事機構代碼,醫事機構名稱,醫事機構地址,經度,緯度,醫事機構電話,廠牌項目,快篩試劑截至目前結餘存貨數量,來源資料時間,備註
2331260016,新北市貢寮區衛生所,新北市貢寮區朝陽街７０巷１０號、新北市貢寮區仁愛路１２８號,121.9095,25.02258,(02)24901431,羅氏家用新冠病毒抗原自我檢測套組,15,2022/05/11 11:39:02,快篩試劑販售時間為周一至周五早上9點開始販售，每日販售一箱，數量有限售完為止。
2333120015,新竹縣峨眉鄉衛生所,新竹縣峨眉鄉峨眉村峨眉街２鄰５號,121.0214,24.68842,(03)5800314,羅氏家用新冠病毒抗原自我檢測套組,78,2022/05/11 11:39:02,自5月6日起平常上班日販賣快篩試劑12時至13時止，星期六為8時30分至9時30分，目前皆以現場排隊人員順序，每日最多78組
2334110013,宜蘭縣大同鄉衛生所,宜蘭縣大同鄉崙埤村朝陽４０號,121.6088,24.67785,(03)9801175,羅氏家用新冠病毒抗原自我檢測套組,32,2022/05/11 11:39:02,防疫快篩試劑販賣時間為週一到週五上午10:50-11:50 （或售罄為止），10:40開始發放號碼牌，詳細事項請至本所網站查詢。
2338070010,南投縣鹿谷鄉衛生所,南投縣鹿谷鄉中正路二段２０號,120.7542,23.74488,(049)2752002,羅氏家用新冠病毒抗原自我檢測套組,78,2022/05/11 11:39:02,快篩試劑販售時間 上班日（星期一至星期五）14:00~16:00
2340170016,嘉義縣大埔鄉衛生所,嘉義縣大埔鄉大埔村５３－１號,120.5928,23.29397,(05)2521214,羅氏家用新冠病毒抗原自我檢測套組,56,2022/05/11 11:39:02,無
2340180012,嘉義縣阿里山鄉衛生所,嘉義縣阿里山鄉樂野村３鄰９７－２號,120.7019,23.4666,(05)2561573,羅氏家用新冠病毒抗原自我檢測套組,18,2022/05/11 11:39:02,無
2341240017,臺南市楠西區衛生所,臺南市楠西區楠西里中正路２２６號,120.4859,23.17477,(06)5751006,羅氏家用新冠病毒抗原自我檢測套組,1,2022/05/11 11:39:02,門診看診時間為W1和每月第二週W5早上8:30-11:30及W4下午1:30-4:30；家用快篩試劑販售時間為W1-5早上10:30-12:00
2342130010,高雄市田寮區衛生所,高雄市田寮區南安里崗北路３２號,120.3594,22.87301,(07)6361504,羅氏家用新冠病毒抗原自我檢測套組,53,2022/05/11 11:39:02,巡迴醫療:每星期一、四下午及每月第一個有上班的星期三下午巡迴醫療
2342260013,高雄市桃源區衛生所,高雄市桃源區桃源里南進巷１８８－１號,120.7642,23.15845,(07)6861126,羅氏家用新冠病毒抗原自我檢測套組,11,2022/05/11 11:39:02,IDS提供24小時服務
2342270019,高雄市那瑪夏區衛生所,高雄市那瑪夏區瑪雅里６鄰平和巷２５２號,120.7024,23.24708,(07)6701142,羅氏家用新冠病毒抗原自我檢測套組,3,2022/05/11 11:39:02,春節期間正常門診
2343280019,屏東縣瑪家鄉衛生所,屏東縣瑪家鄉北葉村風景巷８６號,120.6496,22.70801,(08)7991164,羅氏家用新冠病毒抗原自我檢測套組,1,2022/05/11 11:39:02,口罩販售時間:星期一至星期五8:30-12:00 13:00-16:30
2344011036,澎湖縣馬公市第三衛生所,澎湖縣馬公市西文里１１８之２號,119.5836,23.56813,(06)9211723,羅氏家用新冠病毒抗原自我檢測套組,54,2022/05/11 11:39:02,本所快篩試劑只提供離島衛生室（虎井、桶盤）販售，時間週一至週五08:30-17:00售完為止，星期六、日國定假日09:00-12:00。
2344030022,澎湖縣白沙鄉鳥嶼衛生所,澎湖縣白沙鄉鳥嶼村漁港新村３號,119.6599,23.66008,(06)9916092,羅氏家用新冠病毒抗原自我檢測套組,174,2022/05/11 11:39:02,非上班時間提供急診服務
2344030031,澎湖縣白沙鄉吉貝衛生所,澎湖縣白沙鄉吉貝村８－１３號,119.6138,23.74056,(06)9911430,羅氏家用新冠病毒抗原自我檢測套組,267,2022/05/11 11:39:02,無
2344050015,澎湖縣望安鄉衛生所,澎湖縣望安鄉西安村３６－７號,119.4972,23.36161,(06)9991036,羅氏家用新冠病毒抗原自我檢測套組,53,2022/05/11 11:39:02,夜間急診。快篩試劑販售時間為:每日08:00-12:00、13:30-17:30售完為止，如有餘數為離島未售出（東嶼坪、花嶼）。
2344050024,澎湖縣望安鄉將軍衛生所,澎湖縣望安鄉將軍村１２鄰將軍澳１之３號,119.5216,23.3615,(06)9902066,羅氏家用新冠病毒抗原自我檢測套組,33,2022/05/11 11:39:02,24小時急診
2345120016,花蓮縣萬榮鄉衛生所,花蓮縣萬榮鄉萬榮村１鄰１６號,121.4092,23.71558,(03)8751651,羅氏家用新冠病毒抗原自我檢測套組,156,2022/05/11 11:39:02,快篩試劑代售時間：週一至週五下午2點至下午4點，販售為止。
2345130012,花蓮縣卓溪鄉衛生所,花蓮縣卓溪鄉卓溪村中正路６５號,121.3033,23.33294,(03)8882592,羅氏家用新冠病毒抗原自我檢測套組,41,2022/05/11 11:39:02,快篩試劑代售時間：週一至週五上午8：30-11：00（售完即結束）
2346070015,臺東縣東河鄉衛生所,臺東縣東河鄉東河村南東河路１０鄰３００號,121.3031,22.96846,(089)896289,羅氏家用新冠病毒抗原自我檢測套組,78,2022/05/11 11:39:02,快篩試劑販售時間:◆平日（星期一三四五）上午9-11時販售，星期二下午13-15時販售售完為止。
2346140012,台東縣達仁鄉衛生所,臺東縣達仁鄉安朔村復興路１２２號,120.8836,22.29488,(089)702209,羅氏家用新冠病毒抗原自我檢測套組,87,2022/05/11 11:39:02,12／31 元旦連假
2346160014,台東縣蘭嶼鄉衛生所,臺東縣蘭嶼鄉紅頭村３６號,121.5546,22.02493,(089)732575,羅氏家用新冠病毒抗原自我檢測套組,52,2022/05/11 11:39:02,販售口罩時間 星期一至星期五 8:00~12:00 13:30~17:30
2390050032,金門縣烈嶼鄉衛生所,金門縣烈嶼鄉西口村西方６－５號,118.2395,24.43519,(082)362078,羅氏家用新冠病毒抗原自我檢測套組,78,2022/05/11 11:39:02,快篩試劑販售時間:周一至周五下午1點至3點
2391020010,連江縣北竿鄉衛生所,連江縣北竿鄉塘岐村２８１－６號,119.9991,26.22617,(083)655592,羅氏家用新冠病毒抗原自我檢測套組,36,2022/05/11 11:39:02,新冠快篩試劑販售於週一至周六每日上午08:30-12:00開放購買。
2391030016,連江縣莒光鄉西莒衛生所,連江縣莒光鄉青帆村１４－１號,119.9331,25.97157,(083)689122,羅氏家用新冠病毒抗原自我檢測套組,207,2022/05/11 11:39:02,防疫口罩星期一至五09:00-17:00、（六）09:00-12:00現場購買
2391030026,連江縣莒光鄉東莒衛生所,連江縣莒光鄉大坪村３０－１號,119.9731,25.96113,(083)689038,羅氏家用新冠病毒抗原自我檢測套組,436,2022/05/11 11:39:02,防疫口罩星期一至星期日上午10:00-12:00收取健保卡，下午3:30至本所領取口罩。
5901010094,明一藥局,臺北市松山區南京東路５段５９巷２８弄２５號１樓,121.5582,25.0527,(02)27691654,羅氏家用新冠病毒抗原自我檢測套組,1,2022/05/11 11:39:02,AM10: ~~PM9:00
5901010165,傑安藥局,臺北市松山區八德路２段４３７巷７弄８號１樓,121.5473,25.04914,(02)27524155,羅氏家用新冠病毒抗原自我檢測套組,23,2022/05/11 11:39:02,9:30開始發號碼牌
5901010174,仁弘藥局,臺北市松山區民生東路３段１１３巷２５弄６號１樓,121.5466,25.05948,(02)27136764,羅氏家用新冠病毒抗原自我檢測套組,25,2022/05/11 11:39:02,5／11  10點30分開始發售   不發號碼牌
5901010192,益華藥局,臺北市松山區民生東路５段１３８巷６號,121.5615,25.05827,(02)27624898,羅氏家用新冠病毒抗原自我檢測套組,23,2022/05/11 11:39:02,無
5901010272,德靈藥局,臺北市松山區富錦街５４８號,121.5667,25.06178,(02)27646998,羅氏家用新冠病毒抗原自我檢測套組,8,2022/05/11 11:39:02,週日休 .
5901012570,予志藥局,臺北市松山區富錦街５２１號,121.5649,25.06119,(02)27623522,羅氏家用新冠病毒抗原自我檢測套組,1,2022/05/11 11:39:02,實名制快篩星期一到三下午2點、星期四到六晚上8點、星期日停售
5901012598,婕登藥局,臺北市松山區八德路４段６９９號,121.5766,25.05021,(02)27482893,羅氏家用新冠病毒抗原自我檢測套組,18,2022/05/11 11:39:02,今天快篩已經發送完畢（電腦庫存不準）
5901012749,躍獅松和藥局,臺北市松山區八德路四段６６６－１號,121.5761,25.04979,(02)27492569,羅氏家用新冠病毒抗原自我檢測套組,78,2022/05/11 11:39:02,實名制快篩販售時段，每日下午4點販售，售完為止
5901013095,康采藥局,臺北市松山區南京東路５段２９１巷１７－２號,121.5663,25.05236,(02)27670271,羅氏家用新冠病毒抗原自我檢測套組,13,2022/05/11 11:39:02,（已完售，庫存不準）快篩試劑每日16點販售，週日沒有販售
5901013399,一安正昇藥局,臺北市松山區南京東路５段３０９號,121.5667,25.05155,(02)27680993,羅氏家用新冠病毒抗原自我檢測套組,1,2022/05/11 11:39:02,快篩發放時間  下午14:30
5901013442,松山八德藥局,臺北市松山區八德路２段４００號,121.5466,25.04804,(02)27782773,羅氏家用新冠病毒抗原自我檢測套組,78,2022/05/11 11:39:02,快篩實名制，每天16:00開始販售，售完為止。
5901013595,巧心藥局,臺北市松山區八德路３段１２巷５７弄３９之３號１樓,121.5521,25.04567,(02)25703728,羅氏家用新冠病毒抗原自我檢測套組,127,2022/05/11 11:39:02,快篩試劑14:00販售，售完為止．
5901013693,民生盛康藥局,臺北市松山區民生東路５段２０４號１樓,121.5648,25.05826,(02)27460758,羅氏家用新冠病毒抗原自我檢測套組,109,2022/05/11 11:39:02,【每日70分】星期一~六9:00發號碼牌，11:00~20:00拿號碼牌回來領取，每人限1張號碼牌，逾時不候
5901013737,全欣藥局,臺北市松山區復興北路７３號２樓,121.5442,25.05104,(02)87729066,羅氏家用新冠病毒抗原自我檢測套組,48,2022/05/11 11:39:02,9:00am開始販售30人份15:00販售30人份:18:00販售17人份；週六:9:00販售39人份；週日:15:00販售39人份....排隊人數滿會先發號碼
5901013746,富景藥局,臺北市松山區三民路１４５號１樓,121.5631,25.06078,(02)27455666,羅氏家用新冠病毒抗原自我檢測套組,78,2022/05/11 11:39:02,無
5901020303,宏恩藥局,臺北市大安區大安路１段１８１號,121.5461,25.03619,(02)27000956,羅氏家用新冠病毒抗原自我檢測套組,40,2022/05/11 11:39:02,實名制快篩每周一~六，10:00發放號碼牌， 後於12:00~21:00自由擇時，持號碼牌領取快篩並收費
5901020385,延吉大藥局,臺北市大安區延吉街１５３號１樓,121.5548,25.04066,(02)27819227,羅氏家用新冠病毒抗原自我檢測套組,66,2022/05/11 11:39:02,無
5901020563,施寶藥局,臺北市大安區安東街５０－５號１樓,121.5426,25.04277,(02)27114175,羅氏家用新冠病毒抗原自我檢測套組,34,2022/05/11 11:39:02,週一至週五早上11點到下午8點.周六周日及公訂例假日公休快篩早上11點開始銷售直到配額售完為止
5901020661,泰佑藥局,臺北市大安區安和路２段７２號１Ｆ,121.5517,25.03011,(02)27056841,羅氏家用新冠病毒抗原自我檢測套組,1,2022/05/11 11:39:02,每日早上九點半
5901023073,世中欣藥局,臺北市大安區永康街２巷８號,121.5294,25.03315,(02)23938947,羅氏家用新冠病毒抗原自我檢測套組,10,2022/05/11 11:39:02,健保快篩：周一至周五， 早上10點開始販售。週六下午2點販售。週日停售.。
5901023304,麗樺藥師藥局,臺北市大安區麗水街３號,121.529,25.03225,(02)23952628,羅氏家用新冠病毒抗原自我檢測套組,3,2022/05/11 11:39:02,無
5901023519,惠盈藥局,臺北市大安區辛亥路２段１７１巷３１號,121.5412,25.02297,(02)87321366,羅氏家用新冠病毒抗原自我檢測套組,15,2022/05/11 11:39:02,快篩上午11:00開始，週日沒賣
5901023831,康乃馨藥局,臺北市大安區建國南路１段３２７號,121.5382,25.03481,(02)23257097,羅氏家用新冠病毒抗原自我檢測套組,78,2022/05/11 11:39:02,週一至週五09:00-21:00，週六09:00-18:00；快篩代售時間自12:00、現場排隊
5901023902,惠良藥局,臺北市大安區和平東路３段９３－１號,121.5507,25.02461,(02)27387872,羅氏家用新冠病毒抗原自我檢測套組,8,2022/05/11 11:39:02,平日早上10點開賣實名快篩  週日11點開賣（週日最晚到中午12點 賣完快篩即休息）
5901024098,杏一瑞安藥局,臺北市大安區瑞安街２０８巷１１弄１號,121.5406,25.02866,(02)27096710,羅氏家用新冠病毒抗原自我檢測套組,78,2022/05/11 11:39:02,3點發快篩，前5分鐘發牌
5901024114,好安心藥局,臺北市大安區和平東路２段９８之２號,121.5415,25.02493,(02)23772166,羅氏家用新冠病毒抗原自我檢測套組,69,2022/05/11 11:39:02,快篩發放: 週一至週六 15:30現場開始販售（人滿提早發售），不發號碼牌。
5901024669,百岳藥局,臺北市大安區和平東路２段３１１巷１１號,121.5452,25.02514,(02)27551037,羅氏家用新冠病毒抗原自我檢測套組,80,2022/05/11 11:39:02,快篩試劑販售時間:周一至周五10:30~12:00止
5901024767,杏一樂業藥局,臺北市大安區樂業街１６２號,121.5535,25.01958,(02)27383194,羅氏家用新冠病毒抗原自我檢測套組,78,2022/05/11 11:39:02,週一~週六快篩下午三點現場直接販售（不發號碼牌），週日無販售。
5901024918,康祥藥局,臺北市大安區忠孝東路４段２１６巷２１號,121.5531,25.04025,(02)27817891,羅氏家用新冠病毒抗原自我檢測套組,2,2022/05/11 11:39:02,星期天11:00-19:00
5901025040,弘昌藥局,臺北市大安區通化街１３９號１樓,121.554,25.02901,(02)27321616,羅氏家用新冠病毒抗原自我檢測套組,1,2022/05/11 11:39:02,無
5901025059,博醫仁愛藥局,臺北市大安區仁愛路４段８巷２號１樓,121.5443,25.0375,(02)27019107,羅氏家用新冠病毒抗原自我檢測套組,60,2022/05/11 11:39:02,每天11:30發號碼牌，12:00~15:00憑號碼牌與健保卡購買實名制快篩
5901090074,慈仁藥局,臺北市大同區歸綏街２６１號１樓,121.5101,25.05832,(02)25572733,羅氏家用新冠病毒抗原自我檢測套組,20,2022/05/11 11:39:02,平日營業至晚上6點，星期六營業至下午2點，星期日公休
5901090369,保慶藥局,臺北市大同區保安街２１號,121.5129,25.05926,(02)25538988,羅氏家用新冠病毒抗原自我檢測套組,8,2022/05/11 11:39:02,因到貨時間不定，視到貨時間販售
5901091544,得意藥師藥局,臺北市大同區延平北路２段２２９號,121.5115,25.06029,(02)25534294,羅氏家用新冠病毒抗原自我檢測套組,33,2022/05/11 11:39:02,無
5901092103,新聖安藥局,臺北市大同區昌吉街１３０號,121.5143,25.06584,(02)25977877,羅氏家用新冠病毒抗原自我檢測套組,78,2022/05/11 11:39:02,每日下午2點開賣 （前10分鐘發號碼牌）
5901092130,大同民生藥局,臺北市大同區民生西路１２８號１樓、２樓及１３０號１樓、２樓,121.5191,25.05734,(02)25558886,羅氏家用新冠病毒抗原自我檢測套組,78,2022/05/11 11:39:02,快篩實名制，每天16:00開始販售，售完為止。
5901100155,大信藥局,臺北市中山區林森北路１５９巷６號,121.5255,25.0517,(02)25719080,羅氏家用新冠病毒抗原自我檢測套組,38,2022/05/11 11:39:02,無
5901100342,順泰藥局,臺北市中山區錦州街２６６號,121.5348,25.06025,(02)25038916,羅氏家用新冠病毒抗原自我檢測套組,47,2022/05/11 11:39:02,無
5901100422,滿順藥局,臺北市中山區伊通街５４號１樓,121.5347,25.05145,(02)25075283,羅氏家用新冠病毒抗原自我檢測套組,2,2022/05/11 11:39:02,快篩服務時間 AM 8:30 起 售完為止
5901100664,阿里藥局,臺北市中山區錦州街２５１號,121.5342,25.06039,(02)25020638,羅氏家用新冠病毒抗原自我檢測套組,1,2022/05/11 11:39:02,無
5901101536,展佑藥局,臺北市中山區長春路１４６－１號,121.5317,25.05473,(02)25232803,羅氏家用新冠病毒抗原自我檢測套組,134,2022/05/11 11:39:02,實名制快篩試劑上午11:30開始販售，週日休息!
5901101910,嘉恩藥局,臺北市中山區錦州街３２１號,121.5385,25.06033,(02)25181418,羅氏家用新冠病毒抗原自我檢測套組,78,2022/05/11 11:39:02,週一至週六下午一點販售快篩試劑
5901101929,樂活苑藥局,臺北市中山區北安路５４６號１樓,121.548,25.08014,(02)25323296,羅氏家用新冠病毒抗原自我檢測套組,120,2022/05/11 11:39:02,實名制快篩代售時間為18:00~19:00.現場排隊，不發號碼牌.
5901101992,大愛藥師藥局,臺北市中山區吉林路２５５號１樓,121.5304,25.06165,(02)25424723,羅氏家用新冠病毒抗原自我檢測套組,6,2022/05/11 11:39:02,週一~週五13:55發放號碼牌14:00發放快篩，週六、週日休息
5901102837,正傑健保藥局,臺北市中山區長安東路２段１８１號,121.5426,25.04839,(02)27310181,羅氏家用新冠病毒抗原自我檢測套組,78,2022/05/11 11:39:02,下午四點開始販售
5901103423,農安藥局,臺北市中山區農安街１８之１號,121.5248,25.06483,(02)25959293,羅氏家用新冠病毒抗原自我檢測套組,78,2022/05/11 11:39:02,快篩2點發號碼牌 3點後來拿
5901103530,農安盛康藥局,臺北市中山區農安街２６７號,121.5358,25.06477,(02)25038205,羅氏家用新冠病毒抗原自我檢測套組,14,2022/05/11 11:39:02,無
5901103647,禾康藥局,臺北市中山區植福路２９６號（實際營業地址：１層）,121.5612,25.08125,(02)26562156,羅氏家用新冠病毒抗原自我檢測套組,25,2022/05/11 11:39:02,國定假日不執行調劑業務
5901103656,大樹龍江藥局,臺北市中山區龍江路２４２號,121.5406,25.05889,(02)25035666,羅氏家用新冠病毒抗原自我檢測套組,78,2022/05/11 11:39:02,快篩實名制，每天16:00開始販售，售完為止。
5901103665,安悅藥局,臺北市中山區吉林路１８９號,121.5304,25.0597,(02)25419879,羅氏家用新冠病毒抗原自我檢測套組,22,2022/05/11 11:39:02,實名制快篩販售時間:早上11點~售完為止，不發號碼牌僅現場排隊（每周日不販售）
5901103736,杏一龍錦藥局,臺北市中山區龍江路２７９號１樓,121.5408,25.05973,(02)25174618,羅氏家用新冠病毒抗原自我檢測套組,10,2022/05/11 11:39:02,快篩提供時段週一到週六 9:00-12:00 週日不提供發放!!! 不發號碼牌 每日販售78人次 售完為止＞＜
5901103745,吉林藥局,臺北市中山區吉林路３７１號（１樓）,121.5305,25.06511,(02)25865990,羅氏家用新冠病毒抗原自我檢測套組,78,2022/05/11 11:39:02,快篩實名制，每天16:00開始販售，售完為止。
5901110133,泰成藥局,臺北市內湖區內湖路３段１３５號１樓,121.5899,25.08685,(02)27921231,羅氏家用新冠病毒抗原自我檢測套組,49,2022/05/11 11:39:02,口罩販售:上午9:00開始發號碼牌，9點同步販售.
5901112600,匯安藥局,臺北市內湖區內湖路１段７０３之１號,121.5774,25.07964,(02)26579255,羅氏家用新冠病毒抗原自我檢測套組,1,2022/05/11 11:39:02,星期一到六上午9:00販售快篩
5901112682,富康東湖藥局,臺北市內湖區東湖路１１９巷４９弄１６號,121.617,25.06988,(02)26323222,羅氏家用新冠病毒抗原自我檢測套組,72,2022/05/11 11:39:02,視快篩實際到貨時間販售；LINE社群搜尋「富康藥局東湖店」會有第一線消息
5901113018,桔子藥局,臺北市內湖區內湖路２段３３３號,121.5917,25.08319,(02)27930052,羅氏家用新冠病毒抗原自我檢測套組,78,2022/05/11 11:39:02,早0900-1200，午1400-1700，晚1900-2100
5901113027,晟安藥局,臺北市內湖區金龍路１３５號,121.5902,25.08593,(02)87919320,羅氏家用新冠病毒抗原自我檢測套組,11,2022/05/11 11:39:02,快篩一~六早上10；00開始販售，星期日不營業
5901113385,躍獅康成藥局,臺北市內湖區成功路４段６１巷１１號,121.5928,25.0814,(02)87922031,羅氏家用新冠病毒抗原自我檢測套組,78,2022/05/11 11:39:02,如有收到政府配送，實名制快篩13:40發號碼牌，14:00開賣。實名制口罩已無販售。
5901113456,佑全內湖康寧藥局,臺北市內湖區康寧路３段３９號、３９號２樓、４１號、４３號,121.6078,25.07264,(02)26346578,羅氏家用新冠病毒抗原自我檢測套組,78,2022/05/11 11:39:02,實名制快篩14:00販售 13:50發號碼牌
5901113652,加一藥師藥局,臺北市內湖區星雲街２４號１樓,121.5908,25.07804,(02)87912653,羅氏家用新冠病毒抗原自我檢測套組,92,2022/05/11 11:39:02,無
5901113661,內湖藥局,臺北市內湖區康寧路１段１１６號１樓,121.5934,25.07948,(02)27940545,羅氏家用新冠病毒抗原自我檢測套組,78,2022/05/11 11:39:02,快篩實名制，每天16:00開始販售，售完為止。
5901121841,泓安藥局,臺北市南港區興華路７５號,121.6061,25.05517,(02)27861083,羅氏家用新冠病毒抗原自我檢測套組,34,2022/05/11 11:39:02,星期一至星期日早上10:00開賣快篩試劑
5901121869,南港藥局,臺北市南港區南港路一段１６６號,121.6119,25.05536,(02)27829137,羅氏家用新冠病毒抗原自我檢測套組,78,2022/05/11 11:39:02,快篩販售時間晚上6:00~晚上8:00（每天78份，售完即止）（周日休息）
5901121912,成恩藥局,臺北市南港區成福路２３號,121.5867,25.04473,(02)27856602,羅氏家用新冠病毒抗原自我檢測套組,124,2022/05/11 11:39:02,快篩販賣時間：平日 周一到周五 下午3:00~5:00，現場排隊不發放號碼牌
5901122062,躍獅忠孝藥局,臺北市南港區成福路１６號,121.586,25.04561,(02)27862829,羅氏家用新冠病毒抗原自我檢測套組,9,2022/05/11 11:39:02,下午3:30開始販售快篩，不發放號碼牌
5901150128,新興藥局,臺北市士林區德行西路１１７號,121.5206,25.10398,(02)28362643,羅氏家用新冠病毒抗原自我檢測套組,10,2022/05/11 11:39:02,無
5901150271,建芳藥局,臺北市士林區德行東路１４８號,121.5296,25.10804,(02)28357172,羅氏家用新冠病毒抗原自我檢測套組,20,2022/05/11 11:39:02,無
5901150815,陽明藥局,臺北市士林區菁山路１０號１樓,121.5469,25.13797,(02)28612863,羅氏家用新冠病毒抗原自我檢測套組,3,2022/05/11 11:39:02,早上9點30到12點健保卡排隊.（作業時間2小時）下午1點到晚上6點領回口罩及健保卡
5901152079,資生堂藥局,臺北市士林區承德路４段４０巷１７號１Ｆ,121.522,25.08107,(02)28857588,羅氏家用新冠病毒抗原自我檢測套組,78,2022/05/11 11:39:02,今日快篩已售完
5901152659,和樹藥局,臺北市士林區後港街４５巷１號１樓,121.5228,25.08444,(02)28821188,羅氏家用新冠病毒抗原自我檢測套組,78,2022/05/11 11:39:02,週日公休，周一早上9:30
5901152873,幸福藥局,臺北市士林區德行東路１０９巷８號,121.5284,25.10812,(02)28346650,羅氏家用新冠病毒抗原自我檢測套組,74,2022/05/11 11:39:02,Covid-19試劑販售時間:每日下午2點15分至下午5點販售（含星日（如果有貨））售完為止
5901153263,健揚藥局,臺北市士林區延平北路５段２５１號,121.5097,25.08483,(02)28163698,羅氏家用新冠病毒抗原自我檢測套組,6,2022/05/11 11:39:02,每日下午13:30開始販售
5901153610,家安健保藥局,臺北市士林區德行東路１０９巷１１９號,121.5288,25.11156,(02)28322182,羅氏家用新冠病毒抗原自我檢測套組,2,2022/05/11 11:39:02,因目前當日販售快篩當日配送，目前銷售時間改為下午4:00 造成不便 敬請見諒
5901153674,愛佳藥局,臺北市士林區承德路４段２２２之１號,121.5215,25.0885,(02)28811199,羅氏家用新冠病毒抗原自我檢測套組,78,2022/05/11 11:39:02,實名制快篩平日一~五下午5:00販售，假日（六、日）不販售
5901153709,全予藥局,臺北市士林區德行東路２２１號,121.5329,25.10938,(02)28386955,羅氏家用新冠病毒抗原自我檢測套組,13,2022/05/11 11:39:02,實名制快篩販售時間為周一至周六上午11點， 周日公休
5901154000,文昌大藥局,臺北市士林區文昌路７２號１樓,121.5213,25.09634,(02)28376196,羅氏家用新冠病毒抗原自我檢測套組,72,2022/05/11 11:39:02,1.5／11-5／17 14:00販售實名制快篩  2.每日提供18份 醫護警消郵差憑證購買 限10:00開放 3.自費快篩已到貨
5901154019,忠義台安藥局,臺北市士林區忠義街７２號１樓,121.5315,25.106,(02)28380685,羅氏家用新冠病毒抗原自我檢測套組,68,2022/05/11 11:39:02,下午2點開始販售快篩試劑
5901154028,向宇藥局,臺北市士林區德行東路２１７號１樓,121.5328,25.10935,(02)88661101,羅氏家用新冠病毒抗原自我檢測套組,9,2022/05/11 11:39:02,無
5901154082,德行盛康藥局,臺北市士林區德行東路２０６之１號１樓,121.532,25.1089,(02)28348756,羅氏家用新冠病毒抗原自我檢測套組,11,2022/05/11 11:39:02,無
5901160222,新祥藥局,臺北市北投區知行路２０８號－１,121.4668,25.11935,(02)28582551,羅氏家用新冠病毒抗原自我檢測套組,78,2022/05/11 11:39:02,實名制快篩下午1:30分發放號碼牌，隨後依照號碼牌發售，周日休息
5901160517,弘安藥局,臺北市北投區懷德街３３號１樓,121.5193,25.11219,(02)28206390,羅氏家用新冠病毒抗原自我檢測套組,77,2022/05/11 11:39:02,快篩每日下午2:00開賣，現場購買售完為止
5901160562,名山藥局,臺北市北投區東陽街４７５號１樓,121.5199,25.11231,(02)28226101,羅氏家用新冠病毒抗原自我檢測套組,3,2022/05/11 11:39:02,快篩試劑早上08:30販賣，先拿號碼牌，早上10；00前過卡，逾時放棄
5901162833,維康藥局,臺北市北投區石牌路２段１９１．１９３號,121.5184,25.11874,(02)28206343,羅氏家用新冠病毒抗原自我檢測套組,6,2022/05/11 11:39:02,快篩發放時間為每日下午3點排隊，現場購賣
5901163214,鴻恩藥局,臺北市北投區中央南路１段１２９號,121.5012,25.13015,(02)28926410,羅氏家用新冠病毒抗原自我檢測套組,2,2022/05/11 11:39:02,快篩試劑代售時間自08:30 ，現場排隊
5901163536,天富大藥局,臺北市北投區石牌路２段１７１號（實際使用：１樓）,121.518,25.11848,(02)28225812,羅氏家用新冠病毒抗原自我檢測套組,15,2022/05/11 11:39:02,週一至週六下午2-3點直接販售；週日暫停販售
5901163554,良哲藥局,臺北市北投區明德路１５７－４號（實際使用：１樓）,121.5209,25.11129,(02)28285516,羅氏家用新冠病毒抗原自我檢測套組,159,2022/05/11 11:39:02,實名制快篩販售時間：早上 9:00~9:30／下午 2:30~3:00（週六人力不足不販售／週日休息）
5901163572,永欣中西藥局,臺北市北投區中和街５０１號,121.4947,25.1452,(02)28910307,羅氏家用新冠病毒抗原自我檢測套組,24,2022/05/11 11:39:02,週一至週六 早上9:30發號碼牌 10點販售 周日公休（庫存不準 號碼牌發完即售完）謝謝
5901163581,陳藥師藥局,臺北市北投區光明路２巷１３－２號（實際使用：１樓）,121.4997,25.13132,(02)28921971,羅氏家用新冠病毒抗原自我檢測套組,78,2022/05/11 11:39:02,無
5901163634,心樂藥局,臺北市北投區致遠一路２段１０５號１樓,121.5128,25.1131,(02)28210261,羅氏家用新冠病毒抗原自我檢測套組,36,2022/05/11 11:39:02,您好。發放快篩時間:周一二三五六早上8:30-09:00，週四加開早上10-11點，周一二三五 下午4:00-4:30，周日及國定假日休息
5901170022,良美藥局,臺北市信義區福德街２６８巷３７號,121.5854,25.04033,(02)27593659,羅氏家用新冠病毒抗原自我檢測套組,22,2022/05/11 11:39:02,無
5901170139,福華藥局,臺北市信義區吳興街２８１巷３號１樓,121.5643,25.02656,(02)27208527,羅氏家用新冠病毒抗原自我檢測套組,78,2022/05/11 11:39:02,現階段下午1:30配合政府發售快篩試劑
5901170184,臺陽藥局,臺北市信義區大道路６１號,121.5823,25.04136,(02)27283403,羅氏家用新冠病毒抗原自我檢測套組,23,2022/05/11 11:39:02,快篩試劑早上9:30現場販售，週日沒有販售
5901170264,杏康藥局,臺北市信義區忠孝東路５段３７２巷２７弄６８－２號１Ｆ,121.5753,25.03976,(02)23457422,羅氏家用新冠病毒抗原自我檢測套組,4,2022/05/11 11:39:02,早上9:30開始販售
5901170335,慧生藥局,臺北市信義區松山路３１０號,121.5777,25.04256,(02)27647138,羅氏家用新冠病毒抗原自我檢測套組,4,2022/05/11 11:39:02,無
5901170433,松山大藥局,臺北市信義區永吉路４３６號,121.5781,25.04526,(932)156305,羅氏家用新冠病毒抗原自我檢測套組,18,2022/05/11 11:39:02,購防疫快篩早上10:00_發售.週日下午1點起.售完即止
5901170648,立信藥局,臺北市信義區松山路４０３號,121.578,25.04144,(02)27687754,羅氏家用新冠病毒抗原自我檢測套組,3,2022/05/11 11:39:02,快篩試劑販賣時間:晚上七點至九點
5901170915,杏仁藥局,臺北市信義區大道路１３５號,121.5834,25.03901,(02)27262541,羅氏家用新冠病毒抗原自我檢測套組,14,2022/05/11 11:39:02,實名制快篩:週一至週五下午3點販售，週六週日無販售
5901172179,新和平藥局,臺北市信義區虎林街１９８號１樓,121.5769,25.03844,(02)23460951,羅氏家用新冠病毒抗原自我檢測套組,20,2022/05/11 11:39:02,每星期一至星期六早上10點起   發放實名制快篩試劑 .星期日休息
5901172213,華泰藥局,臺北市信義區虎林街８２巷５號,121.5769,25.04335,(02)27601992,羅氏家用新冠病毒抗原自我檢測套組,3,2022/05/11 11:39:02,快篩 ／ 早上 8:30  開始販售 . 售完為止 .
5901172240,德康大藥局,臺北市信義區松山路５４１巷２１號,121.579,25.03794,(02)27272502,羅氏家用新冠病毒抗原自我檢測套組,4,2022/05/11 11:39:02,今日無快篩
5901172268,皇佳大藥局,臺北市信義區松山路５４１巷１９號,121.5789,25.03793,(02)27269868,羅氏家用新冠病毒抗原自我檢測套組,20,2022/05/11 11:39:02,早上10:00 持健保卡領取實名制快篩，每人限領一份，請自備500元
5901172740,信桉藥局,臺北市信義區莊敬路２３６號,121.5621,25.0296,(02)87860005,羅氏家用新冠病毒抗原自我檢測套組,22,2022/05/11 11:39:02,快篩販售 W1-5 11:00-20:00，W6 11:00-15:00
5901172839,九州藥局,臺北市信義區和平東路３段２３９號,121.5543,25.02294,(02)87323331,羅氏家用新冠病毒抗原自我檢測套組,17,2022/05/11 11:39:02,實名制快篩5月9日早上10:00開賣
5901173238,正和藥局,臺北市信義區吳興街２２５巷６號,121.5634,25.02782,(02)23455186,羅氏家用新冠病毒抗原自我檢測套組,72,2022/05/11 11:39:02,下午2點半發放快篩，週日無發放
5901173390,馨馨藥局,臺北市信義區虎林街８２巷１９號,121.5764,25.04336,(02)27491208,羅氏家用新冠病毒抗原自我檢測套組,39,2022/05/11 11:39:02,無
5901173407,康怡健保藥局,臺北市信義區吳興街４６７巷２弄１２號,121.5695,25.02381,(02)27206193,羅氏家用新冠病毒抗原自我檢測套組,84,2022/05/11 11:39:02,快篩早上9點開賣，賣完為止
5901173738,尚頤中西藥局,臺北市信義區虎林街１４５號,121.5767,25.03959,(02)27253818,羅氏家用新冠病毒抗原自我檢測套組,46,2022/05/11 11:39:02,無
5901173818,博亞藥局,臺北市信義區莊敬路４６２號,121.5677,25.02672,(02)27580506,羅氏家用新冠病毒抗原自我檢測套組,39,2022/05/11 11:39:02,平日早上8:30、晚上8:00；假日早上8:30，發放號碼牌，持號碼牌購買!
5901173881,壹間藥師藥局,臺北市信義區虎林街１２０巷１４８號,121.5742,25.04213,(02)27672833,羅氏家用新冠病毒抗原自我檢測套組,25,2022/05/11 11:39:02,5／11（三）10:30實名制快篩開始販售
5901173943,躍獅興雅藥局,臺北市信義區松德路１２８號,121.5745,25.03734,(02)87808429,羅氏家用新冠病毒抗原自我檢測套組,78,2022/05/11 11:39:02,14:00發號碼牌且同步開賣快篩，販賣至15:00或售完為止，週日無販售。
5901174057,詠晴中西藥局,臺北市信義區松山路４８４之４號（１樓含夾層）,121.5778,25.0389,(02)27266890,羅氏家用新冠病毒抗原自我檢測套組,9,2022/05/11 11:39:02,實名制快篩 - 16:30領號碼牌.當天取貨即可.避免群聚風險
5901174066,愛維喜藥局,臺北市信義區莊敬路２７８號１樓,121.5627,25.02882,(02)27586989,羅氏家用新冠病毒抗原自我檢測套組,77,2022/05/11 11:39:02,快篩周一至五15:30.周六8:30開賣.約30分前收健保卡現金500元1張.發號碼牌
5901174075,信義盛康藥局,臺北市信義區永吉路２８６號（１樓）,121.5744,25.04538,(02)23460521,羅氏家用新冠病毒抗原自我檢測套組,7,2022/05/11 11:39:02,無
5901174084,市政藥局,臺北市信義區忠孝東路５段１６９號１樓、１７１號１樓,121.5688,25.0412,(02)27560050,羅氏家用新冠病毒抗原自我檢測套組,78,2022/05/11 11:39:02,快篩實名制，每天16:00開始販售，售完為止。
5901182086,國杏藥師示範藥局,臺北市中正區延平南路１７１巷３號,121.5079,25.03487,(02)23811322,羅氏家用新冠病毒抗原自我檢測套組,13,2022/05/11 11:39:02,無
5901184071,進達健保藥局,臺北市中正區中華路２段４５３號,121.5096,25.0249,(02)23039829,羅氏家用新冠病毒抗原自我檢測套組,4,2022/05/11 11:39:02,星期日公休 5／9起快篩代售時間為上午10點 下午3-4點清消不營業
5901184080,活力健康藥妝藥局,臺北市中正區中華路２段３１５巷１號,121.5062,25.02795,(02)23392625,羅氏家用新冠病毒抗原自我檢測套組,54,2022/05/11 11:39:02,快篩14:00-15:00， 建議提早排隊
5901184179,保德中華藥局,臺北市中正區中華路２段１５９號,121.5042,25.03101,(02)23027720,羅氏家用新冠病毒抗原自我檢測套組,78,2022/05/11 11:39:02,快篩下午三點開始發號碼牌及販售，限當日購買
5901184553,珍忻藥局,臺北市中正區南昌路１段６５號,121.5174,25.03107,(02)23965115,羅氏家用新冠病毒抗原自我檢測套組,78,2022/05/11 11:39:02,健保快篩發放:13:20及18:20分兩梯次發號碼牌
5901184679,汀州藥局,臺北市中正區汀州路１段１８７、１８９、１９１號（１樓）,121.5112,25.02704,(02)23090705,羅氏家用新冠病毒抗原自我檢測套組,78,2022/05/11 11:39:02,快篩實名制，每天16:00開始販售，售完為止。
5901190079,建和藥局,臺北市萬華區青年路１６８巷４４號,121.5016,25.01987,(02)23010838,羅氏家用新冠病毒抗原自我檢測套組,3,2022/05/11 11:39:02,春節期間看診時段請電洽
5901190426,皇祥藥局,臺北市萬華區萬青街１６５號１樓,121.5016,25.02279,(02)23375676,羅氏家用新冠病毒抗原自我檢測套組,77,2022/05/11 11:39:02,有貨時每天下午2點販售 五份醫護人員
5901190668,聯慶大藥局,臺北市萬華區萬大路３０６號１樓,121.5003,25.02495,(02)23039850,羅氏家用新冠病毒抗原自我檢測套組,2,2022/05/11 11:39:02,無
5901192448,健誠大藥局,臺北市萬華區環河南路２段１８５號,121.4919,25.03246,(02)23042223,羅氏家用新冠病毒抗原自我檢測套組,1,2022/05/11 11:39:02,實名制快篩販售：周一至周五早上9點開始，周六、周日早上10點開始
5901192975,萬華藥局,臺北市萬華區萬大路２４８號實際營業地址１樓、２樓,121.5003,25.02626,(02)23012221,羅氏家用新冠病毒抗原自我檢測套組,78,2022/05/11 11:39:02,快篩實名制，每天16:00開始販售，售完為止。
5901193070,榮勝藥局,臺北市萬華區萬大路２３３號,121.5006,25.02649,(02)23331121,羅氏家用新冠病毒抗原自我檢測套組,13,2022/05/11 11:39:02,每日快篩早上十一點開始販售
5901193123,千誠北護藥局,臺北市萬華區內江街１１４號,121.5034,25.04152,(02)23123530,羅氏家用新冠病毒抗原自我檢測套組,12,2022/05/11 11:39:02,快篩一開門就發號碼牌，故網路庫存不準。
5901193150,日森人文藥局,臺北市萬華區和平西路３段１４９號,121.4988,25.03543,(02)23082100,羅氏家用新冠病毒抗原自我檢測套組,19,2022/05/11 11:39:02,快篩依政府每日到貨時間， 會立即公告粉絲頁販售時間規則
5901193221,正盛藥局,臺北市萬華區中華路２段４３４－１號,121.5064,25.02708,(02)23050386,羅氏家用新冠病毒抗原自我檢測套組,70,2022/05/11 11:39:02,【5／9自費快篩+血氧機到貨!!】1.一~六20點，周日不賣 2.排隊人潮多，建議7點左右提前候位 3.詳情看公告或板橋正康臉書
5901193249,光華藥局,臺北市萬華區華西街１９－５號,121.4985,25.03892,(02)23613609,羅氏家用新冠病毒抗原自我檢測套組,4,2022/05/11 11:39:02,周一至六上午11時營業即配合政府快篩試劑到貨發放，另週日加班發放
5901193329,西園宏越藥局,臺北市萬華區西園路２段２１３號,121.4942,25.02714,(02)23097336,羅氏家用新冠病毒抗原自我檢測套組,17,2022/05/11 11:39:02,實名制快篩下午4點~5點販售
5901193338,艾米力藥師藥局,臺北市萬華區西藏路１０７－２號１樓,121.5035,25.02955,(02)23036583,羅氏家用新冠病毒抗原自我檢測套組,76,2022/05/11 11:39:02,實名制快篩：周一~周五【晚上】7:00販售；周末（六日）早上9:00販售
5901200105,建興藥局,臺北市文山區木柵路２段８１號１樓,121.561,24.98889,(02)29399993,羅氏家用新冠病毒抗原自我檢測套組,36,2022/05/11 11:39:02,星期一至星期日早上8時30分現場販售實名制快篩試劑
5901200141,景美藥局,臺北市文山區景文街１２５號,121.5412,24.99033,(02)29335741,羅氏家用新冠病毒抗原自我檢測套組,2,2022/05/11 11:39:02,無
5901202216,皇興藥師藥局,臺北市文山區木柵路２段１２１號,121.5621,24.98901,(02)29365553,羅氏家用新冠病毒抗原自我檢測套組,13,2022/05/11 11:39:02,無
5901202396,宇康藥局,臺北市文山區羅斯福路５段２１８巷７號,121.5383,25.00203,(02)29307066,羅氏家用新冠病毒抗原自我檢測套組,70,2022/05/11 11:39:02,無
5901202627,杏隆藥局,臺北市文山區羅斯福路５段２６１號,121.5395,25.00115,(02)29313151,羅氏家用新冠病毒抗原自我檢測套組,158,2022/05/11 11:39:02,快篩實名制採預約登記，至5／14已登記額滿。
5901202850,北一藥師藥局,臺北市文山區木新路３段４７號,121.5642,24.98236,(02)22348686,羅氏家用新冠病毒抗原自我檢測套組,5,2022/05/11 11:39:02,實名制快篩：週一至週五14:30開賣（直接排隊）、週六看狀況、週日停售
5901203062,大樹文山藥局,臺北市文山區興隆路３段１３號（１、２、３樓）,121.555,25.00088,(02)29342226,羅氏家用新冠病毒抗原自我檢測套組,78,2022/05/11 11:39:02,快篩實名制，每天16:00開始販售，售完為止。
5901203375,大樹景美藥局,臺北市文山區羅斯福路６段２３４之１號,121.5404,24.99244,(02)29322951,羅氏家用新冠病毒抗原自我檢測套組,78,2022/05/11 11:39:02,快篩實名制，每天16:00開始販售，售完為止。
5902022874,康爾喜藥局,高雄市鼓山區慶豐街５０號,120.2935,22.66647,(07)5222650,羅氏家用新冠病毒抗原自我檢測套組,22,2022/05/11 11:39:02,快篩試劑 午（售完為止）。週日不發
5902050798,友泰藥局,高雄市三民區中和街１６９號,120.2868,22.6388,(07)3125236,羅氏家用新冠病毒抗原自我檢測套組,39,2022/05/11 11:39:02,無
5902050903,皇安藥局,高雄市三民區九如一路４６１號,120.3296,22.63865,(07)3866779,羅氏家用新冠病毒抗原自我檢測套組,3,2022/05/11 11:39:02,營業日0900可先領取號碼牌，上午9:00-12:00及下午3:00~10:.00為販賣快篩時間，售完為止
5902051786,億生藥局,高雄市三民區南台路２００號,120.2982,22.63706,(07)2873436,羅氏家用新冠病毒抗原自我檢測套組,10,2022/05/11 11:39:02,「藥局販售口罩時間，依藥局門口公告時間為主（售完為止）」
5902056807,長慶藥局,高雄市三民區金鼎路３１０號,120.3207,22.66513,(07)3105835,羅氏家用新冠病毒抗原自我檢測套組,2,2022/05/11 11:39:02,無
5902080474,弘宗藥局,高雄市苓雅區武智街２號,120.3356,22.62303,(07)7211088,羅氏家用新冠病毒抗原自我檢測套組,1,2022/05/11 11:39:02,家用實名制快篩試劑，早上8時開始販售。
5902083457,順一藥局,高雄市苓雅區田西里成功一路２１０號,120.2969,22.61696,(07)3330011,羅氏家用新冠病毒抗原自我檢測套組,4,2022/05/11 11:39:02,營業時間早上8點30 至12點下午3點至9點（12點至3點休息）
5902085148,召祐健保藥局,高雄市苓雅區正義路９３號,120.3385,22.63037,(07)7493719,羅氏家用新冠病毒抗原自我檢測套組,4,2022/05/11 11:39:02,快篩週一到週六，每天早上11:00開賣，賣完為止
5902090167,勝惠藥局,高雄市前鎮區忠孝里三多三路７１號,120.3122,22.6163,(07)3354766,羅氏家用新冠病毒抗原自我檢測套組,8,2022/05/11 11:39:02,快篩發放時間早上9點
5902091128,北京藥局,高雄市前鎮區公正路３１號,120.3322,22.60291,(07)7113100,羅氏家用新冠病毒抗原自我檢測套組,78,2022/05/11 11:39:02,發放方式，下午15；00現場過卡
5902092205,百宏中西大藥局,高雄市前鎮區復興三路１９４號,120.3117,22.61311,(07)3386719,羅氏家用新冠病毒抗原自我檢測套組,1,2022/05/11 11:39:02,無
5902092296,迎廣藥局,高雄市前鎮區林森三路１５０號２樓,120.3089,22.61357,(07)3321466,羅氏家用新冠病毒抗原自我檢測套組,1,2022/05/11 11:39:02,週一至周六08:30至12:00  15:00至18:00 19:00至21:30 星期六晚休息  星期日休息
5903010485,大樹圓環藥局,臺中市豐原區圓環東路６１７號１樓,120.7283,24.25084,(04)25122212,羅氏家用新冠病毒抗原自我檢測套組,78,2022/05/11 11:39:02,口罩販售時間：14:00 - 16:00
5903050103,北勢進騰藥局,臺中市沙鹿區北勢東路５０９之７號１樓,120.576,24.22526,(04)26330893,羅氏家用新冠病毒抗原自我檢測套組,62,2022/05/11 11:39:02,營業時間12:00-22:00，每日12:00販售實名制快篩
5903050274,鹿寮藥局,臺中市沙鹿區中山路４６１、４６１－１號１、２樓,120.5615,24.24387,(04)26630677,羅氏家用新冠病毒抗原自我檢測套組,78,2022/05/11 11:39:02,快篩實名制，每天16:00開始販售，售完為止。
5903060092,佑全梧棲文化藥局,臺中市梧棲區文化路二段１５０號１樓,120.531,24.25526,(04)26566433,羅氏家用新冠病毒抗原自我檢測套組,78,2022/05/11 11:39:02,實名快篩下午1：50發號碼牌；14：00開始販售
5903070025,得安藥局,臺中市后里區四村路７８號,120.7129,24.30469,(04)25585333,羅氏家用新冠病毒抗原自我檢測套組,76,2022/05/11 11:39:02,快篩販賣時間 14:00~15:00（售完為止）
5903080094,灃洲大藥局,臺中市神岡區豐洲路４６６－３號１樓,120.7045,24.26179,(04)25150169,羅氏家用新冠病毒抗原自我檢測套組,4,2022/05/11 11:39:02,星期日公休，實名制快篩販售時間為每日下午三點
5903090054,美日康藥局,臺中市潭子區大新路５８號,120.7075,24.20236,(04)25382308,羅氏家用新冠病毒抗原自我檢測套組,47,2022/05/11 11:39:02,星期一至六只有下午1-3點販賣口罩!需禮讓病患優先領藥!
5903100135,大雅安德藥局,臺中市大雅區中清東路２２９號１樓,120.6469,24.22459,(04)25604133,羅氏家用新冠病毒抗原自我檢測套組,73,2022/05/11 11:39:02,5／11（三）。實名制快篩13:30領取號碼牌，14:00販賣，不找零，每張卡隔一個月買一次，限每人一卡一份
5903150091,學田藥局,臺中市烏日區學田路便行巷１４號,120.6075,24.12086,(04)23382230,羅氏家用新冠病毒抗原自我檢測套組,39,2022/05/11 11:39:02,快篩以實際到貨時間為主，到貨開賣至售完為止。
5903150153,溪南藥局,臺中市烏日區溪南路一段５６５號１樓,120.6431,24.07523,(04)23353666,羅氏家用新冠病毒抗原自我檢測套組,78,2022/05/11 11:39:02,快篩實名制，每天16:00開始販售，售完為止。
5903170146,向陽藥師連鎖藥局,臺中市龍井區中央路三段３７號１樓,120.5248,24.21176,(04)26390500,羅氏家用新冠病毒抗原自我檢測套組,11,2022/05/11 11:39:02,實名制快篩當天物流配送到就開賣，營業時間:0930~2130慢箋領藥.長照特約.更年期.糖尿病.孕期保健.小兒營養
5903180142,峰正藥局,臺中市霧峰區中正路８３０號１樓,120.6987,24.06244,(04)23303353,羅氏家用新冠病毒抗原自我檢測套組,78,2022/05/11 11:39:02,快篩實名制，每天16:00開始販售，售完為止。
5903190362,太平中山藥局,臺中市太平區中山路４段１１號,120.7139,24.14931,(04)23959200,羅氏家用新冠病毒抗原自我檢測套組,78,2022/05/11 11:39:02,快篩實名制，每天16:00開始販售，售完為止。
5903190522,聖康佳禾藥局,臺中市太平區光興路８３１號,120.7307,24.1121,(04)22772065,羅氏家用新冠病毒抗原自我檢測套組,38,2022/05/11 11:39:02,周一到周六1130點開始發放  周日下午7點半
5903190666,川越藥局,臺中市太平區新興二街１３６號１樓,120.7056,24.15992,(04)23935719,羅氏家用新冠病毒抗原自我檢測套組,32,2022/05/11 11:39:02,販售時間於臉書及IG 公布
5903200149,祥佑健保特約藥局,臺中市大里區中興路２段４０６號,120.6901,24.10769,(04)24866398,羅氏家用新冠病毒抗原自我檢測套組,5,2022/05/11 11:39:02,政府快篩代售時間:周一~周六早上10:30開始販售.現場排隊.售完為止（週日店休）
5903200229,信元藥局,臺中市大里區益民路２段３７２號１樓,120.684,24.11545,(04)24876051,羅氏家用新冠病毒抗原自我檢測套組,55,2022/05/11 11:39:02,下午5點發號碼牌並依序販賣
5903200372,國光丁丁藥局,臺中市大里區國光路２段５５１－１號１樓,120.6788,24.11241,(04)24069711,羅氏家用新冠病毒抗原自我檢測套組,1,2022/05/11 11:39:02,星期一至星期日早上9點依排隊順序直接領取
5903200443,佳霖藥局,臺中市大里區塗城路９６４號１樓,120.6933,24.09081,(04)24960895,羅氏家用新冠病毒抗原自我檢測套組,1,2022/05/11 11:39:02,健保卡快篩:（周日和周三停賣）.請備好健保卡和500元整.下午3點半開賣.現場排隊／售完為止
5903200569,和信健康藥局,臺中市大里區德芳路一段５９號,120.6905,24.11342,(04)24833677,羅氏家用新冠病毒抗原自我檢測套組,7,2022/05/11 11:39:02,9am，發號碼牌，周日休
5903200587,大里安德健保藥局,臺中市大里區大明路１１７號,120.6861,24.11527,(04)24875607,羅氏家用新冠病毒抗原自我檢測套組,29,2022/05/11 11:39:02,早上9點開始發放
5903200649,躍獅日新藥局,臺中市大里區日新路３４２號１樓,120.6925,24.11528,(04)24822345,羅氏家用新冠病毒抗原自我檢測套組,3,2022/05/11 11:39:02,每日9:00代售口罩及快篩（星期日公休）（週六到17:30）
5903200685,塗城藥局,臺中市大里區中興路一段１８７、１８９、１９１號１樓,120.6933,24.09008,(04)24967234,羅氏家用新冠病毒抗原自我檢測套組,78,2022/05/11 11:39:02,快篩實名制，每天16:00開始販售，售完為止。
5903200756,佑全大里大明藥局,臺中市大里區大明路３６０、３６２號,120.6787,24.11511,(04)24818633,羅氏家用新冠病毒抗原自我檢測套組,1,2022/05/11 11:39:02,實名制快篩，開賣時間:下午14:00，售完為止
5903220178,佑全台中中華藥局,臺中市中區中華路一段１６２號１樓,120.6779,24.14605,(04)22291556,羅氏家用新冠病毒抗原自我檢測套組,78,2022/05/11 11:39:02,下午01:40開始發放號碼牌!! 售完為止!! 一人一卡一盒
5903230156,樂業小林健保藥局,臺中市東區樂業路４４３號１樓,120.7062,24.13693,(04)22139123,羅氏家用新冠病毒抗原自我檢測套組,51,2022/05/11 11:39:02,無
5903240456,杏一台中美村藥局,臺中市西區美村路一段２４２、２４６號１樓,120.6615,24.14825,(04)23013310,羅氏家用新冠病毒抗原自我檢測套組,49,2022/05/11 11:39:02,快篩販售時間11:00~13:00（或售完為止），5／12起改為12:00販售，週日不販售／有庫存即可以來買，不要再打電話確認
5903240474,佑全台中向上藥局,臺中市西區向上路一段３８６、３８８號１樓,120.6559,24.14688,(04)23204732,羅氏家用新冠病毒抗原自我檢測套組,78,2022/05/11 11:39:02,因政府配貨時間不一，依照門市現場公告時間為主
5903250505,心安藥局,臺中市南區國光路２４１號１樓,120.6794,24.12676,(04)22858773,羅氏家用新冠病毒抗原自我檢測套組,1,2022/05/11 11:39:02,每天下午三點排隊開賣，一人一卡，週日公休下次是5／9號
5903250658,田園藥局,臺中市南區學府路１６０號１樓,120.6742,24.12909,(04)22220605,羅氏家用新冠病毒抗原自我檢測套組,1,2022/05/11 11:39:02,每週三公休。每天13:30 開始販售，一人限一卡，依到貨數量販售
5903260314,喜悅健保藥局,臺中市北區健行路４１４號１樓,120.6818,24.15927,(04)22333988,羅氏家用新冠病毒抗原自我檢測套組,34,2022/05/11 11:39:02,星期一到星期五早上10點到晚上9點半，星期六中午12點到晚上6點半.
5903260421,忠明小林健保藥局,臺中市北區忠明路１６１號,120.6642,24.16235,(04)22013666,羅氏家用新冠病毒抗原自我檢測套組,2,2022/05/11 11:39:02,每日早上8點發號碼牌及收健保卡，下午4點半領回
5903260449,喜樂藥局,臺中市北區中清路１段３１號,120.677,24.1529,(04)22060423,羅氏家用新冠病毒抗原自我檢測套組,33,2022/05/11 11:39:02,快篩實名制，每日早上9:30開始販售，售完為止。
5903260618,中清小林健保藥局,臺中市北區中清路一段８６、８８號１樓,120.6767,24.15622,(04)22034197,羅氏家用新冠病毒抗原自我檢測套組,57,2022/05/11 11:39:02,24小時營業無公休，早上八點發號碼牌，十二點以後過健保卡發放口罩.
5903260654,康新藥局,臺中市北區五權路２３２號,120.677,24.15078,(04)22020008,羅氏家用新冠病毒抗原自我檢測套組,15,2022/05/11 11:39:02,無
5903260681,昭德藥師藥局,臺中市北區西屯路一段３４５號,120.6654,24.16007,(04)23235655,羅氏家用新冠病毒抗原自我檢測套組,8,2022/05/11 11:39:02,早上八點至下午十一點營業，上午九點至下午九點現場排隊過卡買口罩，售完為止
5903260707,新藥林藥局,臺中市北區健行路４４５－５號１樓,120.6803,24.15896,(04)22053458,羅氏家用新冠病毒抗原自我檢測套組,77,2022/05/11 11:39:02,.快篩:星期一~星期五 下午3點開始，星期六下午一點，星期三.日公休，現場排隊
5903260734,立得藥局,臺中市北區忠太西路１１號１樓,120.6678,24.15997,(04)22080013,羅氏家用新冠病毒抗原自我檢測套組,50,2022/05/11 11:39:02,固定周一到周六，下午15:00開始販賣快篩
5903260798,光恒藥局,臺中市北區五權路２６１號１樓,120.6767,24.15097,(04)22068638,羅氏家用新冠病毒抗原自我檢測套組,62,2022/05/11 11:39:02,快篩 周一到周六早上8:00到12:00 開放購買
5903260896,中清丁丁藥局,臺中市北區中清路一段５３１號１樓,120.6728,24.1678,(04)22919866,羅氏家用新冠病毒抗原自我檢測套組,12,2022/05/11 11:39:02,快篩實名制到貨後開始販售  facebook公告 賣完為止
5903260976,躍獅達心藥局,臺中市北區雙十路二段１８７號１樓,120.6906,24.15779,(04)22344548,羅氏家用新冠病毒抗原自我檢測套組,51,2022/05/11 11:39:02,實名制快篩販售每日11點發放號碼牌到貨公告領取
5903270105,樂得好大藥局,臺中市西屯區上石路２號１樓,120.644,24.16669,(04)24521173,羅氏家用新冠病毒抗原自我檢測套組,4,2022/05/11 11:39:02,試劑09:00販賣（依到貨狀況滾動式調整）
5903270230,大心藥局,臺中市西屯區西屯路２段２９５－１９號,120.6418,24.17795,(04)24528355,羅氏家用新冠病毒抗原自我檢測套組,1,2022/05/11 11:39:02,實名制快篩，早上9:00開始販售（售完為止），星期日固定公休
5903270392,瑞德大藥局,臺中市西屯區中清西二街８４號,120.6671,24.17511,(04)22939820,羅氏家用新冠病毒抗原自我檢測套組,31,2022/05/11 11:39:02,固定周一至周日早上9:00開始販售口罩.售完為止
5903270721,舒健藥局,臺中市西屯區西屯路二段２５５號２樓,120.6459,24.17179,(04)27077858,羅氏家用新冠病毒抗原自我檢測套組,78,2022/05/11 11:39:02,公費快篩試劑於周一至周六晚上7點現場排隊購買，週日公休。
5903270847,分子藥局,臺中市西屯區惠來路二段２３６－１號,120.6421,24.16318,(04)22513080,羅氏家用新冠病毒抗原自我檢測套組,24,2022/05/11 11:39:02,發放時間週一至週日早上10點起售完為止
5903270892,杏林堂藥局,臺中市西屯區黎明路三段１４８號１樓,120.6376,24.17729,(04)24528967,羅氏家用新冠病毒抗原自我檢測套組,20,2022/05/11 11:39:02,週一至週六11:00販售 週日08:30販售
5903270927,河南小林健保藥局,臺中市西屯區河南路二段２９８號１樓,120.6485,24.17477,(04)24512830,羅氏家用新冠病毒抗原自我檢測套組,55,2022/05/11 11:39:02,固定每日早上8點發放口罩號碼牌，下午4點半開始販售。
5903271022,西屯藥局,臺中市西屯區西屯路三段１５０－４５號１樓,120.621,24.18716,(04)24621822,羅氏家用新冠病毒抗原自我檢測套組,78,2022/05/11 11:39:02,快篩實名制，每天16:00開始販售，售完為止。
5903271031,美十樂中科藥局,臺中市西屯區西屯路三段１６６－６５號１樓,120.6129,24.19035,(04)24610219,羅氏家用新冠病毒抗原自我檢測套組,468,2022/05/11 11:39:02,醫事人員卡片損壞，暫時無法販賣快篩
5903271068,西墩藥局,臺中市西屯區黎明路三段２７５、２７７號１樓,120.6373,24.17812,(04)24510770,羅氏家用新冠病毒抗原自我檢測套組,78,2022/05/11 11:39:02,快篩實名制，每天16:00開始販售，售完為止。
5903271175,維康中榮藥局,臺中市西屯區東大路一段１３號１樓,120.6022,24.18315,(04)23593195,羅氏家用新冠病毒抗原自我檢測套組,1,2022/05/11 11:39:02,無
5903271282,禾安藥局,臺中市西屯區西屯路二段１２６之８號,120.6518,24.16682,(04)23176162,羅氏家用新冠病毒抗原自我檢測套組,35,2022/05/11 11:39:02,無
5903271291,西屯長安藥局,臺中市西屯區成都路３６８號１樓,120.6641,24.17322,(04)22981221,羅氏家用新冠病毒抗原自我檢測套組,78,2022/05/11 11:39:02,快篩實名制，每天16:00開始販售，售完為止。
5903271308,祐生藥局,臺中市西屯區文華路３之１號１樓,120.6447,24.17535,(04)24517169,羅氏家用新冠病毒抗原自我檢測套組,188,2022/05/11 11:39:02,快篩發放時間：第一批中午12:00，第二批傍晚18:00，售完為止
5903280334,長益藥局,臺中市南屯區忠勇路９９號,120.6155,24.14971,(04)23899383,羅氏家用新冠病毒抗原自我檢測套組,4,2022/05/11 11:39:02,週一至週六下午13點開始開始販售口罩（當場排隊，不發號碼牌售完為止）
5903280361,誠美健保藥局,臺中市南屯區南屯路２段１６９號１樓,120.6509,24.1361,(04)24752000,羅氏家用新冠病毒抗原自我檢測套組,16,2022/05/11 11:39:02,週一~週六快篩試劑早上九點開賣（週日公休），售完為止!
5903280718,樂活藥局,臺中市南屯區大聖街３３２號１樓,120.6508,24.15401,(04)23106301,羅氏家用新冠病毒抗原自我檢測套組,15,2022/05/11 11:39:02,無
5903280807,大樹南屯藥局,臺中市南屯區向上路一段６４３號１樓,120.6486,24.14659,(04)24758887,羅氏家用新冠病毒抗原自我檢測套組,78,2022/05/11 11:39:02,快篩實名制，每天16:00開始販售，售完為止。
5903290045,康美得藥局,臺中市北屯區昌平路１段１０５－８號,120.6903,24.17373,(04)22467128,羅氏家用新冠病毒抗原自我檢測套組,24,2022/05/11 11:39:02,早上9:30開始。W日早上10點販售。快篩使用方法請上（康美得藥局）官方臉書。血氧機。口罩100元。酒精。
5903290063,承恩藥局,臺中市北屯區北屯路４４１－１號１樓,120.7008,24.17977,(04)22467857,羅氏家用新冠病毒抗原自我檢測套組,24,2022/05/11 11:39:02,實名制快篩販售時間為下午4點開始（12:00-15:00中午休息）；星期六休息
5903290394,億銓藥局,臺中市北屯區北屯路２１０－１號,120.6961,24.16756,(04)22313670,羅氏家用新冠病毒抗原自我檢測套組,78,2022/05/11 11:39:02,快篩實名制週一~週五下午1：00開賣、週六上午11：00開賣，週日公休。
5903290661,康博中西健保藥局,臺中市北屯區后庄一街７號１樓,120.6644,24.1865,(04)24252468,羅氏家用新冠病毒抗原自我檢測套組,2,2022/05/11 11:39:02,快篩下午01:00發售53份；晚上06:00銷售25份.週六.日及假日下午06:30開始依配送滾動調整
5903290778,博宇藥局,臺中市北屯區北屯路３８５之１號,120.6979,24.17193,(04)22341479,羅氏家用新冠病毒抗原自我檢測套組,42,2022/05/11 11:39:02,快篩試劑10:00現場販售、售完為止。
5903290821,昌平炘星藥局,臺中市北屯區昌平路二段１１－３６號,120.6886,24.18159,(04)22417616,羅氏家用新冠病毒抗原自我檢測套組,7,2022/05/11 11:39:02,快篩禮拜一到禮拜六8:30開賣，禮拜六18:00後公休，禮拜日全日公休
5903290830,齊方藥局,臺中市北屯區四平路３９號,120.6708,24.17885,(04)22912192,羅氏家用新冠病毒抗原自我檢測套組,1,2022/05/11 11:39:02,5／10-5／14快篩早上9點開賣
5903290947,德寶健保藥局,臺中市北屯區熱河路一段７０號１樓,120.687,24.1674,(04)22325511,羅氏家用新冠病毒抗原自我檢測套組,25,2022/05/11 11:39:02,快篩試劑九點開始銷售賣完為止
5903291042,全成北屯藥局,臺中市北屯區北屯路４３９－１１號１樓,120.7004,24.17913,(04)22463518,羅氏家用新冠病毒抗原自我檢測套組,75,2022/05/11 11:39:02,快篩每日下午3:00開始販售
5903291060,大樹北屯藥局,臺中市北屯區松竹路二段４１１號１樓,120.6895,24.18192,(04)22422262,羅氏家用新冠病毒抗原自我檢測套組,78,2022/05/11 11:39:02,快篩實名制，每天16:00開始販售，售完為止。
5903291079,富丘藥局,臺中市北屯區興安路二段７７號１樓,120.6947,24.17686,(04)22477301,羅氏家用新冠病毒抗原自我檢測套組,2,2022/05/11 11:39:02,實名制快篩試劑早上08:30販售
5903291248,潔西卡大藥局,臺中市北屯區崇德路二段３１４號１樓,120.686,24.1765,(04)22416879,羅氏家用新冠病毒抗原自我檢測套組,15,2022/05/11 11:39:02,無
5905010143,啄木鳥藥師藥局,臺南市新營區新南里民治路２４２號,120.3041,23.30767,(06)6590248,羅氏家用新冠病毒抗原自我檢測套組,77,2022/05/11 11:39:02,每天下午4:00開始販售，售完為止
5905010250,大樹新營藥局,臺南市新營區民權路７４、７６、７８號１樓,120.3127,23.30615,(06)6328300,羅氏家用新冠病毒抗原自我檢測套組,78,2022/05/11 11:39:02,快篩實名制，每天16:00開始販售，售完為止。
5905020023,大樹鹽水藥局,臺南市鹽水區朝琴路１２６－３號１樓,120.271,23.32228,(06)6520432,羅氏家用新冠病毒抗原自我檢測套組,78,2022/05/11 11:39:02,快篩實名制，每天16:00開始販售，售完為止。
5905030092,大樹白河藥局,臺南市白河區中山路１５３號１樓,120.417,23.35255,(06)6830006,羅氏家用新冠病毒抗原自我檢測套組,78,2022/05/11 11:39:02,快篩實名制，每天16:00開始販售，售完為止。
5905040141,大樹麻豆藥局,臺南市麻豆區中山路４８、５０號１樓,120.2469,23.18382,(06)5716556,羅氏家用新冠病毒抗原自我檢測套組,78,2022/05/11 11:39:02,快篩實名制，每天16:00開始販售，售完為止。
5905050209,大樹佳里藥局,臺南市佳里區延平路２３７號１樓,120.1783,23.1599,(06)7231323,羅氏家用新冠病毒抗原自我檢測套組,78,2022/05/11 11:39:02,快篩實名制，每天16:00開始販售，售完為止。
5905060198,大樹新化藥局,臺南市新化區中正路５３１號１樓,120.3072,23.03764,(06)5901331,羅氏家用新冠病毒抗原自我檢測套組,78,2022/05/11 11:39:02,快篩實名制，每天16:00開始販售，售完為止。
5905080056,大樹學甲藥局,臺南市學甲區中正路１３５號１樓,120.1793,23.23029,(06)7820001,羅氏家用新冠病毒抗原自我檢測套組,78,2022/05/11 11:39:02,快篩實名制，每天16:00開始販售，售完為止。
5905090061,安安藥局柳營店,臺南市柳營區福安一街５０號１樓,120.3126,23.27711,(06)6220585,羅氏家用新冠病毒抗原自我檢測套組,7,2022/05/11 11:39:02,無
5905140039,安安藥局隆田店,臺南市官田區中山路一段１５號１樓,120.3186,23.1927,(06)5795705,羅氏家用新冠病毒抗原自我檢測套組,2,2022/05/11 11:39:02,全日口罩販賣
5905210027,愛心藥師藥局,臺南市安定區港南里港口１４７號,120.233,23.09041,(06)5935104,羅氏家用新冠病毒抗原自我檢測套組,3,2022/05/11 11:39:02,春節營業時間請電洽或依現場公告
5905270176,大樹仁德藥局,臺南市仁德區中正路二段１１５２號１樓,120.2519,22.97062,(06)2797466,羅氏家用新冠病毒抗原自我檢測套組,78,2022/05/11 11:39:02,快篩實名制，每天16:00開始販售，售完為止。
5905280109,大樹青青藥局,臺南市歸仁區中山路三段１２號,120.2875,22.96765,(06)2300301,羅氏家用新冠病毒抗原自我檢測套組,78,2022/05/11 11:39:02,快篩實名制，每天16:00開始販售，售完為止。
5905290034,大樹關廟藥局,臺南市關廟區中央路２６３號１樓,120.3272,22.96109,(06)5965889,羅氏家用新冠病毒抗原自我檢測套組,78,2022/05/11 11:39:02,快篩實名制，每天16:00開始販售，售完為止。
5905311074,中華長億藥局,臺南市永康區中華路７３４、７３６號１樓,120.2288,23.0167,(06)3022322,羅氏家用新冠病毒抗原自我檢測套組,78,2022/05/11 11:39:02,快篩實名制，每天16:00開始販售，售完為止。
5905320797,大樹自由藥局,臺南市東區自由路三段３８２號１樓,120.2373,22.98241,(06)2890800,羅氏家用新冠病毒抗原自我檢測套組,78,2022/05/11 11:39:02,快篩實名制，每天16:00開始販售，售完為止。
5905320804,大樹大同藥局,臺南市東區大同路二段２２７、２２９號１樓,120.2143,22.97567,(06)2158700,羅氏家用新冠病毒抗原自我檢測套組,78,2022/05/11 11:39:02,快篩實名制，每天16:00開始販售，售完為止。
5905320886,中華崇德藥局,臺南市東區中華東路三段１８１、１８３號１樓,120.2259,22.97667,(06)2880800,羅氏家用新冠病毒抗原自我檢測套組,78,2022/05/11 11:39:02,快篩實名制，每天16:00開始販售，售完為止。
5905320911,大樹崇道藥局,臺南市東區崇道路６３號１樓,120.2272,22.97227,(06)2680456,羅氏家用新冠病毒抗原自我檢測套組,78,2022/05/11 11:39:02,快篩實名制，每天16:00開始販售，售完為止。
5905330284,大樹佳華藥局,臺南市南區金華路二段１２９號１樓,120.1911,22.98035,(06)2641238,羅氏家用新冠病毒抗原自我檢測套組,78,2022/05/11 11:39:02,快篩實名制，每天16:00開始販售，售完為止。
5905340075,麗欣健保藥局,臺南市中西區永華路一段１９４號１樓,120.1917,22.98835,(06)2209393,羅氏家用新冠病毒抗原自我檢測套組,7,2022/05/11 11:39:02,w1~w6早上11:00開始發放快篩
5905350035,海安藥師藥局,臺南市北區北成路４１８號１樓,120.202,23.01928,(06)2814600,羅氏家用新冠病毒抗原自我檢測套組,48,2022/05/11 11:39:02,快篩販售時間.週一至週六中午12點
5905350384,北安台安藥局,臺南市北區北安路一段１６３號,120.2087,23.01755,(06)2518166,羅氏家用新冠病毒抗原自我檢測套組,17,2022/05/11 11:39:02,家用快篩試劑 1100開始販售
5905370466,大樹北安藥局,臺南市安南區北安路三段１５８號１樓,120.2036,23.04256,(06)2553633,羅氏家用新冠病毒抗原自我檢測套組,78,2022/05/11 11:39:02,快篩實名制，每天16:00開始販售，售完為止。
5905380300,新高橋藥局台南永華店,臺南市安平區華平路２７９號１樓,120.1748,22.99031,(06)2992362,羅氏家用新冠病毒抗原自我檢測套組,4,2022/05/11 11:39:02,若有到貨早上九點五十分發放號碼牌十點開始販售
5907011086,閤康藥局,高雄市鳳山區忠義里中山西路３７６－７號１樓,120.3412,22.62897,(07)7197787,羅氏家用新冠病毒抗原自我檢測套組,36,2022/05/11 11:39:02,5／9-5／13快篩販售時間 11點開始.售完為止!
5907011148,大樹國泰藥局,高雄市鳳山區興仁里五甲一路２９２號,120.3539,22.61698,(07)7407234,羅氏家用新冠病毒抗原自我檢測套組,78,2022/05/11 11:39:02,快篩實名制，每天16:00開始販售，售完為止。
5907011228,鳳山青年藥局,高雄市鳳山區文德里青年路二段３９９號１樓,120.3513,22.64292,(07)7678383,羅氏家用新冠病毒抗原自我檢測套組,78,2022/05/11 11:39:02,口罩販售時間：14:00 - 16:00
5907011317,凱旋藥局,高雄市鳳山區國隆里新富路３７３號１樓,120.3475,22.61494,(07)7671181,羅氏家用新冠病毒抗原自我檢測套組,78,2022/05/11 11:39:02,快篩實名制，每天16:00開始販售，售完為止。
5907011362,佑全鳳山藥局,高雄市鳳山區文德里青年路二段４６３號１－２樓,120.3498,22.64513,(07)7801568,羅氏家用新冠病毒抗原自我檢測套組,78,2022/05/11 11:39:02,實名制快篩14:00~18:00
5907020085,大德藥局,高雄市岡山區大德一路９８號,120.3025,22.79689,(07)6221456,羅氏家用新冠病毒抗原自我檢測套組,78,2022/05/11 11:39:02,快篩實名制，每天16:00開始販售，售完為止。
5907030090,睛好活力藥局,高雄市旗山區湄洲里中山路１２７號,120.482,22.88873,(07)6625119,羅氏家用新冠病毒抗原自我檢測套組,70,2022/05/11 11:39:02,無
5907030152,旗山藥局,高雄市旗山區中華路２３號,120.4841,22.88027,(07)6621158,羅氏家用新冠病毒抗原自我檢測套組,78,2022/05/11 11:39:02,快篩實名制，每天16:00開始販售，售完為止。
5907050029,林園健人藥師藥局,高雄市林園區林園北路３７２號,120.3951,22.5126,(07)6421598,羅氏家用新冠病毒抗原自我檢測套組,78,2022/05/11 11:39:02,營業日14:00~16:00為販賣時間，售完為止，週日不販售。
5907050092,林園啄木鳥藥局,高雄市林園區鳳林路二段８０３號１樓,120.3957,22.5135,(07)6414772,羅氏家用新冠病毒抗原自我檢測套組,69,2022/05/11 11:39:02,快篩實名制領取時間下午2點（若當天配送延誤，時間另行公布）
5907050109,林園藥局,高雄市林園區仁愛路１３號１樓,120.3928,22.50418,(07)6425855,羅氏家用新冠病毒抗原自我檢測套組,78,2022/05/11 11:39:02,快篩實名制，每天16:00開始販售，售完為止。
5907060267,加嘉藥局,高雄市大寮區山頂里內厝路１９１號１樓,120.3901,22.60793,(07)7860683,羅氏家用新冠病毒抗原自我檢測套組,1,2022/05/11 11:39:02,無
5907080223,新高橋藥局仁雄店,高雄市仁武區赤山里仁雄路８９－３號,120.3457,22.67722,(07)3485857,羅氏家用新冠病毒抗原自我檢測套組,1,2022/05/11 11:39:02,藥局電話07-3743243
5907080250,仁同藥局,高雄市仁武區八卦里永仁街７０６號１樓,120.3313,22.69072,(07)3736142,羅氏家用新冠病毒抗原自我檢測套組,4,2022/05/11 11:39:02,可購買快篩試劑時間每日早上7:30到8:30
5907080303,群邦藥局,高雄市仁武區八德東路１８０號１樓,120.3422,22.68538,(07)3745985,羅氏家用新冠病毒抗原自我檢測套組,73,2022/05/11 11:39:02,每日下午2:00開始販售公費快篩（售完為止），星期日藥局早上8:30-9:30賣公費快篩
5907090167,大樹大社藥局,高雄市大社區中山路３０８號１樓,120.3503,22.73145,(07)3531682,羅氏家用新冠病毒抗原自我檢測套組,78,2022/05/11 11:39:02,快篩實名制，每天16:00開始販售，售完為止。
5907140108,德昌藥局阿蓮店,高雄市阿蓮區阿蓮里中正路４５６號,120.3321,22.88075,(07)6318868,羅氏家用新冠病毒抗原自我檢測套組,78,2022/05/11 11:39:02,固定周一至周日14:30-16:00販售快篩，售完為止
5907150257,大樹大立藥局,高雄市路竹區國昌路５１號,120.26,22.85409,(07)6961663,羅氏家用新冠病毒抗原自我檢測套組,78,2022/05/11 11:39:02,快篩實名制，每天16:00開始販售，售完為止。
5907160075,安麗兒藥局東方店,高雄市湖內區湖東里東方路９０號,120.2483,22.87968,(07)6936029,羅氏家用新冠病毒抗原自我檢測套組,8,2022/05/11 11:39:02,領快篩時間一~日早上11點開始~售完 （以郵局配送時間為主）
5907160093,保生藥局,高雄市湖內區葉厝里保生路３４０．３４２號,120.2195,22.90733,(07)6990800,羅氏家用新冠病毒抗原自我檢測套組,79,2022/05/11 11:39:02,快篩實名制，每天16:00開始販售，售完為止。
5907240014,博林健保藥局,高雄市內門區觀亭里中正路１６０巷５１號,120.4539,22.9232,(07)6671883,羅氏家用新冠病毒抗原自我檢測套組,5,2022/05/11 11:39:02,自2／11日~2／29日，營業日07:40~18:00為販賣口罩時間，售完為止
5907280036,七賢藥局,高雄市鹽埕區七賢三路１６２號１樓,120.2829,22.62712,(07)5330616,羅氏家用新冠病毒抗原自我檢測套組,78,2022/05/11 11:39:02,快篩實名制，每天16:00開始販售，售完為止。
5907290354,文昇藥局,高雄市鼓山區慶豐街１２５號,120.2942,22.66724,(07)5525314,羅氏家用新冠病毒抗原自我檢測套組,12,2022/05/11 11:39:02,無
5907300168,金元藥局,高雄市左營區重愛路２２０號,120.3156,22.68562,(07)3458378,羅氏家用新冠病毒抗原自我檢測套組,1,2022/05/11 11:39:02,快篩試劑郵差配送，約10點至11點左右會送到藥局，即開始販售，星期四，六營業時間至中午12點
5907300506,躍獅祐恩藥局,高雄市左營區明華一路１３２號１樓,120.3073,22.66307,(07)5508706,羅氏家用新冠病毒抗原自我檢測套組,14,2022/05/11 11:39:02,到貨時間不固定，到貨會FB通知並立即販售，售完為止~
5907300748,翔生藥局合群店,高雄市左營區緯六路２５６號,120.2871,22.6976,(07)5880055,羅氏家用新冠病毒抗原自我檢測套組,1,2022/05/11 11:39:02,實名制快篩販售時間：星期一至星期五，售完為止
5907300800,元大藥師健保藥局,高雄市左營區榮德街３２７號,120.3211,22.68636,(07)3507531,羅氏家用新冠病毒抗原自我檢測套組,12,2022/05/11 11:39:02,無
5907300819,志全藥局,高雄市左營區富國路１６８號１樓,120.3068,22.66075,(07)5568217,羅氏家用新冠病毒抗原自我檢測套組,1,2022/05/11 11:39:02,藥局販售口罩時間，依藥局門口公告時間為主（售完為止）
5907300926,高鐵藥局,高雄市左營區華夏路１３２２．１３２６號,120.312,22.68587,(07)3452797,羅氏家用新冠病毒抗原自我檢測套組,78,2022/05/11 11:39:02,快篩實名制，每天16:00開始販售，售完為止。
5907300971,健勝藥局,高雄市左營區勝利路１２７－１號１樓,120.2896,22.6806,(07)5811169,羅氏家用新冠病毒抗原自我檢測套組,1,2022/05/11 11:39:02,正常情況於每日上午九點開始販售
5907301076,熊安心藥局華夏店,高雄市左營區華夏路１２１２號１樓,120.3104,22.68483,(07)3430632,羅氏家用新冠病毒抗原自我檢測套組,37,2022/05/11 11:39:02,快篩試劑-販售時間14:00起至售完為止
5907310020,德民藥局,高雄市楠梓區德民路９１１號,120.2897,22.72085,(07)3630805,羅氏家用新冠病毒抗原自我檢測套組,14,2022/05/11 11:39:02,營業日星期一至星期六上午11:00~13:00銷售快篩實名制.售完為止，週日公休
5907310173,安健藥局,高雄市楠梓區鳳楠路２５０號,120.3296,22.72617,(07)3520167,羅氏家用新冠病毒抗原自我檢測套組,32,2022/05/11 11:39:02,2／06起營業日早上8點開始販賣，周六日早上8:30 .售完為止
5907310262,大樹楠梓藥局,高雄市楠梓區軍校路９０８號,120.2919,22.71246,(07)3632322,羅氏家用新冠病毒抗原自我檢測套組,78,2022/05/11 11:39:02,快篩實名制，每天16:00開始販售，售完為止。
5907310404,藍田藥局,高雄市楠梓區藍田路１號,120.2953,22.72643,(07)3601236,羅氏家用新冠病毒抗原自我檢測套組,78,2022/05/11 11:39:02,快篩實名制，每天16:00開始販售，售完為止。
5907320302,新高橋藥局明誠店,高雄市三民區明誠一路４９２號,120.3226,22.66046,(07)3107072,羅氏家用新冠病毒抗原自我檢測套組,71,2022/05/11 11:39:02,早上10:00開始販售口罩
5907320811,力生藥局,高雄市三民區鼎中路１６８號１樓,120.3194,22.6622,(07)3105231,羅氏家用新冠病毒抗原自我檢測套組,24,2022/05/11 11:39:02,營業日星期一~星期五11點起、星期六~星期日晚上6點 開始販賣（實名制快篩）.售完為止
5907321041,鼎安健保藥局,高雄市三民區鼎中路４１８號１樓,120.3199,22.66719,(07)3509939,羅氏家用新冠病毒抗原自我檢測套組,2,2022/05/11 11:39:02,無
5907321069,桂林活力藥局九如店,高雄市三民區懷安街１１２號１樓,120.3176,22.64095,(07)3981009,羅氏家用新冠病毒抗原自我檢測套組,78,2022/05/11 11:39:02,每天15:30發號碼牌，於18:00前兌換完畢，逾期棄權，剩餘則繼續發放
5907350195,健順藥局,高雄市苓雅區自強三路１４０號,120.2986,22.61724,(07)2695832,羅氏家用新冠病毒抗原自我檢測套組,1,2022/05/11 11:39:02,自2／6起，營業日0830~22:00為口罩販售時間，售完為止
5907350328,安杏藥局,高雄市苓雅區四維二路９４－１７號,120.3197,22.62273,(07)7511739,羅氏家用新冠病毒抗原自我檢測套組,13,2022/05/11 11:39:02,快篩試劑代售時間自早上9:00點服務
5907350506,大樹苓雅藥局,高雄市苓雅區中華四路１５３號,120.3001,22.61783,(07)5353111,羅氏家用新冠病毒抗原自我檢測套組,78,2022/05/11 11:39:02,快篩實名制，每天16:00開始販售，售完為止。
5907350551,大樹武廟藥局,高雄市苓雅區武廟路４３、４５號１樓,120.3314,22.63005,(07)7222268,羅氏家用新冠病毒抗原自我檢測套組,78,2022/05/11 11:39:02,快篩實名制，每天16:00開始販售，售完為止。
5907350631,三多藥局,高雄市苓雅區三多二路２９２號１樓,120.3173,22.61838,(07)3365889,羅氏家用新冠病毒抗原自我檢測套組,78,2022/05/11 11:39:02,快篩實名制，每天16:00開始販售，售完為止。
5907360520,大樹瑞福藥局,高雄市前鎮區瑞隆路１７０號１樓、２樓,120.3357,22.60598,(07)7271170,羅氏家用新冠病毒抗原自我檢測套組,78,2022/05/11 11:39:02,快篩實名制，每天16:00開始販售，售完為止。
5907360584,聖名健保藥局,高雄市前鎮區復興三路２４６號１樓,120.312,22.61558,(07)3319431,羅氏家用新冠病毒抗原自我檢測套組,1,2022/05/11 11:39:02,無
5907360673,前鎮大樹藥局,高雄市前鎮區瑞隆路４７２號１樓,120.3291,22.60547,(07)7137171,羅氏家用新冠病毒抗原自我檢測套組,78,2022/05/11 11:39:02,快篩實名制，每天16:00開始販售，售完為止。
5907380255,安安藥師藥局,高雄市小港區孔鳳路５６５號１樓,120.3586,22.58393,(07)7915933,羅氏家用新冠病毒抗原自我檢測套組,78,2022/05/11 11:39:02,快篩實名制周一至周六下午14:00開始販售，售完為止
5907380264,大樹孔鳳藥局,高雄市小港區孔鳳路５１９、５２１號,120.3587,22.5828,(07)7918521,羅氏家用新冠病毒抗原自我檢測套組,78,2022/05/11 11:39:02,快篩實名制，每天16:00開始販售，售完為止。
5911011478,天康新豐藥局,基隆市中正區新豐街２５１巷４弄９號１樓,121.7885,25.13594,(02)24695168,羅氏家用新冠病毒抗原自我檢測套組,1,2022/05/11 11:39:02,無
5911011512,八斗子東亞藥局,基隆市中正區北寧路３７８號,121.7958,25.13944,(02)24698829,羅氏家用新冠病毒抗原自我檢測套組,2,2022/05/11 11:39:02,中午12點鐘開賣實名制快篩，售完為止
5911011521,禎宸藥局,基隆市中正區中正路１７５號１樓,121.7605,25.14233,(02)24620366,羅氏家用新冠病毒抗原自我檢測套組,123,2022/05/11 11:39:02,無
5911011638,中正藥局,基隆市中正區新豐街３８５號１、２樓,121.7856,25.13537,(02)24690660,羅氏家用新冠病毒抗原自我檢測套組,78,2022/05/11 11:39:02,快篩實名制，每天16:00開始販售，售完為止。
5911021438,正心藥局,基隆市七堵區南興路１０號１樓,121.7149,25.09755,(02)24563378,羅氏家用新冠病毒抗原自我檢測套組,1,2022/05/11 11:39:02,每日限量78盒， 星期一~六下午13:30發號碼牌，14:00開始販賣，星期日上午9:00發號碼牌，9:30開始販賣，12:00停止領取
5911040228,大田大藥局,基隆市仁愛區仁二路５號,121.7507,25.12744,(02)24258762,羅氏家用新冠病毒抗原自我檢測套組,78,2022/05/11 11:39:02,下午2:00發號碼牌並販售
5911041618,永樂藥局,基隆市仁愛區忠二路２２號,121.7401,25.13013,(02)24214878,羅氏家用新冠病毒抗原自我檢測套組,15,2022/05/11 11:39:02,上午八點半開始販售實名制快篩試劑
5911041690,佑聖藥局,基隆市仁愛區仁二路１８８號,121.7451,25.12864,(02)24201762,羅氏家用新冠病毒抗原自我檢測套組,40,2022/05/11 11:39:02,即日起口罩販售店外公告，周日公休
5911041967,東隆藥局,基隆市仁愛區仁二路１０５號２樓,121.7482,25.12742,(02)24260727,羅氏家用新冠病毒抗原自我檢測套組,7,2022/05/11 11:39:02,無
5911051409,順豐藥局,基隆市中山區中華路４號,121.7388,25.14545,(02)24369176,羅氏家用新冠病毒抗原自我檢測套組,78,2022/05/11 11:39:02,家用快篩每日下午2點起隨到隨領售完為止。
5911051543,復興藥局,基隆市中山區復興路１２８、１３０、１３２、１３４號１、２樓,121.7262,25.1446,(02)24362566,羅氏家用新冠病毒抗原自我檢測套組,78,2022/05/11 11:39:02,快篩實名制，每天16:00開始販售，售完為止。
5911071483,蘋果藥局,基隆市信義區東明路９７號,121.7614,25.12757,(02)24685158,羅氏家用新冠病毒抗原自我檢測套組,2,2022/05/11 11:39:02,無
5911071590,基隆藥局,基隆市信義區東信路１６６、１６８號１、２樓,121.7646,25.12821,(02)24680955,羅氏家用新冠病毒抗原自我檢測套組,78,2022/05/11 11:39:02,快篩實名制，每天16:00開始販售，售完為止。
5912012666,國豐大藥局,新竹市東區光復路一段３６２－１８號,121.0168,24.78422,(03)5779960,羅氏家用新冠病毒抗原自我檢測套組,78,2022/05/11 11:39:02,快篩W1-W5 12:00 開始 W6 8:30 開始
5912013654,七二八藥局,新竹市東區明湖路１２４５號１樓,120.979,24.76774,(03)5200530,羅氏家用新冠病毒抗原自我檢測套組,1,2022/05/11 11:39:02,5／10政府快篩，已經售完。5／11政府快篩，12:30開始販售。
5912013672,關東藥局,新竹市東區光復路１段３３２、３３４號１至２樓,121.0187,24.78289,(03)5777077,羅氏家用新冠病毒抗原自我檢測套組,78,2022/05/11 11:39:02,快篩實名制，每天16:00開始販售，售完為止。
5912042940,新竹北門藥局,新竹市北區中正路３６０、３６２號１樓,120.9629,24.81414,(03)5333234,羅氏家用新冠病毒抗原自我檢測套組,1,2022/05/11 11:39:02,快篩實名制，每天16:00開始販售，售完為止。
5917010082,仁壽藥局,臺中市中區東墩里三民路三段１號,120.6817,24.14482,(04)22228058,羅氏家用新冠病毒抗原自我檢測套組,9,2022/05/11 11:39:02,週一至週日上午9時30分起販售快篩劑
5917011945,正三吉藥局,臺中市中區臺灣大道一段９５號,120.6831,24.13911,(04)22207700,羅氏家用新冠病毒抗原自我檢測套組,35,2022/05/11 11:39:02,快篩販售時間 14:00~17:00
5917020060,來安藥局,臺中市東區十甲東路４８８號１樓,120.7073,24.13824,(04)22116977,羅氏家用新冠病毒抗原自我檢測套組,1,2022/05/11 11:39:02,發快篩時間早上8點
5917020122,周藥師藥局,臺中市東區合作里力行路５５號１樓,120.6956,24.15085,(04)23606800,羅氏家用新冠病毒抗原自我檢測套組,1,2022/05/11 11:39:02,營業時間早上8:30-12:30 下午2:30-晚上9:00 ｛8:30賣快篩；週日不賣快篩｝
5917021718,中大藥局,臺中市東區十甲路５０５號,120.7109,24.14466,(04)22131348,羅氏家用新冠病毒抗原自我檢測套組,63,2022/05/11 11:39:02,無
5917030128,太信藥局,臺中市西區三民路一段９５－１號１樓,120.6698,24.13322,(04)23718318,羅氏家用新冠病毒抗原自我檢測套組,19,2022/05/11 11:39:02,健保卡快篩請0900自備500元／份
5917030226,九和大藥局向上店,臺中市西區向上路一段１９２號１樓,120.6605,24.14684,(04)23020148,羅氏家用新冠病毒抗原自我檢測套組,7,2022/05/11 11:39:02,周一~六08:00開始。周日08:00~中午12:00，下午休息。
5917030520,林西藥局,臺中市西區向上路一段４６－１號,120.6661,24.14688,(04)23014023,羅氏家用新冠病毒抗原自我檢測套組,8,2022/05/11 11:39:02,每日早上9點開始依序當場領口罩，售完為止。
5917030600,永昇藥局,臺中市西區東昇里朝陽街４５號,120.6701,24.13522,(04)23717280,羅氏家用新冠病毒抗原自我檢測套組,20,2022/05/11 11:39:02,九時開賣快篩   周日休息
5917030646,華隆藥局,臺中市西區樂群街６之２號,120.6735,24.14025,(04)22243785,羅氏家用新冠病毒抗原自我檢測套組,26,2022/05/11 11:39:02,上午09:00開始販售快篩試劑，售完為止
5917030860,振聲藥局,臺中市西區公正里向上路１段４４７號１樓,120.6541,24.14654,(04)24721100,羅氏家用新冠病毒抗原自我檢測套組,17,2022/05/11 11:39:02,週一至週六早上9:00開始販售口罩，售完為止
5917032471,銘津藥局,臺中市西區民生路３９０號１樓,120.6611,24.14444,(04)23021314,羅氏家用新冠病毒抗原自我檢測套組,32,2022/05/11 11:39:02,每日上午10:00至13:00，下午3:00至21:00 現場排隊，星期日下午休息
5917032908,佑恩藥師藥局,臺中市西區精誠路６７號１樓,120.6553,24.15224,(04)23100058,羅氏家用新冠病毒抗原自我檢測套組,1,2022/05/11 11:39:02,實名制快篩周一到周六，早上9:00，周日下午2:10開始販賣
5917040106,侑民藥局,臺中市南區興大路３９６巷４９號１樓,120.6712,24.11564,(04)22860146,羅氏家用新冠病毒抗原自我檢測套組,6,2022/05/11 11:39:02,週一至週日上午9點販賣防疫快篩試劑
5917041765,荃大藥局,臺中市南區臺中路１５４號,120.6843,24.13114,(04)22858850,羅氏家用新冠病毒抗原自我檢測套組,2,2022/05/11 11:39:02,防疫快篩販售，早上09:10~10:00止...若貨運延誤，依門市公告販售時間
5917050577,東生藥局,臺中市北區永興街１１２－１號１樓,120.6825,24.16152,(04)22358880,羅氏家用新冠病毒抗原自我檢測套組,9,2022/05/11 11:39:02,周一到周六上午8:30到晚上10:00開始販售口罩，周日公休
5917051449,格霖大藥局,臺中市北區山西路二段７０號１樓,120.6758,24.1689,(04)22925076,羅氏家用新冠病毒抗原自我檢測套組,39,2022/05/11 11:39:02,早上10點-晚上9點
5917053514,學士藥局,臺中市北區學士路１３號之１樓,120.6823,24.15372,(04)22015008,羅氏家用新冠病毒抗原自我檢測套組,45,2022/05/11 11:39:02,固定周一到周日，早上09:50開始發放號碼牌及販賣快篩
5917053550,嘉樂藥局,臺中市北區西屯路一段３５１－７號,120.6658,24.15956,(04)23263967,羅氏家用新冠病毒抗原自我檢測套組,38,2022/05/11 11:39:02,星期一~五8.30~12.30，14.00~21.30，星期六8.30-12.30
5917060359,明達藥局,臺中市西屯區何厝里青海路一段１７號,120.6564,24.16345,(04)23137079,羅氏家用新冠病毒抗原自我檢測套組,6,2022/05/11 11:39:02,固定周一至周六9:30開始販售口罩
5917060644,大東藥局,臺中市西屯區西墩里黎明路三段５７號,120.6369,24.1726,(04)27020418,羅氏家用新冠病毒抗原自我檢測套組,12,2022/05/11 11:39:02,5／11上午9:00開賣。
5917061061,佳蒝藥局,臺中市西屯區西屯路３段１５９之１０之５號１樓,120.6194,24.18731,(04)24617763,羅氏家用新冠病毒抗原自我檢測套組,105,2022/05/11 11:39:02,無
5917062353,典安大藥局,臺中市西屯區西屯路３段１５９－６０號,120.6177,24.18807,(04)24616571,羅氏家用新冠病毒抗原自我檢測套組,12,2022/05/11 11:39:02,每天10:00發放快篩
5917063403,逢甲藥局,臺中市西屯區逢甲路１６２－１號１樓,120.6425,24.17809,(04)27085922,羅氏家用新冠病毒抗原自我檢測套組,8,2022/05/11 11:39:02,實名制快篩販售時間:每日早上9:30~12:00
5917063725,永旭大藥局,臺中市西屯區逢甲路９２號１樓,120.6439,24.17883,(04)27087952,羅氏家用新冠病毒抗原自我檢測套組,14,2022/05/11 11:39:02,5／6起實名快篩，星期一到五早上10點開始，星期六日中午12點開始排隊販售。
5917070248,聯發藥局,臺中市南屯區溝墘里大墩路８５０號,120.6496,24.15551,(04)23262738,羅氏家用新冠病毒抗原自我檢測套組,86,2022/05/11 11:39:02,週一至周六早上十點開賣，以現場數量為主，售完為止。販售時間忙碌，恕無法接聽電話，請見諒。
5917070417,康元藥局,臺中市南屯區黎明路２段２８１號１樓,120.6355,24.14863,(04)22548622,羅氏家用新冠病毒抗原自我檢測套組,15,2022/05/11 11:39:02,星期一~星期六早上九點發放號碼牌 下午1點以後領快篩試劑 星期日早上9:50現場排隊不發號碼牌
5917070515,裕登藥局,臺中市南屯區大墩二街９１號１Ｆ,120.6515,24.13873,(04)24715280,羅氏家用新冠病毒抗原自我檢測套組,7,2022/05/11 11:39:02,固定周一到周日早上9:00開始販賣防疫口罩。
5917071996,乾生大藥局,臺中市南屯區大業路９５號,120.6524,24.15336,(04)23281277,羅氏家用新冠病毒抗原自我檢測套組,10,2022/05/11 11:39:02,09:00
5917072242,政豐大愛藥局,臺中市南屯區大業路１４５、１４７號１樓,120.6516,24.15344,(04)23274726,羅氏家用新冠病毒抗原自我檢測套組,29,2022/05/11 11:39:02,因貨運問題，再另行通知
5917072251,五六藥局,臺中市南屯區南屯路２段２４０號,120.6493,24.13696,(04)24757156,羅氏家用新冠病毒抗原自我檢測套組,73,2022/05/11 11:39:02,快篩週一至週六10 :00；週日20 : 00開始販售， 售完為止. （不發號碼牌）
5917072313,大業藥局,臺中市南屯區大業路５７１號１樓,120.6361,24.15347,(04)22516715,羅氏家用新冠病毒抗原自我檢測套組,5,2022/05/11 11:39:02,週一至週六早上10點  快篩試劑開賣
5917072564,恒安藥局,臺中市南屯區南屯路２段１１９號,120.652,24.13585,(04)24722887,羅氏家用新冠病毒抗原自我檢測套組,22,2022/05/11 11:39:02,5／7快篩試劑下午3:00開始販售，5／9（一）起快篩試劑早上8:30開始販售
5917080137,日盛藥局,臺中市北屯區東山路一段１４２-１１號,120.7036,24.16934,(04)24360810,羅氏家用新冠病毒抗原自我檢測套組,11,2022/05/11 11:39:02,每天（不含星期日）早上9點開始發售快篩，售完為止，歡迎洽購。
5917080262,寶麒藥局,臺中市北屯區旅順路２段１５０號,120.6895,24.174,(04)22433918,羅氏家用新冠病毒抗原自我檢測套組,78,2022/05/11 11:39:02,周一~周日每天下午1:00開始販售實名制快篩試劑，售完為止。
5917080744,早安藥局,臺中市北屯區崇德二路一段１９９號１樓,120.693,24.17641,(04)22439411,羅氏家用新冠病毒抗原自我檢測套組,15,2022/05/11 11:39:02,5月起周一至周六09:00開始販售快篩試劑。周日休息
5917080771,大生大藥局,臺中市北屯區三光里北屯路３３７號,120.6974,24.1703,(04)22337059,羅氏家用新冠病毒抗原自我檢測套組,13,2022/05/11 11:39:02,快篩試劑-周一至周日每天早上8:30開始販售，無發放號碼牌，每天即時現場販售服務，售完為止。（週日正常販售服務）
5917080780,吉英藥局,臺中市北屯區平順里昌平路一段４３４號１樓,120.6905,24.1763,(04)22448289,羅氏家用新冠病毒抗原自我檢測套組,27,2022/05/11 11:39:02,快篩實名制販賣
5917081170,順天大藥局,臺中市北屯區中清路二段２３２號１樓,120.6694,24.17767,(04)22918847,羅氏家用新冠病毒抗原自我檢測套組,1,2022/05/11 11:39:02,每日上午九點開始售實名制快篩，（星期日不售）
5917082300,蔡宗耀中西藥局,臺中市北屯區平德里河北路２段６１號,120.6831,24.16994,(04)22341880,羅氏家用新冠病毒抗原自我檢測套組,15,2022/05/11 11:39:02,早上9點30分至下午12點30分，下午3點至8點發口罩，有發號碼牌。
5917082364,慈慧藥師藥局,臺中市北屯區平田里昌平路１段１７８號１Ｆ,120.6887,24.17108,(04)22389846,羅氏家用新冠病毒抗原自我檢測套組,23,2022/05/11 11:39:02,星期一到星期日早上9點開始販售，5／6已販售完
5917082882,世富藥局,臺中市北屯區北屯路２９９－３號１樓,120.6961,24.16825,(04)22317085,羅氏家用新冠病毒抗原自我檢測套組,33,2022/05/11 11:39:02,營業早上08:00-12:00，下午15:00-21:00.星期六晚上休息.星期日休息
5917083049,你好聯合藥局,臺中市北屯區陳平一街８８號,120.6663,24.18637,(04)22925759,羅氏家用新冠病毒抗原自我檢測套組,74,2022/05/11 11:39:02,星期日公休， 星期一到六 中午12點發售，
5917083209,崇德啄木鳥藥局,臺中市北屯區崇德路二段２１７號,120.6852,24.17423,(04)22410441,羅氏家用新冠病毒抗原自我檢測套組,4,2022/05/11 11:39:02,每天早上8點40分發放號碼牌發售口罩，當天領取。
5917083272,吉富康藥局,臺中市北屯區大連路三段９９號１樓,120.6935,24.17494,(04)22473057,羅氏家用新冠病毒抗原自我檢測套組,18,2022/05/11 11:39:02,營業時間早上9點至晚上9點，快篩早上9點開賣，中午12:30至14:00午休及清消，周日公休
5917083343,豋盛藥局,臺中市北屯區北平路三段１０７號,120.6827,24.17117,(04)22373863,羅氏家用新冠病毒抗原自我檢測套組,34,2022/05/11 11:39:02,實名制快篩販賣時間:5／11日上午10點開賣
5921012085,台安藥局,臺南市東區大同路一段１６３號,120.2113,22.98503,(06)2150011,羅氏家用新冠病毒抗原自我檢測套組,70,2022/05/11 11:39:02,快篩下午四點開始銷售
5921021851,海山藥局,臺南市南區新興路４００號,120.1881,22.97514,(06)2617788,羅氏家用新冠病毒抗原自我檢測套組,27,2022/05/11 11:39:02,實名制快篩代售:AM11:00~售完（一人一卡限購一份）**星期日無代售**
5921030289,星宗藥局,臺南市中西區新安里大勇街３７號,120.1942,22.9898,(06)2223453,羅氏家用新冠病毒抗原自我檢測套組,69,2022/05/11 11:39:02,11:00開始 填寫資料。14：00領取快篩劑。（星期日停售）
5921040169,信心藥局,臺南市北區延平里公園路５４６號,120.2101,23.00693,(06)2822209,羅氏家用新冠病毒抗原自我檢測套組,1,2022/05/11 11:39:02,今快篩已售完9:00-20:00 . 週六9:00-12:00.  周日休息
5921040301,永生藥局,臺南市北區六甲里公園路４８１號,120.2079,23.00898,(06)2813681,羅氏家用新冠病毒抗原自我檢測套組,4,2022/05/11 11:39:02,已全數售完／即日至15日暫停販售
5921050076,千代藥局,臺南市中西區民生路一段６０號１樓,120.2034,22.99337,(06)2256895,羅氏家用新冠病毒抗原自我檢測套組,65,2022/05/11 11:39:02,快篩試劑實名制:星期1~6下午一點至三點販售（星期日當日貨到開始販售）
5921051582,丞功藥局,臺南市中西區成功路３１號,120.2095,22.99747,(06)2287641,羅氏家用新冠病毒抗原自我檢測套組,2,2022/05/11 11:39:02,星期一-六08:00-售完
5921060198,平光藥局,臺南市安南區安中路１段８２２號,120.1947,23.0437,(06)2459641,羅氏家用新冠病毒抗原自我檢測套組,1,2022/05/11 11:39:02,快篩 早上 10:30 開店起 販售 周日不賣快篩
5921071226,康活藥局,臺南市安平區健康三街１８６號,120.1686,22.98883,(06)2936483,羅氏家用新冠病毒抗原自我檢測套組,8,2022/05/11 11:39:02,快篩晚上18:00開賣.
5921071244,全家藥局,臺南市安平區華平路１７０號,120.1749,22.98882,(06)2939000,羅氏家用新冠病毒抗原自我檢測套組,71,2022/05/11 11:39:02,下午2:30 開賣快篩  到貨時間不確定  一進一出  請準備剛好金額 謝謝  星期日不營業
5922010281,上安中西藥局,嘉義市東區府路里延平街２３８號之１,120.4502,23.47683,(05)2231005,羅氏家用新冠病毒抗原自我檢測套組,45,2022/05/11 11:39:02,星期一至星期五:上午7點半至8點，下午2點至3點，星期六:上午7點半至9點（售完提前截止）
5922010361,壽生堂藥局,嘉義市東區府路里延平街２８０號,120.4502,23.47683,(05)2225058,羅氏家用新冠病毒抗原自我檢測套組,28,2022/05/11 11:39:02,周一至周日上午09:00起，至20:00或售鑿為止。
5922010718,安泰藥局,嘉義市東區民族路１８１號,120.4566,23.47649,(05)2294202,羅氏家用新冠病毒抗原自我檢測套組,6,2022/05/11 11:39:02,每天早上九點開始販售口罩! 售完為止
5922011966,源豪藥局,嘉義市東區光華路８２號,120.4529,23.4782,(05)2169696,羅氏家用新冠病毒抗原自我檢測套組,27,2022/05/11 11:39:02,周一至周六，售鑿為止。周日休
5922012285,聖安藥局,嘉義市東區仁武里民權路３６５號１樓,120.4506,23.48235,(05)2222941,羅氏家用新冠病毒抗原自我檢測套組,2,2022/05/11 11:39:02,每日8:30開始發放，每週四休息.
5922012712,誠泰藥師藥局,嘉義市東區安寮里興業東路５６號１樓,120.4555,23.46932,(05)2168905,羅氏家用新冠病毒抗原自我檢測套組,14,2022/05/11 11:39:02,快篩實名制早上8點開始販售
5922012721,仁藥集藥局,嘉義市東區太平里新生路５３９號,120.4582,23.49167,(05)2755533,羅氏家用新冠病毒抗原自我檢測套組,11,2022/05/11 11:39:02,8:30-11:00收健保卡，14:00發快篩
5922012856,民族弘安藥局,嘉義市東區朝陽里民族路１６５號,120.4571,23.47653,(05)2240101,羅氏家用新冠病毒抗原自我檢測套組,7,2022/05/11 11:39:02,周一至周日快篩到貨開始販售快篩，至售完為止.
5922013059,杏光藥局,嘉義市東區保健街１４７號附４,120.4492,23.50036,(05)2745642,羅氏家用新冠病毒抗原自我檢測套組,30,2022/05/11 11:39:02,週一至週五 下午1:00~5:00 現場排隊，無號碼牌（ （六日及國定假日停售）
5922013102,後庄藥局,嘉義市東區吳鳳南路６４９號,120.4594,23.45511,(05)2391233,羅氏家用新冠病毒抗原自我檢測套組,78,2022/05/11 11:39:02,快篩實名制，每天16:00開始販售，售完為止。
5922013111,富善藥局,嘉義市東區新生路２３４號,120.4609,23.48419,(05)2759559,羅氏家用新冠病毒抗原自我檢測套組,55,2022/05/11 11:39:02,5／13、14休假，實名制快篩早上9:30-12:00 號碼牌領取
5922013120,大雅藥局,嘉義市東區大雅路二段４８７號,120.4714,23.47751,(05)2778237,羅氏家用新冠病毒抗原自我檢測套組,13,2022/05/11 11:39:02,有提前收到快篩就9:30營業就發 沒提前收到就依當天到貨時間發
5922013157,軍輝健康幸福藥局,嘉義市東區軍輝路１９２號,120.46,23.45571,(05)2395789,羅氏家用新冠病毒抗原自我檢測套組,18,2022/05/11 11:39:02,無
5922013175,森活中西藥局,嘉義市東區吳鳳北路２０８號一樓,120.4533,23.47931,(05)2288518,羅氏家用新冠病毒抗原自我檢測套組,27,2022/05/11 11:39:02,8:30開始發放號碼牌，12:00~14:00領取快篩
5922013193,民權藥局,嘉義市東區民權路１５５號１樓、１５７號１樓,120.4604,23.48374,(05)2775322,羅氏家用新冠病毒抗原自我檢測套組,78,2022/05/11 11:39:02,快篩實名制，每天16:00開始販售，售完為止。
5922020358,泰春藥局,嘉義市西區學圃里民生北路６６號,120.4468,23.47543,(05)2224118,羅氏家用新冠病毒抗原自我檢測套組,25,2022/05/11 11:39:02,快篩試劑販售時間：早上9點至晚上9點
5922020563,信康藥局,嘉義市西區翠岱里仁愛路２２６號,120.443,23.46984,(05)2161680,羅氏家用新冠病毒抗原自我檢測套組,36,2022/05/11 11:39:02,快篩星期一至星期五早上10:00開賣 星期六下午14:00開賣
5922020634,利安藥局,嘉義市西區番社里中山路３４４號１樓,120.4473,23.47984,(05)2225756,羅氏家用新冠病毒抗原自我檢測套組,78,2022/05/11 11:39:02,快篩星期一~六下午13:30販賣，星期日另行公告
5922020812,海鴻藥師藥局,嘉義市西區民生南路５５２號,120.4433,23.45878,(05)2837758,羅氏家用新冠病毒抗原自我檢測套組,26,2022/05/11 11:39:02,固定每日上午8 : 00 直接排隊發放
5922020858,大統藥局,嘉義市西區慶安里北興街１３６號,120.4421,23.48389,(05)2330230,羅氏家用新冠病毒抗原自我檢測套組,41,2022/05/11 11:39:02,5月11日預約登記已滿.有預約的民眾請於上午9:00-11:00領取
5922020867,庭一藥局,嘉義市西區文化路４４２號,120.4468,23.48856,(05)2325900,羅氏家用新冠病毒抗原自我檢測套組,9,2022/05/11 11:39:02,營業時間:周一至周六，0845-2045，開店即開始販售
5922020938,仁愛弘安藥局,嘉義市西區仁愛路３９３號１樓,120.442,23.47654,(05)2239000,羅氏家用新冠病毒抗原自我檢測套組,3,2022/05/11 11:39:02,早上八點開賣，賣完為止
5922020992,昭安藥局,嘉義市西區民生南路４７９號１樓,120.4437,23.45821,(05)2842240,羅氏家用新冠病毒抗原自我檢測套組,35,2022/05/11 11:39:02,無
5922021006,竹圍藥局,嘉義市西區友愛路２７０、２７２號,120.4339,23.4837,(05)2811233,羅氏家用新冠病毒抗原自我檢測套組,78,2022/05/11 11:39:02,快篩實名制，每天16:00開始販售，售完為止。
5922021024,理維藥局,嘉義市西區民生南路４０９號１樓,120.4436,23.45979,(05)2831110,羅氏家用新冠病毒抗原自我檢測套組,42,2022/05/11 11:39:02,週一至週日上午10:00販售。（週一至週六有保留25份於下午5:00販售，週日無）
5922028596,一安藥局,嘉義市西區福民里興業西路３１１號,120.4387,23.4677,(05)2859275,羅氏家用新冠病毒抗原自我檢測套組,22,2022/05/11 11:39:02,周一至周日早上9點至晚上10點半依發放號碼排依序售完
5922028783,勝成藥局,嘉義市西區南京路１２６巷１９號,120.4406,23.45687,(05)2360247,羅氏家用新冠病毒抗原自我檢測套組,37,2022/05/11 11:39:02,4月28日起9:30至12:00販賣快篩試劑，請於現場排隊，售完為止
5922028863,益生堂藥局,嘉義市西區杭州三街３０號,120.4446,23.46678,(05)2861415,羅氏家用新冠病毒抗原自我檢測套組,10,2022/05/11 11:39:02,平日（W一~W六）10:30
592202A054,萬泰藥師藥局,嘉義市西區民族路４９４號,120.449,23.47605,(05)2168605,羅氏家用新冠病毒抗原自我檢測套組,28,2022/05/11 11:39:02,快篩實名制8:00開始販售
592202A358,國豐藥局,嘉義市西區北興街２４５－２號１樓,120.4386,23.4854,(05)2318473,羅氏家用新冠病毒抗原自我檢測套組,2,2022/05/11 11:39:02,週一至週六上午10:00開始販售，無號碼牌（週六下午及例假日停售）
5931010342,宏達大藥局,新北市板橋區莒光路１７號,121.47,25.02478,(02)22572345,羅氏家用新冠病毒抗原自我檢測套組,2,2022/05/11 11:39:02,快篩 晚上20:00開始販售! 不要打電話來 問題這麼多就到現場 也不給你問
5931010646,人民藥局,新北市板橋區仁愛路５９號,121.4604,24.99965,(02)89533956,羅氏家用新冠病毒抗原自我檢測套組,4,2022/05/11 11:39:02,1.依政府規定當日配送，當日販售。2.因每日郵局配送時間不一定，詳看現場公告。.
5931010708,一誠藥局,新北市板橋區府中路６２號,121.4569,25.00965,(02)29673956,羅氏家用新冠病毒抗原自我檢測套組,211,2022/05/11 11:39:02,無
5931010726,賜您康大藥局,新北市板橋區國泰街５０號,121.4679,25.00668,(02)29513166,羅氏家用新冠病毒抗原自我檢測套組,4,2022/05/11 11:39:02,快篩配發時間，每天早上:10:00~11:00
5931011223,民侑藥局,新北市板橋區大觀路２段３７巷３１０號,121.45,25.00221,(02)22755938,羅氏家用新冠病毒抗原自我檢測套組,4,2022/05/11 11:39:02,快篩號碼牌發放時間為早上9點。12點前須拿號碼牌完成購買。
5931011241,利安藥局,新北市板橋區南雅東路１０８號,121.4535,25.00815,(02)29696295,羅氏家用新冠病毒抗原自我檢測套組,1,2022/05/11 11:39:02,無
5931011330,戴安藥局,新北市板橋區溪北路５４號,121.4276,24.98982,(02)26818663,羅氏家用新冠病毒抗原自我檢測套組,1,2022/05/11 11:39:02,無
5931011545,眾安大藥局,新北市板橋區長安街３３１巷７８號,121.4724,25.01305,(02)29550742,羅氏家用新冠病毒抗原自我檢測套組,7,2022/05/11 11:39:02,快篩販賣時間為週一至週六早上九點起.賣完為止
5931012051,全曜藥局,新北市板橋區民權路２６０巷６２號,121.4603,25.01495,(02)29682681,羅氏家用新冠病毒抗原自我檢測套組,1,2022/05/11 11:39:02,實名制快篩下午七點發放，依現場數量為準（星期日休）
5931012131,中山大藥局,新北市板橋區中山路１段１０７號,121.4618,25.01025,(02)29575029,羅氏家用新冠病毒抗原自我檢測套組,3,2022/05/11 11:39:02,口罩配發時間.星期一~六早上9點開始.星期日下午1點開始
5931012239,信昌藥局,新北市板橋區三民路２段２０２－９號,121.4789,25.0142,(02)29510784,羅氏家用新冠病毒抗原自我檢測套組,41,2022/05/11 11:39:02,防疫快篩依據每天到貨時間，另行公告
5931013389,谷全藥局,新北市板橋區裕民街４９號,121.4613,25.02851,(02)22561856,羅氏家用新冠病毒抗原自我檢測套組,3,2022/05/11 11:39:02,無
5931013781,佳和藥局,新北市板橋區文化路１段３８７巷５號１樓,121.4667,25.02193,(02)22589598,羅氏家用新冠病毒抗原自我檢測套組,38,2022/05/11 11:39:02,快篩週一 至五均分早上8:30 和下午3:00販售- 週六早上售完為止. 週日休
5931014046,欣安藥局,新北市板橋區懷德街１０９號１樓,121.4786,25.03147,(02)82570296,羅氏家用新冠病毒抗原自我檢測套組,6,2022/05/11 11:39:02,目前快篩送貨時間不定，發放時間依現場公告為主。
5931014420,萬泰藥局,新北市板橋區信義路２２１之１號,121.4597,24.99145,(02)89645570,羅氏家用新冠病毒抗原自我檢測套組,62,2022/05/11 11:39:02,無
5931014537,友虹藥師藥局,新北市板橋區國光路１６號,121.457,25.01739,(02)29691181,羅氏家用新冠病毒抗原自我檢測套組,26,2022/05/11 11:39:02,早上十點開始販賣到十一點
5931014555,廣益藥局,新北市板橋區自由路２１號,121.4654,25.02296,(02)22545726,羅氏家用新冠病毒抗原自我檢測套組,156,2022/05/11 11:39:02,下午3點50發號碼牌，4點開始賣
5931015687,正康健保藥局,新北市板橋區大觀路２段６５號１樓,121.4467,25.00246,(02)22756681,羅氏家用新冠病毒抗原自我檢測套組,5,2022/05/11 11:39:02,下午13:30依現場順序開始販售快篩，快篩配送絮亂庫存不準!!
5931016504,仁泰藥局,新北市板橋區四川路２段３３號１樓,121.4543,24.99537,(02)89672133,羅氏家用新冠病毒抗原自我檢測套組,22,2022/05/11 11:39:02,無
5931016611,民川藥局,新北市板橋區四川路１段９７號１樓,121.4598,25.00544,(02)29520090,羅氏家用新冠病毒抗原自我檢測套組,29,2022/05/11 11:39:02,星期一~星期六（快篩上午9:00販售38份下午3:00販售40份）
5931016719,王林藥局,新北市板橋區忠孝路２４巷１５號（１樓）,121.4602,25.00135,(02)29636775,羅氏家用新冠病毒抗原自我檢測套組,19,2022/05/11 11:39:02,表列調劑時間才有販售快篩試劑，週六及國定假日只有早上  ， 下午及晚上休息
5931016808,正安健保藥局,新北市板橋區民族路２２４號（１樓）,121.4687,25.00733,(02)29526813,羅氏家用新冠病毒抗原自我檢測套組,74,2022/05/11 11:39:02,17時依現場順序開始販售.週六12點.電腦配送庫存不準..以現場數量為準
5931017216,康鑫藥局,新北市板橋區文化路１段２０６號１樓,121.4664,25.02012,(02)82585135,羅氏家用新冠病毒抗原自我檢測套組,55,2022/05/11 11:39:02,實名制快篩販售：周一至周五 下午五點整 開始販售
5931017261,正康新埔藥局,新北市板橋區介壽街４號（１樓）,121.467,25.02025,(02)82595882,羅氏家用新冠病毒抗原自我檢測套組,76,2022/05/11 11:39:02,下午2:30依現場順序開始販售快篩。週日無快篩!
5931017270,躍獅新埔藥局,新北市板橋區陽明街４７號１樓,121.4637,25.02386,(02)22543932,羅氏家用新冠病毒抗原自我檢測套組,28,2022/05/11 11:39:02,無
5931017494,佑全板橋四川藥局,新北市板橋區四川路１段４７１號１樓,121.4573,24.99744,(02)29559598,羅氏家用新冠病毒抗原自我檢測套組,46,2022/05/11 11:39:02,快篩販售時間：周一到周五1500開始，週六日公休，現場排隊
5931017547,好爸爸藥局,新北市板橋區民治街１０７號１樓,121.4788,25.03138,(02)22559955,羅氏家用新冠病毒抗原自我檢測套組,1,2022/05/11 11:39:02,無
5931017618,新埔健保藥局,新北市板橋區自由路２號１樓,121.4654,25.02222,(02)22558878,羅氏家用新冠病毒抗原自我檢測套組,48,2022/05/11 11:39:02,無
5931017654,葆康藥局,新北市板橋區四川路２段２４５巷３號（１樓）,121.4507,24.99346,(02)89678373,羅氏家用新冠病毒抗原自我檢測套組,3,2022/05/11 11:39:02,下午四點開始販售實名制快篩，不用抽號碼牌，直接排隊購買。
5931017690,杏文藥局,新北市板橋區實踐路１００號（１樓）,121.464,25.00484,(02)29555699,羅氏家用新冠病毒抗原自我檢測套組,5,2022/05/11 11:39:02,無
5931017752,泓泰藥局,新北市板橋區館前西路１４０號２樓,121.4563,25.0081,(02)29686559,羅氏家用新冠病毒抗原自我檢測套組,64,2022/05/11 11:39:02,無
5931017770,光環藥局,新北市板橋區光環路２段１６號１樓,121.4822,25.01476,(02)89520920,羅氏家用新冠病毒抗原自我檢測套組,78,2022/05/11 11:39:02,無
5931017789,明翠藥局,新北市板橋區四維路１４６、１４８號１、２樓,121.4651,25.02555,(02)22550201,羅氏家用新冠病毒抗原自我檢測套組,78,2022/05/11 11:39:02,快篩實名制，每天16:00開始販售，售完為止。
5931017869,躍獅國慶藥局,新北市板橋區國慶路１７９號（１樓）,121.4626,24.99636,(02)29641548,羅氏家用新冠病毒抗原自我檢測套組,78,2022/05/11 11:39:02,快篩實名制，每天14:00開始販售，售完為止
5931017967,曉品中西藥局,新北市板橋區貴興路２４號（１樓）,121.4575,25.00389,(02)29586990,羅氏家用新冠病毒抗原自我檢測套組,4,2022/05/11 11:39:02,無
5931018099,廣品藥局,新北市板橋區漢生西路８２號（１樓）,121.4628,25.01934,(02)22576880,羅氏家用新冠病毒抗原自我檢測套組,1,2022/05/11 11:39:02,實名制快篩 周一~周五下午16；00發放 週六.日 早上09；30發放 請勿打電話詢問 感謝配合
5931020400,新迪化中西藥局,新北市三重區三陽路２７號１樓,121.4855,25.05893,(02)29884755,羅氏家用新冠病毒抗原自我檢測套組,2,2022/05/11 11:39:02,快篩實名制中午12點開始販售，發號碼牌
5931021532,龍門藥局,新北市三重區龍門路１８９號,121.4996,25.07322,(02)29756141,羅氏家用新冠病毒抗原自我檢測套組,78,2022/05/11 11:39:02,實名制快篩販售時間~星期一至星期六下午3點
5931023349,迪化藥局,新北市三重區中華路７７號,121.4836,25.06267,(02)29834445,羅氏家用新冠病毒抗原自我檢測套組,50,2022/05/11 11:39:02,實名制快篩每日早上九點發牌號／週日食藥署暫停供應快篩
5931023447,安泰藥局,新北市三重區正義北路３００－３號２樓,121.4953,25.06978,(02)89815379,羅氏家用新冠病毒抗原自我檢測套組,82,2022/05/11 11:39:02,5／2只有早上8:30--12:00營業下午.及晚上休息
5931024355,天賜藥局,新北市三重區自強路１段８５號１樓,121.4961,25.06658,(02)29856852,羅氏家用新冠病毒抗原自我檢測套組,3,2022/05/11 11:39:02,每周日固定公休
5931024588,陽光藥師藥局,新北市三重區三和路２段１８２號１樓,121.4987,25.06886,(02)29788120,羅氏家用新冠病毒抗原自我檢測套組,100,2022/05/11 11:39:02,無
5931024677,博愛藥局,新北市三重區三民街２２０號１樓,121.4803,25.06712,(02)29711606,羅氏家用新冠病毒抗原自我檢測套組,78,2022/05/11 11:39:02,快篩實名制，如有貨都將於下午2點開始發放，不接受電話只能現場排隊領取，謝謝
5931024962,建祥三和藥局,新北市三重區三和路２段１６０號１樓,121.4992,25.06853,(02)29703379,羅氏家用新冠病毒抗原自我檢測套組,25,2022/05/11 11:39:02,實名制快篩10:00發放號碼牌
5931025192,榮康藥局,新北市三重區成功路８１號１樓,121.4886,25.05131,(02)29772723,羅氏家用新冠病毒抗原自我檢測套組,11,2022/05/11 11:39:02,星期一、四14:00發售。星期二、五20:00發售。星期三、六11:00發售。星期日另行公告
5931025398,昌誠藥局,新北市三重區三和路４段１６１號１樓,121.4835,25.0785,(02)22876338,羅氏家用新冠病毒抗原自我檢測套組,5,2022/05/11 11:39:02,5／2 （休診）
5931025567,閎安藥局,新北市三重區重新路２段８５號１樓、２樓,121.4962,25.06181,(02)29881968,羅氏家用新冠病毒抗原自我檢測套組,1,2022/05/11 11:39:02,快篩代售時間:每日14:00發號碼牌（以在場者為主），15:00發快篩，當日領取至21:00
5931025610,大樹三重藥局,新北市三重區正義北路６６號１樓,121.4972,25.06415,(02)29713188,羅氏家用新冠病毒抗原自我檢測套組,78,2022/05/11 11:39:02,快篩實名制，每天16:00開始販售，售完為止。
5931025781,芯慈藥局,新北市三重區永安北路２段１０５號１樓,121.4831,25.08392,(02)28570670,羅氏家用新冠病毒抗原自我檢測套組,18,2022/05/11 11:39:02,國定假日有提供藥劑服務
5931026055,芮櫟溪尾大藥局,新北市三重區仁愛街５１６號１樓,121.4871,25.08201,(02)22809009,羅氏家用新冠病毒抗原自我檢測套組,12,2022/05/11 11:39:02,周一到周日 10:30發快篩  ! 疫情分流上班下午休息 晚上18:30分營業
5931026082,大有藥局,新北市三重區中正北路２１３號１、２樓及２１５號１、２樓,121.4763,25.07013,(02)29885771,羅氏家用新冠病毒抗原自我檢測套組,78,2022/05/11 11:39:02,快篩實名制，每天16:00開始販售，售完為止。
5931030531,成功藥局,新北市永和區成功路１段１３３號,121.5269,25.00171,(02)29293622,羅氏家用新冠病毒抗原自我檢測套組,17,2022/05/11 11:39:02,無
5931030639,家宏藥局,新北市永和區成功路２段１２３號,121.5268,24.99845,(02)29256856,羅氏家用新冠病毒抗原自我檢測套組,6,2022/05/11 11:39:02,早上11點營業 周日公休
5931032811,華特健康藥局,新北市永和區永貞路３６２號１樓,121.5102,25.00667,(02)29264391,羅氏家用新冠病毒抗原自我檢測套組,5,2022/05/11 11:39:02,快篩販賣時間13:00-15:00
5931033201,級立健保藥局,新北市永和區保平路１３９號１樓,121.5102,25.00608,(02)29299995,羅氏家用新冠病毒抗原自我檢測套組,78,2022/05/11 11:39:02,快篩代售時間為下午15:00，週日不銷售
5931033792,明慧藥師藥局,新北市永和區仁愛路２９５號１樓,121.5053,25.00917,(02)29297118,羅氏家用新冠病毒抗原自我檢測套組,9,2022/05/11 11:39:02,早上11:30營業
5931033925,康和藥局,新北市永和區中和路５８９號１樓,121.5122,25.00407,(02)22310300,羅氏家用新冠病毒抗原自我檢測套組,11,2022/05/11 11:39:02,實名制快篩下午1點開賣（現場排隊售完為止），星期日無販售
5931034119,仁愛陽光藥局,新北市永和區仁愛路１４３號１樓,121.5114,25.01293,(02)89213691,羅氏家用新冠病毒抗原自我檢測套組,3,2022/05/11 11:39:02,快篩代售時段14:00，售完為止...
5931034146,亮點藥局,新北市永和區竹林路７１號１樓,121.5186,25.01355,(02)89253895,羅氏家用新冠病毒抗原自我檢測套組,42,2022/05/11 11:39:02,快篩發放時段 下午16:30-18:00
5931034191,健生活藥局,新北市永和區得和路２３７號１樓,121.5203,25.00021,(02)29223222,羅氏家用新冠病毒抗原自我檢測套組,55,2022/05/11 11:39:02,無
5931040617,田邊藥局,新北市中和區泰和街４３號１樓,121.4991,24.99942,(02)22407725,羅氏家用新冠病毒抗原自我檢測套組,78,2022/05/11 11:39:02,W1~W6 下午1點發售快篩 （5／1 晚上7點開始發售快篩）
5931040680,博健藥局,新北市中和區忠孝街３７巷４號,121.5112,24.98368,(02)29402107,羅氏家用新冠病毒抗原自我檢測套組,3,2022/05/11 11:39:02,無
5931041061,裕壬藥局,新北市中和區新生街２０６、２０８號１樓,121.4836,24.99644,(02)32349358,羅氏家用新冠病毒抗原自我檢測套組,16,2022/05/11 11:39:02,快篩採滾動式調整領
5931042371,真成大藥局,新北市中和區光華街３８號,121.5048,25.00389,(02)22447008,羅氏家用新冠病毒抗原自我檢測套組,78,2022/05/11 11:39:02,實名快篩周一至周六下午1:30發放號碼牌 周日早上9:30點~12點前領完 週日無販售
5931042853,正陽藥師藥局,新北市中和區連城路３５４號１樓,121.4822,24.99557,(02)82287336,羅氏家用新冠病毒抗原自我檢測套組,10,2022/05/11 11:39:02,周一至周六早上9:00開始販售實名制快篩試劑，售完為止
5931043234,康荃優生保健藥局,新北市中和區福祥路６６號１樓,121.4994,25.00494,(02)22486532,羅氏家用新冠病毒抗原自我檢測套組,8,2022/05/11 11:39:02,無
5931043430,慶華藥師藥局,新北市中和區華新街９０號１樓,121.5085,24.9832,(02)29420666,羅氏家用新冠病毒抗原自我檢測套組,25,2022/05/11 11:39:02,無
5931043690,捷勝藥師藥局,新北市中和區華順街１２２號〈１樓〉,121.4651,24.99646,(02)29646225,羅氏家用新冠病毒抗原自我檢測套組,18,2022/05/11 11:39:02,1-6賣快篩.貨到就賣.無法定時（週日無販售）
5931043798,永成藥局,新北市中和區景平路１５６號１樓,121.5176,24.99222,(02)29407619,羅氏家用新冠病毒抗原自我檢測套組,78,2022/05/11 11:39:02,實名制快篩，下午三點領取號碼並開始販售（每日78份）
5931043921,良安藥局,新北市中和區連城路４７７巷１號１樓,121.4833,24.99555,(02)22225798,羅氏家用新冠病毒抗原自我檢測套組,78,2022/05/11 11:39:02,週六日不開店，實名制快篩，晚上9:00開始販售
5931044017,幸福連鎖藥局,新北市中和區忠孝街１２２號１樓,121.5122,24.98581,(02)29410771,羅氏家用新冠病毒抗原自我檢測套組,10,2022/05/11 11:39:02,無
5931044419,喬登藥局,新北市中和區景平路６９７號１樓,121.4965,25.00337,(02)22470273,羅氏家用新冠病毒抗原自我檢測套組,26,2022/05/11 11:39:02,無
5931044642,貞心藥局,新北市中和區永貞路２８０之１號１樓,121.5133,25.00397,(02)29203865,羅氏家用新冠病毒抗原自我檢測套組,51,2022/05/11 11:39:02,領口罩時間為下午一點
5931045210,廣來藥師藥局,新北市中和區員山路３９３號１樓,121.4811,25.00293,(02)32340393,羅氏家用新冠病毒抗原自我檢測套組,2,2022/05/11 11:39:02,代為販售實名制快篩，販售時間：每天上午11點到中午12點為止。
5931045345,芳碩藥局,新北市中和區連城路４７巷２號１樓,121.4982,25.00162,(02)82458816,羅氏家用新冠病毒抗原自我檢測套組,2,2022/05/11 11:39:02,販售時間星期一~星期六下午14:00-21:00 （星期日休息）
5931050131,再生藥局,新北市新店區北新路３段６５巷９號,121.5412,24.981,(02)29113781,羅氏家用新冠病毒抗原自我檢測套組,5,2022/05/11 11:39:02,5／7之後上午9點半販售實名制快篩試劑 請自備500元
5931050444,活元藥局,新北市新店區民族路４９號１樓,121.5403,24.97854,(02)29125526,羅氏家用新冠病毒抗原自我檢測套組,7,2022/05/11 11:39:02,快篩代售時間平日早上10:00開始   星期日休息
5931052288,躍獅正新藥局,新北市新店區中正路５７之１號１樓,121.5443,24.96989,(02)89145930,羅氏家用新冠病毒抗原自我檢測套組,118,2022/05/11 11:39:02,星期一至六9:00為領取快篩號碼牌，20:00以前帶號碼牌來取快篩
5931052699,維顥藥局,新北市新店區中興路１段２７９號１樓,121.5451,24.9683,(02)29171986,羅氏家用新冠病毒抗原自我檢測套組,4,2022/05/11 11:39:02,無
5931053196,康心藥局,新北市新店區北新路３段１０４號１樓,121.5419,24.9812,(02)86655858,羅氏家用新冠病毒抗原自我檢測套組,78,2022/05/11 11:39:02,快篩販售：周一～週六15:00開始，周日無販售。以現場排隊為主，無發號碼牌，庫存有數量就是有貨
5931053285,北新212藥局,新北市新店區北新路３段２１２號（２樓）,121.5413,24.98429,(02)29183212,羅氏家用新冠病毒抗原自我檢測套組,5,2022/05/11 11:39:02,依照行一昌勳診所門診時間營業
5931053347,健詮藥局,新北市新店區建國路１１９號１樓,121.5398,24.97777,(02)29116312,羅氏家用新冠病毒抗原自我檢測套組,78,2022/05/11 11:39:02,11點發號碼牌，12點半-3點過卡買快篩。最新消息會公佈在臉書「健詮藥局」
5931060557,一安藥局,新北市新莊區立德里新泰路２６８號,121.446,25.04029,(02)29941618,羅氏家用新冠病毒抗原自我檢測套組,82,2022/05/11 11:39:02,實名制快篩發放時間為15:00  其他詳情請上FB查詢
5931060628,錄新藥局,新北市新莊區後港一路７６巷１０弄１號,121.427,25.02604,(02)22051849,羅氏家用新冠病毒抗原自我檢測套組,16,2022/05/11 11:39:02,無
5931060824,禮安藥師藥局,新北市新莊區自立街１０９號１樓,121.4555,25.0455,(02)29942891,羅氏家用新冠病毒抗原自我檢測套組,79,2022/05/11 11:39:02,無
5931067092,恩泰藥局,新北市新莊區民安西路２６５號－１,121.4262,25.01296,(02)22038680,羅氏家用新冠病毒抗原自我檢測套組,48,2022/05/11 11:39:02,無
5931067216,鍵豐藥局,新北市新莊區中和街１５８號１樓,121.4474,25.04878,(02)29917452,羅氏家用新冠病毒抗原自我檢測套組,78,2022/05/11 11:39:02,無
5931068464,健安藥局,新北市新莊區光和里民安西路２０９號１樓,121.4261,25.0147,(02)22043765,羅氏家用新冠病毒抗原自我檢測套組,78,2022/05/11 11:39:02,無
5931068599,建昌藥局,新北市新莊區福營里中正路５５７號,121.435,25.03254,(02)29015422,羅氏家用新冠病毒抗原自我檢測套組,76,2022/05/11 11:39:02,快篩代售時間:週一至週日14:30現場排隊購買，售完為止。（物流配送不及則例外，以門市公告為主）
5931068759,森活藥局,新北市新莊區民安路２２０－１號,121.426,25.02259,(02)22027927,羅氏家用新冠病毒抗原自我檢測套組,77,2022/05/11 11:39:02,實名快篩15點開賣
593106A379,輔大美康藥局,新北市新莊區中正路５１０號之１，１樓,121.4341,25.03294,(02)29013056,羅氏家用新冠病毒抗原自我檢測套組,4,2022/05/11 11:39:02,實名制快篩9:20發號碼牌／9:30過卡+收費
593106A388,元大藥局,新北市新莊區富國路２０４號１、２樓,121.4249,25.02427,(02)22020082,羅氏家用新冠病毒抗原自我檢測套組,76,2022/05/11 11:39:02,無
593106A511,明仁健保藥局,新北市新莊區民安西路１９５號１樓,121.4261,25.0151,(02)22085175,羅氏家用新冠病毒抗原自我檢測套組,78,2022/05/11 11:39:02,12:00-13:00 販售快篩
593106A833,欣國藥局,新北市新莊區富國路５７號１樓、２樓,121.4196,25.02625,(02)29080958,羅氏家用新冠病毒抗原自我檢測套組,4,2022/05/11 11:39:02,每天快篩劑發號碼牌AM09:30販賣AM09:30售完為止
593106B036,家嘉藥局,新北市新莊區自立街１０３號（１樓）,121.4553,25.04549,(02)89926488,羅氏家用新冠病毒抗原自我檢測套組,25,2022/05/11 11:39:02,今天號碼牌都已發放完畢
593106B241,善美藥局,新北市新莊區公園路８９號１樓,121.4546,25.04041,(02)29960979,羅氏家用新冠病毒抗原自我檢測套組,9,2022/05/11 11:39:02,無
5931070062,鴻真藥局,新北市樹林區保安街１段２０巷６號,121.4277,24.99363,(02)26828977,羅氏家用新冠病毒抗原自我檢測套組,4,2022/05/11 11:39:02,無
5931070080,耀鴻藥局,新北市樹林區中山路３段７６號,121.3936,24.97239,(02)26808989,羅氏家用新冠病毒抗原自我檢測套組,78,2022/05/11 11:39:02,每天都有發放口罩
5931070213,明川藥師藥局,新北市樹林區三福街１號,121.4093,25.0169,(02)26894728,羅氏家用新冠病毒抗原自我檢測套組,17,2022/05/11 11:39:02,實名制快篩:早上11:00販售
5931071836,弘昌藥師藥局,新北市樹林區保安街１段６５號１樓,121.4232,24.99491,(02)26871276,羅氏家用新冠病毒抗原自我檢測套組,15,2022/05/11 11:39:02,快篩到貨時間不定，到貨即售，售完為止。
5931071916,立欣藥局,新北市樹林區三福街１６６號,121.4047,25.01619,(02)26764728,羅氏家用新冠病毒抗原自我檢測套組,1,2022/05/11 11:39:02,口罩代售時間 每日下午14:30 號碼牌發放時間14:20 現場排隊
5931072262,祐心藥局,新北市樹林區學府路３６２號１樓,121.3797,24.95028,(02)26803205,羅氏家用新冠病毒抗原自我檢測套組,3,2022/05/11 11:39:02,快篩每日8:30開賣，若未到貨則到貨後開始販賣，週日沒開
5931072388,愛立康藥局,新北市樹林區大雅路２８６號１樓,121.3797,24.94749,(02)89706878,羅氏家用新冠病毒抗原自我檢測套組,77,2022/05/11 11:39:02,無
5931072468,樹林丁丁藥局,新北市樹林區中華路１７４號１樓,121.4208,24.9819,(02)86851518,羅氏家用新冠病毒抗原自我檢測套組,5,2022/05/11 11:39:02,無
5931081378,鶯歌宏達藥局,新北市鶯歌區國慶街１３８號１樓,121.3508,24.95347,(02)26709693,羅氏家用新冠病毒抗原自我檢測套組,1,2022/05/11 11:39:02,下午三點開始販售實名制快篩~不要打電話來問~藥師有其他工作要做
5931081494,康群藥局,新北市鶯歌區建國路２０２號１樓,121.3494,24.95357,(02)26796690,羅氏家用新冠病毒抗原自我檢測套組,1,2022/05/11 11:39:02,星期一到星期五上午九點開始發放*現場排隊
5931081510,鶯歌藥局,新北市鶯歌區鶯桃路２段１１號１樓,121.3258,24.97205,(02)86778778,羅氏家用新冠病毒抗原自我檢測套組,78,2022/05/11 11:39:02,快篩實名制，每天16:00開始販售，售完為止。
5931081529,正雅藥局,新北市鶯歌區建國路１７６號１樓,121.3497,24.95358,(02)26701128,羅氏家用新冠病毒抗原自我檢測套組,31,2022/05/11 11:39:02,無
5931091696,祥祐藥局,新北市三峽區文化路１２５號１樓,121.3699,24.93598,(02)26738080,羅氏家用新冠病毒抗原自我檢測套組,4,2022/05/11 11:39:02,實名制快篩下午2點開始販售
5931091892,三峽藥局,新北市三峽區介壽路１段２７號１樓,121.3757,24.93321,(02)26738868,羅氏家用新冠病毒抗原自我檢測套組,1,2022/05/11 11:39:02,快篩實名制，每天16:00開始販售，售完為止。
5931100154,尚運藥局,新北市淡水區學府路５１巷１弄２０號,121.4473,25.16892,(02)26225149,羅氏家用新冠病毒抗原自我檢測套組,77,2022/05/11 11:39:02,無
5931101464,伯聯藥局,新北市淡水區清水街９－１０號１樓,121.4444,25.17023,(02)26255847,羅氏家用新冠病毒抗原自我檢測套組,1,2022/05/11 11:39:02,快篩實名制星期一到六08:00開賣（如有到貨），星期日無販售
5931102103,四季寶健保藥局,新北市淡水區新市一路３段１１７－１號（含夾層）,121.4468,25.18314,(02)26283199,羅氏家用新冠病毒抗原自我檢測套組,79,2022/05/11 11:39:02,無
5931102425,日森人文藥局淡海店,新北市淡水區新市五路３段３８６號１樓,121.4388,25.19728,(02)26221313,羅氏家用新冠病毒抗原自我檢測套組,1,2022/05/11 11:39:02,無
5931102489,水源藥局,新北市淡水區水源街１段１３３號１樓,121.447,25.172,(02)26295233,羅氏家用新冠病毒抗原自我檢測套組,78,2022/05/11 11:39:02,快篩實名制，每天16:00開始販售，售完為止。
5931111755,幸福藥局,新北市汐止區大同路２段３３２號１．２樓,121.6565,25.06694,(02)26490127,羅氏家用新冠病毒抗原自我檢測套組,2,2022/05/11 11:39:02,星期日暫停販售快篩試劑
5931112645,健成藥局,新北市汐止區新興路２０號１樓,121.6564,25.06456,(02)26428989,羅氏家用新冠病毒抗原自我檢測套組,37,2022/05/11 11:39:02,無
5931113071,蒲公英藥局,新北市汐止區連興街１２６號（１樓）,121.6538,25.06188,(02)26907770,羅氏家用新冠病毒抗原自我檢測套組,78,2022/05/11 11:39:02,實名制快篩銷售時間:下午17:00-19:00（無發放號碼牌）
5931120049,本平藥局,新北市瑞芳區瑞芳街４５號,121.8076,25.10913,(02)24972167,羅氏家用新冠病毒抗原自我檢測套組,2,2022/05/11 11:39:02,無
5931121279,大埔藥局,新北市瑞芳區大埔路１２８－３號１樓,121.762,25.10079,(02)24587020,羅氏家用新冠病毒抗原自我檢測套組,78,2022/05/11 11:39:02,無
5931121466,瑞芳藥局,新北市瑞芳區明燈路３段５９之１及５９之２號,121.8057,25.10812,(02)24966588,羅氏家用新冠病毒抗原自我檢測套組,78,2022/05/11 11:39:02,快篩實名制，每天16:00開始販售，售完為止。
5931131908,璨鴻藥局,新北市土城區延和路１９１號,121.4692,24.99035,(02)82622588,羅氏家用新冠病毒抗原自我檢測套組,6,2022/05/11 11:39:02,快篩發放時間星期一至五
5931132343,誠安藥局,新北市土城區中央路４段３６號１樓,121.4207,24.96088,(02)22677737,羅氏家用新冠病毒抗原自我檢測套組,79,2022/05/11 11:39:02,快篩代售時段：平日晚上8點，售完為止
5931132389,凱一藥局,新北市土城區裕民路９２巷２１弄８號１樓,121.4501,24.98629,(02)22707679,羅氏家用新冠病毒抗原自我檢測套組,3,2022/05/11 11:39:02,服務時間10:00~21:00，每週二休息。實名制快篩皆於營業日的10:00開賣。
5931132538,宏奇藥局,新北市土城區延吉街１２６號１樓,121.4695,24.98586,(02)82619585,羅氏家用新冠病毒抗原自我檢測套組,76,2022/05/11 11:39:02,無
5931132594,元蒼藥局,新北市土城區學府路１段６９號１樓,121.4571,24.98825,(02)22733868,羅氏家用新冠病毒抗原自我檢測套組,21,2022/05/11 11:39:02,無
5931132736,大眾藥局,新北市土城區明峰街６巷１號,121.4637,24.98557,(02)22666057,羅氏家用新冠病毒抗原自我檢測套組,17,2022/05/11 11:39:02,快篩販售:11：00-12：30 其餘時段恕不服務
5931132781,德隆藥局,新北市土城區裕民路１５３號１樓,121.4522,24.98595,(02)22656056,羅氏家用新冠病毒抗原自我檢測套組,78,2022/05/11 11:39:02,早上10點發號碼牌（收健保卡+收錢），下午4點到晚上10點憑號碼牌來領快篩
5931132950,美康藥妝藥局,新北市土城區延吉街２５４號１樓,121.4664,24.98465,(02)22616868,羅氏家用新冠病毒抗原自我檢測套組,44,2022/05/11 11:39:02,實名制快篩前一天若有到貨，則隔日三點販售
5931133046,大業藥局,新北市土城區青仁路４１號,121.4599,24.97854,(02)22626791,羅氏家用新冠病毒抗原自我檢測套組,51,2022/05/11 11:39:02,實名制快篩:每日早上11:30開始販售
5931133108,三豐藥局,新北市土城區永豐路１３５巷８號,121.4672,24.98333,(02)22733766,羅氏家用新冠病毒抗原自我檢測套組,78,2022/05/11 11:39:02,無
5931133126,成康藥局,新北市土城區學府路１段１８８號１樓,121.4532,24.98614,(02)22706596,羅氏家用新冠病毒抗原自我檢測套組,12,2022/05/11 11:39:02,春節期間看診時段請電洽
5931133331,城安大藥局,新北市土城區金城路３段４０號,121.4656,24.98639,(02)22646561,羅氏家用新冠病毒抗原自我檢測套組,39,2022/05/11 11:39:02,快篩代售時間晚上8:30
5931133635,順儷學府藥局,新北市土城區學府路１段１４４巷２號１樓,121.4549,24.98728,(02)22701979,羅氏家用新冠病毒抗原自我檢測套組,74,2022/05/11 11:39:02,無
5931140372,上群藥師藥局,新北市蘆洲區民族路２８７號１樓,121.4755,25.09096,(02)22898275,羅氏家用新冠病毒抗原自我檢測套組,14,2022/05/11 11:39:02,口罩販賣時間1100-1300
5931141726,松展多利日式連鎖藥粧藥局,新北市蘆洲區民族路１６１號,121.4793,25.08817,(02)22882586,羅氏家用新冠病毒抗原自我檢測套組,1,2022/05/11 11:39:02,防疫物資每日下午02:00開始販售
5931142670,陽光幸福藥局,新北市蘆洲區重陽街８８號１樓,121.4821,25.08454,(02)28486566,羅氏家用新冠病毒抗原自我檢測套組,1,2022/05/11 11:39:02,快篩實名制 早上9點開始販售 採現場排隊
5931143275,集賢藥局,新北市蘆洲區信義路２２２巷６１號１、２樓,121.4813,25.08535,(02)22882400,羅氏家用新冠病毒抗原自我檢測套組,78,2022/05/11 11:39:02,快篩實名制，每天16:00開始販售，售完為止。
5931143319,大樹長榮藥局,新北市蘆洲區長榮路６１、６１－１號１樓,121.4624,25.0833,(02)28480567,羅氏家用新冠病毒抗原自我檢測套組,78,2022/05/11 11:39:02,快篩實名制，每天16:00開始販售，售完為止。
5931151713,五股藥局,新北市五股區成泰路１段２３５之２號（１樓）,121.4363,25.07968,(02)22951150,羅氏家用新冠病毒抗原自我檢測套組,77,2022/05/11 11:39:02,快篩實名制，每天16:00開始販售，售完為止。
5931161353,台灣藥局,新北市泰山區明志路１段２８２－２８６號,121.4319,25.06002,(02)22971969,羅氏家用新冠病毒抗原自我檢測套組,70,2022/05/11 11:39:02,下午2:20發號碼牌2:30販售實名制快篩試劑
5931161620,華特藥局,新北市泰山區明志路１段２６０號１樓,121.4321,25.06052,(02)29095662,羅氏家用新冠病毒抗原自我檢測套組,120,2022/05/11 11:39:02,5／10（二）-5／13（五） 晚上7:00開始販售，數量當天晚上會公布
5931171582,綠園藥局,新北市林口區仁愛路２段１０５號１樓,121.3843,25.07507,(02)86012258,羅氏家用新冠病毒抗原自我檢測套組,12,2022/05/11 11:39:02,上午8:30-12:00、下午2:30-18:00、晚上18:00-21:30
5931171706,榮新藥局,新北市林口區忠孝路３８３號１樓,121.3695,25.0713,(02)26089789,羅氏家用新冠病毒抗原自我檢測套組,1,2022/05/11 11:39:02,快篩發放時間  14:50發放號碼牌下午15:00開賣（直至賣完）
5931171724,林康藥局,新北市林口區文化二路１段２２２號１樓,121.3695,25.07226,(02)26088869,羅氏家用新冠病毒抗原自我檢測套組,78,2022/05/11 11:39:02,快篩於下午2點販售，周日公休
5931171742,唯恩藥局,新北市林口區麗園一街９巷１號１樓之２,121.3768,25.07139,(02)26005805,羅氏家用新冠病毒抗原自我檢測套組,78,2022/05/11 11:39:02,快篩發放固定13點，領取號碼牌
5931171886,林口辰安藥局,新北市林口區文化三路１段１９１巷５號１樓,121.3619,25.07016,(02)26099151,羅氏家用新冠病毒抗原自我檢測套組,78,2022/05/11 11:39:02,快篩1600開始販售，現場排隊領取
5931181104,介新大藥局,新北市深坑區文化街９４號,121.6172,25.002,(02)26648149,羅氏家用新冠病毒抗原自我檢測套組,1,2022/05/11 11:39:02,執業時段請電洽藥局
5932010202,安琪兒藥局,桃園市桃園區莊敬路二段７６號１樓,121.2934,25.02282,(03)3016965,羅氏家用新冠病毒抗原自我檢測套組,37,2022/05/11 11:39:02,無
5932010631,新華興清溪藥局,桃園市桃園區東門里中山東路１０號１樓,121.3136,24.99548,(03)3330011,羅氏家用新冠病毒抗原自我檢測套組,1,2022/05/11 11:39:02,實名制快篩週一~週日14:30，不發號碼牌請依序排隊購買
5932010908,大愛藥師藥局,桃園市桃園區中正路４３５號,121.307,25.00095,(03)3376771,羅氏家用新冠病毒抗原自我檢測套組,39,2022/05/11 11:39:02,快篩販售時間:星期1~5，下午一點開賣
5932011610,郁祥藥局,桃園市桃園區成功里春日路２１６號,121.3156,24.99722,(03)3335495,羅氏家用新冠病毒抗原自我檢測套組,8,2022/05/11 11:39:02,無
5932011692,正安藥局,桃園市桃園區東山里安東街５８號,121.3158,24.99265,(03)3329461,羅氏家用新冠病毒抗原自我檢測套組,13,2022/05/11 11:39:02,營業時間 09:00~21:30
5932011870,永祥大藥局,桃園市桃園區永安路５２８號,121.2986,25.00181,(03)3337161,羅氏家用新冠病毒抗原自我檢測套組,3,2022/05/11 11:39:02,口罩販賣時段：週一至週六早上9點
5932012813,桃園大興藥局,桃園市桃園區大興西路二段７６巷３號,121.2984,25.01183,(03)3013222,羅氏家用新冠病毒抗原自我檢測套組,18,2022/05/11 11:39:02,快篩實名制，每天16:00開始販售，售完為止。
5932013114,仁悅藥師藥局,桃園市桃園區中山路６０號１樓,121.3116,24.99496,(03)3361718,羅氏家用新冠病毒抗原自我檢測套組,1,2022/05/11 11:39:02,快篩販售時間  早上08:00 ； 星期日停售
5932013123,桃康藥局,桃園市桃園區桃鶯路２０３號,121.3184,24.98495,(03)3641815,羅氏家用新冠病毒抗原自我檢測套組,3,2022/05/11 11:39:02,實名制快篩：早上10點發號碼牌，每日78份
5932013392,桃園中正藥局,桃園市桃園區中正路３７３號,121.3079,24.99955,(03)3381600,羅氏家用新冠病毒抗原自我檢測套組,91,2022/05/11 11:39:02,快篩實名制，每天16:00開始販售，售完為止。
5932013687,桃園春日藥局,桃園市桃園區春日路８７８號,121.3096,25.01561,(03)3580101,羅氏家用新冠病毒抗原自我檢測套組,78,2022/05/11 11:39:02,快篩實名制，每天16:00開始販售，售完為止。
5932013749,桃園寶山藥局,桃園市桃園區寶山街７２號,121.3175,25.01291,(03)3250562,羅氏家用新冠病毒抗原自我檢測套組,78,2022/05/11 11:39:02,快篩實名制，每天16:00開始販售，售完為止。
5932014102,小飛象藥局,桃園市桃園區慈文路１９２號,121.3041,25.00907,(03)3552771,羅氏家用新冠病毒抗原自我檢測套組,31,2022/05/11 11:39:02,5／11[15:10]開賣31份，再打來問就掛電話。不發號碼牌。即起調劑確診者視訊處方，請自保。
5932014175,東門大藥局,桃園市桃園區春日路７５號,121.3169,24.99305,(03)3378919,羅氏家用新冠病毒抗原自我檢測套組,5,2022/05/11 11:39:02,無
5932014291,躍獅民生藥局,桃園市桃園區民生路２２８號１樓,121.313,24.99472,(03)3362359,羅氏家用新冠病毒抗原自我檢測套組,78,2022/05/11 11:39:02,下午1點開始販售，會發號碼牌，購買權保留至下午6點
5932014317,躍獅省桃藥局,桃園市桃園區龍壽街２４號,121.2697,24.97836,(03)3791488,羅氏家用新冠病毒抗原自我檢測套組,1,2022/05/11 11:39:02,週1-7實名制快篩10:00開賣，5／6開始每日10點販售，沒發號碼牌
5932014344,豐藝藥局,桃園市桃園區泰昌三街２３號１樓,121.2943,24.98954,(03)2200977,羅氏家用新冠病毒抗原自我檢測套組,78,2022/05/11 11:39:02,實名制快篩下午3點販售，依序排隊購買，售完為止。
5932014424,桃園中山藥局,桃園市桃園區中山路７０７號,121.2914,24.99079,(03)2207168,羅氏家用新冠病毒抗原自我檢測套組,78,2022/05/11 11:39:02,快篩實名制，每天16:00開始販售，售完為止。
5932014460,桃鶯藥局,桃園市桃園區桃鶯路１０２號,121.318,24.98516,(03)3675100,羅氏家用新冠病毒抗原自我檢測套組,78,2022/05/11 11:39:02,快篩實名制，每天16:00開始販售，售完為止。
5932014488,琦舜藥師藥局,桃園市桃園區文中三路６３號,121.2885,24.99724,(03)3695001,羅氏家用新冠病毒抗原自我檢測套組,78,2022/05/11 11:39:02,營業時間: 9:00-21:30　　　　　　　　快篩販售時間於到貨後公布於FB【琦舜藥師藥局-桃園中路】粉絲專頁
5932017096,榮生藥師藥局,桃園市桃園區民生路２７５號一樓,121.3118,24.99697,(03)3396120,羅氏家用新冠病毒抗原自我檢測套組,15,2022/05/11 11:39:02,快篩販賣時段：星期一到星期六上午10:00-12:00 依配送時間滾動調整
5932018593,品一藥局,桃園市桃園區建新街７６號,121.3118,24.98261,(03)3638510,羅氏家用新冠病毒抗原自我檢測套組,8,2022/05/11 11:39:02,快篩販賣時間：週一至週五早上9：30；週六下午1：00（星期天休息），會發號碼牌（今天已發完）
5932019116,慈安藥局,桃園市桃園區永安路３８３號,121.299,25.00086,(03)3369599,羅氏家用新冠病毒抗原自我檢測套組,1,2022/05/11 11:39:02,快篩販賣時段：8:30~10:30，過時後，另78份係隔日販賣的量.
5932019330,同生藥師藥局,桃園市桃園區永安路３１８號,121.3029,24.99888,(03)3349791,羅氏家用新冠病毒抗原自我檢測套組,8,2022/05/11 11:39:02,快篩試劑代售時間自星期一至星期六早上8:00開始售完為止
5932019581,莘莘藥局,桃園市桃園區莊敬路一段３６８號,121.2957,25.02375,(03)3170681,羅氏家用新冠病毒抗原自我檢測套組,78,2022/05/11 11:39:02,實名制快篩週一至週六 下午2點開始 售完為止
593201A631,大國民藥局,桃園市桃園區中正路５７８號１樓,121.3053,25.00403,(03)3355575,羅氏家用新冠病毒抗原自我檢測套組,1,2022/05/11 11:39:02,下午1點開始販售（現場排隊售完為止 不發號碼牌）
5932021036,廣怡藥局,桃園市中壢區華勛街２５６號,121.2603,24.94865,(03)4366885,羅氏家用新冠病毒抗原自我檢測套組,1,2022/05/11 11:39:02,口罩販賣時段：開賣時間周一~周六13:30~17:30 、  周日8:30~11:30
5932021670,日光健康藥局,桃園市中壢區華祥一街２號１樓,121.2606,24.94827,(03)4383559,羅氏家用新冠病毒抗原自我檢測套組,78,2022/05/11 11:39:02,快篩販賣時段：星期一~星期六下午13:30開始，售完為止
5932022524,家佳聯合藥局,桃園市中壢區中光路１４號,121.2256,24.95717,(03)4273960,羅氏家用新冠病毒抗原自我檢測套組,77,2022/05/11 11:39:02,實名制快篩:12：00販賣，售完為止
5932022631,中壢中正藥局,桃園市中壢區中正路３６３、３６５號,121.2163,24.95532,(03)4014100,羅氏家用新冠病毒抗原自我檢測套組,78,2022/05/11 11:39:02,快篩實名制，每天16:00開始販售，售完為止。
5932022980,美佑康活力藥局,桃園市中壢區五福里中正路６２７號,121.2108,24.95947,(03)2810018,羅氏家用新冠病毒抗原自我檢測套組,78,2022/05/11 11:39:02,快篩販賣時段：周一到周日每天14:00
5932023012,鴻安中西藥局,桃園市中壢區新中北路二段１９１號１樓,121.2625,24.95597,(03)4520615,羅氏家用新冠病毒抗原自我檢測套組,30,2022/05/11 11:39:02,快篩1030-1130。週一到周日都有。
5932023647,樂謙藥師藥局,桃園市中壢區龍東路１３４號,121.2522,24.92929,(03)4662775,羅氏家用新冠病毒抗原自我檢測套組,43,2022/05/11 11:39:02,實名快篩每日下午2點、晚上6點 各發39份
5932023889,華勛藥局,桃園市中壢區華勛街１１２、１１４號,121.2597,24.95065,(03)4161881,羅氏家用新冠病毒抗原自我檢測套組,2,2022/05/11 11:39:02,快篩實名制，每天16:00開始販售，售完為止。
5932024108,佳愷藥局,桃園市中壢區中北路４７號,121.2368,24.95614,(03)4664735,羅氏家用新冠病毒抗原自我檢測套組,108,2022/05/11 11:39:02,視配貨狀況禮拜三、禮拜五、禮拜六早上9點至11點販售。若未到貨則無法開賣，有任何疑問請致電聯繫許藥師0933-595-819
5932024162,大賀藥局,桃園市中壢區龍東路３９９號１樓,121.2558,24.93335,(03)4375977,羅氏家用新冠病毒抗原自我檢測套組,44,2022/05/11 11:39:02,快篩領取號碼牌時間:周一 ~ 周日 上午11:30 相關資訊請臉書搜尋  中壢大賀藥局
5932024251,佑全中壢中山藥局,桃園市中壢區中山東路２段２７號１樓,121.2374,24.95443,(03)4385373,羅氏家用新冠病毒抗原自我檢測套組,1,2022/05/11 11:39:02,家用快篩販售時間：下午1400-售完為止
5932024297,新資生弘揚大藥局,桃園市中壢區弘揚路６４號１樓,121.2411,24.95337,(03)3606180,羅氏家用新冠病毒抗原自我檢測套組,78,2022/05/11 11:39:02,無
5932024304,鈞康藥局,桃園市中壢區興仁路２段９１號１樓,121.263,24.96665,(03)2850505,羅氏家用新冠病毒抗原自我檢測套組,8,2022/05/11 11:39:02,營業時間：上午11點-售完。星期六日不販售
5932029676,中日大藥局,桃園市中壢區中北路二段７８號,121.225,24.95063,(03)4285068,羅氏家用新冠病毒抗原自我檢測套組,83,2022/05/11 11:39:02,快篩11點前到貨，11點開始販售；11點後到貨，到貨開始販售
593202A244,澤仁藥局,桃園市中壢區中正路２６３號,121.2193,24.95495,(03)4252254,羅氏家用新冠病毒抗原自我檢測套組,67,2022/05/11 11:39:02,販賣時段：下午 2:30 - 售完為止
593202A833,君安藥局,桃園市中壢區中北路二段３９０號,121.2318,24.95388,(03)4685484,羅氏家用新冠病毒抗原自我檢測套組,77,2022/05/11 11:39:02,快篩實名制，週一至週五晚上7點，週六週日早上9點，視現場狀況，45分鐘前發號碼牌，發完隨即販售，過號視同放棄
593202A931,佳佑藥局,桃園市中壢區環中東路二四一號,121.2573,24.96345,(03)4356190,羅氏家用新冠病毒抗原自我檢測套組,12,2022/05/11 11:39:02,口罩販賣時段：09:00以後發號碼牌，售完為止
593202B296,慧康藥局,桃園市中壢區中北路二段１０１號１樓,121.2255,24.95122,(03)2840064,羅氏家用新冠病毒抗原自我檢測套組,81,2022/05/11 11:39:02,快篩販售時間：13:30
593202B447,榮善堂藥局,桃園市中壢區前龍街九號,121.2535,24.9298,(03)4564946,羅氏家用新冠病毒抗原自我檢測套組,55,2022/05/11 11:39:02,全台第一自助快篩領取系統，快篩販賣星期一至四：晚上七點。星期五至六：下午二點。星期天：早上八點
5932031890,福生藥局,桃園市大溪區民權東路１０３號１樓,121.2919,24.88209,(03)3873533,羅氏家用新冠病毒抗原自我檢測套組,68,2022/05/11 11:39:02,早上八點開始發放快篩試劑
5932031907,福澤大溪藥局,桃園市大溪區復興路１０５號１樓,121.2911,24.87917,(03)3884886,羅氏家用新冠病毒抗原自我檢測套組,1,2022/05/11 11:39:02,家用快篩販賣時段15:30至售完為止
5932040246,龍泰藥局,桃園市楊梅區民族路五段１４７巷２號,121.1736,24.9586,(03)4901525,羅氏家用新冠病毒抗原自我檢測套組,10,2022/05/11 11:39:02,快篩販售時間:早上7:30領號碼牌下午2點至4點領快篩（當日有效） 六日中午10點至12點領快篩
5932042320,家康藥師藥局,桃園市楊梅區文化街二三二之一號,121.1851,24.91622,(03)4810893,羅氏家用新冠病毒抗原自我檢測套組,2,2022/05/11 11:39:02,快篩販售時間：12:00-13:00
5932043381,楊梅丁丁藥局,桃園市楊梅區中山北路２段２２７號,121.1729,24.90958,(03)4815486,羅氏家用新冠病毒抗原自我檢測套組,78,2022/05/11 11:39:02,依照配送時間預計下午.發放號碼牌時間.請加LINE社群關注
5932050215,九德藥局,桃園市蘆竹區中山路６９號,121.3003,25.05242,(03)3116868,羅氏家用新冠病毒抗原自我檢測套組,94,2022/05/11 11:39:02,口罩販賣時段：中午12點
5932051472,康而美聖安藥師藥局,桃園市蘆竹區南山路一段二之一號,121.2916,25.04879,(03)3228753,羅氏家用新冠病毒抗原自我檢測套組,8,2022/05/11 11:39:02,暫停止販售
5932052737,知博藥師藥局,桃園市蘆竹區營盤里中山路１６０號,121.2977,25.05702,(03)2221886,羅氏家用新冠病毒抗原自我檢測套組,1,2022/05/11 11:39:02,快篩販賣時段：暫定週一至週五16:00-17:00 週六.日不發放.以現場公告時間為主
5932052835,悅兒藥局,桃園市蘆竹區忠孝西路１８６號,121.2892,25.04011,(03)3126967,羅氏家用新冠病毒抗原自我檢測套組,69,2022/05/11 11:39:02,快篩販賣時段：週一到週日 14:30 開賣
5932052979,南崁藥局,桃園市蘆竹區中正路２５１、２５３、２５５號,121.2921,25.04695,(03)3522022,羅氏家用新冠病毒抗原自我檢測套組,157,2022/05/11 11:39:02,快篩實名制，每天16:00開始販售，售完為止。
5932053001,安祐大藥局,桃園市蘆竹區忠孝西路１９２號,121.2891,25.03989,(03)2229195,羅氏家用新冠病毒抗原自我檢測套組,78,2022/05/11 11:39:02,口罩販賣時段：一~六 14:00
5932053065,民生藥局,桃園市蘆竹區南昌路４５號,121.2876,25.04245,(03)3216784,羅氏家用新冠病毒抗原自我檢測套組,77,2022/05/11 11:39:02,快篩開賣時間:星期一到五16點. 星期六10:30. 星期日休息.
5932071009,德佑藥局,桃園市龜山區大崗里新興街２９３號,121.3558,25.04531,(03)3283556,羅氏家用新冠病毒抗原自我檢測套組,4,2022/05/11 11:39:02,快篩試劑販賣時段為每日晚上07:30開始（星期日暫停販售）
5932076791,誠安生活藥局,桃園市龜山區文化七路７９之２號,121.3635,25.05166,(03)3271997,羅氏家用新冠病毒抗原自我檢測套組,200,2022/05/11 11:39:02,即日起停止販售快篩
5932076844,帕米爾藥局,桃園市龜山區萬壽路二段９９１號,121.3369,24.99464,(03)3295522,羅氏家用新冠病毒抗原自我檢測套組,8,2022/05/11 11:39:02,星期一~六家用快篩試劑販賣時段：19:00~20:30。不發號碼牌，請直接排隊購買。
5932077118,文青藥局,桃園市龜山區文青路２０２號,121.3878,25.04034,(03)3270581,羅氏家用新冠病毒抗原自我檢測套組,1,2022/05/11 11:39:02,快篩販賣時段：上午10點到12點。（星期一下午2點開始），快篩無每日配送
5932077270,明昌藥局,桃園市龜山區中興里萬壽路二段１１９１－６號,121.3318,24.99291,(03)3501205,羅氏家用新冠病毒抗原自我檢測套組,1,2022/05/11 11:39:02,無
5932077510,左外野藥局,桃園市龜山區文光街６號１樓,121.3802,25.05471,(03)3271503,羅氏家用新冠病毒抗原自我檢測套組,65,2022/05/11 11:39:02,快篩販售:晚上19:30至20:30（週五公休）*不發號碼牌 請直接排隊購買
5932083974,晨鴻藥師藥局,桃園市八德區桃鶯路７號１樓,121.3265,24.97179,(03)3764299,羅氏家用新冠病毒抗原自我檢測套組,58,2022/05/11 11:39:02,快篩為早上8:30跟晚上6:00領取號碼牌，星期六早上一次發78份，快篩地圖數量參考就好，請勿再打電話詢問 謝謝
5932084248,佑兒康藥局,桃園市八德區永豐路５７０號,121.2718,24.97541,(03)3709680,羅氏家用新冠病毒抗原自我檢測套組,2,2022/05/11 11:39:02,快篩販售時間:  每週一.二.四.五.六 下午2:30 開始 ； 每週三.日 晚上8:50開始
5932084677,杏一八德介壽藥局,桃園市八德區介壽路一段７７１號１樓,121.3003,24.96305,(03)3665542,羅氏家用新冠病毒抗原自我檢測套組,78,2022/05/11 11:39:02,假日及國定假日不賣快篩.平日早上10點 開始賣
5932084828,阿爾富山藥局,桃園市八德區桃鶯路４號１樓,121.3261,24.97167,(03)3763350,羅氏家用新冠病毒抗原自我檢測套組,75,2022/05/11 11:39:02,本藥局實名制快篩於每日晚間7點以實際到貨數量發放，唯保留可視現場排隊人數額滿情況.酌情提前發號碼牌並受理購買!
5932084855,中山啄木鳥藥局,桃園市八德區中山路２１１號、２１３號、２１５號、２１７號１樓,121.2849,24.92539,(03)3656375,羅氏家用新冠病毒抗原自我檢測套組,78,2022/05/11 11:39:02,無
5932084864,阿寶藥局,桃園市八德區東勇一路６號,121.3064,24.96452,(03)3750060,羅氏家用新冠病毒抗原自我檢測套組,78,2022/05/11 11:39:02,實名制快篩詳細公告請參閱阿寶藥局官方臉書
5932084873,宏昌藥局,桃園市八德區介壽路１段８９０號,121.2994,24.95998,(03)3639797,羅氏家用新冠病毒抗原自我檢測套組,78,2022/05/11 11:39:02,每日13:30開賣 星期日休息
5932100185,德聯藥師藥局,桃園市平鎮區龍南路３１號,121.2452,24.92473,(03)4603613,羅氏家用新冠病毒抗原自我檢測套組,72,2022/05/11 11:39:02,快篩    5月11日   下午2點開始賣
5932100354,世新藥局,桃園市平鎮區廣泰路７５之２號,121.2052,24.94629,(03)4941234,羅氏家用新冠病毒抗原自我檢測套組,78,2022/05/11 11:39:02,實名制快篩周一至周五13:30販售
5932100809,福澤民族藥局,桃園市平鎮區民族路二段１３９號１樓,121.2048,24.95706,(03)4014747,羅氏家用新冠病毒抗原自我檢測套組,78,2022/05/11 11:39:02,家用快篩販賣時段15:30至售完為止
5932101084,佳仁藥局,桃園市平鎮區平東路２４３號,121.2486,24.91553,(03)4609335,羅氏家用新冠病毒抗原自我檢測套組,78,2022/05/11 11:39:02,快篩販售時間週一至日中午12:00開始，11:30發放號碼牌（僅供統計非保留）一人僅限一張健保卡，請自備500元，不找零。
5932101253,新大賀藥局,桃園市平鎮區新榮路２５９號１樓,121.2135,24.94617,(03)4927100,羅氏家用新冠病毒抗原自我檢測套組,79,2022/05/11 11:39:02,下午兩點開始發號碼牌販售快篩
5932108430,建德藥局,桃園市平鎮區北勢里金陵路１０３號,121.2229,24.94747,(03)4686662,羅氏家用新冠病毒抗原自我檢測套組,7,2022/05/11 11:39:02,國定假日皆休診.口罩販售時段:上午9:30起至售完為止
5932108574,天健示範藥局,桃園市平鎮區文化街２５２號,121.2032,24.95127,(03)4937169,羅氏家用新冠病毒抗原自我檢測套組,7,2022/05/11 11:39:02,快篩實名制每天8點販售，七點發號碼牌
593210A238,美樂蒂藥局,桃園市平鎮區民族路二三七號二樓,121.2091,24.95658,(03)4023131,羅氏家用新冠病毒抗原自我檢測套組,8,2022/05/11 11:39:02,以調劑為主  開賣時間不固定 勿提早排隊  等越久染疫風險越大
5932120098,金永生藥局,桃園市觀音區觀音里甘泉街７號,121.0814,25.03696,(03)4732072,羅氏家用新冠病毒抗原自我檢測套組,77,2022/05/11 11:39:02,全年無休，口罩販賣時段：週一至週日14:00起17:00
5933010064,明德藥局,新竹縣關西鎮中山路１８號,121.1778,24.79152,(03)5874335,羅氏家用新冠病毒抗原自我檢測套組,6,2022/05/11 11:39:02,無
5933010144,佳仁藥局,新竹縣關西鎮中興路１２號,121.1771,24.79227,(035)872298,羅氏家用新冠病毒抗原自我檢測套組,66,2022/05/11 11:39:02,全年無休（星期日不定期）
5933011196,高平堂藥局,新竹縣關西鎮正義路66號,121.1762,24.79269,(03)5872263,羅氏家用新冠病毒抗原自我檢測套組,76,2022/05/11 11:39:02,相關公告 請搜尋FB【高平堂藥局】
5933031769,竹東朝陽藥局,新竹縣竹東鎮朝陽路１號１、２樓,121.0852,24.74199,(03)5111166,羅氏家用新冠病毒抗原自我檢測套組,78,2022/05/11 11:39:02,快篩實名制，每天16:00開始販售，售完為止。
5933031885,東林藥局,新竹縣竹東鎮東林路８０號,121.0913,24.73683,(03)5961321,羅氏家用新冠病毒抗原自我檢測套組,78,2022/05/11 11:39:02,快篩實名制，每天16:00開始販售，售完為止。
5933053158,竹北啄木鳥藥局,新竹縣竹北市博愛街１８３號,121.0054,24.83222,(03)5539420,羅氏家用新冠病毒抗原自我檢測套組,78,2022/05/11 11:39:02,12:30開始販售實名制快篩
5933053381,佑全竹北中正藥局,新竹縣竹北市中正西路１７６、１７８號１樓,120.9991,24.84149,(03)5556235,羅氏家用新冠病毒抗原自我檢測套組,77,2022/05/11 11:39:02,每日下午13:50發號碼牌 14:00開始販售 不能離開現場
5933053489,十興藥局,新竹縣竹北市莊敬五街７５號,121.0268,24.82346,(03)6684889,羅氏家用新冠病毒抗原自我檢測套組,78,2022/05/11 11:39:02,快篩實名制，每天16:00開始販售，售完為止。
5933053596,中華藥局,新竹縣竹北市中華路２２６號１、２樓,121.0028,24.83118,(03)5513031,羅氏家用新冠病毒抗原自我檢測套組,78,2022/05/11 11:39:02,快篩實名制，每天16:00開始販售，售完為止。
5933081536,昌昌藥局,新竹縣新豐鄉新市路１９３號,120.9846,24.90465,(03)5598077,羅氏家用新冠病毒抗原自我檢測套組,19,2022/05/11 11:39:02,5／11（二）號碼牌發完→10:00~12:00賣。
5933081607,新豐藥局,新竹縣新豐鄉中興路２０８、２１０號,120.9949,24.87571,(03)5575005,羅氏家用新冠病毒抗原自我檢測套組,78,2022/05/11 11:39:02,快篩實名制，每天16:00開始販售，售完為止。
5934011958,栢心藥局,宜蘭縣宜蘭市宜興路１段１１１號,121.7561,24.7514,(03)9357277,羅氏家用新冠病毒抗原自我檢測套組,78,2022/05/11 11:39:02,週一~週六14:00發號碼牌，下午14:30開始販售.（週四下午17:30發號碼牌，18:00開賣）
5934012473,宜蘭藥局,宜蘭縣宜蘭市泰山路３６號,121.7485,24.75524,(03)9365168,羅氏家用新冠病毒抗原自我檢測套組,78,2022/05/11 11:39:02,快篩實名制，每天16:00開始販售，售完為止。
5934081129,義成藥局,宜蘭縣冬山鄉義成路二段３７３號１樓,121.7639,24.65465,(03)9588775,羅氏家用新冠病毒抗原自我檢測套組,33,2022/05/11 11:39:02,快篩實名制販售時間：星期一二四五下午2：30開賣，星期三六早上11：00開賣，現場排隊，售完為止。
5934091125,安心藥局,宜蘭縣五結鄉禮運路３８－１號,121.7768,24.68105,(03)9551670,羅氏家用新冠病毒抗原自我檢測套組,19,2022/05/11 11:39:02,實名制快篩販售時間：星期（一、三、四、六、日）早上11點開賣；星期（二、五）晚上7點開賣，售完為止
5934100030,三星健保藥局,宜蘭縣三星鄉三星路５段５１號,121.6515,24.66588,(03)9895816,羅氏家用新冠病毒抗原自我檢測套組,8,2022/05/11 11:39:02,快篩試劑禮拜一到六早上10點開始購買，現場排隊，售完為止
5935011738,佳禾藥局,苗栗縣苗栗市青苗里建台街7號,120.821,24.55742,(037)373041,羅氏家用新冠病毒抗原自我檢測套組,7,2022/05/11 11:39:02,快篩試劑7：30發號碼牌8：00開始販賣，販賣時段：營業時間至售完為止
5935012413,苗栗藥局,苗栗縣苗栗市光復路５５號,120.8165,24.5532,(037)360789,羅氏家用新冠病毒抗原自我檢測套組,78,2022/05/11 11:39:02,快篩實名制，每天16:00開始販售，售完為止。
5935030171,立安藥局,苗栗縣通霄鎮信義路１０７號,120.6804,24.48877,(037)760100,羅氏家用新冠病毒抗原自我檢測套組,77,2022/05/11 11:39:02,快篩實名制 週一到週六下午15:00開始販售  售完為止
5935050182,民昌藥局,苗栗縣頭份市忠孝里信東路１３０號,120.9095,24.68911,(037)673 232,羅氏家用新冠病毒抗原自我檢測套組,2,2022/05/11 11:39:02,無
5935051849,懷生中西藥局,苗栗縣頭份市中正路１９號,120.9068,24.68432,(037)672357,羅氏家用新冠病毒抗原自我檢測套組,6,2022/05/11 11:39:02,口罩販賣時段：07:00售完為止
5935051947,森品藥局,苗栗縣頭份市建國路２段１５０、１５２、１５６號,120.9032,24.69653,(037)672378,羅氏家用新冠病毒抗原自我檢測套組,9,2022/05/11 11:39:02,營業時間：9:00-22:30
5935060053,鴻輝大藥局,苗栗縣後龍鎮北龍里中華路６４－１號,120.7879,24.61557,(037)721952,羅氏家用新冠病毒抗原自我檢測套組,38,2022/05/11 11:39:02,AM07:50~PM10:00
5935090015,永信藥局,苗栗縣公館鄉館中村榮光街１６號,120.8271,24.50226,(037)223597,羅氏家用新冠病毒抗原自我檢測套組,78,2022/05/11 11:39:02,每日下午3點開始販售快篩
5936010628,協安大藥局,臺中市豐原區府前街６３號,120.7184,24.24957,(04)25200808,羅氏家用新冠病毒抗原自我檢測套組,82,2022/05/11 11:39:02,實名制快篩販售時間為每日下午兩點。
5936020017,郭藥局,臺中市東勢區南平里豐勢路３９４號,120.8294,24.25489,(04)25883382,羅氏家用新冠病毒抗原自我檢測套組,6,2022/05/11 11:39:02,週一至週日均於上午8:00發放號碼牌及收健保卡，上午9:30開始販賣
5936020080,仁生藥局,臺中市東勢區東安里豐勢路４２１號,120.8286,24.25644,(04)25872245,羅氏家用新冠病毒抗原自我檢測套組,17,2022/05/11 11:39:02,以實際到貨為準*開始販售*售完為止！ （13:00-15:00 休息）週日有庫存會持續販售，均以現場為準！
5936020115,東生藥局,臺中市東勢區中寧里豐勢路４９１號,120.8279,24.258,(04)25873647,羅氏家用新冠病毒抗原自我檢測套組,10,2022/05/11 11:39:02,周一至周日上午9:00至12:00販售口罩
5936030095,青三藥局,臺中市大甲區青三路１２巷３８號,120.6473,24.40635,(04)26817301,羅氏家用新冠病毒抗原自我檢測套組,78,2022/05/11 11:39:02,快篩約12:30販售
5936111120,新安藥局,臺中市新社區興安路４９之１號,120.8096,24.24215,(04)25820690,羅氏家用新冠病毒抗原自我檢測套組,4,2022/05/11 11:39:02,快篩劑10:00販售.週日不販售
5936150332,真安大藥局,臺中市烏日區興祥街３號,120.6389,24.10483,(04)23360401,羅氏家用新冠病毒抗原自我檢測套組,156,2022/05/11 11:39:02,快篩周一到周六 下午1:30販售
5936171359,健安藥局,臺中市龍井區國際街１５３號,120.5955,24.18746,(04)26527296,羅氏家用新冠病毒抗原自我檢測套組,76,2022/05/11 11:39:02,口罩販賣時段：週一至週六全天，週日晚上6：00
5936171420,我家健康藥局,臺中市龍井區新興路４０之１１號１樓,120.5877,24.18127,(04)26317660,羅氏家用新冠病毒抗原自我檢測套組,26,2022/05/11 11:39:02,防疫口罩販售時段：09：30-11：50，售完為止
5936180152,祥暘藥局,臺中市霧峰區中正路１１６２號,120.6996,24.07068,(04)23391346,羅氏家用新冠病毒抗原自我檢測套組,78,2022/05/11 11:39:02,快篩實名制，每天16:00開始販售，售完為止。
5936190327,富眾藥局,臺中市太平區永豐路３５號,120.7131,24.12447,(04)22706009,羅氏家用新冠病毒抗原自我檢測套組,63,2022/05/11 11:39:02,111年平安吉祥年:星期一至星期六.下午1點.星期日:休息.
5936190676,中美藥師藥局,臺中市太平區中山路３段８５號,120.7173,24.14861,(04)22778238,羅氏家用新冠病毒抗原自我檢測套組,78,2022/05/11 11:39:02,無
5936209287,德芳大藥局,臺中市大里區益民路二段３０４號１、２樓,120.684,24.11183,(04)24815932,羅氏家用新冠病毒抗原自我檢測套組,3,2022/05/11 11:39:02,快篩販售時間:下午3點~6點
593620B138,聯生中西健保藥局,臺中市大里區現岱路１５８巷１１號,120.6919,24.10295,(04)24834058,羅氏家用新冠病毒抗原自我檢測套組,81,2022/05/11 11:39:02,早上八點半領號碼牌下午四點到六點領口罩W6W日早七點
5937010613,榮源藥局,彰化縣彰化市忠權里辭修路１２８巷９號,120.5374,24.08608,(04)7229432,羅氏家用新冠病毒抗原自我檢測套組,4,2022/05/11 11:39:02,快篩實名制每日早上8:00開賣
5937012117,媽咪藥局,彰化縣彰化市彰南路２段１１５號,120.5793,24.08538,(04)7321517,羅氏家用新冠病毒抗原自我檢測套組,65,2022/05/11 11:39:02,實名制快篩:周一至周六下午3:00，週日早上9:00開始販售，售完為止
5937012242,平成藥局,彰化縣彰化市福安里曉陽路３１號,120.5416,24.072,(04)7258070,羅氏家用新冠病毒抗原自我檢測套組,1,2022/05/11 11:39:02,無
5937012733,佳展佳藥局,彰化縣彰化市彰安里中正路２段４３４號,120.5361,24.07263,(04)7288246,羅氏家用新冠病毒抗原自我檢測套組,23,2022/05/11 11:39:02,週一~週六中午12點開始販售實名制快篩， 售完為止，
5937012975,龍泰藥局,彰化縣彰化市信義里中正路１段４５０號１樓,120.5422,24.08258,(04)7254720,羅氏家用新冠病毒抗原自我檢測套組,1,2022/05/11 11:39:02,周一到周六，早上9:30-12:00販售快篩試劑
5937013196,彰化啄木鳥藥局,彰化縣彰化市茄南里金馬路２段２７號,120.5483,24.09616,(04)7330661,羅氏家用新冠病毒抗原自我檢測套組,51,2022/05/11 11:39:02,無
5937013347,康禾藥局,彰化縣彰化市崙平里建和街５２號,120.5322,24.07063,(04)7624077,羅氏家用新冠病毒抗原自我檢測套組,78,2022/05/11 11:39:02,固定周一至周五下午一點發放快篩試劑，售完為止
5937013383,大心藥局,彰化縣彰化市中央里民族路５１７號,120.5406,24.07783,(04)7282797,羅氏家用新冠病毒抗原自我檢測套組,5,2022/05/11 11:39:02,星期日公休
5937013418,曉陽藥局,彰化縣彰化市西安里曉陽路２０２號,120.5373,24.07311,(04)7270989,羅氏家用新冠病毒抗原自我檢測套組,18,2022/05/11 11:39:02,現場排隊，請自備零錢。週一至週五早上9：30，週六下午3：30 ，售完為止（休息：中午12：00-15：30，18：00-19：30 ）
5937013561,友誼藥局彰化店,彰化縣彰化市辭修路１９１－２號,120.5376,24.08413,(04)7288865,羅氏家用新冠病毒抗原自我檢測套組,17,2022/05/11 11:39:02,5／4 下午2點販賣快篩，友誼藥局免費領取連續處方簽，衛生所，牙科單
5937013605,大佳好藥局,彰化縣彰化市平和七街６號,120.5293,24.06697,(09)33520331,羅氏家用新冠病毒抗原自我檢測套組,108,2022/05/11 11:39:02,0510快篩18:00後暫時停售，勿來電詢問
5937013669,康是美藥局曉陽店,彰化縣彰化市民族路２９１號１、２樓,120.5392,24.07272,(04)7221460,羅氏家用新冠病毒抗原自我檢測套組,57,2022/05/11 11:39:02,無
5937013703,友誼藥局自強店,彰化縣彰化市自強路４６號,120.5393,24.08961,(04)7233471,羅氏家用新冠病毒抗原自我檢測套組,78,2022/05/11 11:39:02,5／11快篩實名制販售時間15:00~16:00以現場量為主，免費領取各大醫院連續處方，診所、衛生所處方，歡迎諮詢友誼藥局
5937013712,寶生藥局,彰化縣彰化市中山路一段５５６巷２３之１２８號１樓,120.5404,24.06564,(04)7113037,羅氏家用新冠病毒抗原自我檢測套組,215,2022/05/11 11:39:02,六、日因人力不足無法發送快篩 每日下午一點～下午五點
5937013749,中央啄木鳥藥局,彰化縣彰化市中央路２０６號,120.5285,24.06637,(04)7639581,羅氏家用新冠病毒抗原自我檢測套組,1,2022/05/11 11:39:02,13:30開始販售，若未收到配送，則以收到時間開始
5937013767,民族藥局,彰化縣彰化市民族路２１２號１樓,120.5393,24.071,(04)7261221,羅氏家用新冠病毒抗原自我檢測套組,79,2022/05/11 11:39:02,快篩實名制，每天16:00開始販售，售完為止。
5937021750,正光藥局鹿港店,彰化縣鹿港鎮永安里復興路２５１號,120.438,24.05569,(04)7775769,羅氏家用新冠病毒抗原自我檢測套組,78,2022/05/11 11:39:02,每日13點30分開始販售快篩
5937031747,大樹和美藥局,彰化縣和美鎮道周路５０１號,120.494,24.10896,(04)7550090,羅氏家用新冠病毒抗原自我檢測套組,78,2022/05/11 11:39:02,快篩實名制，每天16:00開始販售，售完為止。
5937050135,信昇藥局,彰化縣員林市大同路二段１８２－１號,120.575,23.96908,(04)8358827,羅氏家用新冠病毒抗原自我檢測套組,77,2022/05/11 11:39:02,快篩試劑販售時間-每日下午2點半開始.售完為止
5937050279,廣信藥局,彰化縣員林市三信里中山路二段２０１號,120.5711,23.96517,(04)8337085,羅氏家用新冠病毒抗原自我檢測套組,3,2022/05/11 11:39:02,早上8點40分開始販賣快篩試劑
5937050395,裕良大藥局,彰化縣員林市莒光路３號,120.5663,23.95163,(04)8360388,羅氏家用新冠病毒抗原自我檢測套組,29,2022/05/11 11:39:02,全年無休
5937051703,員林健康藥局,彰化縣員林市中正路２２４號１樓,120.5747,23.95417,(04)8396798,羅氏家用新冠病毒抗原自我檢測套組,4,2022/05/11 11:39:02,10月11日雙十連假有營業
5937051981,康美藥局,彰化縣員林市南平里南平街２６號,120.5646,23.96301,(04)8395172,羅氏家用新冠病毒抗原自我檢測套組,54,2022/05/11 11:39:02,無
5937052246,新義藥局,彰化縣員林市南平里新義街２８８號,120.5678,23.96254,(04)8396788,羅氏家用新冠病毒抗原自我檢測套組,2,2022/05/11 11:39:02,每天早上10點販賣
5937052264,醫聯藥師藥局,彰化縣員林市三條里員東路二段４１０號１樓,120.5811,23.95898,(04)8360617,羅氏家用新冠病毒抗原自我檢測套組,20,2022/05/11 11:39:02,無
5937052282,丁丁藥局員林店,彰化縣員林市中山路二段８９號,120.5707,23.96247,(04)8373508,羅氏家用新冠病毒抗原自我檢測套組,2,2022/05/11 11:39:02,*星期一-日每日上午9點開始.售完為止。（全年無休）
5937052335,大樹三民藥局,彰化縣員林市三民東街３５６號,120.5825,23.96065,(04)8372837,羅氏家用新冠病毒抗原自我檢測套組,78,2022/05/11 11:39:02,快篩實名制，每天16:00開始販售，售完為止。
5937052380,日信藥局員林店,彰化縣員林市中正路２５５號,120.5741,23.95487,(04)8352030,羅氏家用新冠病毒抗原自我檢測套組,78,2022/05/11 11:39:02,快篩試劑每天下午2點開始販售，售完為止
5937052399,裕良藥局大同店,彰化縣員林市大同路二段２０３－１號,120.5746,23.96891,(04)8344612,羅氏家用新冠病毒抗原自我檢測套組,14,2022/05/11 11:39:02,全年無休
5937052433,迪迪連鎖藥局員林店,彰化縣員林市林森路１６３號１樓,120.5777,23.95715,(04)8312898,羅氏家用新冠病毒抗原自我檢測套組,1,2022/05/11 11:39:02,快篩實名制販售時間：每日十點發放，依物流配送時間為準。
5937052479,莒光藥局,彰化縣員林市莒光路３１６號１樓,120.5669,23.95942,(04)8361388,羅氏家用新冠病毒抗原自我檢測套組,79,2022/05/11 11:39:02,快篩實名制，每天16:00開始販售，售完為止。
5937052488,大樹員林藥局,彰化縣員林市大同路二段２０７號,120.5745,23.96891,(04)8331353,羅氏家用新冠病毒抗原自我檢測套組,78,2022/05/11 11:39:02,快篩實名制，每天16:00開始販售，售完為止。
5937052497,家家藥局,彰化縣員林市惠來街８７號,120.5704,23.95526,(04)8367007,羅氏家用新冠病毒抗原自我檢測套組,1,2022/05/11 11:39:02,無
5937052559,知心健康藥局,彰化縣員林市三民東街１９６號１樓,120.5788,23.95965,(04)8396161,羅氏家用新冠病毒抗原自我檢測套組,43,2022/05/11 11:39:02,無
5937061727,溪湖藥局,彰化縣溪湖鎮西環路３６５、３７１號１樓,120.4771,23.96099,(04)8818617,羅氏家用新冠病毒抗原自我檢測套組,12,2022/05/11 11:39:02,目前顯示剩餘數量皆為5／8當天因電腦系統當機來排隊客人的快篩，造成不變敬請見諒
5937070164,安鑠藥局,彰化縣田中鎮中潭里和平路７６０號,120.5879,23.8685,(04)8748728,羅氏家用新冠病毒抗原自我檢測套組,27,2022/05/11 11:39:02,每日早上9點至11點發放號碼牌並開始販售貨（全年無休）
5937071456,萬禾藥局,彰化縣田中鎮員集路３段２７７號,120.5872,23.87138,(04)8742242,羅氏家用新冠病毒抗原自我檢測套組,1,2022/05/11 11:39:02,週一至週六08:50營業，中午1小時用餐 20:20停止營業， 週日公休。
5937071474,田中藥局,彰化縣田中鎮新生街１５０巷２號,120.5862,23.8621,(04)8761988,羅氏家用新冠病毒抗原自我檢測套組,78,2022/05/11 11:39:02,快篩實名制，每天16:00開始販售，售完為止。
5937081596,二林藥局,彰化縣二林鎮斗苑路五段３９號,120.3709,23.89951,(04)8950010,羅氏家用新冠病毒抗原自我檢測套組,78,2022/05/11 11:39:02,快篩實名制，每天16:00開始販售，售完為止。
5937091056,線西藥局,彰化縣線西鄉寓埔村中央路二段４８號,120.4709,24.13103,(04)7582482,羅氏家用新冠病毒抗原自我檢測套組,77,2022/05/11 11:39:02,快篩試劑 請FB搜尋[線西藥局] 週一至週五中午12點開始  週六早上9點開始 週日公休
5937101217,友誼藥局,彰化縣伸港鄉新港村中山路１５號,120.4864,24.14731,(047)980591,羅氏家用新冠病毒抗原自我檢測套組,24,2022/05/11 11:39:02,5／11 早上10:30~12:00；星期六.日不發放快篩；免費領取各大醫院診所牙科衛生所處方箋
5937121317,彰水藥局,彰化縣秀水鄉彰水路二段４２５、４２７、４２９號１樓,120.4943,24.02791,(04)7685880,羅氏家用新冠病毒抗原自我檢測套組,78,2022/05/11 11:39:02,快篩實名制，每天16:00開始販售，售完為止。
5937131233,春生藥局花壇店,彰化縣花壇鄉花壇村中正路５７－１號,120.5225,24.03964,(04)7867715,羅氏家用新冠病毒抗原自我檢測套組,7,2022/05/11 11:39:02,周一至周日10:30開始販賣
5937151137,萬來藥局,彰化縣大村鄉福興村山腳路８０－９號,120.5856,23.98996,(04)8535565,羅氏家用新冠病毒抗原自我檢測套組,56,2022/05/11 11:39:02,下午3點販售政府快篩，星期六，母親節休息。
5937181279,佳恩藥局,彰化縣永靖鄉永西村瑚璉路３０２號,120.547,23.92421,(04)8235753,羅氏家用新冠病毒抗原自我檢測套組,1,2022/05/11 11:39:02,快篩實名制 :電話預約制，當日早上9點開始預約（已額滿）
5937191300,社頭藥局,彰化縣社頭鄉社斗路一段３７３號,120.5846,23.89651,(04)8720030,羅氏家用新冠病毒抗原自我檢測套組,78,2022/05/11 11:39:02,快篩實名制，每天16:00開始販售，售完為止。
5937201105,安利藥局,彰化縣二水鄉光化村員集路４段３號,120.6159,23.81147,(04)8794933,羅氏家用新冠病毒抗原自我檢測套組,74,2022/05/11 11:39:02,快篩下午3點現場販售 不發號碼牌 身障.醫護可優先購買
5937211094,田尾藥局,彰化縣田尾鄉饒平村光復路２段６６９號,120.5313,23.89053,(04)8836725,羅氏家用新冠病毒抗原自我檢測套組,75,2022/05/11 11:39:02,無
5938011838,愛馨藥局,南投縣南投市中山街１４巷１５號,120.687,23.90573,(049)2206006,羅氏家用新冠病毒抗原自我檢測套組,78,2022/05/11 11:39:02,周一至周六14:30開始販售，周日9:00販售
5938021781,幸福藥局,南投縣埔里鎮中正路５４８號,120.9643,23.96946,(049)2999800,羅氏家用新冠病毒抗原自我檢測套組,72,2022/05/11 11:39:02,快篩13:30發放號碼牌，發完號碼牌即開始販售。
5938022064,大樹埔里藥局,南投縣埔里鎮中正路４３８號,120.9632,23.97263,(049)2980805,羅氏家用新冠病毒抗原自我檢測套組,78,2022/05/11 11:39:02,快篩實名制，每天16:00開始販售，售完為止。
5938032560,祥陽藥局,南投縣草屯鎮中正路８２２、８２４號,120.6854,23.98276,(049)2353393,羅氏家用新冠病毒抗原自我檢測套組,78,2022/05/11 11:39:02,快篩實名制，每天16:00開始販售，售完為止。
5938041729,早安藥局,南投縣竹山鎮雲林路４１號,120.6834,23.75608,(049)2651032,羅氏家用新冠病毒抗原自我檢測套組,7,2022/05/11 11:39:02,實名制快篩試劑早上10點開始販售
5938041916,大明藥局,南投縣竹山鎮大明路４８２號,120.6798,23.759,(049)2652500,羅氏家用新冠病毒抗原自我檢測套組,78,2022/05/11 11:39:02,快篩實名制，每天16:00開始販售，售完為止。
5938050120,家禾藥局,南投縣集集鎮民生路２３７號,120.779,23.82647,(049)2760565,羅氏家用新冠病毒抗原自我檢測套組,2,2022/05/11 11:39:02,快篩代售：w1~w5 下午2：00（當場發放號碼牌，而後當場代售）
5938110023,杏仁藥局,南投縣水里鄉新城村民權路２３６號,120.8526,23.81758,(049)2776008,羅氏家用新冠病毒抗原自我檢測套組,78,2022/05/11 11:39:02,周一到周六，下午2:30販售快篩，售完為止，星期日休息
5938110078,立特藥局,南投縣水里鄉中央村中正路６８號,120.8543,23.81587,(049)2775837,羅氏家用新冠病毒抗原自我檢測套組,1,2022/05/11 11:39:02,每天早上8點現場排隊持健保卡領號碼牌，中午12點至晚上9點半持號碼牌領快篩劑.
5939010504,桂賓藥局,雲林縣斗六市信義里鎮北路３號,120.5432,23.71143,(05)5332138,羅氏家用新冠病毒抗原自我檢測套組,153,2022/05/11 11:39:02,週五.六.日 休息 沒售快篩
5939011832,汶藥局,雲林縣斗六市大同路１０３號２樓,120.5451,23.70965,(05)5344728,羅氏家用新冠病毒抗原自我檢測套組,1,2022/05/11 11:39:02,快篩實名制: 每天早上80:00開賣，售完為止。三、五下午，六晚上，日全天，以上時間休診。
5939012455,禾民藥局,雲林縣斗六市中山路２１３、２１５號,120.5391,23.70427,(05)5342486,羅氏家用新冠病毒抗原自我檢測套組,3,2022/05/11 11:39:02,快篩試劑 每天早上8:30開賣 售完為止 若未收到配送則例外
5939012580,林博彥藥師藥局,雲林縣斗六市莊敬路６５號,120.5495,23.70354,(05)5361258,羅氏家用新冠病毒抗原自我檢測套組,5,2022/05/11 11:39:02,無
5939012599,斗六藥局,雲林縣斗六市雲林路二段１１３號,120.534,23.70477,(05)5372300,羅氏家用新冠病毒抗原自我檢測套組,78,2022/05/11 11:39:02,快篩實名制，每天16:00開始販售，售完為止。
5939012606,永兆藥局,雲林縣斗六市北平路１６６號,120.5397,23.7153,(05)5378257,羅氏家用新冠病毒抗原自我檢測套組,2,2022/05/11 11:39:02,每日早上9點開始販售，預留18組給醫護警消及居隔者之緊急狀況使用，請持相關證明文件至藥局洽詢。
5939020091,全安藥局,雲林縣斗南鎮中天里中正路１２３號,120.4783,23.67655,(05)5965255,羅氏家用新冠病毒抗原自我檢測套組,10,2022/05/11 11:39:02,10點開始販售快篩 售完為止
5939020171,仁安堂藥局,雲林縣斗南鎮南昌里文元街４３號,120.4778,23.67535,(05)5952020,羅氏家用新冠病毒抗原自我檢測套組,8,2022/05/11 11:39:02,服務時間 : 周一至周六AM8:00-PM10:00 ／ 周日AM8:00-PM6:00
5939021294,玲津藥局,雲林縣斗南鎮中山路１７之２號,120.4801,23.67372,(05)5972889,羅氏家用新冠病毒抗原自我檢測套組,7,2022/05/11 11:39:02,周一至周六.上午8-12 14:30-18 週日9-11
5939021463,安瑞藥局,雲林縣斗南鎮新興街９４號,120.48,23.67483,(05)5972099,羅氏家用新冠病毒抗原自我檢測套組,19,2022/05/11 11:39:02,因物流配送時間不一定，原則上9:00販售
5939021614,斗南藥局,雲林縣斗南鎮南昌路１１２號,120.4791,23.67321,(05)5960102,羅氏家用新冠病毒抗原自我檢測套組,78,2022/05/11 11:39:02,無
5939030177,上方藥局,雲林縣虎尾鎮中山里中正路１７７號,120.4325,23.70765,(05)6332828,羅氏家用新冠病毒抗原自我檢測套組,2,2022/05/11 11:39:02,快篩採號碼牌販售，星期一至六早上8點30分開始發放，請提早來排隊，星期天無快篩販售服務
5939030364,勝泰中西藥局,雲林縣虎尾鎮林森路一段４２７號,120.4353,23.71068,(05)6329479,羅氏家用新冠病毒抗原自我檢測套組,7,2022/05/11 11:39:02,無
5939031585,利芳藥局,雲林縣虎尾鎮光復路３１０號,120.4385,23.71011,(05)6311016,羅氏家用新冠病毒抗原自我檢測套組,21,2022/05/11 11:39:02,販賣口罩時間:0830-賣完為止
5939031996,端發藥局,雲林縣虎尾鎮林森路一段３２９號,120.4368,23.71237,(05)6314168,羅氏家用新冠病毒抗原自我檢測套組,50,2022/05/11 11:39:02,販賣快篩時間:每日14:30-售完為止請提早排隊
5939032420,虎尾台丞藥局,雲林縣虎尾鎮林森路一段３４６號,120.4364,23.7122,(05)6325698,羅氏家用新冠病毒抗原自我檢測套組,11,2022/05/11 11:39:02,（如果前一天有到貨）快篩開賣時間:星期一至五早上08:15-11:30；星期六下午14:15-17:00，皆現場排隊購買
5939032724,虎尾藥局,雲林縣虎尾鎮林森路二段１１７、１１９號,120.4298,23.70595,(05)6336330,羅氏家用新冠病毒抗原自我檢測套組,1,2022/05/11 11:39:02,新開業， 5／4網路建置完成 每日下午16:00開始販售
5939041910,西螺啄木鳥藥局,雲林縣西螺鎮中山路２４９號,120.4558,23.7993,(05)5875195,羅氏家用新冠病毒抗原自我檢測套組,17,2022/05/11 11:39:02,5／3起，每日11:00開始販售實名制快篩，快篩以當日收貨數量為準
5939060111,慶輝藥局,雲林縣北港鎮華勝里大同路２３２號,120.3012,23.57199,(05)7835078,羅氏家用新冠病毒抗原自我檢測套組,10,2022/05/11 11:39:02,依健保卡購買實名制快篩試劑。服務時間AM8:30至PM8:30，周日無休。《每天78盒賣完為止》
5939060120,民生藥局,雲林縣北港鎮民生路７０號,120.3027,23.56495,(05)7822476,羅氏家用新冠病毒抗原自我檢測套組,3,2022/05/11 11:39:02,上午8:30-晚上9:30，週末請先電話洽詢
5939060255,家庭藥局,雲林縣北港鎮文化路１０１號,120.3023,23.57082,(05)7826739,羅氏家用新冠病毒抗原自我檢測套組,13,2022/05/11 11:39:02,實名制快篩劑販售時間:早上10:30
5939060317,益安大藥局,雲林縣北港鎮華勝里公園路１８之２號,120.3028,23.57434,(05)7730779,羅氏家用新冠病毒抗原自我檢測套組,7,2022/05/11 11:39:02,篩劑...每天貨到販售..賣完為止
5939061501,南方藥局,雲林縣北港鎮共榮里博愛路１１９號,120.3037,23.56877,(05)7832178,羅氏家用新冠病毒抗原自我檢測套組,4,2022/05/11 11:39:02,販賣快篩時間:週一~日自08:00至售完為止
5939061805,宜康藥局,雲林縣北港鎮公園路１５９號,120.3011,23.57754,(05)7820685,羅氏家用新冠病毒抗原自我檢測套組,3,2022/05/11 11:39:02,販賣口罩時間:0830-2200
5939061921,北港啄木鳥藥局,雲林縣北港鎮華勝路２５０號,120.2982,23.57877,(05)7822795,羅氏家用新冠病毒抗原自我檢測套組,5,2022/05/11 11:39:02,固定周一至週日09:00開始發放並依序販售口罩售完
5939061930,德豐藥局,雲林縣北港鎮公園路１２號,120.303,23.5735,(05)7835338,羅氏家用新冠病毒抗原自我檢測套組,17,2022/05/11 11:39:02,平日中午十二點到兩點休息，下午六點到六點半休息，週日全天休息
5939061949,大樹北港藥局,雲林縣北港鎮華勝路９９號,120.2986,23.57559,(05)7830783,羅氏家用新冠病毒抗原自我檢測套組,78,2022/05/11 11:39:02,快篩實名制，每天16:00開始販售，售完為止。
5939071276,慈生藥局,雲林縣古坑鄉麻園村平和２２號,120.5203,23.6351,(05)5828222,羅氏家用新冠病毒抗原自我檢測套組,220,2022/05/11 11:39:02,週三.四.六.日下午3-5點販售實名制快篩
5939071285,振明藥局,雲林縣古坑鄉中山路１７０號,120.5619,23.64612,(05)5821229,羅氏家用新冠病毒抗原自我檢測套組,20,2022/05/11 11:39:02,無
5939071294,元林中西藥局,雲林縣古坑鄉西平村西平路９－２號１樓,120.5606,23.64679,(05)5828229,羅氏家用新冠病毒抗原自我檢測套組,7,2022/05/11 11:39:02,販賣口罩時間：08:00
5939071310,禾安藥局,雲林縣古坑鄉朝陽村中山路１３６－１號,120.562,23.64552,(05)5828318,羅氏家用新冠病毒抗原自我檢測套組,29,2022/05/11 11:39:02,口罩代售時間每日上午8:00發號碼販售，售完為止
