醫事機構代碼,醫事機構名稱,醫事機構地址,經度,緯度,醫事機構電話,廠牌項目,快篩試劑截至目前結餘存貨數量,來源資料時間,備註
2335180019,苗栗縣泰安鄉衛生所,苗栗縣泰安鄉清安村２鄰７２號,120.9083,24.44722,(037)941054,羅氏家用新冠病毒抗原自我檢測套組,78,2022/05/05 18:48:02,口罩販賣時段：星期一~五：8:30~15：00。
2340170016,嘉義縣大埔鄉衛生所,嘉義縣大埔鄉大埔村５３－１號,120.5928,23.29397,(05)2521214,羅氏家用新冠病毒抗原自我檢測套組,78,2022/05/05 18:48:02,無
2342130010,高雄市田寮區衛生所,高雄市田寮區南安里崗北路３２號,120.3594,22.87301,(07)6361504,羅氏家用新冠病毒抗原自我檢測套組,156,2022/05/05 18:48:02,巡迴醫療:每星期一、四下午及每月第一個有上班的星期三下午巡迴醫療
2342250017,高雄市茂林區衛生所,高雄市茂林區茂林里茂林巷８－４號,120.6641,22.88641,(07)6801046,羅氏家用新冠病毒抗原自我檢測套組,190,2022/05/05 18:48:02,夜間急診，請先撥電話07-6801046
2342260013,高雄市桃源區衛生所,高雄市桃源區桃源里南進巷１８８－１號,120.7642,23.15845,(07)6861126,羅氏家用新冠病毒抗原自我檢測套組,96,2022/05/05 18:48:02,IDS提供24小時服務
2342270019,高雄市那瑪夏區衛生所,高雄市那瑪夏區瑪雅里６鄰平和巷２５２號,120.7024,23.24708,(07)6701142,羅氏家用新冠病毒抗原自我檢測套組,383,2022/05/05 18:48:02,春節期間正常門診
2343270013,屏東縣霧台鄉衛生所,屏東縣霧台鄉霧台村神山巷６８號,120.7261,22.74989,(08)7902232,羅氏家用新冠病毒抗原自我檢測套組,59,2022/05/05 18:48:02,無
2344011036,澎湖縣馬公市第三衛生所,澎湖縣馬公市西文里１１８之２號,119.5836,23.56813,(06)9211723,羅氏家用新冠病毒抗原自我檢測套組,51,2022/05/05 18:48:02,本所快篩試劑只提供離島衛生室（虎井、桶盤）販售，時間週一至週五08:30-17:00售完為止，星期六、日國定假日09:00-12:00。
2344030022,澎湖縣白沙鄉鳥嶼衛生所,澎湖縣白沙鄉鳥嶼村漁港新村３號,119.6599,23.66008,(06)9916092,羅氏家用新冠病毒抗原自我檢測套組,100,2022/05/05 18:48:02,非上班時間提供急診服務
2344030031,澎湖縣白沙鄉吉貝衛生所,澎湖縣白沙鄉吉貝村８－１３號,119.6138,23.74056,(06)9911430,羅氏家用新冠病毒抗原自我檢測套組,77,2022/05/05 18:48:02,無
2344050015,澎湖縣望安鄉衛生所,澎湖縣望安鄉西安村３６－７號,119.4972,23.36161,(06)9991036,羅氏家用新冠病毒抗原自我檢測套組,151,2022/05/05 18:48:02,夜間急診。口罩、快篩試劑販售時間為:每日08:00-12:00、13:30-17:30售完為止，如有餘數為離島未售出（東嶼坪、花嶼）。
2344050024,澎湖縣望安鄉將軍衛生所,澎湖縣望安鄉將軍村１２鄰將軍澳１之３號,119.5216,23.3615,(06)9902066,羅氏家用新冠病毒抗原自我檢測套組,169,2022/05/05 18:48:02,24小時急診
2344060011,澎湖縣七美鄉衛生所,澎湖縣七美鄉中和村埔內５４號,119.431,23.2041,(06)9971005,羅氏家用新冠病毒抗原自我檢測套組,59,2022/05/05 18:48:02,無
2391030016,連江縣莒光鄉西莒衛生所,連江縣莒光鄉青帆村１４－１號,119.9331,25.97157,(083)689122,羅氏家用新冠病毒抗原自我檢測套組,310,2022/05/05 18:48:02,防疫口罩星期一至五09:00-17:00、（六）09:00-12:00現場購買
2391030026,連江縣莒光鄉東莒衛生所,連江縣莒光鄉大坪村３０－１號,119.9731,25.96113,(083)689038,羅氏家用新冠病毒抗原自我檢測套組,523,2022/05/05 18:48:02,防疫口罩星期一至星期日上午10:00-12:00收取健保卡，下午3:30至本所領取口罩。
5901012570,予志藥局,臺北市松山區富錦街５２１號,121.5649,25.06119,(02)27623522,羅氏家用新冠病毒抗原自我檢測套組,156,2022/05/05 18:48:02,實名制快篩星期一到三下午2點、星期四到六晚上8點、星期日停售
5901012598,婕登藥局,臺北市松山區八德路４段６９９號,121.5766,25.05021,(02)27482893,羅氏家用新冠病毒抗原自我檢測套組,2,2022/05/05 18:48:02,今天快篩已經發送完畢（電腦庫存不準）
5901013095,康采藥局,臺北市松山區南京東路５段２９１巷１７－２號,121.5663,25.05236,(02)27670271,羅氏家用新冠病毒抗原自我檢測套組,31,2022/05/05 18:48:02,（已完售，庫存不準）快篩試劑每日16點販售，週日沒有販售
5901013693,民生盛康藥局,臺北市松山區民生東路５段２０４號１樓,121.5648,25.05826,(02)27460758,羅氏家用新冠病毒抗原自我檢測套組,92,2022/05/05 18:48:02,【每日70分】每日早上9:00發號碼牌，14:00~20:00拿號碼牌回來領取，每人限1張號碼牌，逾時不候
5901021408,生百藥局,臺北市大安區臨江街１２４號,121.5539,25.03024,(02)27371011,羅氏家用新冠病毒抗原自我檢測套組,37,2022/05/05 18:48:02,無
5901023386,弘昇藥局,臺北市大安區復興南路１段１０７巷３２號,121.5458,25.04349,(02)27110061,羅氏家用新冠病毒抗原自我檢測套組,8,2022/05/05 18:48:02,上午11點以後至晚上11點
5901024098,杏一瑞安藥局,臺北市大安區瑞安街２０８巷１１弄１號,121.5406,25.02866,(02)27096710,羅氏家用新冠病毒抗原自我檢測套組,1,2022/05/05 18:48:02,3點發快篩，前5分鐘發牌
5901024221,安居藥局,臺北市大安區安居街１９號,121.5549,25.02085,(02)23773537,羅氏家用新冠病毒抗原自我檢測套組,78,2022/05/05 18:48:02,領快篩注意事項:週一到週五晚上7:30-9:00 週六早上8:30-12:00直接排隊購買 .週日不營業
5901024918,康祥藥局,臺北市大安區忠孝東路４段２１６巷２１號,121.5531,25.04025,(02)27817891,羅氏家用新冠病毒抗原自我檢測套組,78,2022/05/05 18:48:02,星期天11:00-19:00
5901025059,博醫仁愛藥局,臺北市大安區仁愛路４段８巷２號１樓,121.5443,25.0375,(02)27019107,羅氏家用新冠病毒抗原自我檢測套組,8,2022/05/05 18:48:02,每天11:30發號碼牌，12:00~15:00憑號碼牌與健保卡購買實名制快篩
5901101509,永直藥局,臺北市中山區北安路５９５巷２弄６號,121.5483,25.08192,(02)85098059,羅氏家用新冠病毒抗原自我檢測套組,246,2022/05/05 18:48:02,今日號碼牌（5／5）已發完，周一至周六早上8點發號碼牌，下午2點到晚上8點販售（拿號碼牌來買）
5901102686,富宥康藥局,臺北市中山區北安路６０８巷５弄２２號,121.5496,25.08263,(02)25325277,羅氏家用新冠病毒抗原自我檢測套組,70,2022/05/05 18:48:02,無
5901103629,十二願藥局,臺北市中山區林森北路３０９號,121.5256,25.05588,(02)25311223,羅氏家用新冠病毒抗原自我檢測套組,78,2022/05/05 18:48:02,快篩晚上8點開始發放.營業時間下午1點至凌晨3點
5901113018,桔子藥局,臺北市內湖區內湖路２段３３３號,121.5917,25.08319,(02)27930052,羅氏家用新冠病毒抗原自我檢測套組,78,2022/05/05 18:48:02,早0900-1200，午1400-1700，晚1900-2100
5901113689,葫光藥局,臺北市內湖區康寧路３段５４巷６號１樓,121.609,25.07168,(02)26336611,羅氏家用新冠病毒抗原自我檢測套組,78,2022/05/05 18:48:02,實名制快篩販售時間 依LINE社群公告為主 售完為止
5901150548,田倉藥局,臺北市士林區士東路１２４號,121.5302,25.11219,(02)88662188,羅氏家用新冠病毒抗原自我檢測套組,52,2022/05/05 18:48:02,每日19:00（傍晚7點）開始販售.
5901152079,資生堂藥局,臺北市士林區承德路４段４０巷１７號１Ｆ,121.522,25.08107,(02)28857588,羅氏家用新冠病毒抗原自我檢測套組,78,2022/05/05 18:48:02,今日快篩已售完
5901152640,仁大藥局,臺北市士林區社子街１３號１樓,121.5083,25.08769,(02)88113793,羅氏家用新冠病毒抗原自我檢測套組,156,2022/05/05 18:48:02,111.5.5.週四休息一日，販售時間:週一至週六上午配送到貨後開賣，時間不確定，通常10:30過後
5901152659,和樹藥局,臺北市士林區後港街４５巷１號１樓,121.5228,25.08444,(02)28821188,羅氏家用新冠病毒抗原自我檢測套組,78,2022/05/05 18:48:02,實名制快篩發放時間 依到貨時間發售
5901152686,三光藥局,臺北市士林區延平北路５段３２０號１樓,121.5096,25.08628,(02)28123786,羅氏家用新冠病毒抗原自我檢測套組,5,2022/05/05 18:48:02,無
5901153503,祥新藥局,臺北市士林區社子街６５號,121.5067,25.08751,(02)28110906,羅氏家用新冠病毒抗原自我檢測套組,6,2022/05/05 18:48:02,實名制快篩星期2、3、4、6十點開賣；週一、週五晚上七點開賣，周日公休
5901154028,向宇藥局,臺北市士林區德行東路２１７號１樓,121.5328,25.10935,(02)88661101,羅氏家用新冠病毒抗原自我檢測套組,78,2022/05/05 18:48:02,無
5901154091,社正藥局,臺北市士林區社正路１２號１樓,121.5093,25.08854,(02)28118704,羅氏家用新冠病毒抗原自我檢測套組,16,2022/05/05 18:48:02,無
5901154135,誠泰中西藥局,臺北市士林區永平街１３號１樓,121.5051,25.08996,(02)88112352,羅氏家用新冠病毒抗原自我檢測套組,75,2022/05/05 18:48:02,晚上7:00開始販賣
5901160099,進春藥局,臺北市北投區明德路１５１號,121.5206,25.11086,(02)28216938,羅氏家用新冠病毒抗原自我檢測套組,63,2022/05/05 18:48:02,無休 上午九點開始販售，現場排隊。（依現場公告為主）
5901161890,良興藥局,臺北市北投區中和街２８６號,121.5004,25.14047,(02)28933360,羅氏家用新冠病毒抗原自我檢測套組,33,2022/05/05 18:48:02,18點30分點開始營業
5901162173,小明藥局,臺北市北投區中央南路１段６９號２樓,121.5014,25.13145,(02)28928950,羅氏家用新冠病毒抗原自我檢測套組,78,2022/05/05 18:48:02,快篩實名制購買時間:週一至週六早上8:00-9:00，9點後系統顯示尚有庫存，為隔日販售的量，請勿再來電詢問，謝謝!
5901163581,陳藥師藥局,臺北市北投區光明路２巷１３－２號（實際使用：１樓）,121.4997,25.13132,(02)28921971,羅氏家用新冠病毒抗原自我檢測套組,12,2022/05/05 18:48:02,無
5901170139,福華藥局,臺北市信義區吳興街２８１巷３號１樓,121.5643,25.02656,(02)27208527,羅氏家用新冠病毒抗原自我檢測套組,78,2022/05/05 18:48:02,現階段下午1:30配合政府發售快篩試劑
5901173818,博亞藥局,臺北市信義區莊敬路４６２號,121.5677,25.02672,(02)27580506,羅氏家用新冠病毒抗原自我檢測套組,117,2022/05/05 18:48:02,平日早上8:30、晚上8:00；假日早上8:30，發放號碼牌，持號碼牌購買!
5901174011,寶春藥局,臺北市信義區虎林街１１９之１９號１樓,121.5771,25.04112,(02)27566501,羅氏家用新冠病毒抗原自我檢測套組,46,2022/05/05 18:48:02,實名制快篩每日19:00現場排隊販售
5901180368,古亭藥局,臺北市中正區汀州路３段１１７號,121.5301,25.01667,(02)23683618,羅氏家用新冠病毒抗原自我檢測套組,50,2022/05/05 18:48:02,實名制  快篩  每晚7:30  開始賣  星期六早上休息 星期日休息
5901183387,丞良藥局,臺北市中正區南昌路１段７８號地下１樓,121.5173,25.03099,(02)33938868,羅氏家用新冠病毒抗原自我檢測套組,78,2022/05/05 18:48:02,週一~週五 晚上9:00~9:30現場領取，若排隊人潮過多會提早開賣
5901184213,71恩典藥局,臺北市中正區信義路２段７１號,121.5264,25.03466,(02)23223371,羅氏家用新冠病毒抗原自我檢測套組,156,2022/05/05 18:48:02,快篩販售時間：◆週一到週五19:00 ◆週六17:00，十分鐘前發號碼牌
5901184553,珍忻藥局,臺北市中正區南昌路１段６５號,121.5174,25.03107,(02)23965115,羅氏家用新冠病毒抗原自我檢測套組,1,2022/05/05 18:48:02,健保快篩發放:13:20及18:20分兩梯次發號碼牌
5901190515,日昇藥局,臺北市萬華區廣州街１２４號,121.5016,25.03654,(02)23062975,羅氏家用新冠病毒抗原自我檢測套組,78,2022/05/05 18:48:02,實名制快篩 05-04 到貨
5901190668,聯慶大藥局,臺北市萬華區萬大路３０６號１樓,121.5003,25.02495,(02)23039850,羅氏家用新冠病毒抗原自我檢測套組,78,2022/05/05 18:48:02,無
5901193221,正盛藥局,臺北市萬華區中華路２段４３４－１號,121.5064,25.02708,(02)23050386,羅氏家用新冠病毒抗原自我檢測套組,60,2022/05/05 18:48:02,1.快篩一~六20點，周日不賣 2.目前排隊人潮多，建議7點左右提前候位 3.詳情請看門口公告或板橋正康總店臉書
5901193338,艾米力藥師藥局,臺北市萬華區西藏路１０７－２號１樓,121.5035,25.02955,(02)23036583,羅氏家用新冠病毒抗原自我檢測套組,73,2022/05/05 18:48:02,實名制快篩：周一~周五 晚上7:00販售；周末（六日）早上9:00販售
5901200123,瑞安藥局,臺北市文山區溪口街６９－１號１樓,121.5393,24.99512,(02)29312888,羅氏家用新冠病毒抗原自我檢測套組,78,2022/05/05 18:48:02,早上8:30開始營業.星期日休息.快篩劑晚上8:00販賣.
5902050798,友泰藥局,高雄市三民區中和街１６９號,120.2868,22.6388,(07)3125236,羅氏家用新冠病毒抗原自我檢測套組,2,2022/05/05 18:48:02,無
5902050903,皇安藥局,高雄市三民區九如一路４６１號,120.3296,22.63865,(07)3866779,羅氏家用新冠病毒抗原自我檢測套組,58,2022/05/05 18:48:02,營業日0900可先領取號碼牌，上午9:00-12:00及下午3:00~10:.00為販賣快篩時間，售完為止
5903030012,康好藥局,臺中市大甲區三民路１３２－２號,120.622,24.34851,(04)26802149,羅氏家用新冠病毒抗原自我檢測套組,156,2022/05/05 18:48:02,每天早上8-12點.下午14:30至售完為止.星期四不銷售. 星期日只銷售前日剩餘口罩
5903050194,樂齊藥局,臺中市沙鹿區北中路８６－１、８６－２號,120.5692,24.22827,(04)26338867,羅氏家用新冠病毒抗原自我檢測套組,78,2022/05/05 18:48:02,防疫家用快篩試劑每日19點開賣，售完為止，庫存請依現場為主。
5903150028,全成烏日藥局,臺中市烏日區溪南路１段７７６號,120.6427,24.07423,(04)23352656,羅氏家用新冠病毒抗原自我檢測套組,78,2022/05/05 18:48:02,實名制快篩晚上7:00發放，售完為止
5903160097,安昌藥局,臺中市大肚區遊園路二段１７６號１樓,120.5808,24.17289,(04)26913890,羅氏家用新冠病毒抗原自我檢測套組,76,2022/05/05 18:48:02,每天晚上19:00點開始現場排隊販賣快篩試劑.
5903190380,及宏藥局,臺中市太平區樹孝路５０２號,120.7205,24.15806,(04)23919911,羅氏家用新冠病毒抗原自我檢測套組,25,2022/05/05 18:48:02,5／3起快篩發放時段為晚間6:30開始，詳情請隨時看臉書公告
5903200096,仁化藥局,臺中市大里區仁化路５４０號,120.7012,24.09623,(04)24915902,羅氏家用新冠病毒抗原自我檢測套組,34,2022/05/05 18:48:02,W1-W5  下午1800發放.現場排隊    W6 休息  W日中午1200
5903200372,國光丁丁藥局,臺中市大里區國光路２段５５１－１號１樓,120.6788,24.11241,(04)24069711,羅氏家用新冠病毒抗原自我檢測套組,2,2022/05/05 18:48:02,星期一至星期日早上9點依排隊順序直接領取
5903260743,黎明安德藥局,臺中市北區中清路１段８５２號１樓,120.6718,24.17295,(04)22956098,羅氏家用新冠病毒抗原自我檢測套組,78,2022/05/05 18:48:02,禮拜四公休、禮拜日下午2點開始營業，一到六下午3點開始販賣快篩，禮拜日下午5點開始販賣快篩
5903270721,舒健藥局,臺中市西屯區西屯路二段２５５號２樓,120.6459,24.17179,(04)27077858,羅氏家用新冠病毒抗原自我檢測套組,77,2022/05/05 18:48:02,公費快篩試劑於周一至周六晚上7點現場排隊購買，週日公休。
5903270865,尚禾藥局,臺中市西屯區青海路一段６５號,120.6548,24.16438,(04)23147688,羅氏家用新冠病毒抗原自我檢測套組,39,2022/05/05 18:48:02,實名制快篩發放：時段一中午12:30~14:00。時段二20：30~22：30。時段一若未發完，餘量將遞延至時段二發放。周日停售。
5903271004,西屯青育藥師藥局,臺中市西屯區西屯路二段２９５－３號１樓,120.6425,24.17735,(04)27077898,羅氏家用新冠病毒抗原自我檢測套組,36,2022/05/05 18:48:02,無
5903271031,美十樂中科藥局,臺中市西屯區西屯路三段１６６－６５號１樓,120.6129,24.19035,(04)24610219,羅氏家用新冠病毒抗原自我檢測套組,468,2022/05/05 18:48:02,醫事人員卡片損壞，暫時無法販賣快篩
5903271102,杏東美藥局,臺中市西屯區智惠街１５６號１樓,120.6438,24.17032,(04)24523798,羅氏家用新冠病毒抗原自我檢測套組,64,2022/05/05 18:48:02,快篩實名制5／5 19:00發放
5903271246,柏醫藥局,臺中市西屯區上安路５６號１樓,120.6412,24.17052,(04)24526391,羅氏家用新冠病毒抗原自我檢測套組,78,2022/05/05 18:48:02,因應到貨時間不定，統一晚上7點開放78組（5／5已到貨 14:48）
5903280549,仁幼藥局,臺中市南屯區黎明東街２２９號１樓,120.6367,24.1482,(04)23809162,羅氏家用新冠病毒抗原自我檢測套組,69,2022/05/05 18:48:02,每日指揮中心發送量僅78份（其餘庫存皆系統異常），配送時間未知，送達後待藥局營業時間即刻開始銷售
5905170019,博士藥師專業藥局,臺南市七股區大埕里３５７號１樓,120.1416,23.14288,(06)7874226,羅氏家用新冠病毒抗原自我檢測套組,70,2022/05/05 18:48:02,早上7:30開始營業，也開始快篩實名制，W1-5 7:30~20:00 W6 7:30~18:00
5905270158,佳德藥局,臺南市仁德區德糖路４７０號１樓,120.2522,22.95128,(06)2796767,羅氏家用新冠病毒抗原自我檢測套組,78,2022/05/05 18:48:02,口罩發放時間:禮拜一至禮拜六8:30發號碼牌 9:00領取口罩，禮拜四和六只到中午12:00
5905320975,萬錠藥局,臺南市東區崇成里崇德路６１９號１樓,120.2277,22.97181,(06)2679299,羅氏家用新冠病毒抗原自我檢測套組,72,2022/05/05 18:48:02,實名制快篩販售時段：第一梯次下午14：00、第二梯次晚上19：00（皆提前15分鐘發放牌子，當日配貨數量售完為止。）
5907010187,人人好藥局,高雄市鳳山區五甲三路１０巷７號１樓,120.3278,22.59336,(07)8151566,羅氏家用新冠病毒抗原自我檢測套組,235,2022/05/05 18:48:02,上午0830-1330下午1530-2100， 自2／11-2／29口罩販售周一三四五日，時間:9:00-12:00售完為止
5907160093,保生藥局,高雄市湖內區葉厝里保生路３４０．３４２號,120.2195,22.90733,(07)6990800,羅氏家用新冠病毒抗原自我檢測套組,1,2022/05/05 18:48:02,快篩實名制，每天16:00開始販售，售完為止。
5907320768,心樂保健藥局,高雄市三民區光裕路７８號１樓,120.3331,22.63789,(07)3855377,羅氏家用新冠病毒抗原自我檢測套組,16,2022/05/05 18:48:02,星期一到星期四上午8:30-12:00（快篩售完為止）. 星期五下午14:00-17:00，18:00-20:30（售完為止）
5907360628,風鈴藥局,高雄市前鎮區管仲路３７號,120.3117,22.60649,(07)5367833,羅氏家用新冠病毒抗原自我檢測套組,77,2022/05/05 18:48:02,販售快篩：19:30-21:30 依照配送調整販售時間（周日公休）
5911011478,天康新豐藥局,基隆市中正區新豐街２５１巷４弄９號１樓,121.7885,25.13594,(02)24695168,羅氏家用新冠病毒抗原自我檢測套組,1,2022/05/05 18:48:02,無
5911031283,福安藥局,基隆市暖暖區暖暖街５５２號,121.7365,25.09258,(02)24588550,羅氏家用新冠病毒抗原自我檢測套組,78,2022/05/05 18:48:02,5／2~5／6 晚上20:00販售  實名制家用快篩試劑  本日為[羅氏家用快篩試劑五入組]
5911041958,百福仁愛專業藥局,基隆市仁愛區仁四路５０號１樓,121.7413,25.12829,(02)24266699,羅氏家用新冠病毒抗原自我檢測套組,59,2022/05/05 18:48:02,4／30起，早上8:00販售快篩
5911050162,錦泰藥局,基隆市中山區中山二路４３號,121.7405,25.13786,(02)24228523,羅氏家用新冠病毒抗原自我檢測套組,78,2022/05/05 18:48:02,快篩販賣時間星期一至五晚上7點，星期六，星期日下午5點
5912013529,新莊藥局,新竹市東區光復路１段４７３號１樓,121.015,24.78421,(03)5634775,羅氏家用新冠病毒抗原自我檢測套組,78,2022/05/05 18:48:02,平日晚上10點；週日早上7點（交通壅塞 安全第一）
5912013609,丁丁藥局,新竹市東區中華路二段９１號,120.9812,24.80794,(03)6117888,羅氏家用新冠病毒抗原自我檢測套組,3,2022/05/05 18:48:02,無
5917010082,仁壽藥局,臺中市中區東墩里三民路三段１號,120.6817,24.14482,(04)22228058,羅氏家用新冠病毒抗原自我檢測套組,1,2022/05/05 18:48:02,週一至週日上午9時30分起販售快篩劑
5917030146,新永富藥局,臺中市西區吉龍里美村路一段６７０號,120.6615,24.13555,(04)23766127,羅氏家用新冠病毒抗原自我檢測套組,78,2022/05/05 18:48:02,現場排隊 每日晚上 9:00..晚上9:00.晚上9:00 販售.1人只能1卡備500元
5917032382,中港大藥局,臺中市西區臺灣大道２段１３２號,120.6714,24.14995,(04)22080708,羅氏家用新冠病毒抗原自我檢測套組,1,2022/05/05 18:48:02,無
5917060322,瑞康藥局,臺中市西屯區長安路二段２號１樓,120.6612,24.1724,(04)22914046,羅氏家用新冠病毒抗原自我檢測套組,16,2022/05/05 18:48:02,營業時間8:30~21:30 （家用快篩，酒精及防疫口罩）
5917071727,大愛藥局,臺中市南屯區向心南路９６２．９６４號１樓,120.644,24.13718,(04)24733646,羅氏家用新冠病毒抗原自我檢測套組,3,2022/05/05 18:48:02,快篩販售時間 18：00，若有異動，請依現場公告為主
5917072724,百芳大藥局,臺中市南屯區向上路二段４２１號,120.6377,24.1469,(04)23818307,羅氏家用新冠病毒抗原自我檢測套組,78,2022/05/05 18:48:02,周一到周六，晚上7:00開始販賣快篩，不發號碼牌。
5922012285,聖安藥局,嘉義市東區仁武里民權路３６５號１樓,120.4506,23.48235,(05)2222941,羅氏家用新冠病毒抗原自我檢測套組,78,2022/05/05 18:48:02,每日8:30開始發放，每週四休息.
5922013111,富善藥局,嘉義市東區新生路２３４號,120.4609,23.48419,(05)2759559,羅氏家用新冠病毒抗原自我檢測套組,5,2022/05/05 18:48:02,5／13、14休假，實名制快篩早上9:10-12:00下午3:10-5:00
5922020509,全德藥局,嘉義市西區福民里興業西路２８９號,120.4392,23.46776,(05)2854263,羅氏家用新冠病毒抗原自我檢測套組,64,2022/05/05 18:48:02,營業時間請電話洽詢  販售：19 :30~20:30
5922020858,大統藥局,嘉義市西區慶安里北興街１３６號,120.4421,23.48389,(05)2330230,羅氏家用新冠病毒抗原自我檢測套組,2,2022/05/05 18:48:02,5月5.6.7.8.9.10日預約已滿.有預約的民眾請於11:00點後領取
5922020992,昭安藥局,嘉義市西區民生南路４７９號１樓,120.4437,23.45821,(05)2842240,羅氏家用新冠病毒抗原自我檢測套組,2,2022/05/05 18:48:02,無
5922028596,一安藥局,嘉義市西區福民里興業西路３１１號,120.4387,23.4677,(05)2859275,羅氏家用新冠病毒抗原自我檢測套組,3,2022/05/05 18:48:02,周一至周日早上9點至晚上10點半依發放號碼排依序售完
5931010397,正成藥師藥局,新北市板橋區三民路２段１５４巷７號,121.4787,25.01515,(02)29512760,羅氏家用新冠病毒抗原自我檢測套組,78,2022/05/05 18:48:02,無
5931011045,進發大藥局,新北市板橋區民治街１０１號,121.479,25.0315,(02)22528361,羅氏家用新冠病毒抗原自我檢測套組,1,2022/05/05 18:48:02,快篩08:00先收卡，排隊請不要擋到攤販，中午就可以領，開放80歲長者前天寄卡，謝謝。
5931011947,長弘藥局,新北市板橋區龍泉街１１０號,121.4568,25.02454,(02)22558789,羅氏家用新冠病毒抗原自我檢測套組,37,2022/05/05 18:48:02,無
5931014822,常仁藥局,新北市板橋區中正路１巷４號,121.4556,25.01197,(02)29674999,羅氏家用新冠病毒抗原自我檢測套組,55,2022/05/05 18:48:02,無
5931015687,正康健保藥局,新北市板橋區大觀路２段６５號１樓,121.4467,25.00246,(02)22756681,羅氏家用新冠病毒抗原自我檢測套組,78,2022/05/05 18:48:02,下午13:30依現場順序開始販售快篩，快篩配送絮亂庫存不準!!
5931016808,正安健保藥局,新北市板橋區民族路２２４號（１樓）,121.4687,25.00733,(02)29526813,羅氏家用新冠病毒抗原自我檢測套組,78,2022/05/05 18:48:02,17時依現場順序開始販售.週六12點.電腦配送庫存不準..以現場數量為準
5931017618,新埔健保藥局,新北市板橋區自由路２號１樓,121.4654,25.02222,(02)22558878,羅氏家用新冠病毒抗原自我檢測套組,30,2022/05/05 18:48:02,無
5931017869,躍獅國慶藥局,新北市板橋區國慶路１７９號（１樓）,121.4626,24.99636,(02)29641548,羅氏家用新冠病毒抗原自我檢測套組,156,2022/05/05 18:48:02,快篩實名制，每天14:00開始販售，售完為止
5931017994,後埔藥局,新北市板橋區華興街９號（１樓）,121.459,25.00457,(02)89510306,羅氏家用新冠病毒抗原自我檢測套組,2,2022/05/05 18:48:02,5／5  下午2點發放號碼牌*確保作業流暢請自備500元*每天 78 份晚上10 點以前領取完畢（過卡時間差異剩餘數量僅供參考）
5931021532,龍門藥局,新北市三重區龍門路１８９號,121.4996,25.07322,(02)29756141,羅氏家用新冠病毒抗原自我檢測套組,78,2022/05/05 18:48:02,實名制快篩販售時間~星期一至星期六下午3點
5931024631,德榮藥局,新北市三重區中華路９１號１樓,121.4836,25.06302,(02)29717291,羅氏家用新冠病毒抗原自我檢測套組,78,2022/05/05 18:48:02,政府快篩販售時間星期一至星期六晚間19:00整現場販售..謝謝
5931025987,忠孝德榮藥局,新北市三重區忠孝路２段９７號１樓,121.4842,25.07005,(02)29800297,羅氏家用新冠病毒抗原自我檢測套組,76,2022/05/05 18:48:02,現場排隊不發號碼牌*實名制快篩* 週一至週日晚間19:00開始代售. 週六&周日中午12:00開始營業
5931040215,華新藥局,新北市中和區華新街７３號,121.5082,24.98392,(02)29448345,羅氏家用新冠病毒抗原自我檢測套組,4,2022/05/05 18:48:02,無
5931043109,育新藥局,新北市中和區中安街４０巷６號,121.5127,25.00305,(02)29283479,羅氏家用新冠病毒抗原自我檢測套組,84,2022/05/05 18:48:02,週一、二、三、五、六早上八點開始販售，售完為止（四、日無販賣）
5931043921,良安藥局,新北市中和區連城路４７７巷１號１樓,121.4833,24.99555,(02)22225798,羅氏家用新冠病毒抗原自我檢測套組,205,2022/05/05 18:48:02,週六日不開店，實名制快篩，晚上9:00開始販售
5931045416,信毅藥局,新北市中和區捷運路５６號１樓,121.5081,24.99078,(02)29423663,羅氏家用新冠病毒抗原自我檢測套組,1,2022/05/05 18:48:02,無
5931052724,合康大藥局,新北市新店區中正路２６３－２號１樓,121.5384,24.97367,(02)29109888,羅氏家用新冠病毒抗原自我檢測套組,1,2022/05/05 18:48:02,快篩14:00開始（有事先發號碼牌）網上還有數量是拿到號碼牌還沒來領的，拜託別再問了
5931060342,十安藥局,新北市新莊區中港路３１６號,121.4524,25.04544,(02)29922859,羅氏家用新冠病毒抗原自我檢測套組,3,2022/05/05 18:48:02,自111／04／01起不再販賣實名制口罩
5931067403,建嘉藥局,新北市新莊區中誠街４２號１樓,121.4513,25.04812,(02)29925261,羅氏家用新冠病毒抗原自我檢測套組,78,2022/05/05 18:48:02,無
5931069603,中信藥師藥局,新北市新莊區中信街８０號１樓,121.448,25.05311,(02)29969811,羅氏家用新冠病毒抗原自我檢測套組,78,2022/05/05 18:48:02,AM 07:30 開始
593106A726,良和健保藥局,新北市新莊區龍安路４９號１樓,121.4158,25.02151,(02)29048157,羅氏家用新冠病毒抗原自我檢測套組,78,2022/05/05 18:48:02,快篩：晚上8點開始販售，星期六、日休息不代售
593106B036,家嘉藥局,新北市新莊區自立街１０３號（１樓）,121.4553,25.04549,(02)89926488,羅氏家用新冠病毒抗原自我檢測套組,7,2022/05/05 18:48:02,號碼牌預計於快篩到貨後開始發放 依現場公告為主
593106B205,藥師佛藥局,新北市新莊區中正路８８１之４號１樓,121.4175,25.02544,(02)29016625,羅氏家用新冠病毒抗原自我檢測套組,38,2022/05/05 18:48:02,五點才可以排隊，七點開賣，會預留警察消防人員額度，所以民眾購買額度不會是78盒！
5931070366,聖和藥局,新北市樹林區太元街５０號,121.4183,24.97967,(02)86866609,羅氏家用新冠病毒抗原自我檢測套組,78,2022/05/05 18:48:02,中午12:30分開始發放快篩
5931072066,琉璃水藥師藥局,新北市樹林區龍興街２１號１樓,121.403,25.01614,(02)26764262,羅氏家用新冠病毒抗原自我檢測套組,78,2022/05/05 18:48:02,無
5931081494,康群藥局,新北市鶯歌區建國路２０２號１樓,121.3494,24.95357,(02)26796690,羅氏家用新冠病毒抗原自我檢測套組,78,2022/05/05 18:48:02,*星期五休診不發放口罩，其餘上班日上午九點開始發放*現場排隊
5931092200,金美藥局,新北市三峽區大同路２３８號１樓,121.3663,24.92573,(02)86715859,羅氏家用新冠病毒抗原自我檢測套組,468,2022/05/05 18:48:02,無
5931102176,淡水健康人生藥局,新北市淡水區清水街９－２號１樓,121.4447,25.17037,(02)26269679,羅氏家用新冠病毒抗原自我檢測套組,78,2022/05/05 18:48:02,快篩代售時間:週一至週日09:30，現場排隊購買，售完為止。（物流配送不及則例外，以門市公告為主）
5931112083,裕和藥局,新北市汐止區宜興街４號１樓,121.6211,25.04126,(02)26609119,羅氏家用新冠病毒抗原自我檢測套組,78,2022/05/05 18:48:02,晚上9.00領實名制快篩時間
5931112136,汐芷藥局,新北市汐止區福德一路２５５號,121.6335,25.06447,(02)26924087,羅氏家用新冠病毒抗原自我檢測套組,2,2022/05/05 18:48:02,每日8:30現場發放號碼牌，12:00~20:00前憑牌領取.逾時不候
5931113142,林美藥局,新北市汐止區康寧街４６５號１樓,121.6318,25.06839,(02)26935696,羅氏家用新冠病毒抗原自我檢測套組,63,2022/05/05 18:48:02,每日14:00販售實名制快篩，現場排隊 。禮拜天公休（5／5當日配額已售罄，庫存問題修正中）
5931132165,佳佳藥局,新北市土城區中央路２段２２３－９號２樓,121.4407,24.97319,(02)82614558,羅氏家用新冠病毒抗原自我檢測套組,78,2022/05/05 18:48:02,5／3起實名制快篩販售時間為19:30，採現場排隊（特殊情形例外）
5931132245,萬昌健保藥局,新北市土城區中央路４段１６０號,121.417,24.95827,(02)22678057,羅氏家用新冠病毒抗原自我檢測套組,51,2022/05/05 18:48:02,3月2日起周一至周五15:00發號碼牌及販賣口罩  周六 10:00直接販售
5931132343,誠安藥局,新北市土城區中央路４段３６號１樓,121.4207,24.96088,(02)22677737,羅氏家用新冠病毒抗原自我檢測套組,312,2022/05/05 18:48:02,快篩代售時段：平日晚上8點，售完為止
5931132807,健業藥局,新北市土城區中央路２段２２３－１０號,121.4407,24.97312,(02)22704798,羅氏家用新冠病毒抗原自我檢測套組,78,2022/05/05 18:48:02,無
5931133331,城安大藥局,新北市土城區金城路３段４０號,121.4656,24.98639,(02)22646561,羅氏家用新冠病毒抗原自我檢測套組,85,2022/05/05 18:48:02,快篩代售時間晚上8:30
5931133617,芮櫟頂埔大藥局,新北市土城區中央路４段３０號１樓,121.4208,24.96094,(02)22677888,羅氏家用新冠病毒抗原自我檢測套組,78,2022/05/05 18:48:02,無
5931133644,貓頭鷹藥妝藥局,新北市土城區中央路３段８８、９０號１樓,121.4361,24.96702,(02)22695659,羅氏家用新冠病毒抗原自我檢測套組,1,2022/05/05 18:48:02,實名制快篩每天下午2點半開始賣
5931151660,祐康藥師藥局,新北市五股區五福路３６號１樓,121.4339,25.08922,(02)82921335,羅氏家用新冠病毒抗原自我檢測套組,78,2022/05/05 18:48:02,口罩代售時間:一至六早上8:30開始販售， 星期日早上9:00
5931161282,善耕藥局,新北市泰山區明志路２段３６２號１樓,121.4256,25.04516,(02)29086656,羅氏家用新冠病毒抗原自我檢測套組,78,2022/05/05 18:48:02,5／1-5／5-晚上8:00發號碼牌5／6後中午12:00 發號碼牌開始刷健保卡 販售實名制快篩
5931170021,士昌藥局,新北市林口區工六路３６號１樓,121.3982,25.07874,(02)26018863,羅氏家用新冠病毒抗原自我檢測套組,2,2022/05/05 18:48:02,防疫口罩代售:週一至週六下午2:00~4:00，週日早上10:00~12:00現場排隊
5931171582,綠園藥局,新北市林口區仁愛路２段１０５號１樓,121.3843,25.07507,(02)86012258,羅氏家用新冠病毒抗原自我檢測套組,4,2022/05/05 18:48:02,上午8:30-12:00、下午2:30-18:00、晚上18:00-21:30
5931171680,一家好藥局,新北市林口區中山路５００號,121.3794,25.08303,(02)26028270,羅氏家用新冠病毒抗原自我檢測套組,156,2022/05/05 18:48:02,無
5931181239,怡恩藥局,新北市深坑區埔新街４１號,121.6209,25.00282,(02)26620285,羅氏家用新冠病毒抗原自我檢測套組,74,2022/05/05 18:48:02,5／5（四） 18:30領戳章 20:00憑戳章購買
5932011503,文安藥局,桃園市桃園區中正路６９９號,121.3032,25.00685,(03)3558999,羅氏家用新冠病毒抗原自我檢測套組,78,2022/05/05 18:48:02,實名制快篩領取時間每日早上07:00~080發放78份，另78份因當日配送時間無法確認為隔日早上7點的數量
5932011870,永祥大藥局,桃園市桃園區永安路５２８號,121.2986,25.00181,(03)3337161,羅氏家用新冠病毒抗原自我檢測套組,3,2022/05/05 18:48:02,口罩販賣時段：週一至週六早上9點
5932013123,桃康藥局,桃園市桃園區桃鶯路２０３號,121.3184,24.98495,(03)3641815,羅氏家用新冠病毒抗原自我檢測套組,1,2022/05/05 18:48:02,實名制快篩：早上10點發號碼牌，每日78份
5932013856,大滝藥局,桃園市桃園區龍壽街７４－２號,121.269,24.97999,(03)3607258,羅氏家用新冠病毒抗原自我檢測套組,8,2022/05/05 18:48:02,營業時間:09:00-23:00 實名制快篩販售時間:晚上6:00~售完
5932013972,合祥藥局,桃園市桃園區國際路二段８號１樓,121.2886,24.99044,(03)3703010,羅氏家用新冠病毒抗原自我檢測套組,1,2022/05/05 18:48:02,無
5932014031,大廟藥局,桃園市桃園區中山路１５８號１樓,121.3091,24.99342,(03)3337006,羅氏家用新冠病毒抗原自我檢測套組,23,2022/05/05 18:48:02,無
5932014102,小飛象藥局,桃園市桃園區慈文路１９２號,121.3041,25.00907,(03)3552771,羅氏家用新冠病毒抗原自我檢測套組,156,2022/05/05 18:48:02,5／5[21:30]開賣78份，5／6[21:30]開賣78份，別再問了。不發放號碼牌，即日起本所有調劑確診者之視訊處方，請自保。
5932021269,優良藥局,桃園市中壢區長春路２０號,121.2499,24.97907,(03)4612336,羅氏家用新冠病毒抗原自我檢測套組,1,2022/05/05 18:48:02,5／5快篩販售時間18:00
5932021812,慧中健保藥局,桃園市中壢區成章二街１４１號１樓,121.2568,24.98025,(03)4556129,羅氏家用新冠病毒抗原自我檢測套組,2,2022/05/05 18:48:02,每日4:30開始領號碼牌販售快篩試劑
5932023183,佳華藥局,桃園市中壢區六和路４６號,121.2244,24.96452,(03)2753018,羅氏家用新冠病毒抗原自我檢測套組,18,2022/05/05 18:48:02,快篩銷售時間:星期一二三五下午2:00，星期四晚上6:30，星期六早上8:00，售完為止
593202A833,君安藥局,桃園市中壢區中北路二段３９０號,121.2318,24.95388,(03)4685484,羅氏家用新冠病毒抗原自我檢測套組,144,2022/05/05 18:48:02,快篩試劑販售時間，週一至週五晚上7點，週六週日早上9點，每日提供78份，前15分鐘至30分鐘發號碼牌，視現場狀況而定
593202A931,佳佑藥局,桃園市中壢區環中東路二四一號,121.2573,24.96345,(03)4356190,羅氏家用新冠病毒抗原自我檢測套組,3,2022/05/05 18:48:02,口罩販賣時段：09:00以後發號碼牌，售完為止
5932030080,吉壽藥局,桃園市大溪區員林路三段４２號,121.2648,24.88175,(03)3802049,羅氏家用新冠病毒抗原自我檢測套組,156,2022/05/05 18:48:02,快篩試劑販賣時段：星期一~五晚上7:00起及星期六、日上午8:30起。由於近日進貨庫存異常，另78份為隔日販售！請諒解。
5932031578,宜暉健保藥局,桃園市大溪區介壽路７１８號,121.2849,24.90544,(03)3806695,羅氏家用新冠病毒抗原自我檢測套組,78,2022/05/05 18:48:02,9:00-22:00／端午.中秋.除夕~初三休息／快篩販賣時間18:40發號碼牌，售完為止
5932031756,明仁藥局,桃園市大溪區介壽路８１號１樓,121.2949,24.92218,(03)3804832,羅氏家用新冠病毒抗原自我檢測套組,2,2022/05/05 18:48:02,0800-11000
5932043005,佳青藥局,桃園市楊梅區青山五街１６號１樓及地下一樓,121.171,24.92068,(03)2755235,羅氏家用新冠病毒抗原自我檢測套組,78,2022/05/05 18:48:02,週一至周六早上8點販售實名制快篩
5932043130,宜康美藥局,桃園市楊梅區環東路４５２號,121.1571,24.91005,(03)4883805,羅氏家用新冠病毒抗原自我檢測套組,20,2022/05/05 18:48:02,快篩販賣時段：早上09:30~10:30（20份）下午15:30~16:30（38份）晚上19:30~20:30（20份）
5932052808,柏霖藥局,桃園市蘆竹區中正路３５９號２樓,121.291,25.04902,(03)2120284,羅氏家用新冠病毒抗原自我檢測套組,96,2022/05/05 18:48:02,快篩試劑販賣時間:18:00開始.售完為止
5932052835,悅兒藥局,桃園市蘆竹區忠孝西路１８６號,121.2892,25.04011,(03)3126967,羅氏家用新冠病毒抗原自我檢測套組,78,2022/05/05 18:48:02,快篩販賣時段：週一到週日 14:30 開賣
5932052979,南崁藥局,桃園市蘆竹區中正路２５１、２５３、２５５號,121.2921,25.04695,(03)3522022,羅氏家用新冠病毒抗原自我檢測套組,157,2022/05/05 18:48:02,快篩實名制，每天16:00開始販售，售完為止。
5932062519,青埔辰安藥局,桃園市大園區致遠一路１號１樓,121.2111,25.00479,(03)2873274,羅氏家用新冠病毒抗原自我檢測套組,78,2022/05/05 18:48:02,無
5932077510,左外野藥局,桃園市龜山區文光街６號１樓,121.3802,25.05471,(03)3271503,羅氏家用新冠病毒抗原自我檢測套組,152,2022/05/05 18:48:02,快篩販售時間:19:30-20:30 （週五公休）*不發號碼牌 請直接排隊購買
5932083670,保健藥局,桃園市八德區介壽路一段８３３號２樓,121.3,24.96168,(03)3669486,羅氏家用新冠病毒抗原自我檢測套組,156,2022/05/05 18:48:02,無
5932083974,晨鴻藥師藥局,桃園市八德區桃鶯路７號１樓,121.3265,24.97179,(03)3764299,羅氏家用新冠病毒抗原自我檢測套組,80,2022/05/05 18:48:02,快篩為早上8:30跟晚上6:00領取號碼牌，因有送貨時間及短少的因素，所以快篩地圖數量參考就好，請勿再打電話詢問 謝謝
5932084793,美康健保藥局,桃園市八德區桃鶯路９１號１、２樓,121.328,24.97036,(03)3613624,羅氏家用新冠病毒抗原自我檢測套組,78,2022/05/05 18:48:02,無
5932084828,阿爾富山藥局,桃園市八德區桃鶯路４號１樓,121.3261,24.97167,(03)3763350,羅氏家用新冠病毒抗原自我檢測套組,64,2022/05/05 18:48:02,本藥局實名制快篩於每日晚間7點以實際到貨數量發放，唯保留可視現場排隊人數額滿情況.酌情提前發號碼牌並受理購買!
5932084864,阿寶藥局,桃園市八德區東勇一路６號,121.3064,24.96452,(03)3750060,羅氏家用新冠病毒抗原自我檢測套組,45,2022/05/05 18:48:02,實名制快篩詳細公告請參閱阿寶藥局官方臉書
5932099203,普善藥局,桃園市龍潭區北龍路３３３號,121.219,24.86887,(03)4705877,羅氏家用新冠病毒抗原自我檢測套組,13,2022/05/05 18:48:02,快篩試劑販賣時段：14:10~售完為止
5933011258,安東藥師藥局,新竹縣關西鎮中山路６２號,121.1766,24.79147,(03)5872385,羅氏家用新冠病毒抗原自我檢測套組,78,2022/05/05 18:48:02,口罩販賣時段：星期一至六08:00-21:00、星期日08:00-17:00
5933031652,合康藥局,新竹縣竹東鎮興農街１１號,121.0861,24.73988,(03)5103818,羅氏家用新冠病毒抗原自我檢測套組,2,2022/05/05 18:48:02,實名制快篩時段：下午17:00~22:30
5933053041,中一藥局,新竹縣竹北市文興路一段２４２號１樓,121.0287,24.81018,(03)6670827,羅氏家用新冠病毒抗原自我檢測套組,1,2022/05/05 18:48:02,更新:快篩販售時間下午16:00
5933061767,合康藥局湖口,新竹縣湖口鄉民族街１２６號,121.0456,24.90316,(03)6992365,羅氏家用新冠病毒抗原自我檢測套組,1,2022/05/05 18:48:02,星期一~六 16:30發放號碼牌，17:00開始領取，19:00之前領取完畢。
5934012366,熊賀大藥局,宜蘭縣宜蘭市女中路３段２６號,121.7421,24.74576,(03)9352950,羅氏家用新冠病毒抗原自我檢測套組,78,2022/05/05 18:48:02,快篩時間 星期一至日 晚上7:00開賣 現場排隊
5935011738,佳禾藥局,苗栗縣苗栗市青苗里建台街7號,120.821,24.55742,(037)373041,羅氏家用新冠病毒抗原自我檢測套組,156,2022/05/05 18:48:02,快篩試劑7：30發號碼牌8：00開始販賣，販賣時段：營業時間至售完為止
5935021261,永信藥師藥局,苗栗縣苑裡鎮和平路７２－１號,120.6549,24.44096,(037)857069,羅氏家用新冠病毒抗原自我檢測套組,78,2022/05/05 18:48:02,無
5936190710,東亞藥師大藥局,臺中市太平區中興路６６號,120.7167,24.12806,(04)22787987,羅氏家用新冠病毒抗原自我檢測套組,1,2022/05/05 18:48:02,每日早上9:00先領號碼牌下午2:00~10:00領快篩試劑
5936192018,和康藥局,臺中市太平區樹孝路４６２號,120.7203,24.15716,(04)23917355,羅氏家用新冠病毒抗原自我檢測套組,78,2022/05/05 18:48:02,實名制快篩販售時間: 發號碼牌晚上七點立即開始銷售售完為止!
5936192134,樹德大藥局,臺中市太平區樹德路１０２號１樓,120.7115,24.15386,(04)23981782,羅氏家用新冠病毒抗原自我檢測套組,8,2022/05/05 18:48:02,下午3點開始領號碼牌，分流領取，請勿依賴網站庫存
593620B138,聯生中西健保藥局,臺中市大里區現岱路１５８巷１１號,120.6919,24.10295,(04)24834058,羅氏家用新冠病毒抗原自我檢測套組,23,2022/05/05 18:48:02,早上八點半領號碼牌下午四點到六點領口罩W6W日早七點
5937013570,彰化藥局,彰化縣彰化市永安街２７８、２８０號,120.5438,24.08977,(04)7287877,羅氏家用新冠病毒抗原自我檢測套組,78,2022/05/05 18:48:02,快篩實名制，每天16:00開始販售，售完為止。
5937031667,丁丁藥局和美店,彰化縣和美鎮道周路３１２號,120.4971,24.10759,(04)7576322,羅氏家用新冠病毒抗原自我檢測套組,4,2022/05/05 18:48:02,固定周一至周六上午9:00開始發放號碼牌，發完後即開始販賣口罩。
5937031756,永元藥局,彰化縣和美鎮和線路９１號,120.4925,24.11452,(04)7550045,羅氏家用新冠病毒抗原自我檢測套組,35,2022/05/05 18:48:02,固定週一至週日中午11:30分起開始販賣口罩，每週四公休。
5937051847,天一藥局,彰化縣員林市光明里中正路４４１號,120.5724,23.95817,(04)8384875,羅氏家用新冠病毒抗原自我檢測套組,1,2022/05/05 18:48:02,固定周一到周六，早上14:30開始販賣防疫口罩（現場排隊）。
5937052264,醫聯藥師藥局,彰化縣員林市三條里員東路二段４１０號１樓,120.5811,23.95898,(04)8360617,羅氏家用新冠病毒抗原自我檢測套組,5,2022/05/05 18:48:02,快篩實名制每天下午15:00開始販售，售完為止
5937052335,大樹三民藥局,彰化縣員林市三民東街３５６號,120.5825,23.96065,(04)8372837,羅氏家用新冠病毒抗原自我檢測套組,1,2022/05/05 18:48:02,快篩實名制，每天16:00開始販售，售完為止。
5937052451,統信藥局,彰化縣員林市正興街３７２號,120.5722,23.95997,(04)8367089,羅氏家用新冠病毒抗原自我檢測套組,3,2022/05/05 18:48:02,無
5937052540,莒光啄木鳥藥局,彰化縣員林市中山路一段４５４號１樓,120.5668,23.95171,(04)8399625,羅氏家用新冠病毒抗原自我檢測套組,1,2022/05/05 18:48:02,無
5937181279,佳恩藥局,彰化縣永靖鄉永西村瑚璉路３０２號,120.547,23.92421,(04)8235753,羅氏家用新冠病毒抗原自我檢測套組,2,2022/05/05 18:48:02,快篩實名制 :電話預約制，當日早上9點開始預約（已額滿）
5938032515,草屯丁丁藥局,南投縣草屯鎮太平路二段１７９號,120.6831,23.97335,(049)2330058,羅氏家用新冠病毒抗原自我檢測套組,6,2022/05/05 18:48:02,每日早上9點發號碼牌，05／05今日號碼牌已發放完畢
5938040437,宏明堂藥局,南投縣竹山鎮竹山里橫街８８號,120.6831,23.75616,(049)2642202,羅氏家用新冠病毒抗原自我檢測套組,1,2022/05/05 18:48:02,早上7:30開始營業至晚上9:00。（全年無休）
5938041729,早安藥局,南投縣竹山鎮雲林路４１號,120.6834,23.75608,(049)2651032,羅氏家用新冠病毒抗原自我檢測套組,3,2022/05/05 18:48:02,實名制快篩試劑早上10點開始販售
5938041809,維淇藥師藥局,南投縣竹山鎮集山路三段８１６－１號,120.6863,23.75949,(049)2653689,羅氏家用新冠病毒抗原自我檢測套組,5,2022/05/05 18:48:02,早上8：30~晚上21：00，星期六下午晚上及星期日休息
5939051238,天愛藥局,雲林縣土庫鎮中山路８０號,120.3903,23.6749,(05)6629923,羅氏家用新冠病毒抗原自我檢測套組,8,2022/05/05 18:48:02,無
5939071294,元林中西藥局,雲林縣古坑鄉西平村西平路９－２號１樓,120.5606,23.64679,(05)5828229,羅氏家用新冠病毒抗原自我檢測套組,47,2022/05/05 18:48:02,販賣口罩時間：08:00
5939171093,和平藥局,雲林縣元長鄉下寮村東興路３３號,120.334,23.61849,(05)7862551,羅氏家用新冠病毒抗原自我檢測套組,7,2022/05/05 18:48:02,販賣口罩時間：0800開賣，賣完為止
5939190025,呂藥師藥局,雲林縣口湖鄉梧南村文光路１２號,120.1901,23.54536,(05)7907472,羅氏家用新冠病毒抗原自我檢測套組,4,2022/05/05 18:48:02,不固定營業時間，請先電話洽詢
5940031402,信沅中西藥局,嘉義縣大林鎮西林里０１１鄰中正路４２０號,120.4528,23.60129,(05)2656377,羅氏家用新冠病毒抗原自我檢測套組,73,2022/05/05 18:48:02,每日販售時間：19:00~20:00。
5940080058,長生健保藥局,嘉義縣東石鄉東石村東石村２６０號,120.1405,23.45356,(05)3732557,羅氏家用新冠病毒抗原自我檢測套組,2,2022/05/05 18:48:02,快篩每天上午8點發號碼牌，週1-5下午2-7點購買領取，週六日上午10-12點購買領取
5940131283,一心藥局,嘉義縣中埔鄉富收村頂中下街３１、３１－１號１樓,120.4885,23.45077,(05)2303553,羅氏家用新冠病毒抗原自我檢測套組,2,2022/05/05 18:48:02,無
5940131363,和睦藥局,嘉義縣中埔鄉中山路５段８２１號１樓,120.4618,23.45158,(05)2395283,羅氏家用新冠病毒抗原自我檢測套組,47,2022/05/05 18:48:02,每星期日無販售快篩，5／5（四）晚上7點販售
5942020265,建元藥局,高雄市岡山區大仁北路１０４號,120.3018,22.80071,(07)6216672,羅氏家用新冠病毒抗原自我檢測套組,78,2022/05/05 18:48:02,早上8點開賣，今日已售完。【餘78份，為隔日早上8點的數量】
5942051279,弘寶藥局,高雄市林園區鳳林路二段７５７之１號,120.3958,22.51297,(07)6433159,羅氏家用新冠病毒抗原自我檢測套組,78,2022/05/05 18:48:02,自2／11日~2／29日，營業日09:00為販賣口罩時間，售完為止，
5942070112,陳西藥局,高雄市大樹區久堂里中興街６０號,120.4199,22.65744,(07)6515858,羅氏家用新冠病毒抗原自我檢測套組,1,2022/05/05 18:48:02,營業日07:30開始購買，售完為止
5942100071,皇佳藥局,高雄市鳥松區仁美里高碼二路１２號,120.3893,22.65769,(07)7312918,羅氏家用新冠病毒抗原自我檢測套組,78,2022/05/05 18:48:02,實名制快篩，晚上八點開始販售，自備500元不找零，19:30開放現場排隊，售完為止，週日無販售
5943011135,昱昇藥師藥局,屏東縣屏東市北勢里中正路３７３－１號,120.4944,22.68516,(08)7377471,羅氏家用新冠病毒抗原自我檢測套組,151,2022/05/05 18:48:02,營業時間早上7:30至晚上10:30，快篩試劑販售依配送時間調整
5943013853,復順藥局,屏東縣屏東市公園東路８４－２號,120.4986,22.67217,(08)7215662,羅氏家用新冠病毒抗原自我檢測套組,1,2022/05/05 18:48:02,自2／11日~12／31日，營業日0930，1600-1800為販賣快篩時間（13:00-15:00休息）
5943031735,愛樂活藥局,屏東縣東港鎮長春一路１１３－１號,120.4594,22.47111,(08)8312388,羅氏家用新冠病毒抗原自我檢測套組,45,2022/05/05 18:48:02,快篩販賣時間: 週一，二，四，五晚上7點開賣，週三，六（有夜市）下午3點開賣
5946080552,伯安健康藥局,臺東縣長濱鄉長濱村１０鄰長濱路１０５號,121.4515,23.31496,(089)832519,羅氏家用新冠病毒抗原自我檢測套組,97,2022/05/05 18:48:02,無
5946101118,伯安藥局,臺東縣池上鄉新生路１１６號,121.2187,23.12315,(089)863585,羅氏家用新冠病毒抗原自我檢測套組,167,2022/05/05 18:48:02,早0800-1200，午1400-1800，晚1800-2000
