醫事機構代碼,醫事機構名稱,醫事機構地址,經度,緯度,醫事機構電話,廠牌項目,快篩試劑截至目前結餘存貨數量,來源資料時間,備註
2331200010,新北市坪林區衛生所,新北市坪林區坪林街１０４號,121.7095,24.93592,(02)26656272,羅氏家用新冠病毒抗原自我檢測套組,281,2022/04/28 16:31:03,防疫口罩販售服務時間，星期一至五09:00-12:00 。（倘若遇政府規定補班日，仍會提供販售口罩服務）
2331260016,新北市貢寮區衛生所,新北市貢寮區朝陽街７０巷１０號、新北市貢寮區仁愛路１２８號,121.9095,25.02258,(02)24901431,羅氏家用新冠病毒抗原自我檢測套組,234,2022/04/28 16:31:03,星期一至星期日上午8點購買防疫口罩，售完為止.
2331290014,新北市烏來區衛生所,新北市烏來區新烏路５段１０９號,121.548,24.87197,(02)26617200,羅氏家用新冠病毒抗原自我檢測套組,250,2022/04/28 16:31:03,無
2333120015,新竹縣峨眉鄉衛生所,新竹縣峨眉鄉峨眉村峨眉街２鄰５號,121.0214,24.68842,(03)5800314,羅氏家用新冠病毒抗原自我檢測套組,234,2022/04/28 16:31:03,本所星期三下午中醫門診，4月8日（五）下午眼科，販賣口罩上午12時至13時止，國定及例假日不賣口罩
2333140017,新竹縣五峰鄉衛生所,新竹縣五峰鄉大隘村六鄰９９號,121.1194,24.63184,(03)5851005,羅氏家用新冠病毒抗原自我檢測套組,234,2022/04/28 16:31:03,無
2334110013,宜蘭縣大同鄉衛生所,宜蘭縣大同鄉崙埤村朝陽４０號,121.6088,24.67785,(03)9801175,羅氏家用新冠病毒抗原自我檢測套組,25,2022/04/28 16:31:03,防疫口罩販賣時間本所（週一到週六）8:20-10:20  衛生室販賣時間為星期一、二、四、五下午，詳細事項請至本所網站查詢.
2335110017,苗栗縣南庄鄉衛生所,苗栗縣南庄鄉東村大同路１７號,121,24.59733,(037)822024,羅氏家用新冠病毒抗原自我檢測套組,234,2022/04/28 16:31:03,口罩販賣時段:週一至週五上午8:00~下午5:00
2335150011,苗栗縣造橋鄉衛生所,苗栗縣造橋鄉造橋村１４鄰８－２號,120.8643,24.63672,(037)542755,羅氏家用新冠病毒抗原自我檢測套組,234,2022/04/28 16:31:03,口罩販賣時段：08:30-售完（含假日）
2335170013,苗栗縣獅潭鄉衛生所,苗栗縣獅潭鄉新店村１３０之６號,120.9201,24.53961,(037)931309,羅氏家用新冠病毒抗原自我檢測套組,234,2022/04/28 16:31:03,口罩販賣時段：08:30-16:00
2335180019,苗栗縣泰安鄉衛生所,苗栗縣泰安鄉清安村２鄰７２號,120.9083,24.44722,(037)941054,羅氏家用新冠病毒抗原自我檢測套組,234,2022/04/28 16:31:03,口罩販賣時段：星期一~五：8:30~15：00。
2336210034,臺中市和平區梨山衛生所,臺中市和平區中正路１２號１樓、６８號１樓,121.2592,24.25678,(04)25989540,羅氏家用新冠病毒抗原自我檢測套組,274,2022/04/28 16:31:03,提供24小時急診待診服務，111年4月28日起，快篩試劑販售時段為周一至周五0900-12:00，六日及國定假日為0900-1100
2338070010,南投縣鹿谷鄉衛生所,南投縣鹿谷鄉中正路二段２０號,120.7542,23.74488,(049)2752002,羅氏家用新冠病毒抗原自我檢測套組,234,2022/04/28 16:31:03,快篩試劑販售時間 上班日（星期一至星期五）14:00~16:00
2338120015,南投縣信義鄉衛生所,南投縣信義鄉明德村玉山路４５號,120.8547,23.69653,(049)2791148,羅氏家用新冠病毒抗原自我檢測套組,234,2022/04/28 16:31:03,快篩試劑販售時間星期一至星期五上午09：00-11：00，現場排隊發售，國定假日不販賣。
2340170016,嘉義縣大埔鄉衛生所,嘉義縣大埔鄉大埔村５３－１號,120.5928,23.29397,(05)2521214,羅氏家用新冠病毒抗原自我檢測套組,234,2022/04/28 16:31:03,無
2341250013,臺南市南化區衛生所,臺南市南化區南化里２２６－１號,120.4793,23.0444,(06)5771139,羅氏家用新冠病毒抗原自我檢測套組,246,2022/04/28 16:31:03,無
2342130010,高雄市田寮區衛生所,高雄市田寮區南安里崗北路３２號,120.3594,22.87301,(07)6361504,羅氏家用新冠病毒抗原自我檢測套組,69,2022/04/28 16:31:03,巡迴醫療:每星期一、四下午及每月第一個有上班的星期三下午巡迴醫療
2342250017,高雄市茂林區衛生所,高雄市茂林區茂林里茂林巷８－４號,120.6641,22.88641,(07)6801046,羅氏家用新冠病毒抗原自我檢測套組,307,2022/04/28 16:31:03,夜間急診，請先撥電話07-6801046
2342260013,高雄市桃源區衛生所,高雄市桃源區桃源里南進巷１８８－１號,120.7642,23.15845,(07)6861126,羅氏家用新冠病毒抗原自我檢測套組,271,2022/04/28 16:31:03,IDS提供24小時服務
2342270019,高雄市那瑪夏區衛生所,高雄市那瑪夏區瑪雅里６鄰平和巷２５２號,120.7024,23.24708,(07)6701142,羅氏家用新冠病毒抗原自我檢測套組,296,2022/04/28 16:31:03,春節期間正常門診
2343260017,屏東縣三地門鄉衛生所,屏東縣三地門鄉三地村行政街４號,120.653,22.71477,(08)7991284,羅氏家用新冠病毒抗原自我檢測套組,237,2022/04/28 16:31:03,假日及夜間提供待診；星期一至五快篩販售時間0900~1200；1400~1700賣完為止
2343270013,屏東縣霧台鄉衛生所,屏東縣霧台鄉霧台村神山巷６８號,120.7261,22.74989,(08)7902232,羅氏家用新冠病毒抗原自我檢測套組,290,2022/04/28 16:31:03,無
2343290015,屏東縣泰武鄉衛生所,屏東縣泰武鄉佳平村１７９號,120.6327,22.59212,(08)7832059,羅氏家用新冠病毒抗原自我檢測套組,265,2022/04/28 16:31:03,4／2-4／5門診照常
2343300016,屏東縣來義鄉衛生所,屏東縣來義鄉古樓村中正路９０號,120.632,22.52584,(08)7850103,羅氏家用新冠病毒抗原自我檢測套組,254,2022/04/28 16:31:03,無
2343320018,屏東縣獅子鄉衛生所,屏東縣獅子鄉楓林村楓林二巷３１號,120.7057,22.18402,(08)8771324,羅氏家用新冠病毒抗原自我檢測套組,247,2022/04/28 16:31:03,特休日：每年農曆除夕、初一
2343330014,屏東縣牡丹鄉衛生所,屏東縣牡丹鄉石門村１９號,120.7469,22.10105,(08)8831013,羅氏家用新冠病毒抗原自我檢測套組,237,2022/04/28 16:31:03,無
2344011036,澎湖縣馬公市第三衛生所,澎湖縣馬公市西文里１１８之２號,119.5836,23.56813,(06)9211723,羅氏家用新冠病毒抗原自我檢測套組,245,2022/04/28 16:31:03,本所口罩販售以離島（虎井、桶盤）為主，時間星期一至星期五08:30-17:00售完為止，星期六、日國定假日09:00-12:00。
2344030013,澎湖縣白沙鄉衛生所,澎湖縣白沙鄉赤崁村３５９號,119.5982,23.66669,(06)9931044,羅氏家用新冠病毒抗原自我檢測套組,239,2022/04/28 16:31:03,星期日上午門診看診（每月最後一個星期日休診）； 星期五上午巡迴醫療
2344030022,澎湖縣白沙鄉鳥嶼衛生所,澎湖縣白沙鄉鳥嶼村漁港新村３號,119.6599,23.66008,(06)9916092,羅氏家用新冠病毒抗原自我檢測套組,274,2022/04/28 16:31:03,非上班時間提供急診服務
2344030031,澎湖縣白沙鄉吉貝衛生所,澎湖縣白沙鄉吉貝村８－１３號,119.6138,23.74056,(06)9911430,羅氏家用新冠病毒抗原自我檢測套組,295,2022/04/28 16:31:03,無
2344050015,澎湖縣望安鄉衛生所,澎湖縣望安鄉西安村３６－７號,119.4972,23.36161,(06)9991036,羅氏家用新冠病毒抗原自我檢測套組,238,2022/04/28 16:31:03,夜間急診。口罩、快篩試劑販售時間為:每日08:00-12:00、13:30-17:30售完為止，如有餘數為離島未售出（東嶼坪、花嶼衛生室）。
2344050024,澎湖縣望安鄉將軍衛生所,澎湖縣望安鄉將軍村１２鄰將軍澳１之３號,119.5216,23.3615,(06)9902066,羅氏家用新冠病毒抗原自我檢測套組,293,2022/04/28 16:31:03,24小時急診
2344060011,澎湖縣七美鄉衛生所,澎湖縣七美鄉中和村埔內５４號,119.431,23.2041,(06)9971005,羅氏家用新冠病毒抗原自我檢測套組,280,2022/04/28 16:31:03,無
2345080017,花蓮縣豐濱鄉衛生所,花蓮縣豐濱鄉豐濱村光豐路３９號,121.5215,23.60195,(03)8791156,羅氏家用新冠病毒抗原自我檢測套組,189,2022/04/28 16:31:03,*本院口罩每天販售，時間自上午8點至晚上9點  *本院週一至週五上下午皆有門診，星期六隔週提供門診，及24小時急診。
2345110010,花蓮縣秀林鄉衛生所,花蓮縣秀林鄉秀林村１２鄰秀林路８８號,121.6334,24.1269,(03)8612122,羅氏家用新冠病毒抗原自我檢測套組,166,2022/04/28 16:31:03,口罩代售時間上班日上午8:10至12時止（口罩限量故售完為止）
2345120016,花蓮縣萬榮鄉衛生所,花蓮縣萬榮鄉萬榮村１鄰１６號,121.4092,23.71558,(03)8751651,羅氏家用新冠病毒抗原自我檢測套組,1,2022/04/28 16:31:03,口罩代售時間：週一至週五上午8點至11點30分，販售為止。
2345130012,花蓮縣卓溪鄉衛生所,花蓮縣卓溪鄉卓溪村中正路６５號,121.3033,23.33294,(03)8882592,羅氏家用新冠病毒抗原自我檢測套組,3,2022/04/28 16:31:03,販賣口罩服務時段每周一至周五早上8點45分至11點45分，星期一至星期四安排巡迴醫療點販售（售完即結束）
2346050013,台東縣大武鄉衛生所,臺東縣大武鄉大武村復興路２－２號,120.9078,22.36414,(089)791143,羅氏家用新冠病毒抗原自我檢測套組,236,2022/04/28 16:31:03,24小時急診服務
2346070015,臺東縣東河鄉衛生所,臺東縣東河鄉東河村南東河路１０鄰３００號,121.3031,22.96846,(089)896289,羅氏家用新冠病毒抗原自我檢測套組,234,2022/04/28 16:31:03,口罩販售時間:◆平日早上08時30分~11時30分販售，售完為止。
2346130016,台東縣海端鄉衛生所,臺東縣海端鄉海端村３鄰２９號,121.1767,23.10094,(089)931391,羅氏家用新冠病毒抗原自我檢測套組,1,2022/04/28 16:31:03,星期一至星期五口罩販售時間上午8點~12點（售完為止）
2346140012,台東縣達仁鄉衛生所,臺東縣達仁鄉安朔村復興路１２２號,120.8836,22.29488,(089)702209,羅氏家用新冠病毒抗原自我檢測套組,245,2022/04/28 16:31:03,12／31 元旦連假
2346150018,台東縣金峰鄉衛生所,臺東縣金峰鄉賓茂村１鄰１４號,120.9606,22.53248,(089)772201,羅氏家用新冠病毒抗原自我檢測套組,250,2022/04/28 16:31:03,代售口罩時間:星期一至星期五為上午8:00-12:00，下午1:30-5:30
2346160014,台東縣蘭嶼鄉衛生所,臺東縣蘭嶼鄉紅頭村３６號,121.5546,22.02493,(089)732575,羅氏家用新冠病毒抗原自我檢測套組,244,2022/04/28 16:31:03,販售口罩時間 星期一至星期五 8:00~12:00 13:30~17:30
2391020010,連江縣北竿鄉衛生所,連江縣北竿鄉塘岐村２８１－６號,119.9991,26.22617,(083)655592,羅氏家用新冠病毒抗原自我檢測套組,249,2022/04/28 16:31:03,防疫口罩每日08:30-10:00於北竿衛生所購買。
2391030016,連江縣莒光鄉西莒衛生所,連江縣莒光鄉青帆村１４－１號,119.9331,25.97157,(083)689122,羅氏家用新冠病毒抗原自我檢測套組,290,2022/04/28 16:31:03,防疫口罩星期一至五09:00-17:00、（六）09:00-12:00現場購買
2391030026,連江縣莒光鄉東莒衛生所,連江縣莒光鄉大坪村３０－１號,119.9731,25.96113,(083)689038,羅氏家用新冠病毒抗原自我檢測套組,284,2022/04/28 16:31:03,防疫口罩星期一至星期日上午10:00-12:00收取健保卡，下午3:30至本所領取口罩。
2391040012,連江縣東引鄉衛生所,連江縣東引鄉中柳村１２３號,120.4904,26.36701,(083)677206,羅氏家用新冠病毒抗原自我檢測套組,252,2022/04/28 16:31:03,防疫口罩每日10:00-12:00現場購買
5901010094,明一藥局,臺北市松山區南京東路５段５９巷２８弄２５號１樓,121.5582,25.0527,(02)27691654,羅氏家用新冠病毒抗原自我檢測套組,9,2022/04/28 16:31:03,AM10: ~~PM9:00
5901011699,建東大藥局,臺北市松山區三民路９７號１樓,121.5634,25.05723,(02)27676237,羅氏家用新冠病毒抗原自我檢測套組,1,2022/04/28 16:31:03,無
5901012409,家音藥局,臺北市松山區民生東路５段７３號,121.5585,25.05871,(02)37652080,羅氏家用新冠病毒抗原自我檢測套組,77,2022/04/28 16:31:03,無
5901012598,婕登藥局,臺北市松山區八德路４段６９９號,121.5766,25.05021,(02)27482893,羅氏家用新冠病毒抗原自我檢測套組,3,2022/04/28 16:31:03,無
5901013095,康采藥局,臺北市松山區南京東路５段２９１巷１７－２號,121.5663,25.05236,(02)27670271,羅氏家用新冠病毒抗原自我檢測套組,2,2022/04/28 16:31:03,無
5901013399,一安正昇藥局,臺北市松山區南京東路５段３０９號,121.5667,25.05155,(02)27680993,羅氏家用新冠病毒抗原自我檢測套組,4,2022/04/28 16:31:03,無
5901013442,松山八德藥局,臺北市松山區八德路２段４００號,121.5466,25.04804,(02)27782773,羅氏家用新冠病毒抗原自我檢測套組,8,2022/04/28 16:31:03,快篩實名制，每天16:00開始販售，售完為止。
5901013728,康麗藥局,臺北市松山區南京東路３段３０３巷２０號（１樓）,121.5468,25.05374,(02)27174117,羅氏家用新冠病毒抗原自我檢測套組,4,2022/04/28 16:31:03,無
5901020303,宏恩藥局,臺北市大安區大安路１段１８１號,121.5461,25.03619,(02)27000956,羅氏家用新冠病毒抗原自我檢測套組,1,2022/04/28 16:31:03,實名制快篩每周一~六，10:00發放號碼牌， 另於12:00~21:00自由擇時，持號碼牌領取快篩並收費
5901020385,延吉大藥局,臺北市大安區延吉街１５３號１樓,121.5548,25.04066,(02)27819227,羅氏家用新冠病毒抗原自我檢測套組,6,2022/04/28 16:31:03,8:30開始排隊販賣口罩
5901020465,杏友藥局,臺北市大安區復興南路２段１５１巷２５號,121.5446,25.02847,(02)27079451,羅氏家用新冠病毒抗原自我檢測套組,1,2022/04/28 16:31:03,無
5901020563,施寶藥局,臺北市大安區安東街５０－５號１樓,121.5426,25.04277,(02)27114175,羅氏家用新冠病毒抗原自我檢測套組,23,2022/04/28 16:31:03,週一至週五早上11點到下午8點.周六周日及公訂例假日公休
5901020634,新廣生藥局,臺北市大安區仁愛路４段３４號,121.5467,25.03762,(02)27071221,羅氏家用新冠病毒抗原自我檢測套組,3,2022/04/28 16:31:03,固定周日公休
5901020787,吉成藥局,臺北市大安區泰順街７號,121.5316,25.02557,(02)23636475,羅氏家用新冠病毒抗原自我檢測套組,4,2022/04/28 16:31:03,每日下午三點發放號碼牌，同時間開始販賣實名制快篩，週日無發放
5901021248,永誠藥局,臺北市大安區忠孝東路４段２１６巷２５之１號,121.5531,25.03997,(02)27520273,羅氏家用新冠病毒抗原自我檢測套組,70,2022/04/28 16:31:03,無
5901021408,生百藥局,臺北市大安區臨江街１２４號,121.5539,25.03024,(02)27371011,羅氏家用新冠病毒抗原自我檢測套組,39,2022/04/28 16:31:03,無
5901022898,永康藥局,臺北市大安區麗水街６之２號,121.529,25.03289,(02)23279362,羅氏家用新冠病毒抗原自我檢測套組,3,2022/04/28 16:31:03,無
5901023313,安和藥局,臺北市大安區安和路１段１０２巷３號,121.5519,25.03433,(02)27092349,羅氏家用新冠病毒抗原自我檢測套組,20,2022/04/28 16:31:03,平日下午三點開始販賣，九點結束
5901023680,新富川藥局,臺北市大安區大安路１段５１巷４號,121.5464,25.04303,(02)27114758,羅氏家用新冠病毒抗原自我檢測套組,27,2022/04/28 16:31:03,無提供急診服務
5901024221,安居藥局,臺北市大安區安居街１９號,121.5549,25.02085,(02)23773537,羅氏家用新冠病毒抗原自我檢測套組,78,2022/04/28 16:31:03,領口罩注意事項:週一到週六早上8:30-12:00直接排隊購買 .週日不營業
5901024838,昶青藥局,臺北市大安區濟南路３段２２之１號,121.5346,25.04008,(02)27515678,羅氏家用新冠病毒抗原自我檢測套組,1,2022/04/28 16:31:03,無
5901025022,躍獅敦和藥局,臺北市大安區和平東路３段１０號,121.547,25.02453,(02)23785767,羅氏家用新冠病毒抗原自我檢測套組,9,2022/04/28 16:31:03,無
5901090216,裕仁藥局,臺北市大同區迪化街２段２７０號－１,121.5115,25.07068,(02)25910064,羅氏家用新冠病毒抗原自我檢測套組,13,2022/04/28 16:31:03,無
5901090369,保慶藥局,臺北市大同區保安街２１號,121.5129,25.05926,(02)25538988,羅氏家用新冠病毒抗原自我檢測套組,77,2022/04/28 16:31:03,無
5901092149,123宅藥局,臺北市大同區鄭州路１２３號（１樓）,121.5109,25.05033,(02)25588699,羅氏家用新冠病毒抗原自我檢測套組,39,2022/04/28 16:31:03,快篩一日 兩時段 （1） 09:30  （2）18:00
5901092158,慶福藥局,臺北市大同區南京西路２３３巷２號（１樓）,121.5104,25.05397,(02)25503628,羅氏家用新冠病毒抗原自我檢測套組,4,2022/04/28 16:31:03,無
5901100628,貢玄藥局,臺北市中山區錦州街２０７號,121.532,25.06039,(02)25637847,羅氏家用新冠病毒抗原自我檢測套組,62,2022/04/28 16:31:03,早上10點~11點領口罩
5901101250,美日藥局,臺北市中山區天津街６６號１樓,121.5233,25.05136,(02)25631662,羅氏家用新冠病毒抗原自我檢測套組,1,2022/04/28 16:31:03,疫情期間每星期日公休
5901101509,永直藥局,臺北市中山區北安路５９５巷２弄６號,121.5483,25.08192,(02)85098059,羅氏家用新冠病毒抗原自我檢測套組,25,2022/04/28 16:31:03,無
5901101929,樂活苑藥局,臺北市中山區北安路５４６號１樓,121.548,25.08014,(02)25323296,羅氏家用新冠病毒抗原自我檢測套組,73,2022/04/28 16:31:03,營業時間為09:30至10:00.疫苗預約及防疫口罩代售時間為14:30~16:30.
5901102444,啟美藥師藥局,臺北市中山區錦州街２８２號,121.5352,25.06024,(02)25178032,羅氏家用新冠病毒抗原自我檢測套組,78,2022/04/28 16:31:03,口罩19點開賣到21點，星期六日公休
5901102579,躍獅晴光藥局,臺北市中山區農安街２３之２號,121.5245,25.06501,(02)25951393,羅氏家用新冠病毒抗原自我檢測套組,78,2022/04/28 16:31:03,口罩販賣時段:下午2點晚上8點，售完會提前結束
5901102631,金生藥局,臺北市中山區長安東路２段１６７－１號,121.5407,25.04843,(02)87729808,羅氏家用新冠病毒抗原自我檢測套組,8,2022/04/28 16:31:03,口罩配發時間，周一~周五09:00~21:00（發完為止），星期六10:00~14:00
5901102837,正傑健保藥局,臺北市中山區長安東路２段１８１號,121.5426,25.04839,(02)27310181,羅氏家用新冠病毒抗原自我檢測套組,11,2022/04/28 16:31:03,無
5901102855,錦西春天生活藥局,臺北市中山區錦西街１０號,121.5216,25.06024,(02)25312658,羅氏家用新冠病毒抗原自我檢測套組,7,2022/04/28 16:31:03,口罩15:30領號碼牌 即行販售至16:30
5901103183,OK藥師藥局,臺北市中山區興安街９５號,121.5435,25.05615,(02)25170068,羅氏家用新冠病毒抗原自我檢測套組,6,2022/04/28 16:31:03,全年無休
5901103236,誠意中西藥局,臺北市中山區林森北路６１３號,121.5258,25.06647,(02)25950951,羅氏家用新冠病毒抗原自我檢測套組,1,2022/04/28 16:31:03,無
5901103414,元宏藥局,臺北市中山區北安路４５８巷４１弄４９號,121.5465,25.0794,(02)25339728,羅氏家用新冠病毒抗原自我檢測套組,5,2022/04/28 16:31:03,早上營業08:00至12:00，下午由14:30營業至21:30
5901103423,農安藥局,臺北市中山區農安街１８之１號,121.5248,25.06483,(02)25959293,羅氏家用新冠病毒抗原自我檢測套組,12,2022/04/28 16:31:03,無
5901103487,錦州春天生活藥局,臺北市中山區錦州街２１３號、２１３號２樓,121.5321,25.06039,(02)25213586,羅氏家用新冠病毒抗原自我檢測套組,1,2022/04/28 16:31:03,營業全年無休.8:30~22:30 除夕到16:30， 初一~三10:00~20:00，初四正常
5901103530,農安盛康藥局,臺北市中山區農安街２６７號,121.5358,25.06477,(02)25038205,羅氏家用新冠病毒抗原自我檢測套組,1,2022/04/28 16:31:03,早上九點發號碼牌 開始發放實名制快篩
5901103585,禾全藥局,臺北市中山區龍江路３３２號,121.5409,25.06532,(02)25165721,羅氏家用新冠病毒抗原自我檢測套組,39,2022/04/28 16:31:03,口罩代售時間：1400、20:00  ；現場排隊
5901103656,大樹龍江藥局,臺北市中山區龍江路２４２號,121.5406,25.05889,(02)25035666,羅氏家用新冠病毒抗原自我檢測套組,41,2022/04/28 16:31:03,國定假日仍執行調劑業務
5901103674,康廷藥局,臺北市中山區北安路６１１號（實際營業地址：１層）,121.5488,25.08253,(02)25335890,羅氏家用新冠病毒抗原自我檢測套組,7,2022/04/28 16:31:03,國定假日執行調劑業務
5901103745,吉林藥局,臺北市中山區吉林路３７１號（１樓）,121.5305,25.06511,(02)25865990,羅氏家用新冠病毒抗原自我檢測套組,20,2022/04/28 16:31:03,國定假日仍執行調劑業務
5901103790,可康藥局,臺北市中山區林森北路３７３號（１樓）,121.5257,25.05826,(02)25361078,羅氏家用新冠病毒抗原自我檢測套組,3,2022/04/28 16:31:03,國定假日仍執行調劑業務
5901110133,泰成藥局,臺北市內湖區內湖路３段１３５號１樓,121.5899,25.08685,(02)27921231,羅氏家用新冠病毒抗原自我檢測套組,76,2022/04/28 16:31:03,口罩販售:上午9:00開始發號碼牌，9點同步販售.
5901110311,永安藥局,臺北市內湖區文德路２１０巷３０弄４８號,121.5852,25.07723,(02)26586658,羅氏家用新冠病毒抗原自我檢測套組,4,2022/04/28 16:31:03,口罩販售時間早上10點開始發號碼牌  同時販售
5901111934,至康藥局,臺北市內湖區內湖路１段７３７巷１９弄１號,121.5785,25.07925,(02)26580022,羅氏家用新冠病毒抗原自我檢測套組,2,2022/04/28 16:31:03,上午9:30開始販售，售完為止
5901112593,康健藥局,臺北市內湖區康樂街８０號,121.6189,25.07015,(02)26305825,羅氏家用新冠病毒抗原自我檢測套組,2,2022/04/28 16:31:03,無
5901112726,高昱藥局,臺北市內湖區陽光街３２１巷２６號２樓之１５,121.5786,25.07236,(02)87519962,羅氏家用新冠病毒抗原自我檢測套組,19,2022/04/28 16:31:03,週六日預約
5901112762,樂活藥師藥局,臺北市內湖區內湖路２段３６８號,121.591,25.0823,(02)27968052,羅氏家用新冠病毒抗原自我檢測套組,1,2022/04/28 16:31:03,無
5901112995,昇龍藥局,臺北市內湖區東湖路１５１號,121.6174,25.0681,(02)26316783,羅氏家用新冠病毒抗原自我檢測套組,9,2022/04/28 16:31:03,早0800-1200，午1200-1700，晚1800-2200
5901113198,傑昇藥局,臺北市內湖區內湖路２段２２７號,121.589,25.0818,(02)27925957,羅氏家用新冠病毒抗原自我檢測套組,1,2022/04/28 16:31:03,無
5901113250,大內湖藥局,臺北市內湖區成功路３段１６４號１樓,121.5903,25.08035,(02)27956286,羅氏家用新冠病毒抗原自我檢測套組,6,2022/04/28 16:31:03,早上9:30開始發放號碼牌
5901113330,躍獅大湖藥局,臺北市內湖區成功路４段３２９號,121.599,25.08454,(02)27945376,羅氏家用新冠病毒抗原自我檢測套組,31,2022/04/28 16:31:03,下午1點開始發放口罩下午7點結束
5901113385,躍獅康成藥局,臺北市內湖區成功路４段６１巷１１號,121.5928,25.0814,(02)87922031,羅氏家用新冠病毒抗原自我檢測套組,6,2022/04/28 16:31:03,每日早上10:00及下午3:00，每時段各100份大人口罩，50份兒童口罩，排隊人多時會發號碼牌。
5901113509,安安藥局,臺北市內湖區康寧路１段４號１樓,121.5912,25.08057,(02)87912187,羅氏家用新冠病毒抗原自我檢測套組,1,2022/04/28 16:31:03,早上時段08:30~11:00；晚上時段19:00~21:00。周日不販售
5901113590,維安藥局,臺北市內湖區成功路３段１７４巷２３號,121.5906,25.08143,(02)27944520,羅氏家用新冠病毒抗原自我檢測套組,1,2022/04/28 16:31:03,國定假日仍執行調劑業務
5901113661,內湖藥局,臺北市內湖區康寧路１段１１６號１樓,121.5934,25.07948,(02)27940545,羅氏家用新冠病毒抗原自我檢測套組,45,2022/04/28 16:31:03,快篩實名制，每天16:00開始販售，售完為止。
5901113705,富康活力湖光藥局,臺北市內湖區康寧路１段２５號１樓,121.5914,25.08062,(02)87927999,羅氏家用新冠病毒抗原自我檢測套組,9,2022/04/28 16:31:03,無
5901121421,祥安藥局,臺北市南港區中坡南路２５號,121.5832,25.04329,(02)26547322,羅氏家用新冠病毒抗原自我檢測套組,5,2022/04/28 16:31:03,無
5901121618,新東發藥局,臺北市南港區成福路１９８號,121.5883,25.04092,(02)27855190,羅氏家用新冠病毒抗原自我檢測套組,6,2022/04/28 16:31:03,無
5901121627,富康活力藥局,臺北市南港區研究院路１段１０１巷８號,121.6165,25.05181,(02)27828810,羅氏家用新冠病毒抗原自我檢測套組,5,2022/04/28 16:31:03,週一至週六，每天09:00-21:00販售口罩，請記得帶健保卡&零錢，售完為止。
5901121903,景星藥局,臺北市南港區南港路３段２６號,121.5924,25.05434,(02)27838816,羅氏家用新冠病毒抗原自我檢測套組,18,2022/04/28 16:31:03,無
5901121958,心亮藥局,臺北市南港區玉成街６６之７號,121.5818,25.04692,(02)27881677,羅氏家用新冠病毒抗原自我檢測套組,1,2022/04/28 16:31:03,無
5901121985,勝安藥局,臺北市南港區舊莊街１段１６５號,121.6211,25.03949,(02)27828450,羅氏家用新冠病毒抗原自我檢測套組,78,2022/04/28 16:31:03,無
5901150235,杏城藥局,臺北市士林區天母東路２４號,121.5322,25.11764,(02)28725144,羅氏家用新冠病毒抗原自我檢測套組,8,2022/04/28 16:31:03,無
5901150342,士林三安藥局,臺北市士林區大南路１１號,121.526,25.08898,(02)28812631,羅氏家用新冠病毒抗原自我檢測套組,1,2022/04/28 16:31:03,無
5901150548,田倉藥局,臺北市士林區士東路１２４號,121.5302,25.11219,(02)88662188,羅氏家用新冠病毒抗原自我檢測套組,76,2022/04/28 16:31:03,-
5901152293,安泰藥師藥局,臺北市士林區延平北路六段８３號（實際使用：１、２樓）,121.5087,25.08844,(02)28166977,羅氏家用新冠病毒抗原自我檢測套組,2,2022/04/28 16:31:03,發放口罩時間 早上9:30-晚上10:00
5901152471,得安藥局,臺北市士林區文林路１４０號,121.5267,25.08878,(02)28836336,羅氏家用新冠病毒抗原自我檢測套組,57,2022/04/28 16:31:03,星期一二三五六下午3:30---10:00   星期 四日下午5:00--10:00
5901152640,仁大藥局,臺北市士林區社子街１３號１樓,121.5083,25.08769,(02)88113793,羅氏家用新冠病毒抗原自我檢測套組,43,2022/04/28 16:31:03,快篩試劑販售時間:週一至週六上午8:30-12:00
5901152971,石川藥師藥局,臺北市士林區忠義街７０號,121.5314,25.10594,(02)28385850,羅氏家用新冠病毒抗原自我檢測套組,1,2022/04/28 16:31:03,每日下午 2:00 購買實名制快篩劑，一人一卡限購一組，現場排隊購買，不發放號碼牌，謝謝
5901153058,誼安藥局,臺北市士林區通河街４２號,121.5215,25.08044,(02)28851899,羅氏家用新冠病毒抗原自我檢測套組,78,2022/04/28 16:31:03,實名制快篩:周一至周五，每日17:00開始販售／周六10:00開始販售.
5901153245,大東健保藥局,臺北市士林區大東路８６－４號,121.5257,25.09131,(02)28834672,羅氏家用新冠病毒抗原自我檢測套組,1,2022/04/28 16:31:03,週一至六下午14:00~16:00，若有剩餘週日相同，其餘時間藥局執行藥事服務與行政業務，不便之處敬請見諒
5901153432,大南春天生活藥局,臺北市士林區大南路３１７、３１９號,121.518,25.08888,(02)28882196,羅氏家用新冠病毒抗原自我檢測套組,3,2022/04/28 16:31:03,本藥局可領慢箋 快篩每天下午3點販售 售完為止
5901153521,天母台安藥局,臺北市士林區天母西路３４號,121.5262,25.11835,(02)28728017,羅氏家用新冠病毒抗原自我檢測套組,5,2022/04/28 16:31:03,下午2點開始販售實名制快篩試劑
5901153683,安奕藥局,臺北市士林區葫蘆街３０巷１２號,121.5099,25.08034,(02)28133289,羅氏家用新冠病毒抗原自我檢測套組,1,2022/04/28 16:31:03,週日休，快篩劑早上10點開賣
5901153905,躍獅芝山藥局,臺北市士林區福華路１５４號（實際使用：１樓）,121.5227,25.10357,(02)28365822,羅氏家用新冠病毒抗原自我檢測套組,20,2022/04/28 16:31:03,無
5901153941,士東藥局,臺北市士林區士東路９１巷３號,121.5291,25.11256,(02)28760588,羅氏家用新冠病毒抗原自我檢測套組,42,2022/04/28 16:31:03,快篩實名制，每天16:00開始販售，售完為止。
5901154082,德行盛康藥局,臺北市士林區德行東路２０６之１號１樓,121.532,25.1089,(02)28348756,羅氏家用新冠病毒抗原自我檢測套組,10,2022/04/28 16:31:03,無
5901154135,誠泰中西藥局,臺北市士林區永平街１３號１樓,121.5051,25.08996,(02)88112352,羅氏家用新冠病毒抗原自我檢測套組,6,2022/04/28 16:31:03,無
5901160099,進春藥局,臺北市北投區明德路１５１號,121.5206,25.11086,(02)28216938,羅氏家用新冠病毒抗原自我檢測套組,77,2022/04/28 16:31:03,無休
5901160286,昌源藥局,臺北市北投區中央北路４段４８５號,121.4692,25.12843,(02)28928695,羅氏家用新冠病毒抗原自我檢測套組,7,2022/04/28 16:31:03,周日公休
5901160400,世全藥局,臺北市北投區知行路２７３號,121.4672,25.12134,(02)28585378,羅氏家用新冠病毒抗原自我檢測套組,78,2022/04/28 16:31:03,早0000-0100，午1300-1600，晚1600-2400
5901160428,九福藥局,臺北市北投區公館路２３６號,121.5081,25.12612,(02)28953009,羅氏家用新冠病毒抗原自我檢測套組,2,2022/04/28 16:31:03,★週日店休未營業
5901160544,黎明藥局,臺北市北投區尊賢街２５３－１號,121.5066,25.11817,(02)28223795,羅氏家用新冠病毒抗原自我檢測套組,21,2022/04/28 16:31:03,早上900至1230 下午1600至2100
5901161890,良興藥局,臺北市北投區中和街２８６號,121.5004,25.14047,(02)28933360,羅氏家用新冠病毒抗原自我檢測套組,61,2022/04/28 16:31:03,無
5901163296,天禧大藥局,臺北市北投區實踐街３５號,121.5087,25.11521,(02)28213558,羅氏家用新冠病毒抗原自我檢測套組,22,2022/04/28 16:31:03,實名制快篩下午1:30現場販售
5901163465,振生大藥局,臺北市北投區中央北路３段６１號,121.4847,25.13785,(02)28977292,羅氏家用新冠病毒抗原自我檢測套組,20,2022/04/28 16:31:03,無
5901163536,天富大藥局,臺北市北投區石牌路２段１７１號（實際使用：１樓）,121.518,25.11848,(02)28225812,羅氏家用新冠病毒抗原自我檢測套組,1,2022/04/28 16:31:03,無
5901163581,陳藥師藥局,臺北市北投區光明路２巷１３－２號（實際使用：１樓）,121.4997,25.13132,(02)28921971,羅氏家用新冠病毒抗原自我檢測套組,74,2022/04/28 16:31:03,無
5901163634,心樂藥局,臺北市北投區致遠一路２段１０５號１樓,121.5128,25.1131,(02)28210261,羅氏家用新冠病毒抗原自我檢測套組,1,2022/04/28 16:31:03,早上8:30-12:00， 下午4:00-7:00
5901163643,致遠盛康藥局,臺北市北投區致遠二路１４１號１樓,121.5128,25.1173,(02)28263580,羅氏家用新冠病毒抗原自我檢測套組,1,2022/04/28 16:31:03,早上9點發號碼牌，早上10點開始販售實名制快篩試劑
5901170059,必欣藥局,臺北市信義區松仁路２６４號,121.5696,25.02425,(02)27225060,羅氏家用新冠病毒抗原自我檢測套組,78,2022/04/28 16:31:03,無
5901170406,鼎泰藥局,臺北市信義區基隆路１段１５５號１樓,121.5653,25.04222,(02)27620617,羅氏家用新冠病毒抗原自我檢測套組,10,2022/04/28 16:31:03,周一至周五 9：30-21：30 （9:30 開始發口罩） 5／1 有營業
5901170648,立信藥局,臺北市信義區松山路４０３號,121.578,25.04144,(02)27687754,羅氏家用新冠病毒抗原自我檢測套組,78,2022/04/28 16:31:03,快篩試劑販賣時間:晚上七點至九點
5901170915,杏仁藥局,臺北市信義區大道路１３５號,121.5834,25.03901,(02)27262541,羅氏家用新冠病毒抗原自我檢測套組,10,2022/04/28 16:31:03,春節期間看診時段請電洽
5901172213,華泰藥局,臺北市信義區虎林街８２巷５號,121.5769,25.04335,(02)27601992,羅氏家用新冠病毒抗原自我檢測套組,1,2022/04/28 16:31:03,無
5901172240,德康大藥局,臺北市信義區松山路５４１巷２１號,121.579,25.03794,(02)27272502,羅氏家用新冠病毒抗原自我檢測套組,6,2022/04/28 16:31:03,無
5901172268,皇佳大藥局,臺北市信義區松山路５４１巷１９號,121.5789,25.03793,(02)27269868,羅氏家用新冠病毒抗原自我檢測套組,14,2022/04/28 16:31:03,早上9:00~21:00持健保卡領取實名制口罩，請自備零錢
5901172544,麗中藥局,臺北市信義區福德街２１７號,121.5847,25.03841,(02)27594416,羅氏家用新冠病毒抗原自我檢測套組,7,2022/04/28 16:31:03,無
5901172580,文興藥局,臺北市信義區福德街２４５號,121.5859,25.03874,(02)27590989,羅氏家用新冠病毒抗原自我檢測套組,35,2022/04/28 16:31:03,無
5901172924,躍獅松仁藥局,臺北市信義區松仁路２３３號（實際營業地址：１樓）,121.5688,25.02617,(02)27238626,羅氏家用新冠病毒抗原自我檢測套組,2,2022/04/28 16:31:03,快篩販售時段:下午13:30開始售完至晚上19:00前
5901172964,榮泰藥局,臺北市信義區光復南路４１９巷１９號,121.5582,25.03659,(02)77296777,羅氏家用新冠病毒抗原自我檢測套組,8,2022/04/28 16:31:03,09:00開始發口罩，發完為止
5901173390,馨馨藥局,臺北市信義區虎林街８２巷１９號,121.5764,25.04336,(02)27491208,羅氏家用新冠病毒抗原自我檢測套組,1,2022/04/28 16:31:03,無
5901173603,松德盛康藥局,臺北市信義區松德路４０號,121.5767,25.03896,(02)87891622,羅氏家用新冠病毒抗原自我檢測套組,15,2022/04/28 16:31:03,今日號碼牌已發放完畢，請依號碼牌於今日晚上18:00前購買
5901173738,尚頤中西藥局,臺北市信義區虎林街１４５號,121.5767,25.03959,(02)27253818,羅氏家用新冠病毒抗原自我檢測套組,71,2022/04/28 16:31:03,無
5901173818,博亞藥局,臺北市信義區莊敬路４６２號,121.5677,25.02672,(02)27580506,羅氏家用新冠病毒抗原自我檢測套組,41,2022/04/28 16:31:03,快篩需領號碼牌
5901173854,杏一後山埤藥局,臺北市信義區忠孝東路５段７７８號（實際營業地址：１樓）,121.5816,25.0434,(02)27274357,羅氏家用新冠病毒抗原自我檢測套組,41,2022/04/28 16:31:03,無
5901173872,柏愛藥局,臺北市信義區基隆路２段１３１之９號,121.5567,25.02788,(02)27325472,羅氏家用新冠病毒抗原自我檢測套組,3,2022/04/28 16:31:03,無
5901173881,壹間藥師藥局,臺北市信義區虎林街１２０巷１４８號,121.5742,25.04213,(02)27672833,羅氏家用新冠病毒抗原自我檢測套組,2,2022/04/28 16:31:03,快篩星期一到六 10:00發號碼牌開賣； 星期日 12:00發號碼牌開賣
5901174039,日安藥局,臺北市信義區松仁路２４０巷１３號１樓,121.5691,25.02454,(02)27203775,羅氏家用新冠病毒抗原自我檢測套組,46,2022/04/28 16:31:03,無
5901174057,詠晴中西藥局,臺北市信義區松山路４８４之４號（１樓含夾層）,121.5778,25.0389,(02)27266890,羅氏家用新冠病毒抗原自我檢測套組,12,2022/04/28 16:31:03,無
5901174066,愛維喜藥局,臺北市信義區莊敬路２７８號１樓,121.5627,25.02882,(02)27586989,羅氏家用新冠病毒抗原自我檢測套組,5,2022/04/28 16:31:03,無
5901174075,信義盛康藥局,臺北市信義區永吉路２８６號（１樓）,121.5744,25.04538,(02)23460521,羅氏家用新冠病毒抗原自我檢測套組,6,2022/04/28 16:31:03,無
5901174084,市政藥局,臺北市信義區忠孝東路５段１６９號１樓、１７１號１樓,121.5688,25.0412,(02)27560050,羅氏家用新冠病毒抗原自我檢測套組,9,2022/04/28 16:31:03,無
5901180322,南昌大藥局,臺北市中正區南昌路１段８６號１樓,121.5174,25.03086,(02)23510322,羅氏家用新冠病毒抗原自我檢測套組,7,2022/04/28 16:31:03,無
5901180368,古亭藥局,臺北市中正區汀州路３段１１７號,121.5301,25.01667,(02)23683618,羅氏家用新冠病毒抗原自我檢測套組,77,2022/04/28 16:31:03,無
5901182068,永興藥局,臺北市中正區汀州路１段９２巷２８號,121.5068,25.02999,(02)23050986,羅氏家用新冠病毒抗原自我檢測套組,1,2022/04/28 16:31:03,無
5901183387,丞良藥局,臺北市中正區南昌路１段７８號地下１樓,121.5173,25.03099,(02)33938868,羅氏家用新冠病毒抗原自我檢測套組,78,2022/04/28 16:31:03,週一~週五 晚上9:00~9:30現場領取
5901183789,佑康大藥局,臺北市中正區汀州路２段６４號,121.5184,25.02513,(02)23683602,羅氏家用新冠病毒抗原自我檢測套組,15,2022/04/28 16:31:03,快篩下午2點開賣
5901184080,活力健康藥妝藥局,臺北市中正區中華路２段３１５巷１號,121.5062,25.02795,(02)23392625,羅氏家用新冠病毒抗原自我檢測套組,29,2022/04/28 16:31:03,快篩販售1100-1200 1800-1900 週日有
5901184213,71恩典藥局,臺北市中正區信義路２段７１號,121.5264,25.03466,(02)23223371,羅氏家用新冠病毒抗原自我檢測套組,78,2022/04/28 16:31:03,快篩==週一到週五19:00／週六17:00購買， 十分鐘前發號碼牌
5901184366,宏越藥局,臺北市中正區中華路２段３１３巷４號,121.5061,25.02813,(02)23050880,羅氏家用新冠病毒抗原自我檢測套組,3,2022/04/28 16:31:03,代售防疫口罩時間 每日下午3:00-6:00 其餘時間不便進行代售 敬祈見諒
5901184491,躍獅南門藥局,臺北市中正區中華路２段３９巷１０號,121.5074,25.03484,(02)23141111,羅氏家用新冠病毒抗原自我檢測套組,4,2022/04/28 16:31:03,口罩販售時段：成人早上9點及晚上7點各200個
5901184553,珍忻藥局,臺北市中正區南昌路１段６５號,121.5174,25.03107,(02)23965115,羅氏家用新冠病毒抗原自我檢測套組,36,2022/04/28 16:31:03,健保快篩發放:13:20及18:20分兩梯次發號碼牌
5901184599,長頸鹿藥師藥局,臺北市中正區南昌路１段１３２號,121.5183,25.02955,(02)23962120,羅氏家用新冠病毒抗原自我檢測套組,7,2022/04/28 16:31:03,無
5901184633,躍獅東門藥局,臺北市中正區金山南路１段１０８之１號（１樓）,121.5273,25.03538,(02)23920339,羅氏家用新冠病毒抗原自我檢測套組,78,2022/04/28 16:31:03,無
5901184642,康呈安藥局,臺北市中正區汀州路２段１８７號１樓,121.522,25.02403,(02)23672215,羅氏家用新冠病毒抗原自我檢測套組,74,2022/04/28 16:31:03,快篩14:50~14:55發號碼牌15:00開始販售
5901184679,汀州藥局,臺北市中正區汀州路１段１８７、１８９、１９１號（１樓）,121.5112,25.02704,(02)23090705,羅氏家用新冠病毒抗原自我檢測套組,18,2022/04/28 16:31:03,快篩實名制，每天16:00開始販售，售完為止。
5901190515,日昇藥局,臺北市萬華區廣州街１２４號,121.5016,25.03654,(02)23062975,羅氏家用新冠病毒抗原自我檢測套組,78,2022/04/28 16:31:03,實名制快篩晚上八點開始
5901190668,聯慶大藥局,臺北市萬華區萬大路３０６號１樓,121.5003,25.02495,(02)23039850,羅氏家用新冠病毒抗原自我檢測套組,6,2022/04/28 16:31:03,無
5901192162,寶興大藥局,臺北市萬華區寶興街１１９號,121.4948,25.02529,(02)23013375,羅氏家用新冠病毒抗原自我檢測套組,21,2022/04/28 16:31:03,無
5901192975,萬華藥局,臺北市萬華區萬大路２４８號實際營業地址１樓、２樓,121.5003,25.02626,(02)23012221,羅氏家用新冠病毒抗原自我檢測套組,1,2022/04/28 16:31:03,快篩實名制，每天16:00開始販售，售完為止。
5901193169,柏祥藥局,臺北市萬華區西藏路１４１號,121.5017,25.02944,(02)23018272,羅氏家用新冠病毒抗原自我檢測套組,78,2022/04/28 16:31:03,快篩服務時間PM06:00-07:00，售完提前截止。
5901193221,正盛藥局,臺北市萬華區中華路２段４３４－１號,121.5064,25.02708,(02)23050386,羅氏家用新冠病毒抗原自我檢測套組,66,2022/04/28 16:31:03,公費快篩晚上8點依現場後位順序發放
5901193329,西園宏越藥局,臺北市萬華區西園路２段２１３號,121.4942,25.02714,(02)23097336,羅氏家用新冠病毒抗原自我檢測套組,11,2022/04/28 16:31:03,無
5901193338,艾米力藥師藥局,臺北市萬華區西藏路１０７－２號１樓,121.5035,25.02955,(02)23036583,羅氏家用新冠病毒抗原自我檢測套組,1,2022/04/28 16:31:03,無
5901200105,建興藥局,臺北市文山區木柵路２段８１號１樓,121.561,24.98889,(02)29399993,羅氏家用新冠病毒抗原自我檢測套組,2,2022/04/28 16:31:03,無
5901200114,健群藥局,臺北市文山區景興路４１號,121.5448,24.99717,(02)29328898,羅氏家用新冠病毒抗原自我檢測套組,19,2022/04/28 16:31:03,無
5901200123,瑞安藥局,臺北市文山區溪口街６９－１號１樓,121.5393,24.99512,(02)29312888,羅氏家用新冠病毒抗原自我檢測套組,10,2022/04/28 16:31:03,早上8:30起服務星期日休息
5901200141,景美藥局,臺北市文山區景文街１２５號,121.5412,24.99033,(02)29335741,羅氏家用新冠病毒抗原自我檢測套組,1,2022/04/28 16:31:03,無
5901200490,永明大藥局,臺北市文山區興隆路１段２９７號１樓,121.5449,24.99875,(02)29314428,羅氏家用新冠病毒抗原自我檢測套組,4,2022/04/28 16:31:03,無
5901201568,康宜庭生活藥局,臺北市文山區興隆路４段６４號,121.5613,24.98514,(02)29385363,羅氏家用新冠病毒抗原自我檢測套組,2,2022/04/28 16:31:03,無
5901201826,舒博威藥局,臺北市文山區興隆路２段９５巷３號,121.547,24.99952,(02)29306805,羅氏家用新冠病毒抗原自我檢測套組,11,2022/04/28 16:31:03,早上8:30開始販售口罩
5901201871,佳醫景美藥局,臺北市文山區羅斯福路６段２９０號,121.5398,24.991,(02)86636659,羅氏家用新冠病毒抗原自我檢測套組,3,2022/04/28 16:31:03,周一至周六12:00-14:30販售，其餘時段不進行販售。星期日不販售口罩。
5901202627,杏隆藥局,臺北市文山區羅斯福路５段２６１號,121.5395,25.00115,(02)29313151,羅氏家用新冠病毒抗原自我檢測套組,37,2022/04/28 16:31:03,快篩實名制採預約登記，請至藥局現場登記。
5901202654,康宜庭萬隆藥局,臺北市文山區羅斯福路５段２０２號,121.5384,25.00322,(02)29348662,羅氏家用新冠病毒抗原自我檢測套組,1,2022/04/28 16:31:03,無
5901202681,振大藥局,臺北市文山區永安街２２巷１６號,121.5697,24.98683,(02)29393385,羅氏家用新冠病毒抗原自我檢測套組,12,2022/04/28 16:31:03,無
5901202841,欣安景美藥局,臺北市文山區景文街７７號,121.5414,24.99126,(02)29316008,羅氏家用新冠病毒抗原自我檢測套組,5,2022/04/28 16:31:03,每天口罩PM14:30發號碼牌15:00-21:00開始販賣售完為止
5901202949,萬隆大藥局,臺北市文山區羅斯福路５段２１８巷１５號,121.538,25.00203,(02)29334580,羅氏家用新冠病毒抗原自我檢測套組,17,2022/04/28 16:31:03,9：00~23：00
5901203062,大樹文山藥局,臺北市文山區興隆路３段１３號（１、２、３樓）,121.555,25.00088,(02)29342226,羅氏家用新冠病毒抗原自我檢測套組,11,2022/04/28 16:31:03,口罩販售時間：14:00 - 16:00
5901203268,躍獅木柵藥局,臺北市文山區指南路１段２８號,121.5695,24.98756,(02)86617752,羅氏家用新冠病毒抗原自我檢測套組,8,2022/04/28 16:31:03,無
5901203366,大樹木柵藥局,臺北市文山區木柵路３段１０８號、１１０號（１樓、２樓）,121.5676,24.98866,(02)22340110,羅氏家用新冠病毒抗原自我檢測套組,1,2022/04/28 16:31:03,無
5901203375,大樹景美藥局,臺北市文山區羅斯福路６段２３４之１號,121.5404,24.99244,(02)29322951,羅氏家用新冠病毒抗原自我檢測套組,12,2022/04/28 16:31:03,無
5901203482,健康家藥局,臺北市文山區興隆路２段１３３號１樓,121.5481,25.00011,(02)29330858,羅氏家用新冠病毒抗原自我檢測套組,2,2022/04/28 16:31:03,無
5902011308,昇安藥局,高雄市鹽埕區瀨南街２２５號１樓,120.284,22.62797,(07)5216438,羅氏家用新冠病毒抗原自我檢測套組,4,2022/04/28 16:31:03,無
5902021377,藍玉藥局,高雄市鼓山區鼓峰里九如四路２００２號,120.2861,22.66774,(07)5837528,羅氏家用新冠病毒抗原自我檢測套組,1,2022/04/28 16:31:03,賣口罩時間：周一至週五早上9:30起，售完為止。
5902022829,弘興藥局,高雄市鼓山區鼓山三路４８－１１號,120.2757,22.65468,(07)5612677,羅氏家用新冠病毒抗原自我檢測套組,1,2022/04/28 16:31:03,春節期間看診時段請電洽藥局
5902022874,康爾喜藥局,高雄市鼓山區慶豐街５０號,120.2935,22.66647,(07)5222650,羅氏家用新冠病毒抗原自我檢測套組,12,2022/04/28 16:31:03,早上9點半後開始販售口罩，營業時間為早上9:10至晚間10:00
5902022972,高雄藥局,高雄市鼓山區九如四路９２４號,120.2793,22.65466,(07)5214266,羅氏家用新冠病毒抗原自我檢測套組,6,2022/04/28 16:31:03,賣口罩時間為週一～週六晚上6點，售完為止
5902032432,威林藥局,高雄市左營區華夏路７２１號,120.3023,22.67845,(07)3414243,羅氏家用新冠病毒抗原自我檢測套組,5,2022/04/28 16:31:03,營業時間販售口罩（售完為止），星期一~五早上9:00~晚上9:00，星期六早上09:00~下午5:00執業
5902032441,健怡藥局,高雄市左營區翠峰路４０號,120.2897,22.67229,(07)5821891,羅氏家用新冠病毒抗原自我檢測套組,24,2022/04/28 16:31:03,口罩星期一~星期六早上8:30開始販售
5902032530,杏光藥局,高雄市左營區果峰街４７巷１號１樓,120.2869,22.6703,(07)5837060,羅氏家用新冠病毒抗原自我檢測套組,49,2022/04/28 16:31:03,上午營業時間為9 :00~12:00；晚上營業至21:30
5902040014,成吉藥局,高雄市楠梓區楠梓東街７４號,120.3301,22.72966,(07)3513339,羅氏家用新冠病毒抗原自我檢測套組,78,2022/04/28 16:31:03,上午7點30分憑健保卡購買口罩售完為止，星期日店休
5902040069,新友藥局,高雄市楠梓區萬昌路１１１號,120.2895,22.71194,(07)3653534,羅氏家用新冠病毒抗原自我檢測套組,1,2022/04/28 16:31:03,藥局販售口罩時間，依藥局門口公告時間為主（售完為止）
5902040185,東初藥局,高雄市楠梓區楠梓路３２號,120.33,22.72873,(07)3511261,羅氏家用新冠病毒抗原自我檢測套組,2,2022/04/28 16:31:03,無
5902042661,元春中西藥師藥局,高雄市楠梓區後昌路８３７巷３７號,120.294,22.71109,(07)3605656,羅氏家用新冠病毒抗原自我檢測套組,1,2022/04/28 16:31:03,早上.9:00為口罩領取時間售完為止星期日休息
5902050298,瑞鶴藥局,高雄市三民區寶德里義德路２５號,120.3352,22.64301,(07)3862757,羅氏家用新冠病毒抗原自我檢測套組,40,2022/04/28 16:31:03,下午2:00至4:30午休勿擾，每日10:00至21:00發售。春節期間看診時段請電洽藥局
5902050350,日星藥局,高雄市三民區寶龍里惠德街３８號,120.3241,22.64741,(07)3845188,羅氏家用新冠病毒抗原自我檢測套組,20,2022/04/28 16:31:03,銷售口罩時間:星期一至五16:00-22:00；星期六09:00-11:30，售完為止
5902050412,春仁藥局,高雄市三民區覺民路２２５號,120.3391,22.63944,(07)3962341,羅氏家用新冠病毒抗原自我檢測套組,2,2022/04/28 16:31:03,4／1-4／30售時間自9；00-22:00現場排隊.（賣完為止）
5902050636,嘉益藥局,高雄市三民區重慶街３０號,120.302,22.64223,(07)3110157,羅氏家用新冠病毒抗原自我檢測套組,14,2022/04/28 16:31:03,無
5902050798,友泰藥局,高雄市三民區中和街１６９號,120.2868,22.6388,(07)3125236,羅氏家用新冠病毒抗原自我檢測套組,54,2022/04/28 16:31:03,無
5902050903,皇安藥局,高雄市三民區九如一路４６１號,120.3296,22.63865,(07)3866779,羅氏家用新冠病毒抗原自我檢測套組,3,2022/04/28 16:31:03,營業日08:15~08:30可先領取號碼牌，上午08:30~12:00及下午3:00~10:.00為販賣口罩時間，售完為止
5902051240,明皇藥局,高雄市三民區寶國里義華路１８１號,120.3399,22.64276,(07)3860121,羅氏家用新冠病毒抗原自我檢測套組,19,2022/04/28 16:31:03,藥局販售口罩時間，依藥局門口公告時間為主（售完為止）
5902051786,億生藥局,高雄市三民區南台路２００號,120.2982,22.63706,(07)2873436,羅氏家用新冠病毒抗原自我檢測套組,1,2022/04/28 16:31:03,「藥局販售口罩時間，依藥局門口公告時間為主（售完為止）」
5902056754,大家藥局,高雄市三民區鼎中路２２９號１樓,120.3191,22.66421,(07)3107632,羅氏家用新冠病毒抗原自我檢測套組,12,2022/04/28 16:31:03,營業日08:30-12:00，15:30-21:00為販賣口罩時間.售完為止
5902056807,長慶藥局,高雄市三民區金鼎路３１０號,120.3207,22.66513,(07)3105835,羅氏家用新冠病毒抗原自我檢測套組,3,2022/04/28 16:31:03,自110／01／01-110／12／31，營業日早上08:30至晚上10:30為販賣口罩時間.售完為止
5902057368,崧民藥師藥局,高雄市三民區金鼎路２２８號,120.3238,22.66483,(07)3102496,羅氏家用新冠病毒抗原自我檢測套組,1,2022/04/28 16:31:03,服務時間9:00-22:30自01／01日~1月29日
5902057484,永勝藥局,高雄市三民區褒忠街１１４號,120.334,22.64262,(07)3814643,羅氏家用新冠病毒抗原自我檢測套組,2,2022/04/28 16:31:03,口罩代售時間14:00--16:00.現場排隊.週日休
5902057519,伍陸藥局,高雄市三民區正興路９４號,120.3208,22.64597,(07)3890676,羅氏家用新冠病毒抗原自我檢測套組,2,2022/04/28 16:31:03,口罩發放時間早上08:30開始 售完為止春節期間看診時段請電洽藥局
5902060025,連作藥局,高雄市新興區大同一路２０３－１號,120.3003,22.62856,(07)2154716,羅氏家用新冠病毒抗原自我檢測套組,24,2022/04/28 16:31:03,快篩試紙領用時間為每日下午2點  4／29日起
5902061540,長青藥局,高雄市新興區六合路１１４號,120.3159,22.63223,(07)2223969,羅氏家用新冠病毒抗原自我檢測套組,5,2022/04/28 16:31:03,上午8點40分   領完為止
5902061899,元盛藥局,高雄市新興區六合路１５３號,120.3149,22.63186,(07)2228183,羅氏家用新冠病毒抗原自我檢測套組,2,2022/04/28 16:31:03,無
5902071546,中華藥局,高雄市前金區中華四路３６３號,120.2987,22.62137,(07)2712779,羅氏家用新冠病毒抗原自我檢測套組,3,2022/04/28 16:31:03,星期日固定休假
5902080465,廣德泰藥局,高雄市苓雅區苓雅二路７６號,120.2997,22.61762,(07)3340769,羅氏家用新冠病毒抗原自我檢測套組,6,2022/04/28 16:31:03,早上8點30開始口罩販，售完為止
5902080474,弘宗藥局,高雄市苓雅區武智街２號,120.3356,22.62303,(07)7211088,羅氏家用新冠病毒抗原自我檢測套組,4,2022/04/28 16:31:03,8:00~22:00（營業時段）
5902081015,明群藥局,高雄市苓雅區英明路５４號,120.3253,22.61276,(07)7254953,羅氏家用新冠病毒抗原自我檢測套組,51,2022/04/28 16:31:03,周一至周日每日8:00開始販售防疫口罩依現場排隊序販賣售完為止
5902081186,寶麒藥局,高雄市苓雅區三多一路１４４號,120.3315,22.62306,(07)7610355,羅氏家用新冠病毒抗原自我檢測套組,14,2022/04/28 16:31:03,防疫口罩販售時段:周一至周六早上約9點開始販售，滿規定2小時後視狀況再延長販售時間，周日休息.
5902081328,東信藥局,高雄市苓雅區三多一路１８９號,120.3313,22.62258,(07)7613309,羅氏家用新冠病毒抗原自我檢測套組,1,2022/04/28 16:31:03,早上8:30開始發送號碼牌販售口罩，售完為止，假日正常販售
5902085031,上好藥局,高雄市苓雅區四維一路六三號一樓,120.3294,22.6257,(07)7266863,羅氏家用新冠病毒抗原自我檢測套組,15,2022/04/28 16:31:03,販售口罩時間.每日下午14:00起.售完為止~
5902085148,召祐健保藥局,高雄市苓雅區正義路９３號,120.3385,22.63037,(07)7493719,羅氏家用新冠病毒抗原自我檢測套組,25,2022/04/28 16:31:03,無
5902085184,惠春藥局,高雄市苓雅區武慶三路９６號,120.3319,22.62043,(07)7611358,羅氏家用新冠病毒抗原自我檢測套組,60,2022/04/28 16:31:03,「藥局販售口罩時間，依藥局門口公告時間為主（售完為止）」
5902085344,意祥藥局,高雄市苓雅區武廟路１４２之１號,120.3276,22.63125,(07)7224835,羅氏家用新冠病毒抗原自我檢測套組,10,2022/04/28 16:31:03,藥局販售口罩時間，依藥局門口公告時間為主（售完為止）
5902090087,久億藥局,高雄市前鎮區保泰路３５１號,120.3341,22.60289,(07)7619333,羅氏家用新冠病毒抗原自我檢測套組,6,2022/04/28 16:31:03,無實名制口罩
5902090827,博平藥局,高雄市前鎮區草衙二路３７７號,120.3224,22.57808,(07)8311814,羅氏家用新冠病毒抗原自我檢測套組,7,2022/04/28 16:31:03,藥局販售口罩時間，依藥局門口公告時間為主（售完為止）
5902091100,佳加藥局,高雄市前鎮區瑞北路１１４號,120.3325,22.60923,(07)7228112,羅氏家用新冠病毒抗原自我檢測套組,4,2022/04/28 16:31:03,無
5902092410,旺盛藥局,高雄市前鎮區永豐路１０８號,120.3337,22.6065,(07)7512899,羅氏家用新冠病毒抗原自我檢測套組,1,2022/04/28 16:31:03,過年期間 111／01／31下午至111／02／03  休診
5902092910,健家藥局,高雄市前鎮區二聖二路４５號,120.3165,22.61293,(07)3389986,羅氏家用新冠病毒抗原自我檢測套組,2,2022/04/28 16:31:03,早上9:30開始販售口罩，售完為止，週日不販售
5902092956,慈濟健保藥局,高雄市前鎮區鎮州路２１１號,120.3082,22.58819,(07)8159788,羅氏家用新冠病毒抗原自我檢測套組,23,2022/04/28 16:31:03,每天早上8點開始賣.售完為止藥局販售口罩時間，依藥局門口公告時間為主（售完為止）
5902100033,旗后藥局,高雄市旗津區中洲三路７１５號,120.2705,22.61096,(07)5715838,羅氏家用新冠病毒抗原自我檢測套組,1,2022/04/28 16:31:03,自01／1日~12／31日15:00開賣口罩 ~18:00
5902110422,臨生藥局,高雄市小港區鳳鳴路１４６－４號,120.3588,22.51445,(07)8711290,羅氏家用新冠病毒抗原自我檢測套組,1,2022/04/28 16:31:03,早上9:00開始販售口罩，快篩劑售完為止。
5902110628,悅是康藥局,高雄市小港區漢民路２７６號,120.3536,22.56665,(07)8010012,羅氏家用新冠病毒抗原自我檢測套組,1,2022/04/28 16:31:03,無
5902111670,桂林活力藥師藥局,高雄市小港區桂陽路４０號,120.3575,22.58194,(07)7931248,羅氏家用新冠病毒抗原自我檢測套組,10,2022/04/28 16:31:03,自2／11日~2／29日，營業日08:30及13:00各50份為販賣口罩時間.售完為止
5903010350,甲蒂健保藥局,臺中市豐原區豐東路３０８號,120.7331,24.25093,(04)25256028,羅氏家用新冠病毒抗原自我檢測套組,3,2022/04/28 16:31:03,9點開始發號碼牌購買
5903010485,大樹圓環藥局,臺中市豐原區圓環東路６１７號１樓,120.7283,24.25084,(04)25122212,羅氏家用新冠病毒抗原自我檢測套組,5,2022/04/28 16:31:03,口罩販售時間：14:00 - 16:00
5903010609,隔壁藥局,臺中市豐原區一心路２４０之２號１樓,120.7007,24.24613,(04)25231527,羅氏家用新冠病毒抗原自我檢測套組,73,2022/04/28 16:31:03,無
5903030012,康好藥局,臺中市大甲區三民路１３２－２號,120.622,24.34851,(04)26802149,羅氏家用新冠病毒抗原自我檢測套組,78,2022/04/28 16:31:03,每天早上8-12點.下午14:30至售完為止.星期四不銷售. 星期日只銷售前日剩餘口罩
5903030076,百禾藥局,臺中市大甲區仁愛街５８號,120.6187,24.34717,(04)26872538,羅氏家用新冠病毒抗原自我檢測套組,8,2022/04/28 16:31:03,周一到周六全天販售防疫口罩，周三下午及周日全天休息
5903030156,盈盈藥局,臺中市大甲區文武路１８號,120.626,24.34582,(04)26804212,羅氏家用新冠病毒抗原自我檢測套組,8,2022/04/28 16:31:03,08:30~21:30
5903050149,立好藥局,臺中市沙鹿區北勢東路６９３號１樓,120.5722,24.22957,(04)26522389,羅氏家用新冠病毒抗原自我檢測套組,1,2022/04/28 16:31:03,無
5903050194,樂齊藥局,臺中市沙鹿區北中路８６－１、８６－２號,120.5692,24.22827,(04)26338867,羅氏家用新冠病毒抗原自我檢測套組,78,2022/04/28 16:31:03,防疫家用快篩試劑每日19點開賣，售完為止，庫存請依現場為主。
5903070098,祐恩藥局,臺中市后里區甲后路一段４７８號１樓,120.6819,24.3157,(04)25587518,羅氏家用新冠病毒抗原自我檢測套組,4,2022/04/28 16:31:03,固定周一到周六，國定例假日照常調劑藥服務。清明、端午、中秋節晚上休息。
5903070132,內埔瑞士藥師藥局,臺中市后里區中山路３７號１樓,120.7113,24.30446,(04)25566959,羅氏家用新冠病毒抗原自我檢測套組,4,2022/04/28 16:31:03,發放口罩以藥局店內公告為主
5903070141,甲后藥局,臺中市后里區甲后路一段２５３號１樓,120.727,24.30906,(04)25585273,羅氏家用新冠病毒抗原自我檢測套組,52,2022/04/28 16:31:03,周一到周六，早上8點開始用健保卡排隊，10點後領取口罩及健保卡
5903150091,學田藥局,臺中市烏日區學田路便行巷１４號,120.6075,24.12086,(04)23382230,羅氏家用新冠病毒抗原自我檢測套組,1,2022/04/28 16:31:03,W1-W6 10:00-售完。
5903150135,全品藥局,臺中市烏日區公園路２４０之１號１樓,120.6254,24.10234,(04)23362690,羅氏家用新冠病毒抗原自我檢測套組,1,2022/04/28 16:31:03,防疫口罩每日上午8時30分開始販售
5903150153,溪南藥局,臺中市烏日區溪南路一段５６５號１樓,120.6431,24.07523,(04)23353666,羅氏家用新冠病毒抗原自我檢測套組,24,2022/04/28 16:31:03,快篩實名制，每天16:00開始販售，售完為止。
5903150180,九德藥局,臺中市烏日區中山路一段４３８、４４０號１樓,120.6365,24.10748,(04)23385456,羅氏家用新冠病毒抗原自我檢測套組,10,2022/04/28 16:31:03,快篩實名制，每天16:00開始販售，售完為止。
5903180115,永合藥局,臺中市霧峰區中正路９６５號,120.6989,24.06597,(04)23391910,羅氏家用新冠病毒抗原自我檢測套組,1,2022/04/28 16:31:03,無
5903190077,八醫健保藥局,臺中市太平區中山路２段３５７號,120.7297,24.15021,(04)23935050,羅氏家用新冠病毒抗原自我檢測套組,6,2022/04/28 16:31:03,公發篩檢試劑時間0830開始，售完為止（1人1次限購1份）
5903190157,春長藥局,臺中市太平區太平路１４７號,120.7212,24.12003,(04)22799286,羅氏家用新冠病毒抗原自我檢測套組,2,2022/04/28 16:31:03,口罩代售時間自0900~1200；星期1-6代售
5903190362,太平中山藥局,臺中市太平區中山路４段１１號,120.7139,24.14931,(04)23959200,羅氏家用新冠病毒抗原自我檢測套組,27,2022/04/28 16:31:03,快篩實名制，每天16:00開始販售，售完為止。
5903190522,聖康佳禾藥局,臺中市太平區光興路８３１號,120.7307,24.1121,(04)22772065,羅氏家用新冠病毒抗原自我檢測套組,8,2022/04/28 16:31:03,周一至下午2:30（150份）.晚上7.30（50份）  周六.日下午2點半
5903200176,聖康藥局,臺中市大里區立仁路７９號１樓,120.7036,24.1078,(04)22700625,羅氏家用新冠病毒抗原自我檢測套組,17,2022/04/28 16:31:03,無
5903200229,信元藥局,臺中市大里區益民路２段３７２號１樓,120.684,24.11545,(04)24876051,羅氏家用新冠病毒抗原自我檢測套組,63,2022/04/28 16:31:03,下午4點發號碼牌並依序販賣
5903200443,佳霖藥局,臺中市大里區塗城路９６４號１樓,120.6933,24.09081,(04)24960895,羅氏家用新冠病毒抗原自我檢測套組,4,2022/04/28 16:31:03,口罩販售時間:早上9點-11點半.下午3點半-5點半.晚上7點-9點**早上9點開賣**現場排隊／售完為止
5903200514,大明永欣藥局,臺中市大里區大明路５３９號１樓、５４１號１樓,120.6735,24.11478,(04)24068864,羅氏家用新冠病毒抗原自我檢測套組,5,2022/04/28 16:31:03,每天下午1點到晚上9點，星期日口罩不發放
5903200596,大樹大里藥局,臺中市大里區中興路二段１０１號,120.6885,24.10305,(04)24861133,羅氏家用新冠病毒抗原自我檢測套組,23,2022/04/28 16:31:03,快篩實名制，每天16:00開始販售，售完為止。
5903200667,永欣東榮藥局,臺中市大里區東榮路３７０號１樓,120.6836,24.11032,(04)24810599,羅氏家用新冠病毒抗原自我檢測套組,11,2022/04/28 16:31:03,無
5903200738,杏一大里國光藥局,臺中市大里區國光路二段４１１號１樓,120.6796,24.10921,(04)24071492,羅氏家用新冠病毒抗原自我檢測套組,8,2022/04/28 16:31:03,周一至周六16:00~19:00，周日及補假日人力不足不販售
5903220114,鄧博士藥局,臺中市中區中山路３２５號１樓,120.6756,24.14434,(04)22256851,羅氏家用新冠病毒抗原自我檢測套組,1,2022/04/28 16:31:03,政府快篩，晚上7點，現場排隊。24小時營業，星期日不休息。
5903220169,公園大藥局,臺中市中區公園路９５號１樓,120.6796,24.1462,(04)22062682,羅氏家用新冠病毒抗原自我檢測套組,16,2022/04/28 16:31:03,每日上午8點至下午11點59分
5903220196,日安藥局,臺中市中區臺灣大道一段３３０號１樓,120.6801,24.1422,(04)22234246,羅氏家用新冠病毒抗原自我檢測套組,78,2022/04/28 16:31:03,無
5903230218,十甲東亞藥師大藥局,臺中市東區十甲路４１０號１樓,120.7081,24.14425,(04)22118879,羅氏家用新冠病毒抗原自我檢測套組,1,2022/04/28 16:31:03,無
5903240438,真誠藥局,臺中市西區美村路一段３７８號１樓,120.6615,24.14458,(04)23015750,羅氏家用新冠病毒抗原自我檢測套組,3,2022/04/28 16:31:03,世鴻診所旁，快篩實名制9:30開始販售，中午休息，週日休息
5903240492,好好誠美藥局,臺中市西區向上北路１８６號１樓,120.6611,24.14797,(04)23022838,羅氏家用新冠病毒抗原自我檢測套組,4,2022/04/28 16:31:03,無
5903250041,小林健保藥局,臺中市南區美村路２段１８２號,120.6631,24.12549,(04)22622099,羅氏家用新冠病毒抗原自我檢測套組,7,2022/04/28 16:31:03,固定周一到周日，早上8:00發號碼牌，下午4:30開始販賣防疫口罩
5903250112,立成藥局,臺中市南區學府路１４３號,120.6739,24.1289,(04)22205915,羅氏家用新冠病毒抗原自我檢測套組,3,2022/04/28 16:31:03,快篩實名制 週一至六10:00開賣，78份（390劑）賣完為止，庫存依現場為主，星期日店休
5903250381,大樹美村藥局,臺中市南區美村南路１２４號,120.667,24.11499,(04)22621113,羅氏家用新冠病毒抗原自我檢測套組,25,2022/04/28 16:31:03,口罩販售時間：14:00 - 16:00
5903250443,千美台安藥局,臺中市南區美村南路２６３號,120.6666,24.11426,(04)22602101,羅氏家用新冠病毒抗原自我檢測套組,35,2022/04/28 16:31:03,周一到周日，下午3:00發放號碼牌，開始販售防疫口罩
5903250505,心安藥局,臺中市南區國光路２４１號１樓,120.6794,24.12676,(04)22858773,羅氏家用新冠病毒抗原自我檢測套組,11,2022/04/28 16:31:03,只有週二至週五，上午9點-11點，販賣口罩，週日店休
5903250550,旭康藥局,臺中市南區台中路３８０號１樓,120.6841,24.12652,(04)22857372,羅氏家用新冠病毒抗原自我檢測套組,4,2022/04/28 16:31:03,實名制快篩販售時間下午1:30~晚上11:00
5903250578,樂碩藥局,臺中市南區建國南路一段２５９號１樓,120.6583,24.12491,(04)22601288,羅氏家用新冠病毒抗原自我檢測套組,13,2022/04/28 16:31:03,防疫快篩試劑15:00開賣，售完為止，庫存依現場為主.
5903250603,尚尚藥局,臺中市南區美村南路１９７號１樓,120.6666,24.11516,(04)22606831,羅氏家用新冠病毒抗原自我檢測套組,4,2022/04/28 16:31:03,無
5903250658,田園藥局,臺中市南區學府路１６０號１樓,120.6742,24.12909,(04)22220605,羅氏家用新冠病毒抗原自我檢測套組,75,2022/04/28 16:31:03,無
5903260449,喜樂藥局,臺中市北區中清路１段３１號,120.677,24.1529,(04)22060423,羅氏家用新冠病毒抗原自我檢測套組,1,2022/04/28 16:31:03,無
5903260627,明曜藥局,臺中市北區北平路二段１９０號１樓,120.6784,24.17117,(04)22916775,羅氏家用新冠病毒抗原自我檢測套組,13,2022/04/28 16:31:03,無
5903260707,新藥林藥局,臺中市北區健行路４４５－５號１樓,120.6803,24.15896,(04)22053458,羅氏家用新冠病毒抗原自我檢測套組,3,2022/04/28 16:31:03,無
5903260743,黎明安德藥局,臺中市北區中清路１段８５２號１樓,120.6718,24.17295,(04)22956098,羅氏家用新冠病毒抗原自我檢測套組,78,2022/04/28 16:31:03,禮拜四公休、禮拜日下午2點開始營業
5903260798,光恒藥局,臺中市北區五權路２６１號１樓,120.6767,24.15097,(04)22068638,羅氏家用新冠病毒抗原自我檢測套組,15,2022/04/28 16:31:03,快篩 周一到周六早上8:00到12:00 開放購買
5903260832,維康學士藥局,臺中市北區學士路１９號１樓,120.6822,24.15384,(04)22080545,羅氏家用新冠病毒抗原自我檢測套組,8,2022/04/28 16:31:03,無
5903260878,927達霖藥師藥局,臺中市北區中華路二段２０１號１樓,120.6822,24.15278,(04)22060030,羅氏家用新冠病毒抗原自我檢測套組,5,2022/04/28 16:31:03,無
5903260912,莒光藥局,臺中市北區錦南街１２號１樓,120.6886,24.15399,(04)22336663,羅氏家用新冠病毒抗原自我檢測套組,28,2022/04/28 16:31:03,實名制快篩上午9:30開賣50份 下午6:30開賣28份
5903260967,正尚藥局,臺中市北區榮華街１６６號１樓,120.6868,24.16444,(04)22350347,羅氏家用新冠病毒抗原自我檢測套組,78,2022/04/28 16:31:03,實名制快篩18:00發放，周日09:00（若有剩餘）
5903270570,百富藥局,臺中市西屯區福上巷１６號,120.6425,24.17577,(04)22970708,羅氏家用新冠病毒抗原自我檢測套組,1,2022/04/28 16:31:03,營業時間（=發快篩&口罩，當日量售完為止） : 週一到週五 9~13+午休+15~21， 週六9~16， 週日9~12／ Line id:buyfu
5903270721,舒健藥局,臺中市西屯區西屯路二段２５５號２樓,120.6459,24.17179,(04)27077858,羅氏家用新冠病毒抗原自我檢測套組,76,2022/04/28 16:31:03,周一至周六每日晚上7點發號碼牌並依序領口罩。
5903270801,榮友藥局,臺中市西屯區臺灣大道四段１７４２號,120.6024,24.18286,(04)23508392,羅氏家用新冠病毒抗原自我檢測套組,1,2022/04/28 16:31:03,4／29販賣快篩試劑下午13:30開賣
5903270810,佑全福星藥局,臺中市西屯區黎明路三段３９５、３９７號,120.639,24.18251,(04)24527465,羅氏家用新冠病毒抗原自我檢測套組,4,2022/04/28 16:31:03,周一至週日下午2:00開始發放口罩，售完為止
5903270865,尚禾藥局,臺中市西屯區青海路一段６５號,120.6548,24.16438,(04)23147688,羅氏家用新冠病毒抗原自我檢測套組,38,2022/04/28 16:31:03,無
5903270883,祥和大藥局,臺中市西屯區青海路二段２４０－９號,120.6418,24.17323,(04)27000122,羅氏家用新冠病毒抗原自我檢測套組,4,2022/04/28 16:31:03,口罩販售時間：每日早上10點至夜間10點。
5903271031,美十樂中科藥局,臺中市西屯區西屯路三段１６６－６５號１樓,120.6129,24.19035,(04)24610219,羅氏家用新冠病毒抗原自我檢測套組,78,2022/04/28 16:31:03,固定周一至周日10:00開始販售口罩
5903271068,西墩藥局,臺中市西屯區黎明路三段２７５、２７７號１樓,120.6373,24.17812,(04)24510770,羅氏家用新冠病毒抗原自我檢測套組,2,2022/04/28 16:31:03,快篩實名制，每天16:00開始販售，售完為止。
5903271139,百吉藥局,臺中市西屯區青海路一段７１號１樓,120.6547,24.1644,(04)23135698,羅氏家用新冠病毒抗原自我檢測套組,1,2022/04/28 16:31:03,無
5903271175,維康中榮藥局,臺中市西屯區東大路一段１３號１樓,120.6022,24.18315,(04)23593195,羅氏家用新冠病毒抗原自我檢測套組,1,2022/04/28 16:31:03,無
5903271193,何安藥局,臺中市西屯區西屯路二段１０１號Ｂ棟１樓,120.6531,24.16616,(04)23161110,羅氏家用新冠病毒抗原自我檢測套組,9,2022/04/28 16:31:03,快篩實名制，每天16:00開始販售，售完為止。
5903271200,甘肅台安藥局,臺中市西屯區甘肅路一段１號１樓,120.6602,24.16453,(04)23160761,羅氏家用新冠病毒抗原自我檢測套組,15,2022/04/28 16:31:03,無
5903271246,柏醫藥局,臺中市西屯區上安路５６號１樓,120.6412,24.17052,(04)24526391,羅氏家用新冠病毒抗原自我檢測套組,52,2022/04/28 16:31:03,無
5903271308,祐生藥局,臺中市西屯區文華路３之１號１樓,120.6447,24.17535,(04)24517169,羅氏家用新冠病毒抗原自我檢測套組,61,2022/04/28 16:31:03,無
5903280101,成記大藥局,臺中市南屯區大墩１７街１２３號１樓,120.648,24.15557,(04)23288877,羅氏家用新冠病毒抗原自我檢測套組,1,2022/04/28 16:31:03,實名制快篩下午一點開始販售
5903280165,南屯福倫藥局,臺中市南屯區南屯路２段３１７號,120.6456,24.13754,(04)24758018,羅氏家用新冠病毒抗原自我檢測套組,78,2022/04/28 16:31:03,無
5903280521,百康健保藥局,臺中市南屯區黎明路二段３６３號,120.6353,24.15033,(04)22547776,羅氏家用新冠病毒抗原自我檢測套組,3,2022/04/28 16:31:03,周一到周日每日上午8:30到晚上22:30
5903280549,仁幼藥局,臺中市南屯區黎明東街２２９號１樓,120.6367,24.1482,(04)23809162,羅氏家用新冠病毒抗原自我檢測套組,78,2022/04/28 16:31:03,無
5903280745,亨宇藥局,臺中市南屯區東興路二段２９－２號１樓,120.6529,24.13688,(04)24711206,羅氏家用新冠病毒抗原自我檢測套組,53,2022/04/28 16:31:03,無
5903280781,美十樂藥局,臺中市南屯區東興路二段２７９號１樓,120.6528,24.1437,(04)24710219,羅氏家用新冠病毒抗原自我檢測套組,7,2022/04/28 16:31:03,持健保卡現領，共200份成人，20份兒童。發完為止
5903280889,精科藥局,臺中市南屯區嶺東路３２１號１樓,120.6106,24.14513,(04)23806288,羅氏家用新冠病毒抗原自我檢測套組,24,2022/04/28 16:31:03,快篩發放～早上9：30-10：30   下午4：30-5：30
5903280914,豐樹藥局,臺中市南屯區黎明路一段６３號１樓,120.6258,24.11362,(04)24792098,羅氏家用新冠病毒抗原自我檢測套組,41,2022/04/28 16:31:03,販售快篩時間 早上9:00～10：00   晚上8：00~9:00
5903290312,大連大愛藥局,臺中市北屯區大連路２段２２１號,120.6883,24.17579,(04)22428899,羅氏家用新冠病毒抗原自我檢測套組,35,2022/04/28 16:31:03,發放快篩時間:  早上9:30~10:00 下午17:00~17:30
5903290625,又昌中西健保藥局,臺中市北屯區東山路１段２２３號,120.7152,24.17452,(04)24375716,羅氏家用新冠病毒抗原自我檢測套組,78,2022/04/28 16:31:03,無
5903290750,長幼藥局,臺中市北屯區崇德路二路二段１５７號１樓,120.6853,24.17329,(04)22426767,羅氏家用新冠病毒抗原自我檢測套組,1,2022/04/28 16:31:03,防疫口罩於每天早上9點整開賣，採現場排隊無號碼牌，賣完為止
5903290830,齊方藥局,臺中市北屯區四平路３９號,120.6708,24.17885,(04)22912192,羅氏家用新冠病毒抗原自我檢測套組,3,2022/04/28 16:31:03,無
5903290876,北屯軍功藥局,臺中市北屯區軍功路一段７５２號,120.7193,24.17513,(04)24375111,羅氏家用新冠病毒抗原自我檢測套組,20,2022/04/28 16:31:03,快篩實名制，每天16:00開始販售，售完為止。
5903290894,豐禾藥局,臺中市北屯區同榮路１６３號,120.6618,24.19589,(04)24260588,羅氏家用新冠病毒抗原自我檢測套組,78,2022/04/28 16:31:03,無
5903290965,崇德藥局,臺中市北屯區崇德路二段３１號,120.685,24.16962,(04)22361331,羅氏家用新冠病毒抗原自我檢測套組,12,2022/04/28 16:31:03,快篩實名制，每天16:00開始販售，售完為止。
5903290983,祥和藥局,臺中市北屯區太原路三段１４７號１樓,120.6901,24.16507,(04)22369603,羅氏家用新冠病毒抗原自我檢測套組,8,2022/04/28 16:31:03,快篩販售4／30後：下午2點開始
5903291060,大樹北屯藥局,臺中市北屯區松竹路二段４１１號１樓,120.6895,24.18192,(04)22422262,羅氏家用新冠病毒抗原自我檢測套組,13,2022/04/28 16:31:03,快篩實名制，每天16:00開始販售，售完為止。
5903291159,均福藥局,臺中市北屯區軍福十三路１００號１樓,120.7308,24.17096,(04)24391169,羅氏家用新冠病毒抗原自我檢測套組,78,2022/04/28 16:31:03,無
5903291168,日初藥局,臺中市北屯區軍功路一段４８２－３號１樓,120.7188,24.17102,(04)24363150,羅氏家用新冠病毒抗原自我檢測套組,1,2022/04/28 16:31:03,無
5903291275,康是美藥局東山店,臺中市北屯區東山路一段３２０號１樓、和福路２５８號１樓,120.7229,24.17591,(04)24634571,羅氏家用新冠病毒抗原自我檢測套組,1,2022/04/28 16:31:03,無
5905010072,長壽藥局,臺南市新營區中山路２１９號,120.3146,23.30286,(06)6324001,羅氏家用新冠病毒抗原自我檢測套組,53,2022/04/28 16:31:03,口罩販售時間：8:00~售完
5905010250,大樹新營藥局,臺南市新營區民權路７４、７６、７８號１樓,120.3127,23.30615,(06)6328300,羅氏家用新冠病毒抗原自我檢測套組,5,2022/04/28 16:31:03,無
5905010296,躍獅新營藥局,臺南市新營區民生路１６８號１樓,120.3073,23.31112,(06)6564325,羅氏家用新冠病毒抗原自我檢測套組,75,2022/04/28 16:31:03,上午九點至晚上九點
5905030092,大樹白河藥局,臺南市白河區中山路１５３號１樓,120.417,23.35255,(06)6830006,羅氏家用新冠病毒抗原自我檢測套組,24,2022/04/28 16:31:03,無
5905040141,大樹麻豆藥局,臺南市麻豆區中山路４８、５０號１樓,120.2469,23.18382,(06)5716556,羅氏家用新冠病毒抗原自我檢測套組,2,2022/04/28 16:31:03,快篩實名制，每天16:00開始販售，售完為止。
5905050209,大樹佳里藥局,臺南市佳里區延平路２３７號１樓,120.1783,23.1599,(06)7231323,羅氏家用新冠病毒抗原自我檢測套組,10,2022/04/28 16:31:03,快篩實名制，每天16:00開始販售，售完為止。
5905060125,美麗安藥局,臺南市新化區護國里中山路１５０－１號１樓,120.3102,23.03714,(06)5909509,羅氏家用新冠病毒抗原自我檢測套組,61,2022/04/28 16:31:03,固定周一至周六早上8點發放號碼牌，並依序販賣口罩
5905070185,宇康藥局,臺南市善化區蓮潭里蓮潭南街１５０號１樓,120.3077,23.11199,(06)5830963,羅氏家用新冠病毒抗原自我檢測套組,66,2022/04/28 16:31:03,無
5905080056,大樹學甲藥局,臺南市學甲區中正路１３５號１樓,120.1793,23.23029,(06)7820001,羅氏家用新冠病毒抗原自我檢測套組,34,2022/04/28 16:31:03,快篩實名制，每天16:00開始販售，售完為止。
5905080065,生祥大藥局學甲店,臺南市學甲區仁得里華宗路３６９號１樓,120.1821,23.23223,(06)7838462,羅氏家用新冠病毒抗原自我檢測套組,22,2022/04/28 16:31:03,無
5905090025,中山藥局,臺南市柳營區中山西路二段１４５號１樓,120.3137,23.27664,(06)6221696,羅氏家用新冠病毒抗原自我檢測套組,1,2022/04/28 16:31:03,口罩領用周一至周日早上8:00
5905100035,華恩藥局,臺南市後壁區菁寮里５１號１樓,120.3356,23.37883,(06)6623491,羅氏家用新冠病毒抗原自我檢測套組,234,2022/04/28 16:31:03,星期一到六上午8:00-12:00，下午2:30-7:30，星期日8:00-12:00；口罩發售時間自08:30-11:30，下午2:30-07:00
5905100062,美尚藥局後壁店,臺南市後壁區後壁里１６８－８號,120.364,23.36509,(06)6871138,羅氏家用新冠病毒抗原自我檢測套組,170,2022/04/28 16:31:03,星期天早上視狀況營
5905180051,晉昇藥師藥局,臺南市將軍區西甲里４鄰西華６７之２１號１樓,120.1563,23.19908,(06)7943667,羅氏家用新冠病毒抗原自我檢測套組,21,2022/04/28 16:31:03,無
5905200085,大樹新市藥局,臺南市新市區中正路４９、５１號１樓,120.2916,23.07223,(06)5892552,羅氏家用新冠病毒抗原自我檢測套組,41,2022/04/28 16:31:03,快篩實名制，每天16:00開始販售，售完為止。
5905210027,愛心藥師藥局,臺南市安定區港南里港口１４７號,120.233,23.09041,(06)5935104,羅氏家用新冠病毒抗原自我檢測套組,7,2022/04/28 16:31:03,春節營業時間請電洽或依現場公告
5905270112,昱欣藥局,臺南市仁德區中正路２段１１８１號１樓,120.252,22.96969,(06)2798970,羅氏家用新冠病毒抗原自我檢測套組,2,2022/04/28 16:31:03,無
5905270121,安麗兒藥局仁德店,臺南市仁德區新田里中正路二段４４５號,120.2523,22.95461,(06)2498619,羅氏家用新冠病毒抗原自我檢測套組,2,2022/04/28 16:31:03,無
5905270176,大樹仁德藥局,臺南市仁德區中正路二段１１５２號１樓,120.2519,22.97062,(06)2797466,羅氏家用新冠病毒抗原自我檢測套組,15,2022/04/28 16:31:03,快篩實名制，每天16:00開始販售，售完為止。
5905280118,和雅藥局,臺南市歸仁區民權三街９６號１樓,120.2902,22.96936,(06)2307757,羅氏家用新冠病毒抗原自我檢測套組,10,2022/04/28 16:31:03,無
5905280163,歸仁丁丁藥局,臺南市歸仁區中山路三段７３號１樓,120.2861,22.96753,(06)2300767,羅氏家用新冠病毒抗原自我檢測套組,1,2022/04/28 16:31:03,無
5905290034,大樹關廟藥局,臺南市關廟區中央路２６３號１樓,120.3272,22.96109,(06)5965889,羅氏家用新冠病毒抗原自我檢測套組,1,2022/04/28 16:31:03,快篩實名制，每天16:00開始販售，售完為止。
5905310353,家嘉藥局,臺南市永康區復國一路２０６號,120.2462,23.00644,(06)3121328,羅氏家用新冠病毒抗原自我檢測套組,39,2022/04/28 16:31:03,無
5905311010,樂丞藥局,臺南市永康區中正北路６０號１樓,120.2406,23.04138,(06)2433319,羅氏家用新冠病毒抗原自我檢測套組,78,2022/04/28 16:31:03,口罩販售時間：星期一~星期日 10:00-售完
5905311074,中華長億藥局,臺南市永康區中華路７３４、７３６號１樓,120.2288,23.0167,(06)3022322,羅氏家用新冠病毒抗原自我檢測套組,24,2022/04/28 16:31:03,快篩實名制，每天16:00開始販售，售完為止。
5905311083,心康藥局,臺南市永康區永大路二段１７９號１樓,120.2616,23.00665,(06)2055075,羅氏家用新冠病毒抗原自我檢測套組,1,2022/04/28 16:31:03,實名制快篩販售時間:下午1點至3點，售完為止（周日不販售）  憑健保卡，每人限購一份
5905311127,台南永康藥局,臺南市永康區中山南路８１６、８１６─１、２、３號１樓,120.2471,23.02099,(06)2020201,羅氏家用新冠病毒抗原自我檢測套組,19,2022/04/28 16:31:03,快篩實名制，每天16:00開始販售，售完為止。
5905311154,佑心藥局,臺南市永康區振興路４６號１樓,120.2338,23.01167,(06)3022516,羅氏家用新冠病毒抗原自我檢測套組,33,2022/04/28 16:31:03,16:00-17:00
5905311172,美日新藥局,臺南市永康區塩行里中正北路６２號１樓,120.2406,23.04138,(06)2420980,羅氏家用新冠病毒抗原自我檢測套組,11,2022/04/28 16:31:03,無
5905320180,恩泉藥局,臺南市東區崇明路２０７號１樓,120.22,22.97794,(06)3352078,羅氏家用新冠病毒抗原自我檢測套組,78,2022/04/28 16:31:03,家用快篩 週一至週五 PM15；00-16；00 領取
5905320466,佑全中華藥局,臺南市東區中華東路三段２１５號,120.2253,22.97603,(06)2906386,羅氏家用新冠病毒抗原自我檢測套組,6,2022/04/28 16:31:03,星期一-六08:00-21:00
5905320564,杏一台南崇德藥局,臺南市東區崇德路６７４號,120.2274,22.96762,(06)2671939,羅氏家用新冠病毒抗原自我檢測套組,2,2022/04/28 16:31:03,防疫口罩發送時間:周一至周日:下午:15:00
5905320608,中華台安藥局,臺南市東區中華東路一段４號１樓,120.2344,22.99818,(06)2092622,羅氏家用新冠病毒抗原自我檢測套組,18,2022/04/28 16:31:03,固定週一至周日13點-20點販售口罩，售完為止，現場為主
5905320644,崇善藥局,臺南市東區崇善路３９２號１樓,120.2288,22.97485,(06)2896619,羅氏家用新冠病毒抗原自我檢測套組,21,2022/04/28 16:31:03,星期一不販售；二和四下午15:00~18:00；三和五下午15:00~16:00
5905320699,恆大藥局,臺南市東區崇明路５９０號１樓,120.2247,22.97262,(06)2905586,羅氏家用新冠病毒抗原自我檢測套組,1,2022/04/28 16:31:03,每日上午九時開業，晚上十時結束營業
5905320797,大樹自由藥局,臺南市東區自由路三段３８２號１樓,120.2373,22.98241,(06)2890800,羅氏家用新冠病毒抗原自我檢測套組,3,2022/04/28 16:31:03,L223902518
5905320804,大樹大同藥局,臺南市東區大同路二段２２７、２２９號１樓,120.2143,22.97567,(06)2158700,羅氏家用新冠病毒抗原自我檢測套組,21,2022/04/28 16:31:03,快篩實名制，每天16:00開始販售，售完為止。
5905320868,大樹東寧藥局,臺南市東區東寧路４３６號１樓,120.2291,22.9895,(06)2360006,羅氏家用新冠病毒抗原自我檢測套組,31,2022/04/28 16:31:03,快篩實名制，每天16:00開始販售，售完為止。
5905320886,中華崇德藥局,臺南市東區中華東路三段１８１、１８３號１樓,120.2259,22.97667,(06)2880800,羅氏家用新冠病毒抗原自我檢測套組,49,2022/04/28 16:31:03,快篩實名制，每天16:00開始販售，售完為止。
5905320911,大樹崇道藥局,臺南市東區崇道路６３號１樓,120.2272,22.97227,(06)2680456,羅氏家用新冠病毒抗原自我檢測套組,3,2022/04/28 16:31:03,快篩實名制，每天16:00開始販售，售完為止。
5905320948,崇明台安藥局,臺南市東區崇明路３０４號１樓,120.2198,22.97762,(06)2900350,羅氏家用新冠病毒抗原自我檢測套組,36,2022/04/28 16:31:03,無
5905320975,萬錠藥局,臺南市東區崇成里崇德路６１９號１樓,120.2277,22.97181,(06)2679299,羅氏家用新冠病毒抗原自我檢測套組,30,2022/04/28 16:31:03,無
5905330284,大樹佳華藥局,臺南市南區金華路二段１２９號１樓,120.1911,22.98035,(06)2641238,羅氏家用新冠病毒抗原自我檢測套組,19,2022/04/28 16:31:03,快篩實名制，每天16:00開始販售，售完為止。
5905340075,麗欣健保藥局,臺南市中西區永華路一段１９４號１樓,120.1917,22.98835,(06)2209393,羅氏家用新冠病毒抗原自我檢測套組,2,2022/04/28 16:31:03,w1~w6早上9:30開始發放口罩
5905340173,賜安大藥局,臺南市中西區光賢里武聖路９號,120.1932,23.00517,(06)3589600,羅氏家用新冠病毒抗原自我檢測套組,2,2022/04/28 16:31:03,防疫口罩 代售時段 星期一-六 下午2點~6點
5905340262,瑞城藥局,臺南市中西區赤嵌里忠義路二段１７６號１樓,120.2043,22.99649,(06)2215810,羅氏家用新冠病毒抗原自我檢測套組,78,2022/04/28 16:31:03,無
5905350026,良佑堂藥局,臺南市北區文賢路２９９號,120.1935,23.00631,(06)2586223,羅氏家用新冠病毒抗原自我檢測套組,1,2022/04/28 16:31:03,無
5905350268,宸安藥局,臺南市北區光民里成功路４３６號１樓,120.1981,23.00093,(06)2238679,羅氏家用新冠病毒抗原自我檢測套組,1,2022/04/28 16:31:03,9:00-23:00
5905350311,美康藥局,臺南市北區公園路３７５－５號,120.2102,23.00597,(06)2810311,羅氏家用新冠病毒抗原自我檢測套組,9,2022/04/28 16:31:03,快篩實名制販賣時間上午9:00~11:00
5905350366,千多藥局,臺南市北區金華路五段１號,120.1962,23.0016,(06)2228641,羅氏家用新冠病毒抗原自我檢測套組,78,2022/04/28 16:31:03,晚上6點開始銷售實名制快篩試劑，賣完為止
5905350428,大正藥局,臺南市北區公園南路３２４號１樓,120.2033,23.00268,(06)2226899,羅氏家用新冠病毒抗原自我檢測套組,9,2022/04/28 16:31:03,星期一~日8:00-售完
5905370073,宜康藥局同安店,臺南市安南區同安路２３５號１樓,120.1921,23.0425,(06)2470720,羅氏家用新冠病毒抗原自我檢測套組,7,2022/04/28 16:31:03,星期一~星期日08:10~23:00
5905370180,安南啄木鳥藥局,臺南市安南區安和路一段１０７號,120.2143,23.02826,(06)2821265,羅氏家用新冠病毒抗原自我檢測套組,3,2022/04/28 16:31:03,口罩代售時間自早上9:30---售完為止
5905370304,大樹安南藥局,臺南市安南區安和路四段５５７號１樓,120.2185,23.06181,(06)3563370,羅氏家用新冠病毒抗原自我檢測套組,9,2022/04/28 16:31:03,口罩販賣時段：14:00 - 16:00
5905370322,鳳凰平光中西藥局,臺南市安南區鳳凰里安中路一段７００巷２７號１樓,120.1967,23.04319,(06)2565635,羅氏家用新冠病毒抗原自我檢測套組,13,2022/04/28 16:31:03,除夕 傍晚以後休息
5905370448,宜康安和藥局,臺南市安南區安和路一段６８號１樓,120.2151,23.0273,(06)2521250,羅氏家用新冠病毒抗原自我檢測套組,70,2022/04/28 16:31:03,無
5905380293,人仁藥局,臺南市安平區怡平里慶平路２８１號１樓,120.1763,22.99668,(06)2998667,羅氏家用新冠病毒抗原自我檢測套組,3,2022/04/28 16:31:03,快篩每日下午2點開賣
5905380300,新高橋藥局台南永華店,臺南市安平區華平路２７９號１樓,120.1748,22.99031,(06)2992362,羅氏家用新冠病毒抗原自我檢測套組,2,2022/04/28 16:31:03,無
5907010043,北京藥局文山店,高雄市鳳山區青年路二段３６７號１．２樓,120.3511,22.64152,(07)7676766,羅氏家用新冠病毒抗原自我檢測套組,1,2022/04/28 16:31:03,無
5907010212,北京藥局中崙店,高雄市鳳山區中崙四路１６號１樓,120.3519,22.59971,(07)7550655,羅氏家用新冠病毒抗原自我檢測套組,2,2022/04/28 16:31:03,營業時間上午08:00~下午11:00發口罩時間為上午:9:00售完為止00
5907010267,禾康藥局,高雄市鳳山區瑞竹路１６號１樓,120.3662,22.62462,(07)7997139,羅氏家用新冠病毒抗原自我檢測套組,1,2022/04/28 16:31:03,營業時間AM9-12，PM3-10，星期日公休
5907010365,科健藥局,高雄市鳳山區八德路２４６－５號１樓,120.3568,22.63853,(07)7777868,羅氏家用新冠病毒抗原自我檢測套組,15,2022/04/28 16:31:03,早上營業即可換購
5907010454,上泰健保藥局,高雄市鳳山區鎮西里中華街２７號１樓,120.3559,22.62698,(07)7455127,羅氏家用新冠病毒抗原自我檢測套組,12,2022/04/28 16:31:03,無
5907010927,元元鳳山藥局,高雄市鳳山區一甲里五甲二路３４８之１號１樓,120.3377,22.59955,(07)7529595,羅氏家用新冠病毒抗原自我檢測套組,1,2022/04/28 16:31:03,13:00開始發口罩，一至五最晚銷售時間至晚上六點。星期六銷售至下午五點。星期日公休
5907010945,光田藥局,高雄市鳳山區鎮東里光遠路９５號１樓,120.3656,22.62412,(07)7460773,羅氏家用新冠病毒抗原自我檢測套組,1,2022/04/28 16:31:03,國定假日及周日固定店休
5907011068,新高橋藥局文龍東店,高雄市鳳山區鎮北里文龍東路３１０號,120.3666,22.64074,(07)7353946,羅氏家用新冠病毒抗原自我檢測套組,1,2022/04/28 16:31:03,自2／11日~2／29日，早上10:00開始販售口罩，售完為止。
5907011095,鳳山五甲藥局,高雄市鳳山區正義里五甲二路１３９號１樓,120.3409,22.6014,(07)7269899,羅氏家用新冠病毒抗原自我檢測套組,20,2022/04/28 16:31:03,快篩實名制，每天16:00開始販售，售完為止。
5907011148,大樹國泰藥局,高雄市鳳山區興仁里五甲一路２９２號,120.3539,22.61698,(07)7407234,羅氏家用新冠病毒抗原自我檢測套組,31,2022/04/28 16:31:03,快篩實名制，每天16:00開始販售，售完為止。
5907011175,鳳西藥局,高雄市鳳山區忠義里中山西路２３８號１樓,120.3471,22.62831,(07)7902717,羅氏家用新冠病毒抗原自我檢測套組,33,2022/04/28 16:31:03,快篩實名制，每天16:00開始販售，售完為止。
5907011184,肉豆公藥局南榮店,高雄市鳳山區善美里南榮路１６９號１樓,120.3366,22.60186,(07)7278385,羅氏家用新冠病毒抗原自我檢測套組,4,2022/04/28 16:31:03,自2／11日~2／29日，營業日14:00~22:30為販賣口罩時間
5907011200,和成藥局,高雄市鳳山區南成里和成路６５號１樓,120.3379,22.58986,(07)7961566,羅氏家用新冠病毒抗原自我檢測套組,20,2022/04/28 16:31:03,自2／11日~2／29日，營業日08:00~13:00為販賣口罩時間
5907011228,鳳山青年藥局,高雄市鳳山區文德里青年路二段３９９號１樓,120.3513,22.64292,(07)7678383,羅氏家用新冠病毒抗原自我檢測套組,32,2022/04/28 16:31:03,口罩販售時間：14:00 - 16:00
5907011291,桂林活力藥師藥局鳳山店,高雄市鳳山區中正里瑞興路４８８號１樓,120.3719,22.63089,(07)7012827,羅氏家用新冠病毒抗原自我檢測套組,9,2022/04/28 16:31:03,自營業日販售口罩時間：早上8點半至晚上十點
5907011317,凱旋藥局,高雄市鳳山區國隆里新富路３７３號１樓,120.3475,22.61494,(07)7671181,羅氏家用新冠病毒抗原自我檢測套組,22,2022/04/28 16:31:03,快篩實名制，每天16:00開始販售，售完為止。
5907011371,大樹五甲藥局,高雄市鳳山區福祥里五甲三路２４號１－２樓．２６號１－２樓,120.3278,22.59317,(07)8224926,羅氏家用新冠病毒抗原自我檢測套組,41,2022/04/28 16:31:03,快篩實名制，每天16:00開始販售，售完為止。
5907011399,佑家藥師藥局,高雄市鳳山區新強里新富路２８８號１樓,120.3418,22.61265,(07)7673298,羅氏家用新冠病毒抗原自我檢測套組,3,2022/04/28 16:31:03,無
5907020085,大德藥局,高雄市岡山區大德一路９８號,120.3025,22.79689,(07)6221456,羅氏家用新冠病毒抗原自我檢測套組,40,2022/04/28 16:31:03,快篩實名制，每天16:00開始販售，售完為止。
5907020094,大樹岡山藥局,高雄市岡山區岡山路１３６號,120.2967,22.78913,(07)6219477,羅氏家用新冠病毒抗原自我檢測套組,18,2022/04/28 16:31:03,快篩實名制，每天16:00開始販售，售完為止。
5907030072,旗美藥局,高雄市旗山區東平里延平二路４１號,120.4933,22.882,(07)6629839,羅氏家用新冠病毒抗原自我檢測套組,39,2022/04/28 16:31:03,實名制快篩劑購買時間為下午14:00~20:00
5907030090,睛好活力藥局,高雄市旗山區湄洲里中山路１２７號,120.482,22.88873,(07)6625119,羅氏家用新冠病毒抗原自我檢測套組,15,2022/04/28 16:31:03,無
5907030134,旗山啄木鳥藥局,高雄市旗山區中華路１０５０號,120.4828,22.87904,(07)6625728,羅氏家用新冠病毒抗原自我檢測套組,5,2022/04/28 16:31:03,發口罩時間:09:00-19:00
5907030152,旗山藥局,高雄市旗山區中華路２３號,120.4841,22.88027,(07)6621158,羅氏家用新冠病毒抗原自我檢測套組,71,2022/04/28 16:31:03,快篩實名制，每天16:00開始販售，售完為止。
5907040023,大佳藥局,高雄市美濃區獅山里中華路５９－７號,120.5704,22.87774,(07)6852988,羅氏家用新冠病毒抗原自我檢測套組,18,2022/04/28 16:31:03,營業日 08:30 - 20:00 為口罩販售時間。
5907050109,林園藥局,高雄市林園區仁愛路１３號１樓,120.3928,22.50418,(07)6425855,羅氏家用新冠病毒抗原自我檢測套組,1,2022/04/28 16:31:03,快篩實名制，每天16:00開始販售，售完為止。
5907060221,淑德健保藥局,高雄市大寮區內坑里淑德新村１號３樓,120.3707,22.58833,(07)7923556,羅氏家用新冠病毒抗原自我檢測套組,40,2022/04/28 16:31:03,無
5907060230,華思中西藥局,高雄市大寮區永芳里進學路１２２號１樓,120.3933,22.60468,(07)7835567,羅氏家用新冠病毒抗原自我檢測套組,27,2022/04/28 16:31:03,星期一~星期六 下午四點販售實名制快篩  星期天店休
5907070012,舒康藥師藥局,高雄市大樹區久堂路１２９號,120.4167,22.65781,(07)6520268,羅氏家用新冠病毒抗原自我檢測套組,1,2022/04/28 16:31:03,14:00~18:00若提前售完，銷售時間提前結束。
5907070030,久堂藥局,高雄市大樹區久堂里久堂路１３６號１樓,120.4178,22.65813,(07)6512800,羅氏家用新冠病毒抗原自我檢測套組,30,2022/04/28 16:31:03,快篩實名制，每天16:00開始販售，售完為止。
5907080125,仁武丁丁藥局,高雄市仁武區仁和里鳳仁路２１之８號,120.3558,22.6802,(07)3721896,羅氏家用新冠病毒抗原自我檢測套組,2,2022/04/28 16:31:03,自4月1日~4月30日，營業日9:00起為販賣口罩時間，售完為止。
5907080232,大樹仁武藥局,高雄市仁武區赤山里仁雄路８０－９號,120.3469,22.67811,(07)3744777,羅氏家用新冠病毒抗原自我檢測套組,28,2022/04/28 16:31:03,快篩實名制，每天16:00開始販售，售完為止。
5907080330,文武藥局,高雄市仁武區文武里中華路３５３號,120.3535,22.7011,(07)3733551,羅氏家用新冠病毒抗原自我檢測套組,32,2022/04/28 16:31:03,快篩實名制，每天16:00開始販售，售完為止。
5907090167,大樹大社藥局,高雄市大社區中山路３０８號１樓,120.3503,22.73145,(07)3531682,羅氏家用新冠病毒抗原自我檢測套組,1,2022/04/28 16:31:03,快篩實名制，每天16:00開始販售，售完為止。
5907110048,和德藥局橋頭店,高雄市橋頭區橋南路１１６－１號,120.3125,22.75441,(07)6113580,羅氏家用新冠病毒抗原自我檢測套組,18,2022/04/28 16:31:03,8:00~全日及週日開賣
5907110066,安麗兒藥局橋頭店,高雄市橋頭區隆豐路１４８號,120.3062,22.75491,(07)6111209,羅氏家用新冠病毒抗原自我檢測套組,35,2022/04/28 16:31:03,無
5907110093,順和藥局,高雄市橋頭區仕豐路５號,120.3087,22.75144,(07)6118688,羅氏家用新冠病毒抗原自我檢測套組,62,2022/04/28 16:31:03,自2／11日~2／29日，營業日07:00開始販賣口罩，賣完為止
5907150220,天德藥局路竹店,高雄市路竹區忠孝路２６－２、２６－３號１樓,120.2601,22.86059,(07)6975656,羅氏家用新冠病毒抗原自我檢測套組,1,2022/04/28 16:31:03,發售口罩時間：上午8點現場排隊購買，售完為止。
5907150239,固德藥局,高雄市路竹區金平路３１２號,120.269,22.86954,(07)6978641,羅氏家用新冠病毒抗原自我檢測套組,3,2022/04/28 16:31:03,無
5907160093,保生藥局,高雄市湖內區葉厝里保生路３４０．３４２號,120.2195,22.90733,(07)6990800,羅氏家用新冠病毒抗原自我檢測套組,12,2022/04/28 16:31:03,快篩實名制，每天16:00開始販售，售完為止。
5907240014,博林健保藥局,高雄市內門區觀亭里中正路１６０巷５１號,120.4539,22.9232,(07)6671883,羅氏家用新冠病毒抗原自我檢測套組,27,2022/04/28 16:31:03,自2／11日~2／29日，營業日07:40~18:00為販賣口罩時間，售完為止
5907290112,新高橋藥局華榮店,高雄市鼓山區華榮路２８７號１樓,120.2967,22.66616,(07)5534727,羅氏家用新冠病毒抗原自我檢測套組,1,2022/04/28 16:31:03,下午2:30開始販售口罩
5907290238,聯合藥師藥局,高雄市鼓山區中華一路９７０號１樓,120.2919,22.65515,(07)5500558,羅氏家用新冠病毒抗原自我檢測套組,12,2022/04/28 16:31:03,無
5907290265,新美館藥局,高雄市鼓山區中華一路９７２號,120.2919,22.65513,(07)5522006,羅氏家用新冠病毒抗原自我檢測套組,7,2022/04/28 16:31:03,無
5907290274,明誠丁丁藥局,高雄市鼓山區明誠三路４６５號,120.3011,22.66097,(07)5520120,羅氏家用新冠病毒抗原自我檢測套組,2,2022/04/28 16:31:03,口罩代售時間自09:00
5907290309,鼓山藥局,高雄市鼓山區華榮路１０號,120.2973,22.66156,(07)5520017,羅氏家用新冠病毒抗原自我檢測套組,19,2022/04/28 16:31:03,快篩實名制，每天16:00開始販售，售完為止。
5907290327,金好藥局,高雄市鼓山區青海路４１８號１樓,120.2845,22.65177,(07)5869556,羅氏家用新冠病毒抗原自我檢測套組,9,2022/04/28 16:31:03,無
5907290345,新高橋藥局裕明店,高雄市鼓山區裕誠路１６６８號１樓,120.294,22.66065,(07)5224680,羅氏家用新冠病毒抗原自我檢測套組,1,2022/04/28 16:31:03,連續假期正常營業
5907290354,文昇藥局,高雄市鼓山區慶豐街１２５號,120.2942,22.66724,(07)5525314,羅氏家用新冠病毒抗原自我檢測套組,78,2022/04/28 16:31:03,無
5907300168,金元藥局,高雄市左營區重愛路２２０號,120.3156,22.68562,(07)3458378,羅氏家用新冠病毒抗原自我檢測套組,1,2022/04/28 16:31:03,口罩販售時間08:30開始，星期四，星期六營業時間到中午12點，平常日營業時間到晚上9點
5907300211,勁好健保藥局,高雄市左營區果峰街１２巷２６號１樓,120.2881,22.67178,(07)5855767,羅氏家用新冠病毒抗原自我檢測套組,1,2022/04/28 16:31:03,無
5907300346,正心藥師藥局,高雄市左營區左營大路４７３之２號,120.295,22.68946,(07)5880386,羅氏家用新冠病毒抗原自我檢測套組,2,2022/04/28 16:31:03,無
5907300506,躍獅祐恩藥局,高雄市左營區明華一路１３２號１樓,120.3073,22.66307,(07)5508706,羅氏家用新冠病毒抗原自我檢測套組,78,2022/04/28 16:31:03,4／28-4／29快篩18:30開始販售，5月開始早上9:30開始販售~
5907300588,明禾藥局,高雄市左營區華夏路１７３２號１樓,120.3204,22.68777,(07)3493734,羅氏家用新冠病毒抗原自我檢測套組,22,2022/04/28 16:31:03,口罩販售時間早上9點開始販售
5907300631,大樹孟子藥局,高雄市左營區孟子路２２６、２２８號,120.3112,22.67415,(07)3461772,羅氏家用新冠病毒抗原自我檢測套組,25,2022/04/28 16:31:03,快篩實名制，每天16:00開始販售，售完為止。
5907300677,佳寧峰藥局,高雄市左營區部後街２號,120.2886,22.6834,(07)5886408,羅氏家用新冠病毒抗原自我檢測套組,1,2022/04/28 16:31:03,口罩，快篩試劑販賣時段:上午8:30起至售完為止
5907300686,左營自由藥局,高雄市左營區自由二路３５０、３５０－１號,120.3091,22.66599,(07)5589991,羅氏家用新冠病毒抗原自我檢測套組,30,2022/04/28 16:31:03,快篩實名制，每天16:00開始販售，售完為止。
5907300748,翔生藥局合群店,高雄市左營區緯六路２５６號,120.2871,22.6976,(07)5880055,羅氏家用新冠病毒抗原自我檢測套組,20,2022/04/28 16:31:03,實名制快篩販售時間：星期一至星期五，售完為止
5907300882,得孚社區藥局,高雄市左營區重立路５３３號１樓,120.3098,22.67955,(07)3410121,羅氏家用新冠病毒抗原自我檢測套組,57,2022/04/28 16:31:03,營業日上午09:30-11:30為販賣口罩時間.售完為止
5907300926,高鐵藥局,高雄市左營區華夏路１３２２．１３２６號,120.312,22.68587,(07)3452797,羅氏家用新冠病毒抗原自我檢測套組,9,2022/04/28 16:31:03,快篩實名制，每天16:00開始販售，售完為止。
5907300944,左營藥局,高雄市左營區華夏路３２５號,120.2972,22.67167,(07)5501017,羅氏家用新冠病毒抗原自我檢測套組,48,2022/04/28 16:31:03,快篩實名制，每天16:00開始販售，售完為止。
5907300980,大路藥局,高雄市左營區左營大路５５－２號１樓,120.2877,22.6813,(07)5851001,羅氏家用新冠病毒抗原自我檢測套組,44,2022/04/28 16:31:03,快篩實名制，每天16:00開始販售，售完為止。
5907301012,新高橋藥局華夏店,高雄市左營區華夏路１１１０號,120.3085,22.68343,(07)3410915,羅氏家用新冠病毒抗原自我檢測套組,30,2022/04/28 16:31:03,無
5907301076,熊安心藥局華夏店,高雄市左營區華夏路１２１２號１樓,120.3104,22.68483,(07)3430632,羅氏家用新冠病毒抗原自我檢測套組,2,2022/04/28 16:31:03,快篩試劑-販售時間14:00至售完為止
5907310173,安健藥局,高雄市楠梓區鳳楠路２５０號,120.3296,22.72617,(07)3520167,羅氏家用新冠病毒抗原自我檢測套組,29,2022/04/28 16:31:03,2／06起營業日早上8點開始販賣，周六日早上8:30 .售完為止
5907310262,大樹楠梓藥局,高雄市楠梓區軍校路９０８號,120.2919,22.71246,(07)3632322,羅氏家用新冠病毒抗原自我檢測套組,25,2022/04/28 16:31:03,快篩實名制，每天16:00開始販售，售完為止。
5907310280,久和藥局,高雄市楠梓區德民路１００６－５號,120.2863,22.71906,(07)3659555,羅氏家用新冠病毒抗原自我檢測套組,1,2022/04/28 16:31:03,國定假日休息
5907310388,宸實藥局,高雄市楠梓區後昌路４７巷２３－１號,120.3129,22.71975,(07)3642142,羅氏家用新冠病毒抗原自我檢測套組,12,2022/04/28 16:31:03,無
5907310404,藍田藥局,高雄市楠梓區藍田路１號,120.2953,22.72643,(07)3601236,羅氏家用新冠病毒抗原自我檢測套組,9,2022/04/28 16:31:03,快篩實名制，每天16:00開始販售，售完為止。
5907310468,黃藥局,高雄市楠梓區建楠路１８６號１樓,120.3261,22.72716,(07)3515700,羅氏家用新冠病毒抗原自我檢測套組,10,2022/04/28 16:31:03,無
5907320133,莊敬藥局,高雄市三民區大昌一路３２號１樓,120.3278,22.65307,(07)3976079,羅氏家用新冠病毒抗原自我檢測套組,1,2022/04/28 16:31:03,無
5907320179,新高橋藥局天祥店,高雄市三民區天祥一路１１７號,120.3205,22.66711,(07)3102683,羅氏家用新冠病毒抗原自我檢測套組,1,2022/04/28 16:31:03,上午10:00開始販售口罩
5907320428,東京藥局,高雄市三民區建工路６８５號,120.3173,22.6478,(07)3874567,羅氏家用新冠病毒抗原自我檢測套組,2,2022/04/28 16:31:03,實名登入口罩販售時間: 每日9:00-晚上20:00
5907320535,康誠藥局,高雄市三民區建工路６１６號,120.3228,22.64934,(07)3893889,羅氏家用新冠病毒抗原自我檢測套組,3,2022/04/28 16:31:03,無
5907320580,丸之內藥局,高雄市三民區十全二路３２１、３２３號,120.2923,22.64601,(07)3156688,羅氏家用新冠病毒抗原自我檢測套組,7,2022/04/28 16:31:03,無
5907320740,忠仁藥局,高雄市三民區中都街３５號１樓,120.2867,22.63955,(07)3125305,羅氏家用新冠病毒抗原自我檢測套組,29,2022/04/28 16:31:03,發號碼牌時間14:45 。口罩發放時間:15:00~18:00。自5／1日~5／31日，營業日下午3點起開始販賣口罩至下午6點
5907320768,心樂保健藥局,高雄市三民區光裕路７８號１樓,120.3331,22.63789,(07)3855377,羅氏家用新冠病毒抗原自我檢測套組,3,2022/04/28 16:31:03,星期一到星期四上午8:30-12:00，下午15:00-18:00（口罩售完為止）. 星期五下午14:00-17:00，18:00-20:30（售完為止）
5907320848,仕康健保藥妝藥局,高雄市三民區建興路２２２號,120.325,22.6447,(07)3845050,羅氏家用新冠病毒抗原自我檢測套組,29,2022/04/28 16:31:03,營業至10點.口罩兌換至21:30
5907320893,大樹天祥藥局,高雄市三民區天祥一路１６７號,120.3191,22.66737,(07)3429902,羅氏家用新冠病毒抗原自我檢測套組,2,2022/04/28 16:31:03,快篩實名制，每天16:00開始販售，售完為止。
5907320900,大昌藥局,高雄市三民區大昌二路３９７號,120.3317,22.64915,(07)3961396,羅氏家用新冠病毒抗原自我檢測套組,15,2022/04/28 16:31:03,快篩實名制，每天16:00開始販售，售完為止。
5907320946,熊安心藥局,高雄市三民區陽明路４０８號,120.3429,22.64609,(07)3815212,羅氏家用新冠病毒抗原自我檢測套組,18,2022/04/28 16:31:03,週一 ~ 週六 AM8:00-PM10:00，快篩分兩梯次販售，14:00有63份，19:00有15份
5907320982,康圓藥局,高雄市三民區大豐二路３５９．３６１號１樓,120.3343,22.6468,(07)3909978,羅氏家用新冠病毒抗原自我檢測套組,17,2022/04/28 16:31:03,無
5907321005,諾亞藥局,高雄市三民區鼎華路１４號１樓,120.3164,22.65139,(07)3929966,羅氏家用新冠病毒抗原自我檢測套組,18,2022/04/28 16:31:03,無
5907321069,桂林活力藥局九如店,高雄市三民區懷安街１１２號１樓,120.3176,22.64095,(07)3981009,羅氏家用新冠病毒抗原自我檢測套組,32,2022/04/28 16:31:03,無
5907321078,振源藥局,高雄市三民區熱河一街３５５號１樓,120.3061,22.64365,(07)3112541,羅氏家用新冠病毒抗原自我檢測套組,11,2022/04/28 16:31:03,營業時間08:30-22:30，六日有營業，全年無休
5907321103,自由藥局,高雄市三民區自由一路７８號,120.3089,22.64422,(07)3223113,羅氏家用新冠病毒抗原自我檢測套組,23,2022/04/28 16:31:03,快篩實名制，每天16:00開始販售，售完為止。
5907321167,高杏健保藥局,高雄市三民區義華路４３２號,120.3325,22.6437,(07)3920588,羅氏家用新冠病毒抗原自我檢測套組,13,2022/04/28 16:31:03,無
5907330200,新興復興藥局,高雄市新興區復興一路７６號１樓,120.3085,22.63312,(07)2352550,羅氏家用新冠病毒抗原自我檢測套組,43,2022/04/28 16:31:03,快篩實名制，每天16:00開始販售，售完為止。
5907350113,英祥藥局,高雄市苓雅區英祥街１９號,120.3257,22.61678,(07)7522786,羅氏家用新冠病毒抗原自我檢測套組,1,2022/04/28 16:31:03,無
5907350177,佳康藥局,高雄市苓雅區建國一路３３４號,120.3247,22.63293,(07)2266685,羅氏家用新冠病毒抗原自我檢測套組,26,2022/04/28 16:31:03,口罩代售時間:一至四8:30-21:00、五六8:30-16:30
5907350220,仁愛藥師藥局,高雄市苓雅區中正一路２３０號,120.3296,22.62921,(07)7222300,羅氏家用新冠病毒抗原自我檢測套組,3,2022/04/28 16:31:03,無
5907350319,御康藥局,高雄市苓雅區光華一路３５號,120.3172,22.61918,(07)3313535,羅氏家用新冠病毒抗原自我檢測套組,3,2022/04/28 16:31:03,無
5907350328,安杏藥局,高雄市苓雅區四維二路９４－１７號,120.3197,22.62273,(07)7511739,羅氏家用新冠病毒抗原自我檢測套組,19,2022/04/28 16:31:03,快篩試劑代售時間自早上9:00點服務
5907350346,武廟幸福藥局,高雄市苓雅區武廟路３５號,120.3316,22.62999,(07)7170085,羅氏家用新冠病毒抗原自我檢測套組,2,2022/04/28 16:31:03,快篩代售時間為08:50；現場排隊領取號碼牌 售完為止
5907350480,健森藥局,高雄市苓雅區林森二路１３８號１、２樓,120.3066,22.62054,(07)3365169,羅氏家用新冠病毒抗原自我檢測套組,7,2022/04/28 16:31:03,早上9點領牌 下午3~5點領口罩
5907350506,大樹苓雅藥局,高雄市苓雅區中華四路１５３號,120.3001,22.61783,(07)5353111,羅氏家用新冠病毒抗原自我檢測套組,13,2022/04/28 16:31:03,快篩實名制，每天16:00開始販售，售完為止。
5907350533,健群藥局,高雄市苓雅區安業路４０號,120.3231,22.62731,(07)7150097,羅氏家用新冠病毒抗原自我檢測套組,1,2022/04/28 16:31:03,無
5907350551,大樹武廟藥局,高雄市苓雅區武廟路４３、４５號１樓,120.3314,22.63005,(07)7222268,羅氏家用新冠病毒抗原自我檢測套組,27,2022/04/28 16:31:03,快篩實名制，每天16:00開始販售，售完為止。
5907350560,成功合豐藥局,高雄市苓雅區成功一路１７０號１樓,120.2972,22.61595,(07)2695657,羅氏家用新冠病毒抗原自我檢測套組,8,2022/04/28 16:31:03,早上9點開始賣口罩~晚上9點   售完為止
5907350631,三多藥局,高雄市苓雅區三多二路２９２號１樓,120.3173,22.61838,(07)3365889,羅氏家用新冠病毒抗原自我檢測套組,19,2022/04/28 16:31:03,快篩實名制，每天16:00開始販售，售完為止。
5907350659,北京藥局林泉店,高雄市苓雅區林泉里３鄰林泉街３５號１樓,120.3192,22.62323,(07)7263030,羅氏家用新冠病毒抗原自我檢測套組,78,2022/04/28 16:31:03,無
5907360191,欣欣藥局,高雄市前鎮區翠亨北路５７９號,120.3129,22.59226,(07)8124862,羅氏家用新冠病毒抗原自我檢測套組,18,2022/04/28 16:31:03,實名制快篩販售:周一到週六上午8點至12點，周日休息。
5907360226,順康健保藥局,高雄市前鎮區一心二路６７號,120.3099,22.61142,(07)5364438,羅氏家用新冠病毒抗原自我檢測套組,2,2022/04/28 16:31:03,防疫口罩販賣時間，每天早上9點開始，售完為止。
5907360324,有承中西藥局,高雄市前鎮區德昌路２５７號１樓,120.3155,22.5849,(07)8120880,羅氏家用新冠病毒抗原自我檢測套組,2,2022/04/28 16:31:03,政府實名制快篩販售 09:00開始
5907360360,親親藥局,高雄市前鎮區天山路１０巷６號,120.3151,22.60991,(07)3391078,羅氏家用新冠病毒抗原自我檢測套組,28,2022/04/28 16:31:03,防疫期間晚上7:00-8:30
5907360440,隆德藥局,高雄市前鎮區前鎮街１７０號１樓,120.3073,22.59003,(07)8216030,羅氏家用新冠病毒抗原自我檢測套組,1,2022/04/28 16:31:03,每天營業
5907360520,大樹瑞福藥局,高雄市前鎮區瑞隆路１７０號１樓、２樓,120.3357,22.60598,(07)7271170,羅氏家用新冠病毒抗原自我檢測套組,1,2022/04/28 16:31:03,快篩實名制，每天16:00開始販售，售完為止。
5907360548,芳鄰藥局,高雄市前鎮區中華五路９９３號１樓,120.3059,22.60262,(07)5361134,羅氏家用新冠病毒抗原自我檢測套組,15,2022/04/28 16:31:03,快篩實名制販售時間：週一～週五下午３點～５點，週六早上８點～１０點，週日不販售
5907360584,聖名健保藥局,高雄市前鎮區復興三路２４６號１樓,120.312,22.61558,(07)3319431,羅氏家用新冠病毒抗原自我檢測套組,5,2022/04/28 16:31:03,無
5907360628,風鈴藥局,高雄市前鎮區管仲路３７號,120.3117,22.60649,(07)5367833,羅氏家用新冠病毒抗原自我檢測套組,5,2022/04/28 16:31:03,販售口罩時間：14:00-16:00（周日公休）
5907360655,民權丁丁藥局,高雄市前鎮區民權二路３４５號１－３樓,120.3128,22.61005,(07)9650177,羅氏家用新冠病毒抗原自我檢測套組,1,2022/04/28 16:31:03,無
5907360664,忠純藥局,高雄市前鎮區中華五路１００９號１樓,120.3056,22.60341,(07)3366886,羅氏家用新冠病毒抗原自我檢測套組,46,2022/04/28 16:31:03,快篩實名制，每天16:00開始販售，售完為止。
5907360673,前鎮大樹藥局,高雄市前鎮區瑞隆路４７２號１樓,120.3291,22.60547,(07)7137171,羅氏家用新冠病毒抗原自我檢測套組,9,2022/04/28 16:31:03,快篩實名制，每天16:00開始販售，售完為止。
5907380175,新朋友藥師藥局小港店,高雄市小港區漢民路２５４號,120.3531,22.56653,(07)8065361,羅氏家用新冠病毒抗原自我檢測套組,2,2022/04/28 16:31:03,每週六公休
5907380184,桂林活力藥師藥局孔鳳店,高雄市小港區孔鳳路５６１號１樓,120.3586,22.58393,(07)7912331,羅氏家用新冠病毒抗原自我檢測套組,3,2022/04/28 16:31:03,無
5907380264,大樹孔鳳藥局,高雄市小港區孔鳳路５１９、５２１號,120.3587,22.5828,(07)7918521,羅氏家用新冠病毒抗原自我檢測套組,18,2022/04/28 16:31:03,快篩實名制，每天16:00開始販售，售完為止。
5907380291,富康活力藥局小港店,高雄市小港區二苓路２０４號１樓,120.3488,22.56552,(07)8020333,羅氏家用新冠病毒抗原自我檢測套組,3,2022/04/28 16:31:03,下午2點開始販賣口罩，到晚上7點截止
5907380353,桂林活力藥師藥局漢民店,高雄市小港區漢民路６９１－１及６９１－２號１樓,120.3614,22.56762,(07)8010636,羅氏家用新冠病毒抗原自我檢測套組,11,2022/04/28 16:31:03,無
5907380424,大樹小港藥局,高雄市小港區康莊路７５號１樓,120.3559,22.56853,(07)8068328,羅氏家用新冠病毒抗原自我檢測套組,23,2022/04/28 16:31:03,快篩實名制，每天16:00開始販售，售完為止。
5911011469,維元社區藥局,基隆市中正區新豐街４４８號,121.7859,25.13568,(02)24601388,羅氏家用新冠病毒抗原自我檢測套組,72,2022/04/28 16:31:03,營業時間:早上8:30-晚上10:30
5911011478,天康新豐藥局,基隆市中正區新豐街２５１巷４弄９號１樓,121.7885,25.13594,(02)24695168,羅氏家用新冠病毒抗原自我檢測套組,31,2022/04/28 16:31:03,無
5911011521,禎宸藥局,基隆市中正區中正路１７５號１樓,121.7605,25.14233,(02)24620366,羅氏家用新冠病毒抗原自我檢測套組,2,2022/04/28 16:31:03,無
5911011576,百福義一藥師藥局,基隆市中正區義一路４８號１樓,121.7458,25.13279,(02)24268288,羅氏家用新冠病毒抗原自我檢測套組,3,2022/04/28 16:31:03,數量若充足則全日可購買
5911011594,禾新藥局,基隆市中正區新豐街２０５巷７號,121.7895,25.138,(02)24698940,羅氏家用新冠病毒抗原自我檢測套組,1,2022/04/28 16:31:03,國定假日有提供調劑業務
5911011610,躍獅大藥局,基隆市中正區義二路３５號,121.7453,25.1312,(02)24286960,羅氏家用新冠病毒抗原自我檢測套組,78,2022/04/28 16:31:03,營業時間11時-20時假日公休
5911011638,中正藥局,基隆市中正區新豐街３８５號１、２樓,121.7856,25.13537,(02)24690660,羅氏家用新冠病毒抗原自我檢測套組,4,2022/04/28 16:31:03,無
5911021170,康蘋藥局,基隆市七堵區開元路５９－２號２樓,121.7139,25.09623,(02)24558150,羅氏家用新冠病毒抗原自我檢測套組,6,2022/04/28 16:31:03,10／108:00~12:00
5911021438,正心藥局,基隆市七堵區南興路１０號１樓,121.7149,25.09755,(02)24563378,羅氏家用新冠病毒抗原自我檢測套組,2,2022/04/28 16:31:03,星期一~六下午13:30發號碼牌，14:00開始販賣，星期日上午8:30發號碼牌，9:00開始販賣
5911030026,欣華藥局,基隆市暖暖區源遠路１９７號,121.7517,25.09843,(02)24576741,羅氏家用新冠病毒抗原自我檢測套組,5,2022/04/28 16:31:03,10
5911041332,光華藥局,基隆市仁愛區成功一路１２９號１樓,121.7364,25.12786,(02)24338703,羅氏家用新冠病毒抗原自我檢測套組,67,2022/04/28 16:31:03,快篩試劑販賣下午六點發號碼牌完立刻販售
5911041510,聯安藥局,基隆市仁愛區仁二路２５１號２樓,121.7428,25.1296,(02)24288809,羅氏家用新冠病毒抗原自我檢測套組,3,2022/04/28 16:31:03,安東耳鼻喉科二樓循環站正對面 口罩販售時間9:00-11:50，14:30-21:20 假日9:00-11:50 售完為止
5911041618,永樂藥局,基隆市仁愛區忠二路２２號,121.7401,25.13013,(02)24214878,羅氏家用新冠病毒抗原自我檢測套組,15,2022/04/28 16:31:03,無
5911041878,天康大藥局,基隆市仁愛區南榮路１４９號,121.743,25.12454,(02)77091122,羅氏家用新冠病毒抗原自我檢測套組,4,2022/04/28 16:31:03,無
5911041949,捷登藥局,基隆市仁愛區孝三路９２號１樓,121.7399,25.1309,(02)24237888,羅氏家用新冠病毒抗原自我檢測套組,4,2022/04/28 16:31:03,國定假日有提供藥事調劑服務
5911041958,百福仁愛專業藥局,基隆市仁愛區仁四路５０號１樓,121.7413,25.12829,(02)24266699,羅氏家用新冠病毒抗原自我檢測套組,7,2022/04/28 16:31:03,無
5911041967,東隆藥局,基隆市仁愛區仁二路１０５號２樓,121.7482,25.12742,(02)24260727,羅氏家用新冠病毒抗原自我檢測套組,11,2022/04/28 16:31:03,無
5911050162,錦泰藥局,基隆市中山區中山二路４３號,121.7405,25.13786,(02)24228523,羅氏家用新冠病毒抗原自我檢測套組,77,2022/04/28 16:31:03,快篩販賣時間星期一至五晚上7點，星期六下午2點，星期日休息
5911051507,百福安一藥局,基隆市中山區安一路８１號,121.7358,25.1314,(02)24258068,羅氏家用新冠病毒抗原自我檢測套組,5,2022/04/28 16:31:03,每天下午兩點現場代售防疫口罩，售完為止
5911070011,信安藥局,基隆市信義區信二路９９號,121.7548,25.12912,(02)24238551,羅氏家用新冠病毒抗原自我檢測套組,2,2022/04/28 16:31:03,無
5911071483,蘋果藥局,基隆市信義區東明路９７號,121.7614,25.12757,(02)24685158,羅氏家用新冠病毒抗原自我檢測套組,11,2022/04/28 16:31:03,無
5912010528,華安中西藥局,新竹市東區振興里南大路６４８號一樓,120.9627,24.79286,(03)5610088,羅氏家用新冠病毒抗原自我檢測套組,1,2022/04/28 16:31:03,早上8:30販售快篩試劑
5912012933,新芳鄰藥局,新竹市東區南大路４０２號,120.9695,24.79764,(03)5622183,羅氏家用新冠病毒抗原自我檢測套組,2,2022/04/28 16:31:03,無
5912013207,明湖健保藥局,新竹市東區明湖路３９８號,120.9675,24.78555,(03)5191788,羅氏家用新冠病毒抗原自我檢測套組,28,2022/04/28 16:31:03,無
5912013494,田美藥局,新竹市東區田美三街３５之１號１樓,120.9767,24.81572,(03)5350233,羅氏家用新冠病毒抗原自我檢測套組,14,2022/04/28 16:31:03,快篩實名制，每天16:00開始販售，售完為止。
5912013565,合康連鎖藥局關新店,新竹市東區關新北路１６１號１樓,121.0204,24.78614,(03)5679666,羅氏家用新冠病毒抗原自我檢測套組,39,2022/04/28 16:31:03,無
5912013672,關東藥局,新竹市東區光復路１段３３２、３３４號１至２樓,121.0187,24.78289,(03)5777077,羅氏家用新冠病毒抗原自我檢測套組,4,2022/04/28 16:31:03,無
5912040491,全禾藥局,新竹市北區潛園里集和街２５號,120.9616,24.80483,(03)5249173,羅氏家用新冠病毒抗原自我檢測套組,9,2022/04/28 16:31:03,早上9點半至12點，下午3點至9點
5912042066,佑健藥局,新竹市北區經國路二段５３１號１樓,120.9556,24.80447,(03)5230356,羅氏家用新冠病毒抗原自我檢測套組,67,2022/04/28 16:31:03,快篩販賣時段:早上9:30現場排隊至售完為止
5912042208,芳里藥局,新竹市北區延平路一段214巷2號,120.9544,24.80528,(03)5222989,羅氏家用新冠病毒抗原自我檢測套組,1,2022/04/28 16:31:03,星期日營業時間調整為9:00-18:00
5912042520,盛安藥局,新竹市北區育英里３鄰中山路２８１號,120.9603,24.8012,(03)5225668,羅氏家用新冠病毒抗原自我檢測套組,25,2022/04/28 16:31:03,12:40開始販售快篩劑
5912042815,合康連鎖藥局西大店,新竹市北區西大路６３６、６３８號１樓,120.9585,24.8101,(03)5233111,羅氏家用新冠病毒抗原自我檢測套組,40,2022/04/28 16:31:03,無
5912042940,新竹北門藥局,新竹市北區中正路３６０、３６２號１樓,120.9629,24.81414,(03)5333234,羅氏家用新冠病毒抗原自我檢測套組,10,2022/04/28 16:31:03,無
5912042986,仁佑藥局,新竹市北區南寮里西濱路一段５００號１樓,120.9342,24.8422,(03)5363818,羅氏家用新冠病毒抗原自我檢測套組,23,2022/04/28 16:31:03,無
5917010126,永大藥局,臺中市中區錦上里民族路１２２號,120.6786,24.14054,(04)22210180,羅氏家用新冠病毒抗原自我檢測套組,5,2022/04/28 16:31:03,09:00開始代售口罩，人多會發號碼牌 （周日休息）
5917011945,正三吉藥局,臺中市中區臺灣大道一段９５號,120.6831,24.13911,(04)22207700,羅氏家用新冠病毒抗原自我檢測套組,8,2022/04/28 16:31:03,快篩販售時間 14:00~17:00
5917020211,何藥局,臺中市東區精武路１８０號１樓,120.691,24.14765,(04)23605435,羅氏家用新冠病毒抗原自我檢測套組,1,2022/04/28 16:31:03,防疫口罩販售早上9:00~晚上10:00販售。
5917020417,群益藥局,臺中市東區東英八街１０６號１樓,120.7067,24.14148,(04)22129298,羅氏家用新冠病毒抗原自我檢測套組,1,2022/04/28 16:31:03,無
5917030520,林西藥局,臺中市西區向上路一段４６－１號,120.6661,24.14688,(04)23014023,羅氏家用新冠病毒抗原自我檢測套組,4,2022/04/28 16:31:03,每日早上9點開始依序當場領口罩，售完為止。
5917030860,振聲藥局,臺中市西區公正里向上路１段４４７號１樓,120.6541,24.14654,(04)24721100,羅氏家用新冠病毒抗原自我檢測套組,4,2022/04/28 16:31:03,週一至週六早上9:00開始販售口罩，售完為止
5917032471,銘津藥局,臺中市西區民生路３９０號１樓,120.6611,24.14444,(04)23021314,羅氏家用新冠病毒抗原自我檢測套組,1,2022/04/28 16:31:03,每日上午10:00至13:00，下午3:00至21:00 現場排隊，星期日下午休息
5917032613,向日睽藥局,臺中市西區林森路９８－２號１樓,120.6707,24.1379,(04)23731893,羅氏家用新冠病毒抗原自我檢測套組,7,2022/04/28 16:31:03,每日早上9點開始當場販售口罩.星期日也賣
5917040106,侑民藥局,臺中市南區興大路３９６巷４９號１樓,120.6712,24.11564,(04)22860146,羅氏家用新冠病毒抗原自我檢測套組,7,2022/04/28 16:31:03,週一至週五上午9點販賣防疫口罩，週六、日口罩停止販賣，2／8、2／15、2／22有販賣口罩，2／28有販賣口罩
5917040393,鴻儀大藥局,臺中市南區樹義里大慶街二段３－４號,120.6528,24.11405,(04)22611769,羅氏家用新冠病毒抗原自我檢測套組,7,2022/04/28 16:31:03,周一到周六下午3:00-5:00販賣防疫口罩，周日休息
5917050880,欣康藥局,臺中市北區館前路２１號,120.6657,24.15543,(04)23226837,羅氏家用新冠病毒抗原自我檢測套組,1,2022/04/28 16:31:03,週一至週六上午9時開始發放號碼牌，週日上午10時開始發放號碼牌。
5917050933,英才藥局,臺中市北區英才路２２９號,120.674,24.15558,(04)22012325,羅氏家用新冠病毒抗原自我檢測套組,4,2022/04/28 16:31:03,上午9~10:30及下午5~6:30依序發售口罩，週日公休。
5917050997,大多福藥局,臺中市北區賴村里大德街１４９號１Ｆ,120.6784,24.1609,(04)22058063,羅氏家用新冠病毒抗原自我檢測套組,2,2022/04/28 16:31:03,快篩試劑 ，上午9點10分開始發售，週日休息
5917052928,盈佑藥局,臺中市北區進化路６３９號１樓,120.6941,24.16091,(04)22376737,羅氏家用新冠病毒抗原自我檢測套組,7,2022/04/28 16:31:03,週一至週五上午9點到下午9點賣口罩 下午12~15點休息週六下午晚上都休息
5917053550,嘉樂藥局,臺中市北區西屯路一段３５１－７號,120.6658,24.15956,(04)23263967,羅氏家用新冠病毒抗原自我檢測套組,1,2022/04/28 16:31:03,星期一~五8.30~12.30，14.00~21.30，星期六8.30-12.30
5917061150,裕和藥局,臺中市西屯區大墩路９５１號１Ｆ,120.652,24.15929,(04)23252629,羅氏家用新冠病毒抗原自我檢測套組,2,2022/04/28 16:31:03,實名制快篩09:00持健保卡購買，若遇系統當機或其他因素則預收健保卡及費用，15:00後取回!星期日休息
5917062353,典安大藥局,臺中市西屯區西屯路３段１５９－６０號,120.6177,24.18807,(04)24616571,羅氏家用新冠病毒抗原自我檢測套組,2,2022/04/28 16:31:03,每天9:30發100份成人.10份兒童口罩   18:30發100份成人.10份兒童口罩
5917062531,久揚大藥局,臺中市西屯區工業區一路９８之１６號,120.6138,24.17453,(04)23580738,羅氏家用新冠病毒抗原自我檢測套組,1,2022/04/28 16:31:03,未發號碼牌，星期一至六早上9:00開始販賣口罩，星期日不一定
5917063332,新利賀專業藥局,臺中市西屯區河南路２段２９５號,120.6472,24.17334,(04)24525052,羅氏家用新冠病毒抗原自我檢測套組,2,2022/04/28 16:31:03,每週日休診
5917070677,康得美專業藥局,臺中市南屯區忠勇路１２之２６號,120.6119,24.13555,(04)23801185,羅氏家用新冠病毒抗原自我檢測套組,13,2022/04/28 16:31:03,無
5917071727,大愛藥局,臺中市南屯區向心南路９６２．９６４號１樓,120.644,24.13718,(04)24733646,羅氏家用新冠病毒抗原自我檢測套組,50,2022/04/28 16:31:03,每日上午08:30直接發放200份，每星期一公休一天!如還有口罩庫存繼續發放
5917072242,政豐大愛藥局,臺中市南屯區大業路１４５、１４７號１樓,120.6516,24.15344,(04)23274726,羅氏家用新冠病毒抗原自我檢測套組,18,2022/04/28 16:31:03,快篩發放~10:00及18:00兩梯次，現場排隊售完為止
5917072251,五六藥局,臺中市南屯區南屯路２段２４０號,120.6493,24.13696,(04)24757156,羅氏家用新冠病毒抗原自我檢測套組,1,2022/04/28 16:31:03,週一 到 週六，早上 9 : 30 開始販售， 售完為止. （不發號碼牌）
5917080379,大元藥局,臺中市北屯區北屯里昌平路一段２３號,120.6937,24.16657,(04)22357722,羅氏家用新冠病毒抗原自我檢測套組,72,2022/04/28 16:31:03,周一~周六每天18:00至20:00販售快篩劑， ，星期日公休
5917080744,早安藥局,臺中市北屯區崇德二路一段１９９號１樓,120.693,24.17641,(04)22439411,羅氏家用新冠病毒抗原自我檢測套組,2,2022/04/28 16:31:03,3月起周一至周六18:00開始販售口罩，週日全天休息
5917080762,順泰大藥局,臺中市北屯區北屯村北屯路１１５號,120.6939,24.165,(04)22341477,羅氏家用新冠病毒抗原自我檢測套組,44,2022/04/28 16:31:03,周三及周日公休，其餘時間每日上午9:00開賣，不需發號碼牌
5917080888,大華藥局,臺中市北屯區熱河路２段１０９號１樓,120.6873,24.17054,(04)22331721,羅氏家用新冠病毒抗原自我檢測套組,29,2022/04/28 16:31:03,周一至周五1830-2030販售快篩，周六1400-1600販售快篩。周六晚上及周日全天休診。
5917083076,瑞生藥局,臺中市北屯區大連路３段１２６號１樓,120.6948,24.17444,(04)22416759,羅氏家用新冠病毒抗原自我檢測套組,3,2022/04/28 16:31:03,每月固定禮拜天休息，每天早上8點30分準備開始領取口罩；每天早上8:30~晚上10:00，星期日休息
5917083101,北屯德康藥局,臺中市北屯區四平路４６９號１樓,120.681,24.19161,(04)24223378,羅氏家用新冠病毒抗原自我檢測套組,3,2022/04/28 16:31:03,每天早上9點30分發售口罩；前往領藥前先電話洽詢
5917083334,瑞東大藥局,臺中市北屯區東山路一段２４６之３號,120.7179,24.17542,(04)24373799,羅氏家用新冠病毒抗原自我檢測套組,24,2022/04/28 16:31:03,一~五9:00~14:00、15:00~22:00；六日 9:00~14:00、15:00~18:00
5921010072,統一藥局,臺南市東區中西里東門路１段２９１號,120.2186,22.98683,(06)2376638,羅氏家用新冠病毒抗原自我檢測套組,1,2022/04/28 16:31:03,早上9點到晚間9點半  星期日休假
5921010107,榮泰藥局,臺南市東區崇誨里林森路２段１９２巷４９號,120.2256,22.98973,(06)2369095,羅氏家用新冠病毒抗原自我檢測套組,4,2022/04/28 16:31:03,AM07:30.---PM09:00.中午12:30.---01:30午休. .星期日休息
5921010205,文成藥局,臺南市東區大學里東寧路４３號之１,120.2212,22.99217,(06)2340860,羅氏家用新冠病毒抗原自我檢測套組,2,2022/04/28 16:31:03,早上10:30至晚上10點     中午2點至3點休息
5921010232,大家藥局,臺南市東區大同路二段１７５號,120.214,22.97682,(06)2153777,羅氏家用新冠病毒抗原自我檢測套組,1,2022/04/28 16:31:03,快篩實名制:星期一到星期日早上8:30開始 售完為止
5921010250,宏昌藥局,臺南市東區大同路１段２７１號,120.2116,22.98252,(06)2142459,羅氏家用新冠病毒抗原自我檢測套組,1,2022/04/28 16:31:03,星期一-六09:00開始 售完為止 星期日休息
5921010705,華興藥局,臺南市東區崇善路５６２號,120.2302,22.97076,(06)2683757,羅氏家用新冠病毒抗原自我檢測套組,2,2022/04/28 16:31:03,星期日 休假  111／4／29 111／4／30  早上10點開始
5921012094,王瑞敏藥師藥局,臺南市東區崇德路７３９號,120.2277,22.96801,(06)2896888,羅氏家用新冠病毒抗原自我檢測套組,1,2022/04/28 16:31:03,無
5921012683,連春藥局,臺南市東區莊敬路１５號,120.2326,22.99335,(06)2083685,羅氏家用新冠病毒抗原自我檢測套組,2,2022/04/28 16:31:03,早上8／30開始銷售
5921013206,和德藥局,臺南市東區崇德路４９７號,120.2272,22.97435,(06)2882789,羅氏家用新冠病毒抗原自我檢測套組,11,2022/04/28 16:31:03,實名制口罩販售中，不限卡數
5921020185,安心藥局,臺南市南區喜東里喜樹路１５１巷３３號,120.18,22.94099,(06)2622570,羅氏家用新冠病毒抗原自我檢測套組,78,2022/04/28 16:31:03,無
5921020194,鹽埕藥局,臺南市南區白雪里鹽埕路６８號,120.1869,22.96696,(06)2651961,羅氏家用新冠病毒抗原自我檢測套組,16,2022/04/28 16:31:03,口罩時間星期一~六 08:00–售完
5921021566,佑佑藥局,臺南市南區金華里健康路二段３４９號２Ｆ,120.1879,22.98173,(06)2912603,羅氏家用新冠病毒抗原自我檢測套組,6,2022/04/28 16:31:03,口罩販售時間及營業時間
5921040436,嘉洲藥局,臺南市北區文元里文賢路２４０號,120.1938,23.0153,(06)2583180,羅氏家用新冠病毒抗原自我檢測套組,3,2022/04/28 16:31:03,星期一~六早上8:30營業，星期日早上9:00
5921040678,賀康藥局,臺南市北區公園路７０１號,120.2146,23.0167,(06)2819515,羅氏家用新冠病毒抗原自我檢測套組,4,2022/04/28 16:31:03,快篩試劑下午1點~2點販售
5921040749,玖大藥局,臺南市北區勝利路３８３號,120.2187,23.00397,(06)2752048,羅氏家用新冠病毒抗原自我檢測套組,1,2022/04/28 16:31:03,星期一~六13:00~15:00
5921042145,王大藥局,臺南市北區開元路１５６號,120.2197,23.00691,(06)2086169,羅氏家用新冠病毒抗原自我檢測套組,5,2022/04/28 16:31:03,快篩實名制：週一 至 週六：上午 8:00 ~ 22:00  （ 需健保卡 ）
5921050076,千代藥局,臺南市中西區民生路一段６０號１樓,120.2034,22.99337,(06)2256895,羅氏家用新冠病毒抗原自我檢測套組,1,2022/04/28 16:31:03,無
5921060198,平光藥局,臺南市安南區安中路１段８２２號,120.1947,23.0437,(06)2459641,羅氏家用新冠病毒抗原自我檢測套組,1,2022/04/28 16:31:03,無
5921060321,慈安藥局,臺南市安南區大安街５３號,120.1919,23.03148,(06)2551117,羅氏家用新冠病毒抗原自我檢測套組,78,2022/04/28 16:31:03,早上9:00-晚上11:00
5921060385,樂成藥局,臺南市安南區安和路一段１５９巷８３號,120.2115,23.03032,(06)2568576,羅氏家用新冠病毒抗原自我檢測套組,1,2022/04/28 16:31:03,無
5921061757,宏恩藥局,臺南市安南區長溪路１段５２號,120.2118,23.03457,(06)2474513,羅氏家用新冠病毒抗原自我檢測套組,24,2022/04/28 16:31:03,無
5921071226,康活藥局,臺南市安平區健康三街１８６號,120.1686,22.98883,(06)2936483,羅氏家用新冠病毒抗原自我檢測套組,78,2022/04/28 16:31:03,無
5921071360,蘋果藥師藥局,臺南市安平區健康三街２０６號,120.1688,22.98987,(06)2955351,羅氏家用新冠病毒抗原自我檢測套組,74,2022/04/28 16:31:03,快篩16:30-21:00販賣
5922010361,壽生堂藥局,嘉義市東區府路里延平街２８０號,120.4502,23.47683,(05)2225058,羅氏家用新冠病毒抗原自我檢測套組,3,2022/04/28 16:31:03,周一至周日上午09:00起，至20:00或售鑿為止。
5922011966,源豪藥局,嘉義市東區光華路８２號,120.4529,23.4782,(05)2169696,羅氏家用新冠病毒抗原自我檢測套組,10,2022/04/28 16:31:03,周一至周六，售鑿為止。周日休
5922012178,聖心藥局,嘉義市東區大雅路二段５７７號,120.4676,23.47718,(05)2777189,羅氏家用新冠病毒抗原自我檢測套組,1,2022/04/28 16:31:03,每日下午3點領號碼牌
5922012285,聖安藥局,嘉義市東區仁武里民權路３６５號１樓,120.4506,23.48235,(05)2222941,羅氏家用新冠病毒抗原自我檢測套組,78,2022/04/28 16:31:03,每日8:30開始發放口罩，每週四休息.
5922012721,仁藥集藥局,嘉義市東區太平里新生路５３９號,120.4582,23.49167,(05)2755533,羅氏家用新冠病毒抗原自我檢測套組,21,2022/04/28 16:31:03,8:30-11:00收健保卡，14:00發快篩
5922012972,百佑藥局,嘉義市東區公明路８２號１樓,120.4602,23.48088,(05)2757387,羅氏家用新冠病毒抗原自我檢測套組,3,2022/04/28 16:31:03,固定周一至周六08:30開始發放號碼牌並依序販售口罩，售完為止
5922013013,杏一嘉基藥局,嘉義市東區忠孝路５４３－１號,120.4497,23.50018,(05)2786577,羅氏家用新冠病毒抗原自我檢測套組,4,2022/04/28 16:31:03,周一至周日下午2:00時起，售鑿為止。
5922013068,佑全嘉義吳鳳南藥局,嘉義市東區吳鳳南路５８５、５８７號,120.459,23.45639,(05)2399311,羅氏家用新冠病毒抗原自我檢測套組,1,2022/04/28 16:31:03,領取口罩9:00
5922013102,後庄藥局,嘉義市東區吳鳳南路６４９號,120.4594,23.45511,(05)2391233,羅氏家用新冠病毒抗原自我檢測套組,11,2022/04/28 16:31:03,無
5922013175,森活中西藥局,嘉義市東區吳鳳北路２０８號一樓,120.4533,23.47931,(05)2288518,羅氏家用新冠病毒抗原自我檢測套組,7,2022/04/28 16:31:03,無
5922013193,民權藥局,嘉義市東區民權路１５５號１樓、１５７號１樓,120.4604,23.48374,(05)2775322,羅氏家用新冠病毒抗原自我檢測套組,7,2022/04/28 16:31:03,無
5922020456,啄木鳥藥局,嘉義市西區國華里文化路２５３號,120.4488,23.48298,(05)2226497,羅氏家用新冠病毒抗原自我檢測套組,2,2022/04/28 16:31:03,無
5922020509,全德藥局,嘉義市西區福民里興業西路２８９號,120.4392,23.46776,(05)2854263,羅氏家用新冠病毒抗原自我檢測套組,73,2022/04/28 16:31:03,營業時間請電話洽詢，口罩販售：19點~21點
5922020563,信康藥局,嘉義市西區翠岱里仁愛路２２６號,120.443,23.46984,(05)2161680,羅氏家用新冠病毒抗原自我檢測套組,1,2022/04/28 16:31:03,無
5922020652,四維啄木鳥藥局,嘉義市西區德安路１６０號,120.4284,23.48403,(05)2810598,羅氏家用新冠病毒抗原自我檢測套組,3,2022/04/28 16:31:03,口罩：每天8:15，現場排隊
5922020796,佑安藥局,嘉義市西區民權路４２３號１樓,120.4469,23.48185,(05)2278298,羅氏家用新冠病毒抗原自我檢測套組,1,2022/04/28 16:31:03,早上9點排隊預備 視現場情況調整販售
5922020894,平良藥局,嘉義市西區致遠里興業西路８４號１樓,120.4443,23.46856,(05)2235220,羅氏家用新冠病毒抗原自我檢測套組,4,2022/04/28 16:31:03,早上8點-12點  下午3點-6點
5922021006,竹圍藥局,嘉義市西區友愛路２７０、２７２號,120.4339,23.4837,(05)2811233,羅氏家用新冠病毒抗原自我檢測套組,5,2022/04/28 16:31:03,快篩實名制，每天16:00開始販售，售完為止。
5922028596,一安藥局,嘉義市西區福民里興業西路３１１號,120.4387,23.4677,(05)2859275,羅氏家用新冠病毒抗原自我檢測套組,7,2022/04/28 16:31:03,周一至周日早上9點至晚上10點半依發放號碼排依序售完
5922028925,健安藥局,嘉義市西區民族路６２６號,120.4452,23.4757,(05)2281219,羅氏家用新冠病毒抗原自我檢測套組,1,2022/04/28 16:31:03,口罩:星期一至星期六9點-12點，15點-21點
592202A358,國豐藥局,嘉義市西區北興街２４５－２號１樓,120.4386,23.4854,(05)2318473,羅氏家用新冠病毒抗原自我檢測套組,9,2022/04/28 16:31:03,快篩第一波販賣時間:8:30~，快篩第二波販賣時間:17:00~（滾動式調整）
5931010315,優良藥局,新北市板橋區莊敬路９３號,121.4727,25.02628,(02)22550251,羅氏家用新冠病毒抗原自我檢測套組,20,2022/04/28 16:31:03,無
5931010342,宏達大藥局,新北市板橋區莒光路１７號,121.47,25.02478,(02)22572345,羅氏家用新冠病毒抗原自我檢測套組,78,2022/04/28 16:31:03,晚上8:20販售口罩! 不要打電話來 問題這麼多就到現場 也不給你問
5931010397,正成藥師藥局,新北市板橋區三民路２段１５４巷７號,121.4787,25.01515,(02)29512760,羅氏家用新冠病毒抗原自我檢測套組,46,2022/04/28 16:31:03,無
5931011045,進發大藥局,新北市板橋區民治街１０１號,121.479,25.0315,(02)22528361,羅氏家用新冠病毒抗原自我檢測套組,78,2022/04/28 16:31:03,快篩17:30 販售謝謝
5931012051,全曜藥局,新北市板橋區民權路２６０巷６２號,121.4603,25.01495,(02)29682681,羅氏家用新冠病毒抗原自我檢測套組,70,2022/04/28 16:31:03,9AM-10PM，週六9AM-12AM
5931012060,溪北藥局,新北市板橋區溪北路７８號１樓,121.4281,24.98953,(02)26866528,羅氏家用新冠病毒抗原自我檢測套組,14,2022/04/28 16:31:03,口罩販售時段:早上8點至售完為止
5931012239,信昌藥局,新北市板橋區三民路２段２０２－９號,121.4789,25.0142,(02)29510784,羅氏家用新冠病毒抗原自我檢測套組,32,2022/04/28 16:31:03,防疫口罩服務時間：平日下午2點至晚上4點（週日無銷售）
5931013781,佳和藥局,新北市板橋區文化路１段３８７巷５號１樓,121.4667,25.02193,(02)22589598,羅氏家用新冠病毒抗原自我檢測套組,1,2022/04/28 16:31:03,8:30-12:00／15:00-18:00／19:00-22:00
5931014439,旭全藥局,新北市板橋區金門街３３１號,121.4294,24.98582,(02)26860526,羅氏家用新冠病毒抗原自我檢測套組,17,2022/04/28 16:31:03,星期1~6上午9:30~10:30 星期天上午9:30~下午5:00
5931014537,友虹藥師藥局,新北市板橋區國光路１６號,121.457,25.01739,(02)29691181,羅氏家用新冠病毒抗原自我檢測套組,78,2022/04/28 16:31:03,無
5931014555,廣益藥局,新北市板橋區自由路２１號,121.4654,25.02296,(02)22545726,羅氏家用新冠病毒抗原自我檢測套組,1,2022/04/28 16:31:03,禮拜二至禮拜日9:00開始領口罩，禮拜一發口罩休息 很抱歉
5931014822,常仁藥局,新北市板橋區中正路１巷４號,121.4556,25.01197,(02)29674999,羅氏家用新冠病毒抗原自我檢測套組,1,2022/04/28 16:31:03,無
5931015187,皇慶藥局,新北市板橋區南門街８１、８３號１、２樓及館前西路１１２巷７號,121.4568,25.0077,(02)29655351,羅氏家用新冠病毒抗原自我檢測套組,2,2022/04/28 16:31:03,現場排隊／號碼牌發放防疫口罩時間自09:00
5931015972,德豐健保藥局,新北市板橋區四川路２段４７巷３弄１號１樓,121.4543,24.99479,(02)89675880,羅氏家用新冠病毒抗原自我檢測套組,4,2022/04/28 16:31:03,無
5931015990,名安藥局,新北市板橋區龍興街５７號(１樓),121.4432,25.00115,(02)82751784,羅氏家用新冠病毒抗原自我檢測套組,75,2022/04/28 16:31:03,無
5931016326,楓康藥局,新北市板橋區新海路１１９號１樓,121.461,25.0229,(02)82582246,羅氏家用新冠病毒抗原自我檢測套組,1,2022/04/28 16:31:03,無
5931016335,康匯藥局,新北市板橋區實踐路１６７號（１樓）,121.4644,25.00394,(02)29512610,羅氏家用新冠病毒抗原自我檢測套組,1,2022/04/28 16:31:03,★★★每天都有 現領不用等★★★
5931016504,仁泰藥局,新北市板橋區四川路２段３３號１樓,121.4543,24.99537,(02)89672133,羅氏家用新冠病毒抗原自我檢測套組,1,2022/04/28 16:31:03,無
5931016540,新海藥局,新北市板橋區新海路１２２號１、２樓,121.4612,25.02292,(02)22500190,羅氏家用新冠病毒抗原自我檢測套組,78,2022/04/28 16:31:03,營業時間:9:00~23:00
5931016577,廣泰藥師藥局,新北市板橋區館前西路１５０號１樓,121.4556,25.00843,(02)89698381,羅氏家用新冠病毒抗原自我檢測套組,2,2022/04/28 16:31:03,無
5931016611,民川藥局,新北市板橋區四川路１段９７號１樓,121.4598,25.00544,(02)29520090,羅氏家用新冠病毒抗原自我檢測套組,1,2022/04/28 16:31:03,星期一~星期六（早上9:00販售快篩38份下午3:00販售40份）
5931016808,正安健保藥局,新北市板橋區民族路２２４號（１樓）,121.4687,25.00733,(02)29526813,羅氏家用新冠病毒抗原自我檢測套組,78,2022/04/28 16:31:03,17時依現場順序開始販售快篩
5931016915,微笑藥局,新北市板橋區中正路２１１號,121.4561,25.0175,(02)29655811,羅氏家用新冠病毒抗原自我檢測套組,1,2022/04/28 16:31:03,無
5931017369,軒源藥局,新北市板橋區信義路１６９號（１樓）,121.4589,24.99216,(02)29583995,羅氏家用新冠病毒抗原自我檢測套組,1,2022/04/28 16:31:03,周六晚與周日整天為休息時間。
5931017396,美康四維藥局,新北市板橋區四維路１２２號１樓,121.4654,25.02499,(02)22506616,羅氏家用新冠病毒抗原自我檢測套組,4,2022/04/28 16:31:03,上午九點開始發 成人200份 兒童20份 發完為止
5931017529,埔全藥局,新北市板橋區忠孝路３３號（１樓）,121.4608,25.00206,(02)29567309,羅氏家用新冠病毒抗原自我檢測套組,39,2022/04/28 16:31:03,現場號碼牌發放時間:早上09:30及晚上7:00，拿到號碼牌即可購買口罩
5931017547,好爸爸藥局,新北市板橋區民治街１０７號１樓,121.4788,25.03138,(02)22559955,羅氏家用新冠病毒抗原自我檢測套組,1,2022/04/28 16:31:03,無
5931017618,新埔健保藥局,新北市板橋區自由路２號１樓,121.4654,25.02222,(02)22558878,羅氏家用新冠病毒抗原自我檢測套組,37,2022/04/28 16:31:03,無
5931017654,葆康藥局,新北市板橋區四川路２段２４５巷３號（１樓）,121.4507,24.99346,(02)89678373,羅氏家用新冠病毒抗原自我檢測套組,26,2022/04/28 16:31:03,無
5931017681,浣熊藥局,新北市板橋區中正路３０１號（１樓）,121.4552,25.01954,(02)29650355,羅氏家用新冠病毒抗原自我檢測套組,2,2022/04/28 16:31:03,無
5931017752,泓泰藥局,新北市板橋區館前西路１４０號２樓,121.4563,25.0081,(02)29686559,羅氏家用新冠病毒抗原自我檢測套組,27,2022/04/28 16:31:03,無
5931017770,光環藥局,新北市板橋區光環路２段１６號１樓,121.4822,25.01476,(02)89520920,羅氏家用新冠病毒抗原自我檢測套組,5,2022/04/28 16:31:03,無
5931017789,明翠藥局,新北市板橋區四維路１４６、１４８號１、２樓,121.4651,25.02555,(02)22550201,羅氏家用新冠病毒抗原自我檢測套組,1,2022/04/28 16:31:03,快篩實名制，每天16:00開始販售，售完為止。
5931017814,順儷新板藥局,新北市板橋區漢生東路１８７號１樓,121.4698,25.01181,(02)29512590,羅氏家用新冠病毒抗原自我檢測套組,1,2022/04/28 16:31:03,無
5931017903,吉發藥局,新北市板橋區文化路１段１８８巷５弄１５號（１樓）,121.4674,25.01986,(02)22577381,羅氏家用新冠病毒抗原自我檢測套組,1,2022/04/28 16:31:03,無
5931017912,社後藥局,新北市板橋區大仁街３９號（１樓）,121.4551,25.01661,(02)29665662,羅氏家用新冠病毒抗原自我檢測套組,4,2022/04/28 16:31:03,快篩實名制，每天16:00開始販售，售完為止。
5931017921,順儷民權藥局,新北市板橋區民權路２３４號１樓,121.4586,25.01453,(02)29609555,羅氏家用新冠病毒抗原自我檢測套組,5,2022/04/28 16:31:03,無
5931017976,豐禾藥局,新北市板橋區中山路１段２７９號１樓,121.4696,25.0142,(02)89516666,羅氏家用新冠病毒抗原自我檢測套組,4,2022/04/28 16:31:03,無
5931017985,松柏藥局,新北市板橋區松柏街９４號（１樓）,121.4767,25.03065,(02)82585223,羅氏家用新冠病毒抗原自我檢測套組,10,2022/04/28 16:31:03,快篩實名制，每天16:00開始販售，售完為止。
5931017994,後埔藥局,新北市板橋區華興街９號（１樓）,121.459,25.00457,(02)89510306,羅氏家用新冠病毒抗原自我檢測套組,15,2022/04/28 16:31:03,無
5931018053,廣福健保藥局,新北市板橋區三民路１段７６號（１樓）,121.4793,25.02207,(02)29544288,羅氏家用新冠病毒抗原自我檢測套組,7,2022/04/28 16:31:03,無
5931018099,廣品藥局,新北市板橋區漢生西路８２號（１樓）,121.4628,25.01934,(02)22576880,羅氏家用新冠病毒抗原自我檢測套組,8,2022/04/28 16:31:03,無
5931018106,力安藥局,新北市板橋區莒光路１９６巷８號（１樓）,121.4738,25.02255,(02)22503349,羅氏家用新冠病毒抗原自我檢測套組,2,2022/04/28 16:31:03,快篩實名制，早上9點依現場順序開始販售快篩，售完為止。
5931018115,振昌藥局,新北市板橋區溪崑二街１４號１樓,121.4288,24.99175,(02)26862119,羅氏家用新冠病毒抗原自我檢測套組,1,2022/04/28 16:31:03,無
5931018142,重慶藥局,新北市板橋區國慶路１２７號（１樓）,121.4608,24.99602,(02)29565586,羅氏家用新冠病毒抗原自我檢測套組,5,2022/04/28 16:31:03,快篩實名制，每天16:00開始販售，售完為止。
5931020400,新迪化中西藥局,新北市三重區三陽路２７號１樓,121.4855,25.05893,(02)29884755,羅氏家用新冠病毒抗原自我檢測套組,28,2022/04/28 16:31:03,無
5931020473,天佑藥局,新北市三重區大同北路８號,121.4954,25.06207,(02)29857456,羅氏家用新冠病毒抗原自我檢測套組,8,2022/04/28 16:31:03,無
5931020848,吳廣隆藥局,新北市三重區長壽西街５－１號,121.498,25.06765,(02)29715020,羅氏家用新冠病毒抗原自我檢測套組,2,2022/04/28 16:31:03,每天下午2點開始販售防疫口罩
5931020866,裕福藥局,新北市三重區長壽西街１４４號,121.4939,25.06661,(02)29831769,羅氏家用新冠病毒抗原自我檢測套組,5,2022/04/28 16:31:03,口罩代售時間自9:00；現場排隊
5931021023,義中藥局,新北市三重區大同北路１０７號,121.4942,25.06421,(02)29815088,羅氏家用新冠病毒抗原自我檢測套組,18,2022/04/28 16:31:03,無
5931021167,禮隆藥局,新北市三重區自強路４段６４號,121.4901,25.07853,(02)29894735,羅氏家用新冠病毒抗原自我檢測套組,8,2022/04/28 16:31:03,無
5931021532,龍門藥局,新北市三重區龍門路１８９號,121.4996,25.07322,(02)29756141,羅氏家用新冠病毒抗原自我檢測套組,1,2022/04/28 16:31:03,無
5931021658,上益藥局,新北市三重區忠孝路２段１３６號１樓,121.4827,25.06833,(02)29879460,羅氏家用新冠病毒抗原自我檢測套組,1,2022/04/28 16:31:03,兒童.成人盒裝彩色口罩熱賣中
5931023349,迪化藥局,新北市三重區中華路７７號,121.4836,25.06267,(02)29834445,羅氏家用新冠病毒抗原自我檢測套組,3,2022/04/28 16:31:03,無
5931023527,德慈藥局,新北市三重區重新路３段１６號１樓,121.4951,25.06138,(02)29736693,羅氏家用新冠病毒抗原自我檢測套組,2,2022/04/28 16:31:03,口罩代售時間自13:00-15:00無需領取號碼牌
5931023563,寶貝藥局,新北市三重區仁愛街３０２－１號,121.4921,25.07944,(02)29802190,羅氏家用新冠病毒抗原自我檢測套組,5,2022/04/28 16:31:03,無
5931023581,大重仁藥局,新北市三重區重新路５段５９２號１樓,121.4694,25.04539,(02)29958283,羅氏家用新冠病毒抗原自我檢測套組,20,2022/04/28 16:31:03,無
5931023830,忠信藥局,新北市三重區仁興街３２號,121.4991,25.07552,(02)29762963,羅氏家用新冠病毒抗原自我檢測套組,2,2022/04/28 16:31:03,無
5931024088,美滿藥局,新北市三重區中華路１６號,121.4834,25.0606,(02)89824272,羅氏家用新冠病毒抗原自我檢測套組,21,2022/04/28 16:31:03,4／28 晚上7點發號碼牌4／29起早上9點發號碼牌發完為止
5931024373,予康藥局,新北市三重區文化北路１９８號１樓,121.498,25.06794,(02)89858789,羅氏家用新冠病毒抗原自我檢測套組,9,2022/04/28 16:31:03,（星期日休息
5931024515,陳藥局,新北市三重區三民街７７號,121.4858,25.06293,(02)29848601,羅氏家用新冠病毒抗原自我檢測套組,78,2022/04/28 16:31:03,無
5931024551,樂活處方箋藥局,新北市三重區中正北路９９號１樓,121.4897,25.06325,(02)29805182,羅氏家用新冠病毒抗原自我檢測套組,31,2022/04/28 16:31:03,10am-12am賣口罩
5931024677,博愛藥局,新北市三重區三民街２２０號１樓,121.4803,25.06712,(02)29711606,羅氏家用新冠病毒抗原自我檢測套組,1,2022/04/28 16:31:03,無
5931024962,建祥三和藥局,新北市三重區三和路２段１６０號１樓,121.4992,25.06853,(02)29703379,羅氏家用新冠病毒抗原自我檢測套組,1,2022/04/28 16:31:03,無
5931024971,欽勝藥局,新北市三重區重陽路４段６號２樓,121.4906,25.06894,(02)29857389,羅氏家用新冠病毒抗原自我檢測套組,1,2022/04/28 16:31:03,無
5931025263,鴻泰健保藥局,新北市三重區重新路１段９５號１樓,121.5009,25.06343,(02)29769055,羅氏家用新冠病毒抗原自我檢測套組,1,2022/04/28 16:31:03,週日不販售防疫口罩
5931025290,康新藥局,新北市三重區正義北路１８５號２樓,121.4964,25.06783,(02)29865982,羅氏家用新冠病毒抗原自我檢測套組,10,2022/04/28 16:31:03,實名制口罩代售時段：下午2點到4點。請自備零錢，恕不找零。.
5931025432,利民藥局,新北市三重區自強路１段１７１號、１７３號１樓及２樓,121.4974,25.06685,(02)29852826,羅氏家用新冠病毒抗原自我檢測套組,14,2022/04/28 16:31:03,實名制快篩1030發號碼牌+收費／1500憑號碼牌領快篩
5931025567,閎安藥局,新北市三重區重新路２段８５號１樓、２樓,121.4962,25.06181,(02)29881968,羅氏家用新冠病毒抗原自我檢測套組,8,2022/04/28 16:31:03,每日皆執行調劑業務，口罩代售時間每日下午兩點開始至晚間十點
5931025610,大樹三重藥局,新北市三重區正義北路６６號１樓,121.4972,25.06415,(02)29713188,羅氏家用新冠病毒抗原自我檢測套組,33,2022/04/28 16:31:03,口罩販售時間：14:00 - 16:00
5931025647,幸康藥局,新北市三重區正義北路２０５號２樓,121.4962,25.0684,(02)29816105,羅氏家用新冠病毒抗原自我檢測套組,59,2022/04/28 16:31:03,國定假日，如元旦，端午，中秋不執行調劑業務。
5931025692,杏一三重集成藥局,新北市三重區集成路４３號１樓,121.4893,25.05271,(02)29743410,羅氏家用新冠病毒抗原自我檢測套組,18,2022/04/28 16:31:03,每日下午三點販售口罩
5931025781,芯慈藥局,新北市三重區永安北路２段１０５號１樓,121.4831,25.08392,(02)28570670,羅氏家用新冠病毒抗原自我檢測套組,2,2022/04/28 16:31:03,國定假日有提供藥劑服務
5931025932,永吉藥局,新北市三重區車路頭街９１號１樓,121.4844,25.07422,(02)22860432,羅氏家用新冠病毒抗原自我檢測套組,3,2022/04/28 16:31:03,快篩實名制，每天16:00開始販售，售完為止。
5931025950,美康三和藥局,新北市三重區三和路４段３２２號１、２樓,121.4841,25.07795,(02)22866858,羅氏家用新冠病毒抗原自我檢測套組,78,2022/04/28 16:31:03,無
5931025969,躍獅欣欣藥局,新北市三重區正義北路２３３號１樓,121.496,25.06915,(02)29816955,羅氏家用新冠病毒抗原自我檢測套組,77,2022/04/28 16:31:03,19:00開始販售實名制快篩
5931026055,芮櫟溪尾大藥局,新北市三重區仁愛街５１６號１樓,121.4871,25.08201,(02)22809009,羅氏家用新冠病毒抗原自我檢測套組,8,2022/04/28 16:31:03,無
5931026073,重陽藥局,新北市三重區重陽路４段３６、３８號１樓,121.4913,25.06975,(02)29880456,羅氏家用新冠病毒抗原自我檢測套組,12,2022/04/28 16:31:03,無
5931026091,重新藥局,新北市三重區重新路４段１２號１樓,121.4888,25.05775,(02)29742700,羅氏家用新冠病毒抗原自我檢測套組,27,2022/04/28 16:31:03,無
5931030639,家宏藥局,新北市永和區成功路２段１２３號,121.5268,24.99845,(02)29256856,羅氏家用新冠病毒抗原自我檢測套組,2,2022/04/28 16:31:03,早上11點（視情況）發號碼牌即可開始買口罩，周三、日公休
5931032811,華特健康藥局,新北市永和區永貞路３６２號１樓,121.5102,25.00667,(02)29264391,羅氏家用新冠病毒抗原自我檢測套組,1,2022/04/28 16:31:03,無
5931033087,康宏安藥局,新北市永和區保福路２段７８號１樓,121.5106,25.01331,(02)29288118,羅氏家用新冠病毒抗原自我檢測套組,47,2022/04/28 16:31:03,無
5931033363,保安藥局,新北市永和區保安路２１２號１樓,121.5075,25.01393,(02)29277623,羅氏家用新冠病毒抗原自我檢測套組,4,2022/04/28 16:31:03,口罩代售時間 周一到周六: 09:00、15:30， 19:00。現場排隊發號碼牌
5931033523,永奕藥局,新北市永和區永平路２８６之１號１樓,121.5077,25.01208,(02)22327709,羅氏家用新冠病毒抗原自我檢測套組,8,2022/04/28 16:31:03,無
5931033621,永正健康人生藥局,新北市永和區中正路１９１、１９３號１樓、１９７號２樓,121.5171,24.99931,(02)29467351,羅氏家用新冠病毒抗原自我檢測套組,3,2022/04/28 16:31:03,營業時間9:00-21:00
5931033961,永和大樹藥局,新北市永和區福和路１４３號１、２樓,121.5207,25.00766,(02)29233377,羅氏家用新冠病毒抗原自我檢測套組,35,2022/04/28 16:31:03,快篩實名制，每天16:00開始販售，售完為止。
5931034020,順和藥局,新北市永和區中正路７５號１樓,121.5149,24.99687,(02)86680362,羅氏家用新冠病毒抗原自我檢測套組,11,2022/04/28 16:31:03,無
5931034057,佑全永和中山藥局,新北市永和區中山路１段２２７、２２９、２３１號１樓,121.508,25.00776,(02)22331546,羅氏家用新冠病毒抗原自我檢測套組,9,2022/04/28 16:31:03,無
5931034146,亮點藥局,新北市永和區竹林路７１號１樓,121.5186,25.01355,(02)89253895,羅氏家用新冠病毒抗原自我檢測套組,78,2022/04/28 16:31:03,無
5931034173,橘子藥局,新北市永和區仁愛路２９８號１樓,121.5035,25.00809,(02)32330390,羅氏家用新冠病毒抗原自我檢測套組,8,2022/04/28 16:31:03,無
5931034208,正銨藥局,新北市永和區得和路２４７－１號（１樓）,121.5206,25.00009,(02)29288100,羅氏家用新冠病毒抗原自我檢測套組,3,2022/04/28 16:31:03,無
5931040215,華新藥局,新北市中和區華新街７３號,121.5082,24.98392,(02)29448345,羅氏家用新冠病毒抗原自我檢測套組,1,2022/04/28 16:31:03,無
5931040475,顧藥局,新北市中和區圓通路１４０號,121.4983,24.99583,(02)22470133,羅氏家用新冠病毒抗原自我檢測套組,1,2022/04/28 16:31:03,周一到周六營業*.早上09點-晚上10:30分
5931041061,裕壬藥局,新北市中和區新生街２０６、２０８號１樓,121.4836,24.99644,(02)32349358,羅氏家用新冠病毒抗原自我檢測套組,77,2022/04/28 16:31:03,無
5931042326,璟福藥局,新北市中和區安平路７６號１樓,121.511,24.99652,(02)29408669,羅氏家用新冠病毒抗原自我檢測套組,1,2022/04/28 16:31:03,星期一至星期六早上8:30分領口罩領完為止不發號碼牌
5931042648,恩溢藥局,新北市中和區復興路７９號１樓.２樓,121.5035,24.9902,(02)22452450,羅氏家用新冠病毒抗原自我檢測套組,15,2022/04/28 16:31:03,口罩販售:週一-六10:00-21:00；週日15:30-21:00（免號碼牌，免排隊）
5931042899,家家藥局,新北市中和區民德路４３號,121.469,25.00219,(02)29587512,羅氏家用新冠病毒抗原自我檢測套組,3,2022/04/28 16:31:03,口罩每日09:00憑健保卡領取。實際領取資格以讀健保卡判別主。若有剩餘量星期天仍會繼續販售。
5931043047,藥安藥局,新北市中和區廣福路１６號１樓,121.5052,25.00277,(02)22447066,羅氏家用新冠病毒抗原自我檢測套組,5,2022/04/28 16:31:03,星期日公休
5931043109,育新藥局,新北市中和區中安街４０巷６號,121.5127,25.00305,(02)29283479,羅氏家用新冠病毒抗原自我檢測套組,78,2022/04/28 16:31:03,週一、二、三、五、六早上八點開始販售，售完為止（四、日無販賣）
5931043234,康荃優生保健藥局,新北市中和區福祥路６６號１樓,121.4994,25.00494,(02)22486532,羅氏家用新冠病毒抗原自我檢測套組,8,2022/04/28 16:31:03,無
5931043501,悅聖藥局,新北市中和區圓通路１４９號１樓,121.4984,24.99567,(02)22429779,羅氏家用新冠病毒抗原自我檢測套組,2,2022/04/28 16:31:03,口罩販售時間為早上10點 不發號碼牌 現場排隊購買 *週日不販售*
5931043538,三越藥局,新北市中和區復興路２７７號１樓,121.5024,24.9902,(02)22427215,羅氏家用新冠病毒抗原自我檢測套組,9,2022/04/28 16:31:03,無
5931043690,捷勝藥師藥局,新北市中和區華順街１２２號〈１樓〉,121.4651,24.99646,(02)29646225,羅氏家用新冠病毒抗原自我檢測套組,1,2022/04/28 16:31:03,1-6早上0830開始賣
5931043770,宜安健康人生藥局,新北市中和區宜安路１６２號１樓,121.5091,24.99895,(02)29224648,羅氏家用新冠病毒抗原自我檢測套組,8,2022/04/28 16:31:03,無
5931043798,永成藥局,新北市中和區景平路１５６號１樓,121.5176,24.99222,(02)29407619,羅氏家用新冠病毒抗原自我檢測套組,1,2022/04/28 16:31:03,實名制快篩，下午三點領取號碼販售
5931043921,良安藥局,新北市中和區連城路４７７巷１號１樓,121.4833,24.99555,(02)22225798,羅氏家用新冠病毒抗原自我檢測套組,78,2022/04/28 16:31:03,週六日不開店
5931043976,詠邑藥局,新北市中和區南華路４３號１樓,121.5038,24.99671,(02)22445630,羅氏家用新冠病毒抗原自我檢測套組,8,2022/04/28 16:31:03,無
5931044464,健暉藥局,新北市中和區連城路４８７號１樓,121.4829,24.99552,(02)22231437,羅氏家用新冠病毒抗原自我檢測套組,39,2022/04/28 16:31:03,實名快篩 早上10點 39份 ／ 晚上7點 39份 賣完為止
5931044599,成合藥局,新北市中和區景平路４２９之２號１樓,121.5013,24.99545,(02)22483605,羅氏家用新冠病毒抗原自我檢測套組,4,2022/04/28 16:31:03,1月2日~1月8日防疫口罩暫停服務，1月9日正常提供防疫口罩購買服務.
5931044679,以法蓮藥局,新北市中和區中興街１５４號１樓,121.4998,24.99183,(02)22438983,羅氏家用新冠病毒抗原自我檢測套組,40,2022/04/28 16:31:03,口罩下午3點開始，不用領號碼牌直接排隊
5931044704,惠民藥局,新北市中和區中興街１５３號１樓,121.5001,24.99102,(02)22475303,羅氏家用新冠病毒抗原自我檢測套組,2,2022/04/28 16:31:03,口罩於8:40發放號碼牌，並同時開始領取。
5931044875,誼安健業藥局,新北市中和區宜安路１１８巷２０號１樓,121.5108,24.99863,(02)86600058,羅氏家用新冠病毒抗原自我檢測套組,9,2022/04/28 16:31:03,國定假日早上和星期日早上休息
5931044973,佳禾藥局,新北市中和區自立路３２號１樓,121.5226,24.9928,(02)29428989,羅氏家用新冠病毒抗原自我檢測套組,4,2022/04/28 16:31:03,無
5931044982,萊恩藥局,新北市中和區景安路２０９號１樓,121.5046,24.99192,(02)29468395,羅氏家用新冠病毒抗原自我檢測套組,1,2022/04/28 16:31:03,無
5931045032,朝安藥局,新北市中和區復興路２６２號１樓,121.5035,24.99038,(02)31511269,羅氏家用新冠病毒抗原自我檢測套組,1,2022/04/28 16:31:03,AM10:00~PM10:00
5931045130,四維藥局,新北市中和區四維街３７巷２號１樓,121.5124,24.98679,(02)86681345,羅氏家用新冠病毒抗原自我檢測套組,6,2022/04/28 16:31:03,快篩實名制，每天16:00開始販售，售完為止。
5931045256,品心藥局,新北市中和區中山路３段９６號１樓,121.4774,25.00579,(02)22228384,羅氏家用新冠病毒抗原自我檢測套組,1,2022/04/28 16:31:03,無
5931045292,福欣藥局,新北市中和區中和路１４８號１樓,121.504,24.99961,(02)22485500,羅氏家用新冠病毒抗原自我檢測套組,39,2022/04/28 16:31:03,無
5931045309,杏一中和雙和藥局,新北市中和區圓通路２９５之３號１樓,121.4946,24.99191,(02)22436116,羅氏家用新冠病毒抗原自我檢測套組,7,2022/04/28 16:31:03,無
5931045416,信毅藥局,新北市中和區捷運路５６號１樓,121.5081,24.99078,(02)29423663,羅氏家用新冠病毒抗原自我檢測套組,37,2022/04/28 16:31:03,無
5931051585,益生大藥局,新北市新店區建國路１３２號,121.5391,24.97885,(02)29177961,羅氏家用新冠病毒抗原自我檢測套組,14,2022/04/28 16:31:03,每日12點左右排隊领取口罩，沒有號碼牌
5931052215,三民藥局,新北市新店區三民路７８號１樓－１,121.5348,24.97257,(02)89146301,羅氏家用新冠病毒抗原自我檢測套組,1,2022/04/28 16:31:03,無
5931052484,大河藥局,新北市新店區三民路１４０號１樓,121.5351,24.97502,(02)29140910,羅氏家用新冠病毒抗原自我檢測套組,23,2022/04/28 16:31:03,週一至週六每日下午2點開始發購實名制快篩試劑。1人1卡購買1份。
5931052724,合康大藥局,新北市新店區中正路２６３－２號１樓,121.5384,24.97367,(02)29109888,羅氏家用新冠病毒抗原自我檢測套組,4,2022/04/28 16:31:03,上午 8:30 至 晚上 10:30
5931053123,大吉藥局,新北市新店區中正路３０號１樓,121.5452,24.96977,(02)29110151,羅氏家用新冠病毒抗原自我檢測套組,2,2022/04/28 16:31:03,無
5931053141,禾康藥局,新北市新店區德正街４４號１樓,121.5443,24.97143,(02)29160596,羅氏家用新冠病毒抗原自我檢測套組,69,2022/04/28 16:31:03,無
5931053196,康心藥局,新北市新店區北新路３段１０４號１樓,121.5419,24.9812,(02)86655858,羅氏家用新冠病毒抗原自我檢測套組,12,2022/04/28 16:31:03,無
5931053285,北新212藥局,新北市新店區北新路３段２１２號（２樓）,121.5413,24.98429,(02)29183212,羅氏家用新冠病毒抗原自我檢測套組,72,2022/04/28 16:31:03,無
5931053310,安和藥局,新北市新店區安和路３段１３７號１樓,121.517,24.9853,(02)86685309,羅氏家用新冠病毒抗原自我檢測套組,5,2022/04/28 16:31:03,111年春節連假期間1／31-2／4不營業
5931053347,健詮藥局,新北市新店區建國路１１９號１樓,121.5398,24.97777,(02)29116312,羅氏家用新冠病毒抗原自我檢測套組,2,2022/04/28 16:31:03,無
5931053365,十二願藥局,新北市新店區中正路６８２號１樓,121.5341,24.98998,(02)22181899,羅氏家用新冠病毒抗原自我檢測套組,1,2022/04/28 16:31:03,無
5931053383,大豐藥局,新北市新店區北新路３段５３號之１（１樓）,121.5417,24.9807,(02)89113196,羅氏家用新冠病毒抗原自我檢測套組,9,2022/04/28 16:31:03,無
5931060262,明生藥局,新北市新莊區福樂街１３號,121.4578,25.04504,(02)29913260,羅氏家用新冠病毒抗原自我檢測套組,10,2022/04/28 16:31:03,無
5931060431,武田藥局,新北市新莊區化成路２１２號,121.4657,25.0465,(02)29944029,羅氏家用新冠病毒抗原自我檢測套組,1,2022/04/28 16:31:03,無
5931060815,祐全大藥局,新北市新莊區建安街８８號,121.4262,25.02423,(02)22026008,羅氏家用新冠病毒抗原自我檢測套組,1,2022/04/28 16:31:03,快篩代售時間:10:00售完為止；現場排隊
5931060824,禮安藥師藥局,新北市新莊區自立街１０９號１樓,121.4555,25.0455,(02)29942891,羅氏家用新冠病毒抗原自我檢測套組,5,2022/04/28 16:31:03,無
5931067136,蒲陽藥局,新北市新莊區中港路５１４號,121.4518,25.05187,(02)29930069,羅氏家用新冠病毒抗原自我檢測套組,2,2022/04/28 16:31:03,無
5931067216,鍵豐藥局,新北市新莊區中和街１５８號１樓,121.4474,25.04878,(02)29917452,羅氏家用新冠病毒抗原自我檢測套組,6,2022/04/28 16:31:03,無
5931067565,豐年藥局,新北市新莊區中正路３７７巷１６號,121.4462,25.03395,(02)22071182,羅氏家用新冠病毒抗原自我檢測套組,1,2022/04/28 16:31:03,無
5931068508,凱盛藥局,新北市新莊區光榮里西盛街１９９號,121.4282,25.01706,(02)22024914,羅氏家用新冠病毒抗原自我檢測套組,5,2022/04/28 16:31:03,無
5931068759,森活藥局,新北市新莊區民安路２２０－１號,121.426,25.02259,(02)22027927,羅氏家用新冠病毒抗原自我檢測套組,4,2022/04/28 16:31:03,無
5931068819,東京大藥局,新北市新莊區民安路１７６號１樓,121.4251,25.02392,(02)22063806,羅氏家用新冠病毒抗原自我檢測套組,2,2022/04/28 16:31:03,口罩代售時間為9:30開始現場排隊販售
5931069372,羽豐藥局,新北市新莊區新莊路３８２號１樓,121.4491,25.03355,(02)22029812,羅氏家用新冠病毒抗原自我檢測套組,78,2022/04/28 16:31:03,不用過卡的醫療口罩整天有，過健保卡口罩限每早9:30至11:40
5931069425,國安藥局,新北市新莊區中和街１５５巷６號１樓,121.4472,25.04979,(02)29938003,羅氏家用新冠病毒抗原自我檢測套組,1,2022/04/28 16:31:03,無
5931069765,健業藥妝藥局,新北市新莊區中和街１３０號１樓,121.4475,25.04809,(02)22796279,羅氏家用新冠病毒抗原自我檢測套組,67,2022/04/28 16:31:03,口罩販售資訊:下午3點~11點販售
5931069792,宏泰藥局,新北市新莊區自信街３７號１樓,121.4543,25.04863,(02)29964649,羅氏家用新冠病毒抗原自我檢測套組,2,2022/04/28 16:31:03,無
593106A039,大仁藥局,新北市新莊區公園一路３２號１樓,121.4435,25.03531,(02)22776023,羅氏家用新冠病毒抗原自我檢測套組,61,2022/04/28 16:31:03,口罩販售時間:週一至週五（14:00~16:00）週六、週日（公休）。5／1，5／2公休。
593106A155,日榮藥局,新北市新莊區龍安路４６１號１樓,121.4248,25.0186,(02)22051523,羅氏家用新冠病毒抗原自我檢測套組,7,2022/04/28 16:31:03,無
593106A511,明仁健保藥局,新北市新莊區民安西路１９５號１樓,121.4261,25.0151,(02)22085175,羅氏家用新冠病毒抗原自我檢測套組,2,2022/04/28 16:31:03,15:00-18:00販售口罩
593106A566,一心春天藥局,新北市新莊區中和街１３號１樓、地下室,121.4481,25.04342,(02)89929482,羅氏家用新冠病毒抗原自我檢測套組,17,2022/04/28 16:31:03,每日下午3:00開始販售實名制快篩（14:40發號碼牌）
593106A600,全鎵藥局,新北市新莊區建中街２２號１樓,121.4493,25.03766,(02)22761550,羅氏家用新冠病毒抗原自我檢測套組,7,2022/04/28 16:31:03,無
593106A637,薇妮藥妝藥局,新北市新莊區民安路９９號１樓,121.4245,25.02524,(02)82010817,羅氏家用新冠病毒抗原自我檢測套組,26,2022/04/28 16:31:03,早上9:00到晚上23:00購買口罩
593106A726,良和健保藥局,新北市新莊區龍安路４９號１樓,121.4158,25.02151,(02)29048157,羅氏家用新冠病毒抗原自我檢測套組,78,2022/04/28 16:31:03,口罩：早上9點發號碼牌，星期六休息不代售口罩
593106A735,樂家藥局,新北市新莊區中平路２７３號１樓,121.4447,25.04995,(02)29960723,羅氏家用新冠病毒抗原自我檢測套組,2,2022/04/28 16:31:03,無
593106A744,永明藥局,新北市新莊區幸福路５９８號１樓,121.4533,25.04943,(02)89920019,羅氏家用新冠病毒抗原自我檢測套組,2,2022/04/28 16:31:03,週日公休
593106A824,家禾藥局,新北市新莊區立信五街６號１樓,121.4445,25.05148,(02)29972121,羅氏家用新冠病毒抗原自我檢測套組,39,2022/04/28 16:31:03,無
593106A897,陽光豐年藥局,新北市新莊區豐年街１４號１樓,121.4463,25.03287,(02)22060665,羅氏家用新冠病毒抗原自我檢測套組,54,2022/04/28 16:31:03,無
593106A922,德翰藥局,新北市新莊區四維路１７１巷１、３號１樓,121.4226,25.0215,(02)22025576,羅氏家用新冠病毒抗原自我檢測套組,10,2022/04/28 16:31:03,無
593106A931,建安藥局,新北市新莊區建安街１１７號、１１９號１樓,121.4262,25.02406,(02)22051969,羅氏家用新冠病毒抗原自我檢測套組,4,2022/04/28 16:31:03,快篩實名制，每天16:00開始販售，售完為止。
593106A995,美德心藥局,新北市新莊區中平路３６７號１樓,121.4446,25.05226,(02)29989025,羅氏家用新冠病毒抗原自我檢測套組,10,2022/04/28 16:31:03,無
593106B027,樂福藥局,新北市新莊區幸福路４８號１樓、幸福路６４巷２弄１６號１樓,121.4577,25.04953,(02)29923388,羅氏家用新冠病毒抗原自我檢測套組,25,2022/04/28 16:31:03,無
593106B036,家嘉藥局,新北市新莊區自立街１０３號（１樓）,121.4553,25.04549,(02)89926488,羅氏家用新冠病毒抗原自我檢測套組,5,2022/04/28 16:31:03,無
593106B045,力源藥局,新北市新莊區復興路２段１３３號１樓,121.4572,25.04452,(02)89929919,羅氏家用新冠病毒抗原自我檢測套組,13,2022/04/28 16:31:03,無
593106B072,小林健保藥局,新北市新莊區昌明街３８之１號１樓,121.4565,25.05237,(02)29911764,羅氏家用新冠病毒抗原自我檢測套組,78,2022/04/28 16:31:03,無
593106B081,平安藥局,新北市新莊區民安西路６０號２樓,121.4273,25.02037,(02)22082368,羅氏家用新冠病毒抗原自我檢測套組,38,2022/04/28 16:31:03,無
593106B152,福原藥局,新北市新莊區中原東路７０號（１樓）,121.4632,25.05461,(02)85216190,羅氏家用新冠病毒抗原自我檢測套組,1,2022/04/28 16:31:03,無
593106B205,藥師佛藥局,新北市新莊區中正路８８１之４號１樓,121.4175,25.02544,(02)29016625,羅氏家用新冠病毒抗原自我檢測套組,78,2022/04/28 16:31:03,無
593106B214,微笑埔銓藥局,新北市新莊區中平路７７號（１樓、２樓）,121.4447,25.04507,(02)29901680,羅氏家用新冠病毒抗原自我檢測套組,38,2022/04/28 16:31:03,無
593106B232,新康健保藥局,新北市新莊區自立街１７２號１樓,121.4557,25.04537,(02)29962558,羅氏家用新冠病毒抗原自我檢測套組,4,2022/04/28 16:31:03,快篩販售時間14:00-15:00
593106B241,善美藥局,新北市新莊區公園路８９號１樓,121.4546,25.04041,(02)29960979,羅氏家用新冠病毒抗原自我檢測套組,23,2022/04/28 16:31:03,無
593106B296,廣元藥局,新北市新莊區雙鳳路２號（１樓）,121.4175,25.02688,(02)29044948,羅氏家用新冠病毒抗原自我檢測套組,2,2022/04/28 16:31:03,無
593106B303,新莊丁丁藥局,新北市新莊區民安西路２３７號１樓,121.4261,25.01398,(02)22022388,羅氏家用新冠病毒抗原自我檢測套組,8,2022/04/28 16:31:03,無
593106B321,大樹幸福藥局,新北市新莊區幸福路６７２號１樓,121.4509,25.0493,(02)29981066,羅氏家用新冠病毒抗原自我檢測套組,31,2022/04/28 16:31:03,快篩實名制，每天16:00開始販售，售完為止。
593106B330,和昌藥局,新北市新莊區中安街１５號１樓,121.4531,25.04585,(02)29900669,羅氏家用新冠病毒抗原自我檢測套組,78,2022/04/28 16:31:03,無
5931070044,正宜藥局,新北市樹林區佳園路１段３９號,121.3931,24.97086,(02)26805678,羅氏家用新冠病毒抗原自我檢測套組,1,2022/04/28 16:31:03,無
5931070062,鴻真藥局,新北市樹林區保安街１段２０巷６號,121.4277,24.99363,(02)26828977,羅氏家用新冠病毒抗原自我檢測套組,1,2022/04/28 16:31:03,無
5931070099,日弘藥師藥局,新北市樹林區復興路２９號,121.4223,24.9941,(02)26871919,羅氏家用新冠病毒抗原自我檢測套組,24,2022/04/28 16:31:03,早08:45 發放號碼牌
5931070213,明川藥師藥局,新北市樹林區三福街１號,121.4093,25.0169,(02)26894728,羅氏家用新冠病毒抗原自我檢測套組,1,2022/04/28 16:31:03,無
5931071523,蔚海藥局,新北市樹林區鎮前街１７號１樓,121.4259,24.99263,(02)86754203,羅氏家用新冠病毒抗原自我檢測套組,1,2022/04/28 16:31:03,固定每日早上九點發放口罩， 發完為止
5931071916,立欣藥局,新北市樹林區三福街１６６號,121.4047,25.01619,(02)26764728,羅氏家用新冠病毒抗原自我檢測套組,4,2022/04/28 16:31:03,口罩代售時間 每日下午14:30 號碼牌發放時間14:20 現場排隊
5931071934,樹新藥局,新北市樹林區樹新路３０－３號１樓,121.4272,24.99462,(02)26821080,羅氏家用新冠病毒抗原自我檢測套組,1,2022/04/28 16:31:03,無
5931071970,保康藥局,新北市樹林區保安街１段３６４號,121.4176,24.99856,(02)86875503,羅氏家用新冠病毒抗原自我檢測套組,1,2022/04/28 16:31:03,無
5931072244,彰安藥局,新北市樹林區千歲街８２號,121.4264,24.99772,(02)26827341,羅氏家用新冠病毒抗原自我檢測套組,2,2022/04/28 16:31:03,無
5931072253,活水藥局,新北市樹林區鎮前街２１號１樓,121.4259,24.99255,(02)26818928,羅氏家用新冠病毒抗原自我檢測套組,1,2022/04/28 16:31:03,無
5931072422,三樹食在好健康藥局,新北市樹林區學成路６００號１樓,121.3818,24.94584,(02)26807101,羅氏家用新冠病毒抗原自我檢測套組,77,2022/04/28 16:31:03,無
5931081216,嘉泰藥師藥局,新北市鶯歌區鶯桃路２段３１號１樓,121.3254,24.97248,(02)26709668,羅氏家用新冠病毒抗原自我檢測套組,78,2022/04/28 16:31:03,星期日公休
5931081305,佑家藥局,新北市鶯歌區中正三路１５１號１樓,121.3367,24.94007,(02)26798282,羅氏家用新冠病毒抗原自我檢測套組,1,2022/04/28 16:31:03,無
5931081378,鶯歌宏達藥局,新北市鶯歌區國慶街１３８號１樓,121.3508,24.95347,(02)26709693,羅氏家用新冠病毒抗原自我檢測套組,8,2022/04/28 16:31:03,口罩發放時間下午2-4點，人力不足其他時段沒辦法供應
5931081396,祐康藥局,新北市鶯歌區建國路３６號,121.356,24.95596,(02)26771223,羅氏家用新冠病毒抗原自我檢測套組,78,2022/04/28 16:31:03,無
5931081403,純安大藥局,新北市鶯歌區國慶街１７９號１樓,121.3514,24.9527,(02)26791791,羅氏家用新冠病毒抗原自我檢測套組,78,2022/04/28 16:31:03,口罩代售時間:第一梯:13:00販售；第二梯:20:00販售。星期日不銷售
5931081458,食在好健康藥局,新北市鶯歌區國慶街１６５號１樓,121.3512,24.95312,(02)26702559,羅氏家用新冠病毒抗原自我檢測套組,78,2022/04/28 16:31:03,無
5931081494,康群藥局,新北市鶯歌區建國路２０２號１樓,121.3494,24.95357,(02)26796690,羅氏家用新冠病毒抗原自我檢測套組,78,2022/04/28 16:31:03,*星期五休診不發放口罩，其餘上班日上午九點開始發放*現場排隊
5931081547,信義健保藥局,新北市鶯歌區信義街６３號１樓,121.3534,24.95571,(02)86775563,羅氏家用新冠病毒抗原自我檢測套組,56,2022/04/28 16:31:03,無
5931091865,大新藥局,新北市三峽區大義路２５９號１樓,121.3774,24.94638,(02)86713204,羅氏家用新冠病毒抗原自我檢測套組,4,2022/04/28 16:31:03,無
5931091892,三峽藥局,新北市三峽區介壽路１段２７號１樓,121.3757,24.93321,(02)26738868,羅氏家用新冠病毒抗原自我檢測套組,15,2022/04/28 16:31:03,快篩實名制，每天16:00開始販售，售完為止。
5931091972,三峽大昌藥局,新北市三峽區民生街５６號１樓,121.3752,24.93635,(02)26711560,羅氏家用新冠病毒抗原自我檢測套組,14,2022/04/28 16:31:03,無
5931092095,禾雅藥局,新北市三峽區文化路１３０號（１樓）,121.3709,24.93626,(02)26718621,羅氏家用新冠病毒抗原自我檢測套組,1,2022/04/28 16:31:03,無
5931092200,金美藥局,新北市三峽區大同路２３８號１樓,121.3663,24.92573,(02)86715859,羅氏家用新冠病毒抗原自我檢測套組,78,2022/04/28 16:31:03,無
5931092219,北大藥局,新北市三峽區大義路９號１樓,121.3788,24.94372,(02)26738535,羅氏家用新冠病毒抗原自我檢測套組,39,2022/04/28 16:31:03,無
5931100047,松和大藥局,新北市淡水區英專路９２號,121.4459,25.17167,(02)26203698,羅氏家用新冠病毒抗原自我檢測套組,1,2022/04/28 16:31:03,口罩代售時間自12:00  無發放號碼牌
5931100154,尚運藥局,新北市淡水區學府路５１巷１弄２０號,121.4473,25.16892,(02)26225149,羅氏家用新冠病毒抗原自我檢測套組,38,2022/04/28 16:31:03,無
5931100163,昇運藥局,新北市淡水區中山路１５７－１號,121.4405,25.17287,(02)26222083,羅氏家用新冠病毒抗原自我檢測套組,2,2022/04/28 16:31:03,無
