醫事機構代碼,醫事機構名稱,醫事機構地址,經度,緯度,醫事機構電話,廠牌項目,快篩試劑截至目前結餘存貨數量,來源資料時間,備註
2331290014,新北市烏來區衛生所,新北市烏來區新烏路５段１０９號,121.548,24.87197,(02)26617200,羅氏家用新冠病毒抗原自我檢測套組,79,2022/05/05 13:57:02,無
2333070010,新竹縣橫山鄉衛生所,新竹縣橫山鄉大肚村３鄰新興街１４１巷１０號,121.1393,24.71756,(03)5932004,羅氏家用新冠病毒抗原自我檢測套組,78,2022/05/05 13:57:02,無
2335180019,苗栗縣泰安鄉衛生所,苗栗縣泰安鄉清安村２鄰７２號,120.9083,24.44722,(037)941054,羅氏家用新冠病毒抗原自我檢測套組,78,2022/05/05 13:57:02,口罩販賣時段：星期一~五：8:30~15：00。
2338070010,南投縣鹿谷鄉衛生所,南投縣鹿谷鄉中正路二段２０號,120.7542,23.74488,(049)2752002,羅氏家用新冠病毒抗原自我檢測套組,100,2022/05/05 13:57:02,快篩試劑販售時間 上班日（星期一至星期五）14:00~16:00
2340170016,嘉義縣大埔鄉衛生所,嘉義縣大埔鄉大埔村５３－１號,120.5928,23.29397,(05)2521214,羅氏家用新冠病毒抗原自我檢測套組,78,2022/05/05 13:57:02,無
2341300018,臺南市龍崎區衛生所,臺南市龍崎區崎頂里新市子１５８號,120.3618,22.96521,(06)5941397,羅氏家用新冠病毒抗原自我檢測套組,78,2022/05/05 13:57:02,無
2342130010,高雄市田寮區衛生所,高雄市田寮區南安里崗北路３２號,120.3594,22.87301,(07)6361504,羅氏家用新冠病毒抗原自我檢測套組,156,2022/05/05 13:57:02,巡迴醫療:每星期一、四下午及每月第一個有上班的星期三下午巡迴醫療
2342250017,高雄市茂林區衛生所,高雄市茂林區茂林里茂林巷８－４號,120.6641,22.88641,(07)6801046,羅氏家用新冠病毒抗原自我檢測套組,190,2022/05/05 13:57:02,夜間急診，請先撥電話07-6801046
2342260013,高雄市桃源區衛生所,高雄市桃源區桃源里南進巷１８８－１號,120.7642,23.15845,(07)6861126,羅氏家用新冠病毒抗原自我檢測套組,126,2022/05/05 13:57:02,IDS提供24小時服務
2342270019,高雄市那瑪夏區衛生所,高雄市那瑪夏區瑪雅里６鄰平和巷２５２號,120.7024,23.24708,(07)6701142,羅氏家用新冠病毒抗原自我檢測套組,617,2022/05/05 13:57:02,春節期間正常門診
2343270013,屏東縣霧台鄉衛生所,屏東縣霧台鄉霧台村神山巷６８號,120.7261,22.74989,(08)7902232,羅氏家用新冠病毒抗原自我檢測套組,67,2022/05/05 13:57:02,無
2344011036,澎湖縣馬公市第三衛生所,澎湖縣馬公市西文里１１８之２號,119.5836,23.56813,(06)9211723,羅氏家用新冠病毒抗原自我檢測套組,66,2022/05/05 13:57:02,本所快篩試劑只提供離島衛生室（虎井、桶盤）販售，時間週一至週五08:30-17:00售完為止，星期六、日國定假日09:00-12:00。
2344030022,澎湖縣白沙鄉鳥嶼衛生所,澎湖縣白沙鄉鳥嶼村漁港新村３號,119.6599,23.66008,(06)9916092,羅氏家用新冠病毒抗原自我檢測套組,132,2022/05/05 13:57:02,非上班時間提供急診服務
2344030031,澎湖縣白沙鄉吉貝衛生所,澎湖縣白沙鄉吉貝村８－１３號,119.6138,23.74056,(06)9911430,羅氏家用新冠病毒抗原自我檢測套組,102,2022/05/05 13:57:02,無
2344050015,澎湖縣望安鄉衛生所,澎湖縣望安鄉西安村３６－７號,119.4972,23.36161,(06)9991036,羅氏家用新冠病毒抗原自我檢測套組,177,2022/05/05 13:57:02,夜間急診。口罩、快篩試劑販售時間為:每日08:00-12:00、13:30-17:30售完為止，如有餘數為離島未售出（東嶼坪、花嶼）。
2344050024,澎湖縣望安鄉將軍衛生所,澎湖縣望安鄉將軍村１２鄰將軍澳１之３號,119.5216,23.3615,(06)9902066,羅氏家用新冠病毒抗原自我檢測套組,221,2022/05/05 13:57:02,24小時急診
2344060011,澎湖縣七美鄉衛生所,澎湖縣七美鄉中和村埔內５４號,119.431,23.2041,(06)9971005,羅氏家用新冠病毒抗原自我檢測套組,75,2022/05/05 13:57:02,無
2345120016,花蓮縣萬榮鄉衛生所,花蓮縣萬榮鄉萬榮村１鄰１６號,121.4092,23.71558,(03)8751651,羅氏家用新冠病毒抗原自我檢測套組,234,2022/05/05 13:57:02,快篩試劑代售時間：週一至週五下午2點至下午4點，販售為止。
2391030016,連江縣莒光鄉西莒衛生所,連江縣莒光鄉青帆村１４－１號,119.9331,25.97157,(083)689122,羅氏家用新冠病毒抗原自我檢測套組,311,2022/05/05 13:57:02,防疫口罩星期一至五09:00-17:00、（六）09:00-12:00現場購買
2391030026,連江縣莒光鄉東莒衛生所,連江縣莒光鄉大坪村３０－１號,119.9731,25.96113,(083)689038,羅氏家用新冠病毒抗原自我檢測套組,369,2022/05/05 13:57:02,防疫口罩星期一至星期日上午10:00-12:00收取健保卡，下午3:30至本所領取口罩。
2391040012,連江縣東引鄉衛生所,連江縣東引鄉中柳村１２３號,120.4904,26.36701,(083)677206,羅氏家用新冠病毒抗原自我檢測套組,19,2022/05/05 13:57:02,防疫口罩每日10:00-12:00現場購買
5901010192,益華藥局,臺北市松山區民生東路５段１３８巷６號,121.5615,25.05827,(02)27624898,羅氏家用新冠病毒抗原自我檢測套組,2,2022/05/05 13:57:02,無
5901012203,博荃藥局,臺北市松山區敦化北路４巷５１號,121.5447,25.05006,(02)27316736,羅氏家用新冠病毒抗原自我檢測套組,78,2022/05/05 13:57:02,快篩銷售時間為下午2點憑健保卡開始取號碼牌購買，星期日及連續假期公休 !
5901012409,家音藥局,臺北市松山區民生東路５段７３號,121.5585,25.05871,(02)37652080,羅氏家用新冠病毒抗原自我檢測套組,156,2022/05/05 13:57:02,實名制快篩販售時段公告，請追蹤美康健保藥局 家音店 FB粉絲頁，謝謝~
5901012516,惠登藥局,臺北市松山區民生東路３段１３０巷３４號,121.5461,25.0562,(02)25472432,羅氏家用新冠病毒抗原自我檢測套組,168,2022/05/05 13:57:02,無
5901012570,予志藥局,臺北市松山區富錦街５２１號,121.5649,25.06119,(02)27623522,羅氏家用新冠病毒抗原自我檢測套組,156,2022/05/05 13:57:02,實名制快篩星期一到三下午2點、星期四到六晚上8點、星期日停售
5901012598,婕登藥局,臺北市松山區八德路４段６９９號,121.5766,25.05021,(02)27482893,羅氏家用新冠病毒抗原自我檢測套組,83,2022/05/05 13:57:02,今天快篩已經發送完畢（電腦庫存不準）
5901012749,躍獅松和藥局,臺北市松山區八德路四段６６６－１號,121.5761,25.04979,(02)27492569,羅氏家用新冠病毒抗原自我檢測套組,156,2022/05/05 13:57:02,實名制快篩販售時段，每日下午4點販售，售完為止
5901013095,康采藥局,臺北市松山區南京東路５段２９１巷１７－２號,121.5663,25.05236,(02)27670271,羅氏家用新冠病毒抗原自我檢測套組,113,2022/05/05 13:57:02,（已完售，庫存不準）快篩試劑每日16點販售，週日沒有販售
5901013120,誠康中西藥局,臺北市松山區南京東路５段５９巷３１弄４３號,121.5607,25.05346,(02)27619679,羅氏家用新冠病毒抗原自我檢測套組,38,2022/05/05 13:57:02,禮拜一到六早上7點發號碼牌，到貨時會用社群通知大家來取貨
5901013200,專品南京藥局,臺北市松山區南京東路４段７３號,121.5532,25.05185,(02)25147685,羅氏家用新冠病毒抗原自我檢測套組,77,2022/05/05 13:57:02,無
5901013399,一安正昇藥局,臺北市松山區南京東路５段３０９號,121.5667,25.05155,(02)27680993,羅氏家用新冠病毒抗原自我檢測套組,79,2022/05/05 13:57:02,快篩發放時間  下午14:30
5901013442,松山八德藥局,臺北市松山區八德路２段４００號,121.5466,25.04804,(02)27782773,羅氏家用新冠病毒抗原自我檢測套組,78,2022/05/05 13:57:02,快篩實名制，每天16:00開始販售，售完為止。
5901013693,民生盛康藥局,臺北市松山區民生東路５段２０４號１樓,121.5648,25.05826,(02)27460758,羅氏家用新冠病毒抗原自我檢測套組,121,2022/05/05 13:57:02,【每日70分】每日早上9:00發號碼牌，11:00~20:00拿號碼牌回來領取，每人限1張號碼牌，逾時不候
5901013700,杏一台北台安藥局,臺北市松山區八德路２段３９９號１樓,121.5465,25.04833,(02)87728295,羅氏家用新冠病毒抗原自我檢測套組,78,2022/05/05 13:57:02,快篩實名制販售時間為每天下午15:00，開賣前10分鐘發放號碼牌，售完為止
5901013719,大樹松山藥局,臺北市松山區民生東路５段１０７號１樓,121.5601,25.05878,(02)27562226,羅氏家用新冠病毒抗原自我檢測套組,79,2022/05/05 13:57:02,快篩實名制，每天16:00開始販售，售完為止。
5901020376,靜園藥局,臺北市大安區和平東路２段１１８巷５７之１號,121.5429,25.02254,(02)27336390,羅氏家用新冠病毒抗原自我檢測套組,78,2022/05/05 13:57:02,無
5901020385,延吉大藥局,臺北市大安區延吉街１５３號１樓,121.5548,25.04066,(02)27819227,羅氏家用新冠病毒抗原自我檢測套組,143,2022/05/05 13:57:02,無
5901020465,杏友藥局,臺北市大安區復興南路２段１５１巷２５號,121.5446,25.02847,(02)27079451,羅氏家用新冠病毒抗原自我檢測套組,96,2022/05/05 13:57:02,週一-週六 下午3:00開始發放快篩，發完為止
5901020554,師大藥局,臺北市大安區師大路９９號１樓,121.5285,25.02271,(02)23623479,羅氏家用新冠病毒抗原自我檢測套組,78,2022/05/05 13:57:02,無
5901020689,四維藥局,臺北市大安區復興南路２段１５１巷４３號１樓,121.5454,25.02846,(02)27094222,羅氏家用新冠病毒抗原自我檢測套組,78,2022/05/05 13:57:02,假日可先打電話聯絡
5901021408,生百藥局,臺北市大安區臨江街１２４號,121.5539,25.03024,(02)27371011,羅氏家用新冠病毒抗原自我檢測套組,78,2022/05/05 13:57:02,無
5901022898,永康藥局,臺北市大安區麗水街６之２號,121.529,25.03289,(02)23279362,羅氏家用新冠病毒抗原自我檢測套組,67,2022/05/05 13:57:02,下午2點開賣快篩，  請自行排隊沒有發號碼牌
5901023331,佑安藥局,臺北市大安區延吉街２３３巷９號,121.5561,25.03708,(02)27069339,羅氏家用新冠病毒抗原自我檢測套組,60,2022/05/05 13:57:02,營業時間為下午兩點開始，週六暫定賣快篩，人數不多時會取消
5901023386,弘昇藥局,臺北市大安區復興南路１段１０７巷３２號,121.5458,25.04349,(02)27110061,羅氏家用新冠病毒抗原自我檢測套組,46,2022/05/05 13:57:02,上午11點以後至晚上11點
5901023411,長虹藥局,臺北市大安區忠孝東路４段２１６巷 ６３號,121.5531,25.0382,(02)27210232,羅氏家用新冠病毒抗原自我檢測套組,78,2022/05/05 13:57:02,2:30pm 發實名制快篩（現場排隊領號碼牌，依序購買，過號請重新排隊）
5901023653,信安健康藥局,臺北市大安區仁愛路４段１２２巷５８號,121.5501,25.03392,(02)27084858,羅氏家用新冠病毒抗原自我檢測套組,82,2022/05/05 13:57:02,快篩實聯制每天下午2:00開始 （沒有發號碼牌）
5901024007,古亭健康人生藥局,臺北市大安區羅斯福路２段８３號,121.5237,25.02572,(02)23660895,羅氏家用新冠病毒抗原自我檢測套組,78,2022/05/05 13:57:02,快篩僅販售14:00-16:00。營業時間9:30-21:55。
5901024098,杏一瑞安藥局,臺北市大安區瑞安街２０８巷１１弄１號,121.5406,25.02866,(02)27096710,羅氏家用新冠病毒抗原自我檢測套組,78,2022/05/05 13:57:02,3點發快篩，前5分鐘發牌
5901024114,好安心藥局,臺北市大安區和平東路２段９８之２號,121.5415,25.02493,(02)23772166,羅氏家用新冠病毒抗原自我檢測套組,74,2022/05/05 13:57:02,快篩發放: 週一至週六 15:30現場開始販售，不發號碼牌。
5901024347,博大藥局,臺北市大安區安和路２段６５號,121.5526,25.03063,(02)27027858,羅氏家用新冠病毒抗原自我檢測套組,78,2022/05/05 13:57:02,若有配給．下午兩點開始販售。
5901024472,忠孝康承健保藥局,臺北市大安區復興南路１段１０７巷４號,121.5444,25.04357,(02)87733378,羅氏家用新冠病毒抗原自我檢測套組,78,2022/05/05 13:57:02,周一公休
5901024481,微笑藥師藥局,臺北市大安區信義路３段３１巷４號,121.5345,25.03401,(02)27009655,羅氏家用新冠病毒抗原自我檢測套組,78,2022/05/05 13:57:02,5／2-5／5下午14點發放號碼牌，17點前領取完
5901024490,明星大藥局,臺北市大安區光復南路４３０之１號,121.5574,25.03618,(02)27023747,羅氏家用新冠病毒抗原自我檢測套組,78,2022/05/05 13:57:02,無
5901024516,博昱師大藥局,臺北市大安區羅斯福路３段１８９號,121.5281,25.02109,(02)23696966,羅氏家用新冠病毒抗原自我檢測套組,72,2022/05/05 13:57:02,實名制快篩販售時間為下午14:00~15:30
5901024687,博昱大藥局,臺北市大安區樂業街１４８號、１５０號,121.5529,25.01998,(02)23776199,羅氏家用新冠病毒抗原自我檢測套組,78,2022/05/05 13:57:02,快篩發放為周一至周五1600開始發放
5901024703,吾家藥局,臺北市大安區信義路４段２６５巷６之１號,121.5542,25.03372,(02)27066425,羅氏家用新冠病毒抗原自我檢測套組,78,2022/05/05 13:57:02,實名制快篩於每日下午三點到四點開放 只限此時段販售 建議您於2點多到現場等候
5901024838,昶青藥局,臺北市大安區濟南路３段２２之１號,121.5346,25.04008,(02)27515678,羅氏家用新冠病毒抗原自我檢測套組,57,2022/05/05 13:57:02,每天下午13:00販售快篩實名制
5901024918,康祥藥局,臺北市大安區忠孝東路４段２１６巷２１號,121.5531,25.04025,(02)27817891,羅氏家用新冠病毒抗原自我檢測套組,78,2022/05/05 13:57:02,星期天11:00-19:00
5901024981,專品六張犁藥局,臺北市大安區基隆路２段２１７號１樓,121.5513,25.02299,(02)87322226,羅氏家用新冠病毒抗原自我檢測套組,95,2022/05/05 13:57:02,無
5901025022,躍獅敦和藥局,臺北市大安區和平東路３段１０號,121.547,25.02453,(02)23785767,羅氏家用新冠病毒抗原自我檢測套組,75,2022/05/05 13:57:02,無
5901025031,中力信義藥局,臺北市大安區信義路４段５１號（１樓）,121.545,25.03354,(02)23250266,羅氏家用新冠病毒抗原自我檢測套組,5,2022/05/05 13:57:02,下午一點到三點販售實名制快篩
5901025059,博醫仁愛藥局,臺北市大安區仁愛路４段８巷２號１樓,121.5443,25.0375,(02)27019107,羅氏家用新冠病毒抗原自我檢測套組,78,2022/05/05 13:57:02,每天11:30發號碼牌，12:00~15:00憑號碼牌與健保卡購買實名制快篩
5901025077,敦南春天藥局,臺北市大安區敦化南路２段８１巷６３號１樓,121.5513,25.03002,(02)27553266,羅氏家用新冠病毒抗原自我檢測套組,78,2022/05/05 13:57:02,快篩待售時間:週一至週日15:00現場排隊購買，售完為止。（物流配送不及則例外，以門市公告為主）
5901091473,快安藥局,臺北市大同區南京西路２８２、２８４號,121.5146,25.05349,(02)25561925,羅氏家用新冠病毒抗原自我檢測套組,76,2022/05/05 13:57:02,無
5901091857,佳禾藥局,臺北市大同區大龍街２６２號,121.5158,25.07061,(02)25953806,羅氏家用新冠病毒抗原自我檢測套組,78,2022/05/05 13:57:02,無
5901092103,新聖安藥局,臺北市大同區昌吉街１３０號,121.5143,25.06584,(02)25977877,羅氏家用新冠病毒抗原自我檢測套組,37,2022/05/05 13:57:02,每日下午2點開賣 （前10分鐘發號碼牌）
5901092112,酒泉春天藥局,臺北市大同區酒泉街９４號、９４號２樓,121.5146,25.07193,(02)25977932,羅氏家用新冠病毒抗原自我檢測套組,78,2022/05/05 13:57:02,無
5901092130,大同民生藥局,臺北市大同區民生西路１２８號１樓、２樓及１３０號１樓、２樓,121.5191,25.05734,(02)25558886,羅氏家用新冠病毒抗原自我檢測套組,78,2022/05/05 13:57:02,快篩實名制，每天16:00開始販售，售完為止。
5901092149,123宅藥局,臺北市大同區鄭州路１２３號（１樓）,121.5109,25.05033,(02)25588699,羅氏家用新冠病毒抗原自我檢測套組,78,2022/05/05 13:57:02,【家用快篩實名制】因物流送達時間不訂平日時段改為下午 05:30。 假日一時段可購買:10:30。★前十分鐘開始發放號碼牌
5901100057,百源堂大藥局,臺北市中山區長安東路２段４７－５號,121.5322,25.04857,(02)25364362,羅氏家用新冠病毒抗原自我檢測套組,9,2022/05/05 13:57:02,週休2 日及國定假日休營業時間上午8時30分至晚間7點
5901100066,名祥藥局,臺北市中山區龍江路１６６號,121.5403,25.05505,(02)25036265,羅氏家用新冠病毒抗原自我檢測套組,234,2022/05/05 13:57:02,5／5（四） 實名制快篩 下午 3:00 開始販售
5901100333,明美藥局,臺北市中山區長春路６９號,121.5266,25.05502,(02)25365419,羅氏家用新冠病毒抗原自我檢測套組,70,2022/05/05 13:57:02,口罩周一至周五，16:30-18:30販售
5901100440,優豐藥局,臺北市中山區民生東路１段３２號,121.5242,25.05794,(02)25602565,羅氏家用新冠病毒抗原自我檢測套組,78,2022/05/05 13:57:02,下午3點現場作業不分發號碼牌
5901101072,長青藥局,臺北市中山區興安街５５號１樓,121.5419,25.05621,(02)25053160,羅氏家用新冠病毒抗原自我檢測套組,73,2022/05/05 13:57:02,無
5901101250,美日藥局,臺北市中山區天津街６６號１樓,121.5233,25.05136,(02)25631662,羅氏家用新冠病毒抗原自我檢測套組,234,2022/05/05 13:57:02,實名制快篩於營業日下午4點開始發號碼牌
5901101321,文德藥局,臺北市中山區龍江路３５６巷１９號１樓,121.5401,25.06607,(02)25181178,羅氏家用新冠病毒抗原自我檢測套組,65,2022/05/05 13:57:02,無
5901101509,永直藥局,臺北市中山區北安路５９５巷２弄６號,121.5483,25.08192,(02)85098059,羅氏家用新冠病毒抗原自我檢測套組,312,2022/05/05 13:57:02,今日號碼牌（5／5）已發完，周一至周六早上8點發號碼牌，下午2點到晚上8點販售（拿號碼牌來買）
5901101992,大愛藥師藥局,臺北市中山區吉林路２５５號１樓,121.5304,25.06165,(02)25424723,羅氏家用新冠病毒抗原自我檢測套組,122,2022/05/05 13:57:02,週一~週五13:55發放號碼牌14:00發放快篩，週六、週日休息
5901102444,啟美藥師藥局,臺北市中山區錦州街２８２號,121.5352,25.06024,(02)25178032,羅氏家用新冠病毒抗原自我檢測套組,468,2022/05/05 13:57:02,快篩 販售時間 20點開賣到21點，星期六日公休
5901102560,龍江藥局,臺北市中山區龍江路３５６巷１４號,121.5403,25.06591,(02)25023724,羅氏家用新冠病毒抗原自我檢測套組,76,2022/05/05 13:57:02,無
5901102597,德惠藥局,臺北市中山區德惠街１２２號,121.53,25.06652,(02)25971131,羅氏家用新冠病毒抗原自我檢測套組,77,2022/05/05 13:57:02,每日下午3點30分開始販售快篩實名制
5901102677,興康源藥局,臺北市中山區中山北路１段１４０巷８號,121.5214,25.05143,(02)25311248,羅氏家用新冠病毒抗原自我檢測套組,78,2022/05/05 13:57:02,無
5901102686,富宥康藥局,臺北市中山區北安路６０８巷５弄２２號,121.5496,25.08263,(02)25325277,羅氏家用新冠病毒抗原自我檢測套組,86,2022/05/05 13:57:02,無
5901102837,正傑健保藥局,臺北市中山區長安東路２段１８１號,121.5426,25.04839,(02)27310181,羅氏家用新冠病毒抗原自我檢測套組,78,2022/05/05 13:57:02,下午四點開始販售
5901102855,錦西春天生活藥局,臺北市中山區錦西街１０號,121.5216,25.06024,(02)25312658,羅氏家用新冠病毒抗原自我檢測套組,78,2022/05/05 13:57:02,快篩14:40領號碼牌 15:00開始販售
5901103192,昶青林森藥局,臺北市中山區林森北路１１９巷５２號,121.5269,25.05018,(02)25639939,羅氏家用新冠病毒抗原自我檢測套組,68,2022/05/05 13:57:02,口罩代售平日10:30-20:00，例假日13:30-18:00 售完為止
5901103325,仁一藥局,臺北市中山區林森北路５２０號,121.5255,25.06232,(02)25711742,羅氏家用新冠病毒抗原自我檢測套組,78,2022/05/05 13:57:02,快篩發放時間每日下午2點
5901103423,農安藥局,臺北市中山區農安街１８之１號,121.5248,25.06483,(02)25959293,羅氏家用新冠病毒抗原自我檢測套組,78,2022/05/05 13:57:02,快篩2點發號碼牌 3點後來拿
5901103487,錦州春天生活藥局,臺北市中山區錦州街２１３號、２１３號２樓,121.5321,25.06039,(02)25213586,羅氏家用新冠病毒抗原自我檢測套組,78,2022/05/05 13:57:02,快篩14:40發號碼牌15:00販賣 每天78盒
5901103629,十二願藥局,臺北市中山區林森北路３０９號,121.5256,25.05588,(02)25311223,羅氏家用新冠病毒抗原自我檢測套組,78,2022/05/05 13:57:02,快篩晚上8點開始發放.營業時間下午1點至凌晨3點
5901103656,大樹龍江藥局,臺北市中山區龍江路２４２號,121.5406,25.05889,(02)25035666,羅氏家用新冠病毒抗原自我檢測套組,78,2022/05/05 13:57:02,國定假日仍執行調劑業務
5901103674,康廷藥局,臺北市中山區北安路６１１號（實際營業地址：１層）,121.5488,25.08253,(02)25335890,羅氏家用新冠病毒抗原自我檢測套組,78,2022/05/05 13:57:02,國定假日執行調劑業務
5901103683,東東藥局,臺北市中山區長春路２５７之２號１樓,121.5408,25.05477,(02)25031730,羅氏家用新冠病毒抗原自我檢測套組,78,2022/05/05 13:57:02,快篩發放時間:星期一至六 .15點開始銷售至16點前結束
5901103692,誠果中西藥局,臺北市中山區吉林路１０１號１樓,121.5303,25.05619,(02)25238563,羅氏家用新冠病毒抗原自我檢測套組,78,2022/05/05 13:57:02,因為當日才收到快篩 本周發送時間不確定 麻煩現場來加line群組關注會提前告知
5901103745,吉林藥局,臺北市中山區吉林路３７１號（１樓）,121.5305,25.06511,(02)25865990,羅氏家用新冠病毒抗原自我檢測套組,78,2022/05/05 13:57:02,快篩實名制，每天16:00開始販售，售完為止。
5901103807,專品龍江藥局,臺北市中山區龍江路３１１號１樓,121.5409,25.06127,(02)25178870,羅氏家用新冠病毒抗原自我檢測套組,78,2022/05/05 13:57:02,實名制快篩下午三點開始發號碼牌販售
5901110311,永安藥局,臺北市內湖區文德路２１０巷３０弄４８號,121.5852,25.07723,(02)26586658,羅氏家用新冠病毒抗原自我檢測套組,5,2022/05/05 13:57:02,口罩販售時間早上10點開始發號碼牌  同時販售
5901110393,明湖藥局,臺北市內湖區東湖路７巷２７號１Ｆ,121.6125,25.0697,(02)26313515,羅氏家用新冠病毒抗原自我檢測套組,78,2022/05/05 13:57:02,快篩實名制，下午2點半販售。
5901110446,清白藥局,臺北市內湖區東湖路１０８號,121.6157,25.06828,(02)26305743,羅氏家用新冠病毒抗原自我檢測套組,68,2022/05/05 13:57:02,無
5901111890,安康藥局,臺北市內湖區安康路４８２號,121.6158,25.06785,(02)26327675,羅氏家用新冠病毒抗原自我檢測套組,12,2022/05/05 13:57:02,無
5901112011,文新藥局,臺北市內湖區文湖街７－５號１樓,121.5599,25.08544,(02)87978865,羅氏家用新冠病毒抗原自我檢測套組,78,2022/05/05 13:57:02,快篩販售時間:周一~周五 18:00~21:00 ／ 周六 10:00~16:00 ，隨到隨買，賣完為止
5901112682,富康東湖藥局,臺北市內湖區東湖路１１９巷４９弄１６號,121.617,25.06988,(02)26323222,羅氏家用新冠病毒抗原自我檢測套組,70,2022/05/05 13:57:02,視快篩實際到貨時間販售；LINE社群搜尋「富康藥局東湖店」會有第一線消息
5901112879,壹零捌藥局,臺北市內湖區成功路４段３４４號,121.5996,25.08488,(02)27910061,羅氏家用新冠病毒抗原自我檢測套組,78,2022/05/05 13:57:02,快篩18:00開始販售（星期一至星期六）
5901112977,瑞光藥局,臺北市內湖區瑞光路２１２號,121.5763,25.07525,(02)87513365,羅氏家用新冠病毒抗原自我檢測套組,78,2022/05/05 13:57:02,實名制快篩每日PM14:00開賣
5901113018,桔子藥局,臺北市內湖區內湖路２段３３３號,121.5917,25.08319,(02)27930052,羅氏家用新冠病毒抗原自我檢測套組,156,2022/05/05 13:57:02,早0900-1200，午1400-1700，晚1900-2100
5901113081,宜昇優良藥局,臺北市內湖區康寧路３段１６５巷１０號,121.6118,25.07081,(02)26327817,羅氏家用新冠病毒抗原自我檢測套組,53,2022/05/05 13:57:02,快篩代售時間: 下午14:00
5901113198,傑昇藥局,臺北市內湖區內湖路２段２２７號,121.589,25.0818,(02)27925957,羅氏家用新冠病毒抗原自我檢測套組,60,2022/05/05 13:57:02,快篩代售時間:下午02:00
5901113250,大內湖藥局,臺北市內湖區成功路３段１６４號１樓,121.5903,25.08035,(02)27956286,羅氏家用新冠病毒抗原自我檢測套組,78,2022/05/05 13:57:02,5／5-5／7下午16:00開始發售，5／8（日）起早上9:30開始發售
5901113269,樂齡藥師藥局,臺北市內湖區內湖路３段１０３號,121.5909,25.08641,(02)27919707,羅氏家用新冠病毒抗原自我檢測套組,78,2022/05/05 13:57:02,早上8:30
5901113438,晶龍藥局,臺北市內湖區成功路４段２１８號,121.5961,25.08456,(02)27956255,羅氏家用新冠病毒抗原自我檢測套組,78,2022/05/05 13:57:02,快篩試劑販售時間:星期一~六下午2:30 售完為止
5901113456,佑全內湖康寧藥局,臺北市內湖區康寧路３段３９號、３９號２樓、４１號、４３號,121.6078,25.07264,(02)26346578,羅氏家用新冠病毒抗原自我檢測套組,78,2022/05/05 13:57:02,實名制快篩14:00販售 13:50發號碼牌
5901113625,富康文德藥局,臺北市內湖區文德路２２巷２７弄４號,121.58,25.0766,(02)26272000,羅氏家用新冠病毒抗原自我檢測套組,78,2022/05/05 13:57:02,無
5901113643,博昱東福藥局,臺北市內湖區東湖路１４７號,121.6172,25.06815,(02)26308599,羅氏家用新冠病毒抗原自我檢測套組,8,2022/05/05 13:57:02,無
5901113661,內湖藥局,臺北市內湖區康寧路１段１１６號１樓,121.5934,25.07948,(02)27940545,羅氏家用新冠病毒抗原自我檢測套組,78,2022/05/05 13:57:02,快篩實名制，每天16:00開始販售，售完為止。
5901113689,葫光藥局,臺北市內湖區康寧路３段５４巷６號１樓,121.609,25.07168,(02)26336611,羅氏家用新冠病毒抗原自我檢測套組,78,2022/05/05 13:57:02,實名制快篩販售時間 依LINE社群公告為主 售完為止
5901113705,富康活力湖光藥局,臺北市內湖區康寧路１段２５號１樓,121.5914,25.08062,(02)87927999,羅氏家用新冠病毒抗原自我檢測套組,65,2022/05/05 13:57:02,視快篩實際到貨時間販售（通常是下午2:00）**Line社群搜尋[[富康活力湖光藥局]]，會有第一線消息唷**
5901113732,富康活力誠功藥局,臺北市內湖區成功路４段３０巷２０號１樓,121.5916,25.08235,(02)27960222,羅氏家用新冠病毒抗原自我檢測套組,78,2022/05/05 13:57:02,正常供應的話都是每日16:00開始販售快篩，建議來現場加入**LINE社群**，可以獲得最新第一手資訊
5901121618,新東發藥局,臺北市南港區成福路１９８號,121.5883,25.04092,(02)27855190,羅氏家用新冠病毒抗原自我檢測套組,78,2022/05/05 13:57:02,營業時間 早上10:00 因政府配送不穩 快篩銷售時間 藥局現場公告為主
5901121627,富康活力藥局,臺北市南港區研究院路１段１０１巷８號,121.6165,25.05181,(02)27828810,羅氏家用新冠病毒抗原自我檢測套組,68,2022/05/05 13:57:02,週一至週六，每天09:00-21:00販售口罩，請記得帶健保卡&零錢，售完為止。
5901121672,亞博藥師藥局,臺北市南港區興華路８１號,121.6061,25.05545,(02)27838090,羅氏家用新冠病毒抗原自我檢測套組,78,2022/05/05 13:57:02,無
5901121734,湳港藥局,臺北市南港區研究院路１段１０１巷１２號,121.6167,25.05175,(02)27892200,羅氏家用新冠病毒抗原自我檢測套組,78,2022/05/05 13:57:02,週一至週日，2:30開賣（政府有配送的況狀下）（沒有發放號碼牌），售完為止
5901121823,儀安健保藥局,臺北市南港區同德路７４號,121.5853,25.0457,(02)27859893,羅氏家用新冠病毒抗原自我檢測套組,77,2022/05/05 13:57:02,實名制快篩下午三點開賣，無發放號碼牌（只有週日為晚上六點）
5901122062,躍獅忠孝藥局,臺北市南港區成福路１６號,121.586,25.04561,(02)27862829,羅氏家用新冠病毒抗原自我檢測套組,78,2022/05/05 13:57:02,無
5901122080,成福大藥局,臺北市南港區成福路８號,121.5859,25.04578,(02)27859221,羅氏家用新冠病毒抗原自我檢測套組,156,2022/05/05 13:57:02,無
5901122115,上丞藥師藥局,臺北市南港區成福路１０號１樓,121.5859,25.04574,(02)26535589,羅氏家用新冠病毒抗原自我檢測套組,78,2022/05/05 13:57:02,實名制快篩下午三點開賣，無發放號碼牌
5901150128,新興藥局,臺北市士林區德行西路１１７號,121.5206,25.10398,(02)28362643,羅氏家用新冠病毒抗原自我檢測套組,71,2022/05/05 13:57:02,無
5901150235,杏城藥局,臺北市士林區天母東路２４號,121.5322,25.11764,(02)28725144,羅氏家用新冠病毒抗原自我檢測套組,76,2022/05/05 13:57:02,週一至週五下午2:00 週六上午10:00販售實名制快篩試劑 週日公休 每人限一卡
5901150342,士林三安藥局,臺北市士林區大南路１１號,121.526,25.08898,(02)28812631,羅氏家用新冠病毒抗原自我檢測套組,78,2022/05/05 13:57:02,無
5901150548,田倉藥局,臺北市士林區士東路１２４號,121.5302,25.11219,(02)88662188,羅氏家用新冠病毒抗原自我檢測套組,76,2022/05/05 13:57:02,每日19:00（傍晚7點）開始販售.
5901152079,資生堂藥局,臺北市士林區承德路４段４０巷１７號１Ｆ,121.522,25.08107,(02)28857588,羅氏家用新冠病毒抗原自我檢測套組,78,2022/05/05 13:57:02,今日快篩已售完
5901152453,家赫藥局,臺北市士林區忠義街８０號１樓,121.5317,25.10614,(02)28346453,羅氏家用新冠病毒抗原自我檢測套組,78,2022/05/05 13:57:02,5／5（四）更改為下午2:40開始發號碼牌販售實名制快篩，雙號可購買（1人1卡）
5901152471,得安藥局,臺北市士林區文林路１４０號,121.5267,25.08878,(02)28836336,羅氏家用新冠病毒抗原自我檢測套組,156,2022/05/05 13:57:02,星期三五六下午3:30---10:00   星期二 四日下午5:00--10:00
5901152640,仁大藥局,臺北市士林區社子街１３號１樓,121.5083,25.08769,(02)88113793,羅氏家用新冠病毒抗原自我檢測套組,156,2022/05/05 13:57:02,111.5.5.週四休息一日，販售時間:週一至週六上午配送到貨後開賣，時間不確定，通常10:30過後
5901152659,和樹藥局,臺北市士林區後港街４５巷１號１樓,121.5228,25.08444,(02)28821188,羅氏家用新冠病毒抗原自我檢測套組,78,2022/05/05 13:57:02,實名制快篩發放時間 依到貨時間發售
5901152686,三光藥局,臺北市士林區延平北路５段３２０號１樓,121.5096,25.08628,(02)28123786,羅氏家用新冠病毒抗原自我檢測套組,5,2022/05/05 13:57:02,無
5901152793,信光藥局,臺北市士林區文昌路６８號,121.5214,25.09619,(02)28366277,羅氏家用新冠病毒抗原自我檢測套組,63,2022/05/05 13:57:02,下午三點發放快篩
5901153272,光榮藥局,臺北市士林區社中街１１８號,121.5103,25.0899,(02)28136060,羅氏家用新冠病毒抗原自我檢測套組,78,2022/05/05 13:57:02,實名制快篩販售時間~下午兩點半（14:30）開始販售~另外若當日未收到快篩無法販售會公告，謝謝大家~
5901153432,大南春天生活藥局,臺北市士林區大南路３１７、３１９號,121.518,25.08888,(02)28882196,羅氏家用新冠病毒抗原自我檢測套組,78,2022/05/05 13:57:02,本藥局可領慢箋 快篩是下午3點開始販售 售完為止（物流無配送&配送不及例外）
5901153496,躍獅忠誠藥局,臺北市士林區忠義街７０號,121.5314,25.10594,(02)28387948,羅氏家用新冠病毒抗原自我檢測套組,156,2022/05/05 13:57:02,快篩下午兩點販售，現場排隊沒有發號碼牌（週日販售視到貨情況決定）
5901153521,天母台安藥局,臺北市士林區天母西路３４號,121.5262,25.11835,(02)28728017,羅氏家用新冠病毒抗原自我檢測套組,80,2022/05/05 13:57:02,有配送→每日下午2:30開始販售實
5901153585,德行春天生活藥局,臺北市士林區德行東路７６號,121.5275,25.1073,(02)28380306,羅氏家用新冠病毒抗原自我檢測套組,78,2022/05/05 13:57:02,下午2點40持健保卡領號碼牌販售快篩到晚上10點售完為止
5901153674,愛佳藥局,臺北市士林區承德路４段２２２之１號,121.5215,25.0885,(02)28811199,羅氏家用新冠病毒抗原自我檢測套組,78,2022/05/05 13:57:02,實名制快篩平日一~五下午5:00販售，假日（六、日）不販售
5901153683,安奕藥局,臺北市士林區葫蘆街３０巷１２號,121.5099,25.08034,(02)28133289,羅氏家用新冠病毒抗原自我檢測套組,74,2022/05/05 13:57:02,週日休。快篩劑開賣時間:下午2:30。下午2點前請勿排隊，以免擾鄰。感謝您的配合。
5901153941,士東藥局,臺北市士林區士東路９１巷３號,121.5291,25.11256,(02)28760588,羅氏家用新冠病毒抗原自我檢測套組,78,2022/05/05 13:57:02,快篩實名制，每天16:00開始販售，售完為止。
5901153996,文昌春天藥局,臺北市士林區文昌路４４號（１樓）,121.5216,25.09562,(02)28838539,羅氏家用新冠病毒抗原自我檢測套組,78,2022/05/05 13:57:02,無
5901154000,文昌大藥局,臺北市士林區文昌路７２號１樓,121.5213,25.09634,(02)28376196,羅氏家用新冠病毒抗原自我檢測套組,59,2022/05/05 13:57:02,1.周一至周日下午15:00販售實名制口罩，請自備零錢 2.每日保留18份，提供醫護警消憑證購買，僅保留至pm14:30
5901154019,忠義台安藥局,臺北市士林區忠義街７２號１樓,121.5315,25.106,(02)28380685,羅氏家用新冠病毒抗原自我檢測套組,70,2022/05/05 13:57:02,下午2點開始販售快篩試劑
5901154028,向宇藥局,臺北市士林區德行東路２１７號１樓,121.5328,25.10935,(02)88661101,羅氏家用新冠病毒抗原自我檢測套組,156,2022/05/05 13:57:02,無
5901154082,德行盛康藥局,臺北市士林區德行東路２０６之１號１樓,121.532,25.1089,(02)28348756,羅氏家用新冠病毒抗原自我檢測套組,78,2022/05/05 13:57:02,無
5901154091,社正藥局,臺北市士林區社正路１２號１樓,121.5093,25.08854,(02)28118704,羅氏家用新冠病毒抗原自我檢測套組,155,2022/05/05 13:57:02,無
5901160099,進春藥局,臺北市北投區明德路１５１號,121.5206,25.11086,(02)28216938,羅氏家用新冠病毒抗原自我檢測套組,70,2022/05/05 13:57:02,無休 上午九點開始販售，現場排隊。（依現場公告為主）
5901160222,新祥藥局,臺北市北投區知行路２０８號－１,121.4668,25.11935,(02)28582551,羅氏家用新冠病毒抗原自我檢測套組,27,2022/05/05 13:57:02,實名制快篩下午1:30分發放號碼牌，隨後依照號碼牌發售，周日休息
5901160400,世全藥局,臺北市北投區知行路２７３號,121.4672,25.12134,(02)28585378,羅氏家用新冠病毒抗原自我檢測套組,78,2022/05/05 13:57:02,早0000-0100，午0000-0000晚17:30-2400
5901160428,九福藥局,臺北市北投區公館路２３６號,121.5081,25.12612,(02)28953009,羅氏家用新冠病毒抗原自我檢測套組,93,2022/05/05 13:57:02,★週日店休未營業. 快篩下午1點發號碼牌
5901160517,弘安藥局,臺北市北投區懷德街３３號１樓,121.5193,25.11219,(02)28206390,羅氏家用新冠病毒抗原自我檢測套組,3,2022/05/05 13:57:02,快篩每日下午2:00開賣，現場購買售完為止
5901160544,黎明藥局,臺北市北投區尊賢街２５３－１號,121.5066,25.11817,(02)28223795,羅氏家用新冠病毒抗原自我檢測套組,78,2022/05/05 13:57:02,營業時間星期1-6早上900至1230 下午1600至2100每日 下午4點發快篩星期日其他時間休息
5901160802,美康藥局,臺北市北投區明德路９０號１樓,121.5196,25.1094,(02)28281176,羅氏家用新冠病毒抗原自我檢測套組,34,2022/05/05 13:57:02,營業時間:10:30~22:00；13:30開始販售快篩
5901161890,良興藥局,臺北市北投區中和街２８６號,121.5004,25.14047,(02)28933360,羅氏家用新冠病毒抗原自我檢測套組,78,2022/05/05 13:57:02,18點30分點開始營業
5901161934,康揚藥局,臺北市北投區中和街３２２號,121.4998,25.14108,(02)28946520,羅氏家用新冠病毒抗原自我檢測套組,78,2022/05/05 13:57:02,（ 實名制快篩發放時間: 14:00~16:00）5／3貨尚未配送，視當日情況而定。
5901162119,祐鄰藥局,臺北市北投區尊賢街２５０號,121.5073,25.11707,(02)28281232,羅氏家用新冠病毒抗原自我檢測套組,78,2022/05/05 13:57:02,無
5901162173,小明藥局,臺北市北投區中央南路１段６９號２樓,121.5014,25.13145,(02)28928950,羅氏家用新冠病毒抗原自我檢測套組,78,2022/05/05 13:57:02,快篩實名制購買時間:週一至週六早上8:00-9:00，9點後系統顯示尚有庫存，為隔日販售的量，請勿再來電詢問，謝謝!
5901162477,長宜藥局,臺北市北投區自強街１１２號,121.5155,25.11074,(02)28216605,羅氏家用新冠病毒抗原自我檢測套組,78,2022/05/05 13:57:02,實名制快篩試劑發放時間:14:00~售完為止，會依政府配送狀況調整
5901163269,佳祈健保藥局,臺北市北投區明德路１４４號,121.5208,25.11047,(02)28232535,羅氏家用新冠病毒抗原自我檢測套組,12,2022/05/05 13:57:02,無
5901163296,天禧大藥局,臺北市北投區實踐街３５號,121.5087,25.11521,(02)28213558,羅氏家用新冠病毒抗原自我檢測套組,15,2022/05/05 13:57:02,實名制快篩下午1:30現場販售
5901163376,北投春天藥局,臺北市北投區中央南路１段７６號,121.5011,25.13135,(02)28916668,羅氏家用新冠病毒抗原自我檢測套組,78,2022/05/05 13:57:02,每日14:40發號碼牌 15:00販售 依物流到貨時間滾動調整
5901163394,致遠春天藥局,臺北市北投區致遠一路１段１３２號１、２樓,121.5149,25.11051,(02)28253258,羅氏家用新冠病毒抗原自我檢測套組,78,2022/05/05 13:57:02,15:30開始發放號碼牌15:30開始販售口罩
5901163509,吉利春天生活藥局,臺北市北投區吉利街１２０號,121.5068,25.11851,(02)28253256,羅氏家用新冠病毒抗原自我檢測套組,78,2022/05/05 13:57:02,無
5901163527,理得藥局,臺北市北投區石牌路１段１５０號,121.5131,25.11426,(02)28289680,羅氏家用新冠病毒抗原自我檢測套組,69,2022/05/05 13:57:02,每日13:30發放號碼牌 14:00開賣，售完為止。
5901163545,天康大藥局,臺北市北投區中央南路１段５７號,121.5014,25.13192,(02)28914265,羅氏家用新冠病毒抗原自我檢測套組,1,2022/05/05 13:57:02,實名制快篩下午1:30現場販售
5901163563,躍獅光明藥局,臺北市北投區光明路５１號、５３號（實際使用：１樓）,121.4998,25.13286,(02)28915993,羅氏家用新冠病毒抗原自我檢測套組,39,2022/05/05 13:57:02,1.早上9:30發號碼牌.核對健保卡 2.等快篩到貨才開始賣，到貨時間不確定3.有號碼牌者請在晚上8點前領取，逾期作廢
5901163572,永欣中西藥局,臺北市北投區中和街５０１號,121.4947,25.1452,(02)28910307,羅氏家用新冠病毒抗原自我檢測套組,101,2022/05/05 13:57:02,週一至週六 早上9:30發號碼牌 10點販售 周日公休｢（庫存不準 不要問） 謝謝
5901163616,江南育仁大藥局,臺北市北投區育仁路５５號１樓,121.4981,25.13361,(02)28981850,羅氏家用新冠病毒抗原自我檢測套組,78,2022/05/05 13:57:02,下午2點販售實名制快篩，假日視政府配發情況調整
5901163643,致遠盛康藥局,臺北市北投區致遠二路１４１號１樓,121.5128,25.1173,(02)28263580,羅氏家用新冠病毒抗原自我檢測套組,78,2022/05/05 13:57:02,無
5901163652,康賢藥局,臺北市北投區西安街１段３５９號１樓,121.5153,25.11429,(02)28219295,羅氏家用新冠病毒抗原自我檢測套組,4,2022/05/05 13:57:02,週一至週六下午1:00起販售快篩，週日及國定假日公休。
5901170059,必欣藥局,臺北市信義區松仁路２６４號,121.5696,25.02425,(02)27225060,羅氏家用新冠病毒抗原自我檢測套組,42,2022/05/05 13:57:02,實名制快篩販售時間：星期一至星期日下午13：30開始
5901170139,福華藥局,臺北市信義區吳興街２８１巷３號１樓,121.5643,25.02656,(02)27208527,羅氏家用新冠病毒抗原自我檢測套組,78,2022/05/05 13:57:02,現階段下午1:30配合政府發售快篩試劑
5901170915,杏仁藥局,臺北市信義區大道路１３５號,121.5834,25.03901,(02)27262541,羅氏家用新冠病毒抗原自我檢測套組,150,2022/05/05 13:57:02,實名制快篩:週一至週五下午3點販售，週六週日無販售
5901172240,德康大藥局,臺北市信義區松山路５４１巷２１號,121.579,25.03794,(02)27272502,羅氏家用新冠病毒抗原自我檢測套組,77,2022/05/05 13:57:02,每日下午3點販售
5901172820,安心藥局,臺北市信義區永吉路３０巷１４８弄４之１號,121.5685,25.04266,(02)27474992,羅氏家用新冠病毒抗原自我檢測套組,79,2022/05/05 13:57:02,快篩代售時間14:00起現場排隊
5901172924,躍獅松仁藥局,臺北市信義區松仁路２３３號（實際營業地址：１樓）,121.5688,25.02617,(02)27238626,羅氏家用新冠病毒抗原自我檢測套組,27,2022/05/05 13:57:02,快篩販售時段:下午13:30開始售完至晚上19:00前
5901173238,正和藥局,臺北市信義區吳興街２２５巷６號,121.5634,25.02782,(02)23455186,羅氏家用新冠病毒抗原自我檢測套組,48,2022/05/05 13:57:02,下午2點半發放快篩
5901173283,上禾藥師藥局,臺北市信義區林口街２７號,121.5792,25.03741,(02)27592686,羅氏家用新冠病毒抗原自我檢測套組,1,2022/05/05 13:57:02,無
5901173694,洪暘藥局,臺北市信義區富陽街８６號,121.5564,25.02127,(02)27337099,羅氏家用新冠病毒抗原自我檢測套組,78,2022/05/05 13:57:02,下午2點開始販售，限一人持一張健保卡。
5901173710,專品光復藥局,臺北市信義區光復南路４６７之１號,121.5577,25.03384,(02)27586682,羅氏家用新冠病毒抗原自我檢測套組,71,2022/05/05 13:57:02,禮拜一到六下午三點販售口罩
5901173738,尚頤中西藥局,臺北市信義區虎林街１４５號,121.5767,25.03959,(02)27253818,羅氏家用新冠病毒抗原自我檢測套組,156,2022/05/05 13:57:02,無
5901173783,北一健康人生藥局,臺北市信義區吳興街２５５號,121.5637,25.02715,(02)27583945,羅氏家用新冠病毒抗原自我檢測套組,78,2022/05/05 13:57:02,下午3點開始販售實名制快篩
5901173818,博亞藥局,臺北市信義區莊敬路４６２號,121.5677,25.02672,(02)27580506,羅氏家用新冠病毒抗原自我檢測套組,117,2022/05/05 13:57:02,平日早上8:30、晚上8:00；假日早上8:30，發放號碼牌，持號碼牌購買!
5901173854,杏一後山埤藥局,臺北市信義區忠孝東路５段７７８號（實際營業地址：１樓）,121.5816,25.0434,(02)27274357,羅氏家用新冠病毒抗原自我檢測套組,79,2022/05/05 13:57:02,實名制快篩14:30開放排隊／14:55發放號碼牌
5901173943,躍獅興雅藥局,臺北市信義區松德路１２８號,121.5745,25.03734,(02)87808429,羅氏家用新冠病毒抗原自我檢測套組,156,2022/05/05 13:57:02,14:00發號碼牌且同步開賣快篩，販賣至15:00或售完為止，週日無販售。
5901174002,吳興春天藥局,臺北市信義區吳興街１３７號１樓,121.5618,25.02947,(02)27585618,羅氏家用新冠病毒抗原自我檢測套組,78,2022/05/05 13:57:02,下午2:40發號碼牌
5901174011,寶春藥局,臺北市信義區虎林街１１９之１９號１樓,121.5771,25.04112,(02)27566501,羅氏家用新冠病毒抗原自我檢測套組,78,2022/05/05 13:57:02,實名制快篩每日19:00現場排隊販售
5901174057,詠晴中西藥局,臺北市信義區松山路４８４之４號（１樓含夾層）,121.5778,25.0389,(02)27266890,羅氏家用新冠病毒抗原自我檢測套組,78,2022/05/05 13:57:02,實名制快篩 - 16:30領號碼牌.當天取貨即可.避免群聚風險
5901174066,愛維喜藥局,臺北市信義區莊敬路２７８號１樓,121.5627,25.02882,(02)27586989,羅氏家用新冠病毒抗原自我檢測套組,231,2022/05/05 13:57:02,快篩周一至周五下午3:30開賣.約3:00收健保卡現金500元1張.發號碼牌
5901174084,市政藥局,臺北市信義區忠孝東路５段１６９號１樓、１７１號１樓,121.5688,25.0412,(02)27560050,羅氏家用新冠病毒抗原自我檢測套組,78,2022/05/05 13:57:02,快篩實名制，每天16:00開始販售，售完為止。
5901180055,日生大藥局,臺北市中正區汀州路１段５３號１樓,121.5076,25.03026,(02)23031393,羅氏家用新冠病毒抗原自我檢測套組,71,2022/05/05 13:57:02,快篩代售服務時間:（1）5月4日周三起 貨到即售 售完為止
5901182111,東華藥局,臺北市中正區汀州路３段１１３號,121.53,25.01673,(02)23640852,羅氏家用新冠病毒抗原自我檢測套組,156,2022/05/05 13:57:02,星期日店休   星期一至星期六 下午15點開始販售快篩試劑
5901182228,合泰大藥局,臺北市中正區衡陽路２６號,121.5129,25.04221,(02)23899977,羅氏家用新冠病毒抗原自我檢測套組,78,2022/05/05 13:57:02,5／3 販售時間機動調整於下午3點 平常快篩代售時間自09:00；現場排隊
5901183387,丞良藥局,臺北市中正區南昌路１段７８號地下１樓,121.5173,25.03099,(02)33938868,羅氏家用新冠病毒抗原自我檢測套組,78,2022/05/05 13:57:02,週一~週五 晚上9:00~9:30現場領取，若排隊人潮過多會提早開賣
5901183510,怡誠藥局,臺北市中正區汀州路２段２１２號,121.5237,25.02236,(02)23626905,羅氏家用新冠病毒抗原自我檢測套組,143,2022/05/05 13:57:02,無
5901183798,佳和藥局,臺北市中正區黎明里公園路３０號,121.5169,25.04448,(02)23117102,羅氏家用新冠病毒抗原自我檢測套組,78,2022/05/05 13:57:02,無
5901183985,正康藥局,臺北市中正區漢口街１段２２號,121.5142,25.04507,(02)23712831,羅氏家用新冠病毒抗原自我檢測套組,10,2022/05/05 13:57:02,快篩13:30發號碼牌，14:00發放快篩
5901184080,活力健康藥妝藥局,臺北市中正區中華路２段３１５巷１號,121.5062,25.02795,(02)23392625,羅氏家用新冠病毒抗原自我檢測套組,79,2022/05/05 13:57:02,無
5901184179,保德中華藥局,臺北市中正區中華路２段１５９號,121.5042,25.03101,(02)23027720,羅氏家用新冠病毒抗原自我檢測套組,78,2022/05/05 13:57:02,快篩下午三點開始發號碼牌及販售，限當日購買
5901184491,躍獅南門藥局,臺北市中正區中華路２段３９巷１０號,121.5074,25.03484,(02)23141111,羅氏家用新冠病毒抗原自我檢測套組,78,2022/05/05 13:57:02,口罩販售時段：成人早上9點及晚上7點各200個
5901184553,珍忻藥局,臺北市中正區南昌路１段６５號,121.5174,25.03107,(02)23965115,羅氏家用新冠病毒抗原自我檢測套組,23,2022/05/05 13:57:02,健保快篩發放:13:20及18:20分兩梯次發號碼牌
5901184599,長頸鹿藥師藥局,臺北市中正區南昌路１段１３２號,121.5183,25.02955,(02)23962120,羅氏家用新冠病毒抗原自我檢測套組,60,2022/05/05 13:57:02,實名制快篩下午14時開始販售（不發號碼牌）售完為止
5901184633,躍獅東門藥局,臺北市中正區金山南路１段１０８之１號（１樓）,121.5273,25.03538,(02)23920339,羅氏家用新冠病毒抗原自我檢測套組,119,2022/05/05 13:57:02,5／4 銷售時間已結束。5／5下午兩點開始販售，不提早發放號碼牌
5901184642,康呈安藥局,臺北市中正區汀州路２段１８７號１樓,121.522,25.02403,(02)23672215,羅氏家用新冠病毒抗原自我檢測套組,78,2022/05/05 13:57:02,每天下午3點才發放快篩
5901184651,立赫臺大藥局,臺北市中正區公園路２８號１樓,121.517,25.04485,(02)23616162,羅氏家用新冠病毒抗原自我檢測套組,2,2022/05/05 13:57:02,5／2 - 5／4政府滾動式配送，實際發放時間依現場為主
5901184660,南昌春天藥局,臺北市中正區南昌路１段１５７號１樓,121.5188,25.02927,(02)23972886,羅氏家用新冠病毒抗原自我檢測套組,79,2022/05/05 13:57:02,若有配發到政府實名制快篩試劑，將於每日下午2:40發號碼牌、下午3:00開始販售。
5901184679,汀州藥局,臺北市中正區汀州路１段１８７、１８９、１９１號（１樓）,121.5112,25.02704,(02)23090705,羅氏家用新冠病毒抗原自我檢測套組,78,2022/05/05 13:57:02,快篩實名制，每天16:00開始販售，售完為止。
5901190033,世欣藥局,臺北市萬華區東園街１７３號１Ｆ,121.4973,25.02419,(02)23074263,羅氏家用新冠病毒抗原自我檢測套組,43,2022/05/05 13:57:02,防疫快篩劑服務時間週一至五14:00-16:00週六10:00-12:00
5901190426,皇祥藥局,臺北市萬華區萬青街１６５號１樓,121.5016,25.02279,(02)23375676,羅氏家用新冠病毒抗原自我檢測套組,71,2022/05/05 13:57:02,無
5901190515,日昇藥局,臺北市萬華區廣州街１２４號,121.5016,25.03654,(02)23062975,羅氏家用新冠病毒抗原自我檢測套組,78,2022/05/05 13:57:02,實名制快篩 05-04 到貨
5901190668,聯慶大藥局,臺北市萬華區萬大路３０６號１樓,121.5003,25.02495,(02)23039850,羅氏家用新冠病毒抗原自我檢測套組,78,2022/05/05 13:57:02,無
5901192180,康之友藥局,臺北市萬華區青年路２０號,121.5055,25.02592,(02)23011598,羅氏家用新冠病毒抗原自我檢測套組,59,2022/05/05 13:57:02,下午兩點發號碼牌
5901192546,躍獅西園藥局,臺北市萬華區西園路２段２６０號,121.4946,25.02784,(02)23094063,羅氏家用新冠病毒抗原自我檢測套組,156,2022/05/05 13:57:02,快篩販售時段：下午2點至售完為止（政府正常配貨的情況下，現場排隊）
5901192822,專品藥局,臺北市萬華區長沙街２段７１－１號,121.5051,25.04062,(02)23718892,羅氏家用新冠病毒抗原自我檢測套組,80,2022/05/05 13:57:02,快篩實名制下午3點發放
5901192975,萬華藥局,臺北市萬華區萬大路２４８號實際營業地址１樓、２樓,121.5003,25.02626,(02)23012221,羅氏家用新冠病毒抗原自我檢測套組,78,2022/05/05 13:57:02,快篩實名制，每天16:00開始販售，售完為止。
5901193123,千誠北護藥局,臺北市萬華區內江街１１４號,121.5034,25.04152,(02)23123530,羅氏家用新冠病毒抗原自我檢測套組,1,2022/05/05 13:57:02,快篩一開門就發號碼牌，故網路庫存不準。
5901193221,正盛藥局,臺北市萬華區中華路２段４３４－１號,121.5064,25.02708,(02)23050386,羅氏家用新冠病毒抗原自我檢測套組,60,2022/05/05 13:57:02,1.快篩一~六20點，周日不賣 2.目前排隊人潮多，建議7點左右提前候位 3.詳情請看門口公告或板橋正康總店臉書
5901193230,啟仁藥局,臺北市萬華區環河南路２段１７７號,121.492,25.03259,(02)23362771,羅氏家用新冠病毒抗原自我檢測套組,151,2022/05/05 13:57:02,六日沒配送就停售（有配就有），一般時間下午2點開始發號碼牌， 發完為止
5901193310,和德藥局,臺北市萬華區西園路２段２９２號１樓,121.4935,25.02698,(02)23331522,羅氏家用新冠病毒抗原自我檢測套組,78,2022/05/05 13:57:02,快篩實名制，每天16:00開始販售，售完為止。
5901193338,艾米力藥師藥局,臺北市萬華區西藏路１０７－２號１樓,121.5035,25.02955,(02)23036583,羅氏家用新冠病毒抗原自我檢測套組,77,2022/05/05 13:57:02,5／5（四）晚上7:00販售（身分證尾數：2，4，6，8，0），請攜帶【健保卡】
5901193365,企鵝藥局,臺北市萬華區西昌街１７５號（１樓）,121.5007,25.03886,(02)23884691,羅氏家用新冠病毒抗原自我檢測套組,78,2022/05/05 13:57:02,公費快篩試劑，下午2點發號碼牌
5901200123,瑞安藥局,臺北市文山區溪口街６９－１號１樓,121.5393,24.99512,(02)29312888,羅氏家用新冠病毒抗原自我檢測套組,79,2022/05/05 13:57:02,早上8:30開始營業.星期日休息.快篩劑晚上8:00販賣.
5901200490,永明大藥局,臺北市文山區興隆路１段２９７號１樓,121.5449,24.99875,(02)29314428,羅氏家用新冠病毒抗原自我檢測套組,156,2022/05/05 13:57:02,每日下午2點50發放號碼牌，3點進行快篩販售，6點前未領取視同放棄，限一人一卡一份。
5901201568,康宜庭生活藥局,臺北市文山區興隆路４段６４號,121.5613,24.98514,(02)29385363,羅氏家用新冠病毒抗原自我檢測套組,165,2022/05/05 13:57:02,實名快篩14:00開賣 現場排隊
5901201835,巧康藥局,臺北市文山區木新路３段２６２、２６４號,121.5585,24.98132,(02)29372061,羅氏家用新冠病毒抗原自我檢測套組,73,2022/05/05 13:57:02,每日下午2點發放號碼牌，2點15進行快篩販售。請勿離場，離場視同放棄。
5901202396,宇康藥局,臺北市文山區羅斯福路５段２１８巷７號,121.5383,25.00203,(02)29307066,羅氏家用新冠病毒抗原自我檢測套組,96,2022/05/05 13:57:02,無
5901202654,康宜庭萬隆藥局,臺北市文山區羅斯福路５段２０２號,121.5384,25.00322,(02)29348662,羅氏家用新冠病毒抗原自我檢測套組,74,2022/05/05 13:57:02,實名快篩中午才到貨   每日下午14:00準時開賣（建議13:00來排隊）
5901202681,振大藥局,臺北市文山區永安街２２巷１６號,121.5697,24.98683,(02)29393385,羅氏家用新冠病毒抗原自我檢測套組,77,2022/05/05 13:57:02,無
5901202841,欣安景美藥局,臺北市文山區景文街７７號,121.5414,24.99126,(02)29316008,羅氏家用新冠病毒抗原自我檢測套組,78,2022/05/05 13:57:02,今日快篩劑PM:14:00販賣售完為止
5901202949,萬隆大藥局,臺北市文山區羅斯福路５段２１８巷１５號,121.538,25.00203,(02)29334580,羅氏家用新冠病毒抗原自我檢測套組,152,2022/05/05 13:57:02,9：00~23：00
5901202958,杏一萬安藥局,臺北市文山區萬安街１５號,121.5706,25.00139,(02)22302126,羅氏家用新冠病毒抗原自我檢測套組,78,2022/05/05 13:57:02,營業時間0900-2200
5901203044,木新健康人生藥局,臺北市文山區木新路３段２０３號,121.5598,24.9814,(02)86611465,羅氏家用新冠病毒抗原自我檢測套組,155,2022/05/05 13:57:02,10:00~21:00；13:45發號碼牌，14點發放快篩
5901203062,大樹文山藥局,臺北市文山區興隆路３段１３號（１、２、３樓）,121.555,25.00088,(02)29342226,羅氏家用新冠病毒抗原自我檢測套組,78,2022/05/05 13:57:02,口罩販售時間：14:00 - 16:00
5901203080,杏一木柵藥局,臺北市文山區木柵路３段９８號,121.5674,24.98861,(02)29371839,羅氏家用新冠病毒抗原自我檢測套組,78,2022/05/05 13:57:02,無
5901203124,福興藥局,臺北市文山區福興路５６號,121.5505,25.00345,(02)89313868,羅氏家用新冠病毒抗原自我檢測套組,75,2022/05/05 13:57:02,領快篩時間:周一到周六，下午2點開放購買快篩，1人1卡1份
5901203295,專品政大藥局,臺北市文山區指南路２段８號,121.5742,24.98784,(02)22343010,羅氏家用新冠病毒抗原自我檢測套組,78,2022/05/05 13:57:02,無
5901203366,大樹木柵藥局,臺北市文山區木柵路３段１０８號、１１０號（１樓、２樓）,121.5676,24.98866,(02)22340110,羅氏家用新冠病毒抗原自我檢測套組,78,2022/05/05 13:57:02,快篩實名制，每天16:00開始販售，售完為止。
5901203375,大樹景美藥局,臺北市文山區羅斯福路６段２３４之１號,121.5404,24.99244,(02)29322951,羅氏家用新冠病毒抗原自我檢測套組,78,2022/05/05 13:57:02,快篩實名制，每天16:00開始販售，售完為止。
5901203419,康宜庭興隆藥局,臺北市文山區興隆路３段２００號１樓,121.559,24.99779,(02)22304866,羅氏家用新冠病毒抗原自我檢測套組,78,2022/05/05 13:57:02,無
5901203446,景華盛康藥局,臺北市文山區景華街６９號１樓,121.545,24.99524,(02)29310188,羅氏家用新冠病毒抗原自我檢測套組,78,2022/05/05 13:57:02,快篩販售時間:下午3點開賣，現場發送號碼牌
5901203455,全球萬芳藥局,臺北市文山區興隆路３段６３號（１樓）,121.5562,25.00024,(02)89352147,羅氏家用新冠病毒抗原自我檢測套組,73,2022/05/05 13:57:02,營業時間9:00~22:00
5901203464,大愛幸福藥局,臺北市文山區木新路２段２２１號１樓,121.5675,24.98344,(02)29379977,羅氏家用新冠病毒抗原自我檢測套組,78,2022/05/05 13:57:02,無
5902020012,永松藥局,高雄市鼓山區鼓山三路１３０－１５號,120.2802,22.66454,(07)5810657,羅氏家用新冠病毒抗原自我檢測套組,70,2022/05/05 13:57:02,快篩試劑每天下午3:30販售
5902030643,新高橋藥局,高雄市左營區民族一路１０２８號,120.3201,22.68255,(07)3100696,羅氏家用新冠病毒抗原自我檢測套組,78,2022/05/05 13:57:02,依快篩配送時間滾動式調整（5／5下午2:30），請備妥當日可領買之健保卡與現金500元購買，不找零，0號是雙號，謝謝配合
5902031999,平安藥局,高雄市左營區中華一路５之１號,120.287,22.66961,(07)5833688,羅氏家用新冠病毒抗原自我檢測套組,10,2022/05/05 13:57:02,週一~週六上午:8:00~12:00，下午:4:00~9:00， 週日例假日晚上6:00~9:00
5902032174,光明健保藥局,高雄市左營區翠華路６０１巷８３號,120.2893,22.67277,(07)5812499,羅氏家用新冠病毒抗原自我檢測套組,6,2022/05/05 13:57:02,快篩實名制到貨販售周一到週五營業到7點.周六半天周日休息
5902032441,健怡藥局,高雄市左營區翠峰路４０號,120.2897,22.67229,(07)5821891,羅氏家用新冠病毒抗原自我檢測套組,31,2022/05/05 13:57:02,無
5902032530,杏光藥局,高雄市左營區果峰街４７巷１號１樓,120.2869,22.6703,(07)5837060,羅氏家用新冠病毒抗原自我檢測套組,52,2022/05/05 13:57:02,上午營業時間為9 :00~12:00；晚上營業至21:30
5902040014,成吉藥局,高雄市楠梓區楠梓東街７４號,120.3301,22.72966,(07)3513339,羅氏家用新冠病毒抗原自我檢測套組,78,2022/05/05 13:57:02,下午6點開始販賣實名制快篩，售完為止!!!星期日店休
5902040041,橘井藥局,高雄市楠梓區楠梓路１２９號,120.3286,22.73026,(07)3511869,羅氏家用新冠病毒抗原自我檢測套組,51,2022/05/05 13:57:02,快篩劑開賣時間：周一至週六每天下午1:00販售，售完為止。5／9起若供貨正常，將恢復上午8:00開賣
5902040050,富翔藥局,高雄市楠梓區常德路３０７號,120.337,22.73691,(07)3516365,羅氏家用新冠病毒抗原自我檢測套組,78,2022/05/05 13:57:02,晚上18:00 販售快篩實名制，星期日早上8:00 販售快篩實名制，售完為止。
5902040069,新友藥局,高雄市楠梓區萬昌路１１１號,120.2895,22.71194,(07)3653534,羅氏家用新冠病毒抗原自我檢測套組,1,2022/05/05 13:57:02,藥局販售口罩時間，依藥局門口公告時間為主（售完為止）
5902040087,世詠藥局,高雄市楠梓區楠都東街１３８號,120.3262,22.72532,(07)3539869,羅氏家用新冠病毒抗原自我檢測套組,53,2022/05/05 13:57:02,快篩周一~周五早上10:00-12:00周六.日下午15:00-21:30，售完為止
5902040229,進昇藥局,高雄市楠梓區德賢路２０２號,120.3068,22.72694,(07)3652334,羅氏家用新冠病毒抗原自我檢測套組,34,2022/05/05 13:57:02,實名制快篩每日上午10點販售，售完為止
5902040498,順明藥局,高雄市楠梓區和光街６５號,120.2939,22.70717,(07)3615574,羅氏家用新冠病毒抗原自我檢測套組,78,2022/05/05 13:57:02,快篩劑販售時間早上 8:30～晚上9:30
5902040532,聯亞藥局,高雄市楠梓區軍校路７１０號,120.293,22.70779,(07)3638387,羅氏家用新冠病毒抗原自我檢測套組,18,2022/05/05 13:57:02,口罩販賣時段：到貨開始販售
5902042492,合德中西藥師藥局,高雄市楠梓區楠梓路４８６號,120.3244,22.73812,(07)3581291,羅氏家用新冠病毒抗原自我檢測套組,78,2022/05/05 13:57:02,快篩實名制09:00開始販售
5902042661,元春中西藥師藥局,高雄市楠梓區後昌路８３７巷３７號,120.294,22.71109,(07)3605656,羅氏家用新冠病毒抗原自我檢測套組,78,2022/05/05 13:57:02,下午16.00開始為快篩領取時間，售完為止
5902050565,澄和藥局,高雄市三民區澄和路６６號,120.3445,22.64474,(07)3923111,羅氏家用新冠病毒抗原自我檢測套組,77,2022/05/05 13:57:02,快篩試劑- 販售時間自下午14:00起至售完為止
5902050636,嘉益藥局,高雄市三民區重慶街３０號,120.302,22.64223,(07)3110157,羅氏家用新冠病毒抗原自我檢測套組,53,2022/05/05 13:57:02,快篩實名制下午15：00開始販售.
5902050798,友泰藥局,高雄市三民區中和街１６９號,120.2868,22.6388,(07)3125236,羅氏家用新冠病毒抗原自我檢測套組,79,2022/05/05 13:57:02,無
5902051268,上正藥師藥局,高雄市三民區憲政路２５５號,120.3185,22.63647,(07)2223355,羅氏家用新冠病毒抗原自我檢測套組,39,2022/05/05 13:57:02,周一至周五下午2點販售實名制快篩試劑，周末六日早上8點半至10點販售實名制快篩試劑
5902051786,億生藥局,高雄市三民區南台路２００號,120.2982,22.63706,(07)2873436,羅氏家用新冠病毒抗原自我檢測套組,47,2022/05/05 13:57:02,「藥局販售口罩時間，依藥局門口公告時間為主（售完為止）」
5902056638,柏仁藥局,高雄市三民區覺民路５０４號,120.3317,22.64092,(07)3976016,羅氏家用新冠病毒抗原自我檢測套組,78,2022/05/05 13:57:02,實名制快篩下午才到貨，下午3點開賣，現場排隊，售完為止
5902057144,欣仁惠藥局,高雄市三民區大昌二路２４８號,120.3323,22.64529,(07)3837833,羅氏家用新冠病毒抗原自我檢測套組,1,2022/05/05 13:57:02,無
5902057680,健爾康藥局,高雄市三民區正興路２３號,120.3226,22.6456,(07)3965658,羅氏家用新冠病毒抗原自我檢測套組,63,2022/05/05 13:57:02,自2／11日~2／29日，營業日08:30~2100為販賣口罩時間，售完為止。
5902060025,連作藥局,高雄市新興區大同一路２０３－１號,120.3003,22.62856,(07)2154716,羅氏家用新冠病毒抗原自我檢測套組,58,2022/05/05 13:57:02,快篩試紙領用時間為每日下午2點
5902080474,弘宗藥局,高雄市苓雅區武智街２號,120.3356,22.62303,(07)7211088,羅氏家用新冠病毒抗原自我檢測套組,21,2022/05/05 13:57:02,販售時段13:00後 ，販售扔以為現場主
5902080545,柏松藥局,高雄市苓雅區輔仁路１７５號,120.3332,22.63065,(07)7119786,羅氏家用新冠病毒抗原自我檢測套組,67,2022/05/05 13:57:02,實名制快篩試劑.5／4.起.16:00開賣......售完為止!!
5902081328,東信藥局,高雄市苓雅區三多一路１８９號,120.3313,22.62258,(07)7613309,羅氏家用新冠病毒抗原自我檢測套組,2,2022/05/05 13:57:02,早上8:30開始發送號碼牌販售口罩，售完為止，假日正常販售
5902083457,順一藥局,高雄市苓雅區田西里成功一路２１０號,120.2969,22.61696,(07)3330011,羅氏家用新冠病毒抗原自我檢測套組,2,2022/05/05 13:57:02,營業時間早上8點30 至12點下午3點至9點（12點至3點休息）
5902085184,惠春藥局,高雄市苓雅區武慶三路９６號,120.3319,22.62043,(07)7611358,羅氏家用新冠病毒抗原自我檢測套組,122,2022/05/05 13:57:02,「藥局販售口罩時間，依藥局門口公告時間為主（售完為止）」
5902085228,永森藥局,高雄市苓雅區建國一路２９０號,120.3262,22.63308,(07)7163087,羅氏家用新冠病毒抗原自我檢測套組,6,2022/05/05 13:57:02,快篩代售時間:營業時間
5902085308,幸福藥師藥局,高雄市苓雅區青年一路１６７－３號,120.3079,22.62172,(07)5368701,羅氏家用新冠病毒抗原自我檢測套組,78,2022/05/05 13:57:02,1: 自111／5／1起：快篩販售時間為14:00開始。2: 販售方式依現場公告為主，售完為止。
5902090765,家安大藥局,高雄市前鎮區崗山南街３４２巷２１號,120.3323,22.6021,(07)7137711,羅氏家用新冠病毒抗原自我檢測套組,78,2022/05/05 13:57:02,販售快篩實名制時間:週一.二.三.五.六.日（上午9點）、週四（晚上7點），依藥局門口公告時間為主（售完為止）
5902090827,博平藥局,高雄市前鎮區草衙二路３７７號,120.3224,22.57808,(07)8311814,羅氏家用新冠病毒抗原自我檢測套組,67,2022/05/05 13:57:02,下午2點開始販售快篩.售完為止
5902092205,百宏中西大藥局,高雄市前鎮區復興三路１９４號,120.3117,22.61311,(07)3386719,羅氏家用新冠病毒抗原自我檢測套組,78,2022/05/05 13:57:02,無
5902092296,迎廣藥局,高雄市前鎮區林森三路１５０號２樓,120.3089,22.61357,(07)3321466,羅氏家用新冠病毒抗原自我檢測套組,56,2022/05/05 13:57:02,週一至周六08:30至12:00  15:00至18:00 19:00至21:30 星期六晚休息  星期日休息
5902092321,彥芳藥局,高雄市前鎮區長江街６５號１樓,120.3156,22.60993,(07)3302007,羅氏家用新冠病毒抗原自我檢測套組,52,2022/05/05 13:57:02,發快篩及口罩時間: 週一至週六 下午14:00 ~下午18:00 （ 備註 : 週日公休` 週六營業到下午6:00止）
5902092410,旺盛藥局,高雄市前鎮區永豐路１０８號,120.3337,22.6065,(07)7512899,羅氏家用新冠病毒抗原自我檢測套組,2,2022/05/05 13:57:02,過年期間 111／01／31下午至111／02／03  休診
5902092554,協和藥局,高雄市前鎮區中華五路９８３號,120.306,22.60221,(07)5377769,羅氏家用新冠病毒抗原自我檢測套組,141,2022/05/05 13:57:02,快篩代售:除星期天休息 周一至周五下午2:00 周六:8:30  （5／4下午3點）
5902111670,桂林活力藥師藥局,高雄市小港區桂陽路４０號,120.3575,22.58194,(07)7931248,羅氏家用新冠病毒抗原自我檢測套組,2,2022/05/05 13:57:02,營業日09:00發放實名制快篩號碼牌.售完為止
5903010127,友誠藥局,臺中市豐原區豐東路４０１號１樓,120.7336,24.25457,(04)25132371,羅氏家用新冠病毒抗原自我檢測套組,78,2022/05/05 13:57:02,禮拜一至禮拜日快篩發放時間下午兩點開始販售，售完為止。
5903010261,豐原西勢藥局,臺中市豐原區西勢路２００號１樓,120.7067,24.24379,(04)25262330,羅氏家用新冠病毒抗原自我檢測套組,78,2022/05/05 13:57:02,今日快篩下午2:00開賣，1:50發號碼牌，因疫情無法店內排隊。若遇下雨請自備雨具，不便之處敬請見諒。
5903010270,福心藥局,臺中市豐原區中正路７１５號１樓,120.7014,24.2491,(04)25229292,羅氏家用新冠病毒抗原自我檢測套組,78,2022/05/05 13:57:02,快篩販賣時間5／4-5／5下午4點.5／6-5／9改早上10點.週日休
5903010289,心美日藥局,臺中市豐原區中山路３５９號１樓,120.7149,24.24929,(04)25260703,羅氏家用新冠病毒抗原自我檢測套組,78,2022/05/05 13:57:02,早上8:00販售（如貨運延遲則改為14:00）
5903010341,昭仁藥局,臺中市豐原區南陽路１４０號,120.7307,24.24275,(04)25243559,羅氏家用新冠病毒抗原自我檢測套組,78,2022/05/05 13:57:02,無
5903010485,大樹圓環藥局,臺中市豐原區圓環東路６１７號１樓,120.7283,24.25084,(04)25122212,羅氏家用新冠病毒抗原自我檢測套組,78,2022/05/05 13:57:02,口罩販售時間：14:00 - 16:00
5903010547,佑全豐原中正藥局,臺中市豐原區中正路２２３、２２５號１、２樓,120.7175,24.25179,(04)25152886,羅氏家用新冠病毒抗原自我檢測套組,78,2022/05/05 13:57:02,實名制快篩販售時間:下午2點開始（13:50發號碼牌）
5903010556,升禾和大藥局,臺中市豐原區育英路２６號１樓,120.7163,24.24346,(04)25293099,羅氏家用新冠病毒抗原自我檢測套組,78,2022/05/05 13:57:02,快篩試劑1800領取.採現場排隊.售完為止
5903010583,林居藥局,臺中市豐原區源豐路１１４號１樓,120.7173,24.25367,(04)25159168,羅氏家用新冠病毒抗原自我檢測套組,78,2022/05/05 13:57:02,快篩依當天物流送貨時間， 會在 FB林居藥局 公告販售時間， 謝謝
5903020034,國良豐藥局,臺中市東勢區豐勢路２１號１樓,120.8318,24.24779,(04)25885778,羅氏家用新冠病毒抗原自我檢測套組,52,2022/05/05 13:57:02,快篩試劑下午2:00開始
5903030012,康好藥局,臺中市大甲區三民路１３２－２號,120.622,24.34851,(04)26802149,羅氏家用新冠病毒抗原自我檢測套組,156,2022/05/05 13:57:02,每天早上8-12點.下午14:30至售完為止.星期四不銷售. 星期日只銷售前日剩餘口罩
5903030030,大甲健康藥局,臺中市大甲區蔣公路２４２-１號１樓,120.6195,24.34722,(04)26805833,羅氏家用新冠病毒抗原自我檢測套組,78,2022/05/05 13:57:02,周一至周六營業，周日公休
5903040036,得康藥局,臺中市清水區高美路１１７號,120.5753,24.27879,(04)26260622,羅氏家用新冠病毒抗原自我檢測套組,156,2022/05/05 13:57:02,5／4售完，5／5下午14:40開始販售
5903040107,佑全清水中山三藥局,臺中市清水區中山路２４、２６、２８號１樓,120.572,24.26043,(04)26224469,羅氏家用新冠病毒抗原自我檢測套組,78,2022/05/05 13:57:02,5／5實名制快篩發放時間下午2:00開始，1:50發放號碼牌，請關注本藥局臉書隨時公告最新訊息。慢箋牙科箋領藥全年無休。
5903050194,樂齊藥局,臺中市沙鹿區北中路８６－１、８６－２號,120.5692,24.22827,(04)26338867,羅氏家用新冠病毒抗原自我檢測套組,78,2022/05/05 13:57:02,防疫家用快篩試劑每日19點開賣，售完為止，庫存請依現場為主。
5903050210,富康沙鹿藥局,臺中市沙鹿區沙田路１４２號１樓,120.5595,24.23613,(04)26633399,羅氏家用新冠病毒抗原自我檢測套組,78,2022/05/05 13:57:02,*5／5預計下午兩點販售防疫快篩。（全年無休）*固定周一到周日
5903050247,好利藥局,臺中市沙鹿區中山路４８７－１號１樓,120.5619,24.2454,(04)26630087,羅氏家用新冠病毒抗原自我檢測套組,78,2022/05/05 13:57:02,無
5903050274,鹿寮藥局,臺中市沙鹿區中山路４６１、４６１－１號１、２樓,120.5615,24.24387,(04)26630677,羅氏家用新冠病毒抗原自我檢測套組,78,2022/05/05 13:57:02,快篩實名制，每天16:00開始販售，售完為止。
5903060010,大芳藥局,臺中市梧棲區中央路１段９０７號,120.5381,24.24742,(04)26561755,羅氏家用新冠病毒抗原自我檢測套組,67,2022/05/05 13:57:02,快篩試劑.下午兩點開始販售 排隊人數足夠即提早販售.（附設戒菸門診）
5903060092,佑全梧棲文化藥局,臺中市梧棲區文化路二段１５０號１樓,120.531,24.25526,(04)26566433,羅氏家用新冠病毒抗原自我檢測套組,76,2022/05/05 13:57:02,實名制快篩，下午1:50發號碼牌，14:00開始販售
5903070098,祐恩藥局,臺中市后里區甲后路一段４７８號１樓,120.6819,24.3157,(04)25587518,羅氏家用新冠病毒抗原自我檢測套組,78,2022/05/05 13:57:02,實名制快篩試劑每日15:00開始販售。週日休息。
5903070169,佑全后里甲后藥局,臺中市后里區甲后路一段７２８號１、２樓,120.7193,24.30951,(04)25583116,羅氏家用新冠病毒抗原自我檢測套組,78,2022/05/05 13:57:02,實名制快篩每日14:00販售。13:50發放號碼牌。
5903080094,灃洲大藥局,臺中市神岡區豐洲路４６６－３號１樓,120.7045,24.26179,(04)25150169,羅氏家用新冠病毒抗原自我檢測套組,78,2022/05/05 13:57:02,星期日公休，實名制快篩販售時間為每日下午兩點
5903080138,佑全神岡中山藥局,臺中市神岡區中山路５４９、５４９之１、５４９之２號１樓,120.6842,24.24638,(04)25634677,羅氏家用新冠病毒抗原自我檢測套組,78,2022/05/05 13:57:02,5／4下午1點50分發號碼牌2點開賣
5903090072,元康健保藥局,臺中市潭子區圓通南路１９６號１樓,120.7043,24.20725,(04)25353893,羅氏家用新冠病毒抗原自我檢測套組,78,2022/05/05 13:57:02,下午3點現場分號碼後  依序賣口罩
5903090429,佑全潭子中山藥局,臺中市潭子區中山路一段９之１號,120.7023,24.18847,(04)25356140,羅氏家用新冠病毒抗原自我檢測套組,78,2022/05/05 13:57:02,營業時間:09:00-21:00／健保實聯制購買時間:14:00開始販售，13:50開始發號碼牌，售完為止。
5903100055,大詮藥師藥局,臺中市大雅區民生路３段４３２號,120.6655,24.23441,(04)25682767,羅氏家用新冠病毒抗原自我檢測套組,75,2022/05/05 13:57:02,營業時間；週一到週五11:30至22:00，週六晚上9點打烊，周日固定公休。
5903100135,大雅安德藥局,臺中市大雅區中清東路２２９號１樓,120.6469,24.22459,(04)25604133,羅氏家用新冠病毒抗原自我檢測套組,73,2022/05/05 13:57:02,5／5（四）。實名制快篩13:30領取號碼牌，14:00販賣，不找零，每張卡隔一個月買一次，限每人一卡一份
5903100180,杏一大雅中清藥局,臺中市大雅區中清路四段３１、３３、３５號１樓,120.6448,24.22615,(04)25601791,羅氏家用新冠病毒抗原自我檢測套組,77,2022/05/05 13:57:02,週一~週六14:00販售（13:50發號碼牌）每人每卡限定1份500元!週日無販售!
5903100206,民生藥局,臺中市大雅區民生路一段２２１號１樓,120.6512,24.22789,(04)25662229,羅氏家用新冠病毒抗原自我檢測套組,78,2022/05/05 13:57:02,快篩實名制，每天16:00開始販售，售完為止。
5903100215,佑全大雅雅環藥局,臺中市大雅區雅環路二段８８號１樓,120.653,24.22634,(04)25605942,羅氏家用新冠病毒抗原自我檢測套組,78,2022/05/05 13:57:02,營業時間:09:00~21:00；實名制快篩於每日13:50發放號碼牌，14:00開始販售。
5903150028,全成烏日藥局,臺中市烏日區溪南路１段７７６號,120.6427,24.07423,(04)23352656,羅氏家用新冠病毒抗原自我檢測套組,78,2022/05/05 13:57:02,實名制快篩晚上7:00發放，售完為止
5903150135,全品藥局,臺中市烏日區公園路２４０之１號１樓,120.6254,24.10234,(04)23362690,羅氏家用新冠病毒抗原自我檢測套組,61,2022/05/05 13:57:02,因近期快篩配貨時間不定，早上如有配送 下午2:00販售，售完為止
5903150153,溪南藥局,臺中市烏日區溪南路一段５６５號１樓,120.6431,24.07523,(04)23353666,羅氏家用新冠病毒抗原自我檢測套組,78,2022/05/05 13:57:02,快篩實名制，每天16:00開始販售，售完為止。
5903150180,九德藥局,臺中市烏日區中山路一段４３８、４４０號１樓,120.6365,24.10748,(04)23385456,羅氏家用新冠病毒抗原自我檢測套組,78,2022/05/05 13:57:02,快篩實名制，每天16:00開始販售，售完為止。
5903160042,大肚新庄藥局,臺中市大肚區遊園路２段２２１－３號１樓,120.5808,24.17376,(04)26912119,羅氏家用新冠病毒抗原自我檢測套組,78,2022/05/05 13:57:02,每天下午3點開始排隊販賣，賣完為止
5903160097,安昌藥局,臺中市大肚區遊園路二段１７６號１樓,120.5808,24.17289,(04)26913890,羅氏家用新冠病毒抗原自我檢測套組,76,2022/05/05 13:57:02,每天晚上19:00點開始現場排隊販賣快篩試劑.
5903170048,龍井新庄藥局,臺中市龍井區遊園南路１７９號１樓,120.5843,24.18216,(04)26322169,羅氏家用新冠病毒抗原自我檢測套組,78,2022/05/05 13:57:02,實名制快篩每日下午3點半開賣
5903180062,霧峰安德藥局,臺中市霧峰區中正路１１３５號１樓,120.6992,24.07002,(04)23300365,羅氏家用新冠病毒抗原自我檢測套組,78,2022/05/05 13:57:02,快篩代售時間14:00。售完為止。
5903180115,永合藥局,臺中市霧峰區中正路９６５號,120.6989,24.06597,(04)23391910,羅氏家用新冠病毒抗原自我檢測套組,78,2022/05/05 13:57:02,無
5903180142,峰正藥局,臺中市霧峰區中正路８３０號１樓,120.6987,24.06244,(04)23303353,羅氏家用新冠病毒抗原自我檢測套組,78,2022/05/05 13:57:02,快篩實名制，每天16:00開始販售，售完為止。
5903190139,劍橋藥局,臺中市太平區宜昌路５５２號１樓,120.7157,24.14758,(04)22776619,羅氏家用新冠病毒抗原自我檢測套組,5,2022/05/05 13:57:02,星期一到星期日
5903190148,亞洲藥師連鎖大藥局,臺中市太平區中山路２段４５８號,120.7253,24.14984,(04)23921681,羅氏家用新冠病毒抗原自我檢測套組,78,2022/05/05 13:57:02,實名制快篩，每天14:30開賣，一人一卡，請自備500元
5903190228,中山德侑藥局,臺中市太平區中山路３段２之２號１樓,120.7222,24.14942,(04)23920682,羅氏家用新冠病毒抗原自我檢測套組,35,2022/05/05 13:57:02,因政府配送時間不定故每日快篩販售時間視情況調整 可來電詢問
5903190273,太平小林健保藥局,臺中市太平區育賢路５１８號,120.7133,24.15883,(04)23954436,羅氏家用新冠病毒抗原自我檢測套組,17,2022/05/05 13:57:02,每天早上8點發號碼牌，下午4:30販售口罩
5903190362,太平中山藥局,臺中市太平區中山路４段１１號,120.7139,24.14931,(04)23959200,羅氏家用新冠病毒抗原自我檢測套組,78,2022/05/05 13:57:02,快篩實名制，每天16:00開始販售，售完為止。
5903190497,太平惠民藥師藥局,臺中市太平區東平路３６８號１樓,120.7267,24.13433,(04)22768799,羅氏家用新冠病毒抗原自我檢測套組,78,2022/05/05 13:57:02,實名制快篩，每日下午兩點開賣，一人一卡，請自備500元，不找零
5903190522,聖康佳禾藥局,臺中市太平區光興路８３１號,120.7307,24.1121,(04)22772065,羅氏家用新冠病毒抗原自我檢測套組,106,2022/05/05 13:57:02,周一到周五2點開始發放
5903190675,德芳太平藥局,臺中市太平區中興路１３３巷１－１號１樓,120.7146,24.12617,(04)23511588,羅氏家用新冠病毒抗原自我檢測套組,156,2022/05/05 13:57:02,快篩販售時間:下午3點~6點
5903190700,佑全太平藥局,臺中市太平區樹德路１２１號１樓,120.712,24.15444,(04)23910016,羅氏家用新冠病毒抗原自我檢測套組,78,2022/05/05 13:57:02,配貨不穩定.快篩販售時間請留意佑全太平樹德粉絲專頁
5903200229,信元藥局,臺中市大里區益民路２段３７２號１樓,120.684,24.11545,(04)24876051,羅氏家用新冠病毒抗原自我檢測套組,77,2022/05/05 13:57:02,下午5點發號碼牌並依序販賣
5903200372,國光丁丁藥局,臺中市大里區國光路２段５５１－１號１樓,120.6788,24.11241,(04)24069711,羅氏家用新冠病毒抗原自我檢測套組,60,2022/05/05 13:57:02,星期一至星期日早上9點依排隊順序直接領取
5903200514,大明永欣藥局,臺中市大里區大明路５３９號１樓、５４１號１樓,120.6735,24.11478,(04)24068864,羅氏家用新冠病毒抗原自我檢測套組,78,2022/05/05 13:57:02,實名制快篩每天下午2點開始發號碼牌
5903200541,大里康媞藥局,臺中市大里區塗城路４９４號,120.7024,24.08867,(04)24966627,羅氏家用新冠病毒抗原自我檢測套組,78,2022/05/05 13:57:02,快篩下午兩點開始
5903200596,大樹大里藥局,臺中市大里區中興路二段１０１號,120.6885,24.10305,(04)24861133,羅氏家用新冠病毒抗原自我檢測套組,78,2022/05/05 13:57:02,快篩實名制，每天16:00開始販售，售完為止。
5903200658,德芳成功藥局,臺中市大里區成功路５３５－３號１樓,120.7033,24.0913,(04)24920298,羅氏家用新冠病毒抗原自我檢測套組,128,2022/05/05 13:57:02,快篩販售時間:下午3點~6點
5903200667,永欣東榮藥局,臺中市大里區東榮路３７０號１樓,120.6836,24.11032,(04)24810599,羅氏家用新冠病毒抗原自我檢測套組,78,2022/05/05 13:57:02,快篩發放無特定時間.收到貨即發放.營業時間早上08:30至晚上10:00
5903200676,立人藥局,臺中市大里區益民路二段１９號１樓,120.6888,24.1063,(04)24831722,羅氏家用新冠病毒抗原自我檢測套組,78,2022/05/05 13:57:02,每天下午5:30開始販售實名制快篩
5903200685,塗城藥局,臺中市大里區中興路一段１８７、１８９、１９１號１樓,120.6933,24.09008,(04)24967234,羅氏家用新冠病毒抗原自我檢測套組,78,2022/05/05 13:57:02,快篩實名制，每天16:00開始販售，售完為止。
5903200694,大里福倫藥局,臺中市大里區中興路二段１８３－２號１樓,120.6896,24.10679,(04)24850218,羅氏家用新冠病毒抗原自我檢測套組,78,2022/05/05 13:57:02,快篩依政府配送時間為主
5903200756,佑全大里大明藥局,臺中市大里區大明路３６０、３６２號,120.6787,24.11511,(04)24818633,羅氏家用新冠病毒抗原自我檢測套組,78,2022/05/05 13:57:02,實名制快篩，開賣時間:下午14:00，售完為止
5903220141,雙十小林健保藥局,臺中市中區雙十路一段３５號,120.6855,24.14172,(04)22253662,羅氏家用新冠病毒抗原自我檢測套組,18,2022/05/05 13:57:02,每日8點販賣
5903220150,老順安大藥局,臺中市中區中華路二段６３號、６５號１樓,120.6794,24.14801,(04)22016306,羅氏家用新冠病毒抗原自我檢測套組,65,2022/05/05 13:57:02,實名制快篩銷售時間:周一至周六下午兩點至三點
5903230209,東京藥師藥局,臺中市東區復興路五段１４９號１樓,120.6893,24.14543,(04)22132278,羅氏家用新冠病毒抗原自我檢測套組,15,2022/05/05 13:57:02,無
5903230227,東區小林健保藥局,臺中市東區十甲路４８５號１樓,120.7104,24.14464,(04)22135148,羅氏家用新冠病毒抗原自我檢測套組,78,2022/05/05 13:57:02,無
5903240205,捷登藥局,臺中市西區公益路１０６號,120.6613,24.15105,(04)23191929,羅氏家用新冠病毒抗原自我檢測套組,78,2022/05/05 13:57:02,實名制快篩 每日下午 2:00 準時開賣，售完為止 .
5903240429,神農藥局,臺中市西區公益路１９０之１號１樓,120.6567,24.15103,(04)23103335,羅氏家用新冠病毒抗原自我檢測套組,13,2022/05/05 13:57:02,下午14:00開始販賣快篩試劑，售完為止
5903240447,大樹五權藥局,臺中市西區五權路９７－１號１樓,120.6717,24.14626,(04)22022910,羅氏家用新冠病毒抗原自我檢測套組,78,2022/05/05 13:57:02,快篩實名制，每天16:00開始販售，售完為止。
5903240474,佑全台中向上藥局,臺中市西區向上路一段３８６、３８８號１樓,120.6559,24.14688,(04)23204732,羅氏家用新冠病毒抗原自我檢測套組,78,2022/05/05 13:57:02,因政府配貨時間不一，依照門市現場公告時間為主
5903240483,名華藥局,臺中市西區中華路一段７號１樓,120.6732,24.14209,(04)22231187,羅氏家用新冠病毒抗原自我檢測套組,78,2022/05/05 13:57:02,實名制快篩，5／5 PM3:00開售
5903240492,好好誠美藥局,臺中市西區向上北路１８６號１樓,120.6611,24.14797,(04)23022838,羅氏家用新冠病毒抗原自我檢測套組,78,2022/05/05 13:57:02,快篩販售時間下午兩點
5903250210,好好藥局,臺中市南區忠明南路７８６號,120.6605,24.12233,(04)22612961,羅氏家用新冠病毒抗原自我檢測套組,70,2022/05/05 13:57:02,W1-5 下午兩點快篩販售 W6 中午12點快篩販售 星期日公休
5903250381,大樹美村藥局,臺中市南區美村南路１２４號,120.667,24.11499,(04)22621113,羅氏家用新冠病毒抗原自我檢測套組,78,2022/05/05 13:57:02,口罩販售時間：14:00 - 16:00
5903250505,心安藥局,臺中市南區國光路２４１號１樓,120.6794,24.12676,(04)22858773,羅氏家用新冠病毒抗原自我檢測套組,156,2022/05/05 13:57:02,每天下午三點排隊開賣，一人一卡，週日公休
5903250578,樂碩藥局,臺中市南區建國南路一段２５９號１樓,120.6583,24.12491,(04)22601288,羅氏家用新冠病毒抗原自我檢測套組,78,2022/05/05 13:57:02,快篩週一到週六15:00、週日16:30開始販售，售完為止
5903260270,冠安藥局,臺中市北區進化路５１０、５１２號,120.6946,24.16047,(04)22335770,羅氏家用新冠病毒抗原自我檢測套組,59,2022/05/05 13:57:02,快篩 13:30 開賣--5／4日後 14：00開賣
5903260341,台中漢口藥局,臺中市北區漢口路３段１８３號,120.6711,24.16703,(04)22936166,羅氏家用新冠病毒抗原自我檢測套組,64,2022/05/05 13:57:02,實名制快篩販售時間：下午2點
5903260449,喜樂藥局,臺中市北區中清路１段３１號,120.677,24.1529,(04)22060423,羅氏家用新冠病毒抗原自我檢測套組,32,2022/05/05 13:57:02,無
5903260663,佑全台中五權藥局,臺中市北區五權路４９６號,120.6833,24.15329,(04)22080702,羅氏家用新冠病毒抗原自我檢測套組,69,2022/05/05 13:57:02,因政府配貨時間不一，依照門市現場公告時間為主
5903260707,新藥林藥局,臺中市北區健行路４４５－５號１樓,120.6803,24.15896,(04)22053458,羅氏家用新冠病毒抗原自我檢測套組,78,2022/05/05 13:57:02,營業時間:11點~晚上7點.快篩:星期一~星期五 下午3點開始，星期六下午一點，星期三.日公休，現場排隊
5903260743,黎明安德藥局,臺中市北區中清路１段８５２號１樓,120.6718,24.17295,(04)22956098,羅氏家用新冠病毒抗原自我檢測套組,78,2022/05/05 13:57:02,禮拜四公休、禮拜日下午2點開始營業，一到六下午3點開始販賣快篩，禮拜日下午5點開始販賣快篩
5903260878,927達霖藥師藥局,臺中市北區中華路二段２０１號１樓,120.6822,24.15278,(04)22060030,羅氏家用新冠病毒抗原自我檢測套組,78,2022/05/05 13:57:02,無
5903260912,莒光藥局,臺中市北區錦南街１２號１樓,120.6886,24.15399,(04)22336663,羅氏家用新冠病毒抗原自我檢測套組,78,2022/05/05 13:57:02,每日下午3點開賣 78份售完為止 星期日另外公告 臉書搜尋莒光藥局
5903260958,健康達人藥局,臺中市北區北平路２段５６號１樓,120.6735,24.17153,(04)22994866,羅氏家用新冠病毒抗原自我檢測套組,78,2022/05/05 13:57:02,快篩實名制，每天中午2:00開始販售，售完為止。
5903261008,台中大樹藥局,臺中市北區漢口路三段２６１號,120.6726,24.16703,(04)22981113,羅氏家用新冠病毒抗原自我檢測套組,78,2022/05/05 13:57:02,快篩實名制，每天16:00開始販售，售完為止。
5903270089,信心藥局,臺中市西屯區四川路１９０號,120.6559,24.16046,(04)23163430,羅氏家用新冠病毒抗原自我檢測套組,78,2022/05/05 13:57:02,每天早上08:00開始販售快篩試劑，售完為止
5903270301,宥承藥局,臺中市西屯區西屯路３段１４８－１６號,120.6242,24.18563,(04)24626559,羅氏家用新冠病毒抗原自我檢測套組,140,2022/05/05 13:57:02,星期一到星期六， 開始快篩
5903270310,弘福藥師藥局,臺中市西屯區西屯路３段１６６－２１號１樓,120.6159,24.18918,(04)24611916,羅氏家用新冠病毒抗原自我檢測套組,78,2022/05/05 13:57:02,每日15:00發放號碼牌，發完即開始販售（全年無休）
5903270392,瑞德大藥局,臺中市西屯區中清西二街８４號,120.6671,24.17511,(04)22939820,羅氏家用新冠病毒抗原自我檢測套組,78,2022/05/05 13:57:02,固定周一至周日早上9:00開始販售口罩.售完為止
5903270516,中科何藥局,臺中市西屯區福康路４０號,120.6173,24.18421,(04)24612570,羅氏家用新冠病毒抗原自我檢測套組,78,2022/05/05 13:57:02,防疫快篩每日15:00開始販售。（全年無休）
5903270721,舒健藥局,臺中市西屯區西屯路二段２５５號２樓,120.6459,24.17179,(04)27077858,羅氏家用新冠病毒抗原自我檢測套組,78,2022/05/05 13:57:02,公費快篩試劑於周一至周六晚上7點現場排隊購買，週日公休。
5903270749,大墩藥局,臺中市西屯區大墩１９街６８號１樓,120.6518,24.15734,(04)23209602,羅氏家用新冠病毒抗原自我檢測套組,78,2022/05/05 13:57:02,每天下午三點開賣，請提早來排隊（視排隊狀況會提早發售）
5903270776,河南丁丁藥局,臺中市西屯區河南路４段１９１號,120.6367,24.15565,(04)22511658,羅氏家用新冠病毒抗原自我檢測套組,57,2022/05/05 13:57:02,周一至周日每天上午9:00開始販售口罩[有口罩庫存時]
5903270801,榮友藥局,臺中市西屯區臺灣大道四段１７４２號,120.6024,24.18286,(04)23508392,羅氏家用新冠病毒抗原自我檢測套組,25,2022/05/05 13:57:02,05／04  實名快篩已售完，網路顯示數量不正確，謝謝
5903270810,佑全福星藥局,臺中市西屯區黎明路三段３９５、３９７號,120.639,24.18251,(04)24527465,羅氏家用新冠病毒抗原自我檢測套組,78,2022/05/05 13:57:02,因政府實名制快篩配貨時間不一，依照門市現場公告時間為主
5903270865,尚禾藥局,臺中市西屯區青海路一段６５號,120.6548,24.16438,(04)23147688,羅氏家用新冠病毒抗原自我檢測套組,39,2022/05/05 13:57:02,實名制快篩發放：時段一中午12:30~14:00。時段二20：30~22：30。時段一若未發完，餘量將遞延至時段二發放。周日停售。
5903270874,熊健康藥局,臺中市西屯區太原路一段２３２號,120.6632,24.16394,(04)23163505,羅氏家用新冠病毒抗原自我檢測套組,78,2022/05/05 13:57:02,快篩實名制14:30開始販售，售完為止。 星期日公休。
5903270883,祥和大藥局,臺中市西屯區青海路二段２４０－９號,120.6418,24.17323,(04)27000122,羅氏家用新冠病毒抗原自我檢測套組,2,2022/05/05 13:57:02,快篩販售時間：每日下午5點至夜間10點。
5903270918,全成西屯藥局,臺中市西屯區黎明路三段２２１、２２３號1樓,120.6373,24.17723,(04)24512290,羅氏家用新冠病毒抗原自我檢測套組,78,2022/05/05 13:57:02,星期一至星期六15點開始販售實名制快篩
5903270927,河南小林健保藥局,臺中市西屯區河南路二段２９８號１樓,120.6485,24.17477,(04)24512830,羅氏家用新冠病毒抗原自我檢測套組,1,2022/05/05 13:57:02,固定每日早上8點發放口罩號碼牌，下午4點半開始販售。
5903271022,西屯藥局,臺中市西屯區西屯路三段１５０－４５號１樓,120.621,24.18716,(04)24621822,羅氏家用新冠病毒抗原自我檢測套組,78,2022/05/05 13:57:02,快篩實名制，每天16:00開始販售，售完為止。
5903271031,美十樂中科藥局,臺中市西屯區西屯路三段１６６－６５號１樓,120.6129,24.19035,(04)24610219,羅氏家用新冠病毒抗原自我檢測套組,468,2022/05/05 13:57:02,醫事人員卡片損壞，暫時無法販賣快篩
5903271068,西墩藥局,臺中市西屯區黎明路三段２７５、２７７號１樓,120.6373,24.17812,(04)24510770,羅氏家用新冠病毒抗原自我檢測套組,78,2022/05/05 13:57:02,快篩實名制，每天16:00開始販售，售完為止。
5903271102,杏東美藥局,臺中市西屯區智惠街１５６號１樓,120.6438,24.17032,(04)24523798,羅氏家用新冠病毒抗原自我檢測套組,78,2022/05/05 13:57:02,快篩實名制5／4  19:00發放
5903271139,百吉藥局,臺中市西屯區青海路一段７１號１樓,120.6547,24.1644,(04)23135698,羅氏家用新冠病毒抗原自我檢測套組,74,2022/05/05 13:57:02,周六休息
5903271193,何安藥局,臺中市西屯區西屯路二段１０１號Ｂ棟１樓,120.6531,24.16616,(04)23161110,羅氏家用新冠病毒抗原自我檢測套組,78,2022/05/05 13:57:02,快篩實名制，每天16:00開始販售，售完為止。
5903271246,柏醫藥局,臺中市西屯區上安路５６號１樓,120.6412,24.17052,(04)24526391,羅氏家用新冠病毒抗原自我檢測套組,78,2022/05/05 13:57:02,因應到貨時間不定，統一晚上7點開放78組（5／5尚未到貨AM9:01）
5903271291,西屯長安藥局,臺中市西屯區成都路３６８號１樓,120.6641,24.17322,(04)22981221,羅氏家用新冠病毒抗原自我檢測套組,78,2022/05/05 13:57:02,快篩實名制，每天16:00開始販售，售完為止。
5903280245,大墩何藥局,臺中市南屯區大敦南路４３１號１．２樓,120.6476,24.13497,(04)24710655,羅氏家用新冠病毒抗原自我檢測套組,78,2022/05/05 13:57:02,防疫用快篩試劑下午4點開始販售，售完為止
5903280325,亞洲連鎖大藥局,臺中市南屯區黎明路２段１３３、１３５號,120.6336,24.15977,(04)23812886,羅氏家用新冠病毒抗原自我檢測套組,78,2022/05/05 13:57:02,下午1 : 50 前發放號碼牌， 2:00 開始發放快篩， 售完為止!
5903280521,百康健保藥局,臺中市南屯區黎明路二段３６３號,120.6353,24.15033,(04)22547776,羅氏家用新冠病毒抗原自我檢測套組,75,2022/05/05 13:57:02,營業每日上午8:30到晚上22:30!實名制快篩販售下午三點開始
5903280576,佑全黎明藥局,臺中市南屯區黎明路２段２６６號,120.6359,24.14816,(04)23805560,羅氏家用新冠病毒抗原自我檢測套組,78,2022/05/05 13:57:02,實名制快篩販售時間下午兩點
5903280647,澄光人文藥局,臺中市南屯區干城街３０５號,120.6345,24.1526,(04)22530303,羅氏家用新冠病毒抗原自我檢測套組,78,2022/05/05 13:57:02,快篩販售時間，因配送問題無法確定，請關注FB或來電詢問。
5903280807,大樹南屯藥局,臺中市南屯區向上路一段６４３號１樓,120.6486,24.14659,(04)24758887,羅氏家用新冠病毒抗原自我檢測套組,78,2022/05/05 13:57:02,快篩實名制，每天16:00開始販售，售完為止。
5903280816,大育藥局,臺中市南屯區東興路二段７１號１樓,120.6528,24.13835,(04)24755656,羅氏家用新冠病毒抗原自我檢測套組,78,2022/05/05 13:57:02,每日固定晚上6點開賣 現場發放號碼牌
5903280898,佑全台中忠勇藥局,臺中市南屯區忠勇路５１－８號１樓,120.614,24.14376,(04)23803282,羅氏家用新冠病毒抗原自我檢測套組,78,2022/05/05 13:57:02,實名制快篩發放號碼牌13:50  販售14:00（限量78份）
5903290045,康美得藥局,臺中市北屯區昌平路１段１０５－８號,120.6903,24.17373,(04)22467128,羅氏家用新冠病毒抗原自我檢測套組,24,2022/05/05 13:57:02,第一梯早上12點前。第二梯下午2點10分後。W日早上10點販售。早上到貨時間請上（康美得藥局）官方臉書
5903290385,元復藥局,臺中市北屯區東山路１段２２５－７號,120.7155,24.17475,(04)24362075,羅氏家用新冠病毒抗原自我檢測套組,78,2022/05/05 13:57:02,上午7:20-7:40及8:20起發號碼牌。
5903290607,敦化小林健保藥局,臺中市北屯區敦化路１段６６８號,120.6643,24.18593,(04)24261881,羅氏家用新冠病毒抗原自我檢測套組,78,2022/05/05 13:57:02,每日早上8:00領號碼牌，16:30再回藥局領口罩（全年無休）
5903290689,大德安藥局,臺中市北屯區景賢路２３６號,120.7241,24.16701,(04)24378351,羅氏家用新冠病毒抗原自我檢測套組,3,2022/05/05 13:57:02,口罩代售時間從週一到週六09:00~現場排隊售完為止星期日早上10:00起至售完為止
5903290803,英全藥局,臺中市北屯區北平路三段３４號,120.6803,24.17105,(04)22345179,羅氏家用新冠病毒抗原自我檢測套組,74,2022/05/05 13:57:02,營業時間早上8點到晚上11點  快篩購買時間下午14點
5903290830,齊方藥局,臺中市北屯區四平路３９號,120.6708,24.17885,(04)22912192,羅氏家用新冠病毒抗原自我檢測套組,78,2022/05/05 13:57:02,快篩到貨時間不一定；通常中午左右到貨；現場排隊；麻煩先看快篩地圖，一天需接聽近百通電話詢問+解說謝謝體諒。
5903290876,北屯軍功藥局,臺中市北屯區軍功路一段７５２號,120.7193,24.17513,(04)24375111,羅氏家用新冠病毒抗原自我檢測套組,78,2022/05/05 13:57:02,快篩實名制，每天16:00開始販售，售完為止。
5903290894,豐禾藥局,臺中市北屯區同榮路１６３號,120.6618,24.19589,(04)24260588,羅氏家用新冠病毒抗原自我檢測套組,78,2022/05/05 13:57:02,快篩試劑於每日下午5點販售，星期日停售
5903290929,微笑藥局,臺中市北屯區昌平路一段３１８號１樓,120.6907,24.17344,(04)22432699,羅氏家用新冠病毒抗原自我檢測套組,78,2022/05/05 13:57:02,【快篩試劑】下午2:30起~現場排隊~
5903290947,德寶健保藥局,臺中市北屯區熱河路一段７０號１樓,120.687,24.1674,(04)22325511,羅氏家用新冠病毒抗原自我檢測套組,78,2022/05/05 13:57:02,下午二點開始販賣快篩試劑
5903291006,五和健保藥局,臺中市北屯區崇德路二段４６０號１樓,120.6863,24.18001,(04)22415533,羅氏家用新冠病毒抗原自我檢測套組,78,2022/05/05 13:57:02,週六公休 。周一至周五 14:30 發號碼牌 15:00販售； 週日 9:00發號碼牌 10:00販售
5903291060,大樹北屯藥局,臺中市北屯區松竹路二段４１１號１樓,120.6895,24.18192,(04)22422262,羅氏家用新冠病毒抗原自我檢測套組,78,2022/05/05 13:57:02,快篩實名制，每天16:00開始販售，售完為止。
5903291131,兩隻老虎藥局,臺中市北屯區崇德路２段１２號１樓,120.6855,24.16869,(04)22364635,羅氏家用新冠病毒抗原自我檢測套組,78,2022/05/05 13:57:02,營業時間早上九點到晚上九點半（快篩下午兩點開賣）
5903291140,興安藥局,臺中市北屯區興安路二段５２號１、２樓,120.6949,24.1762,(04)22460369,羅氏家用新冠病毒抗原自我檢測套組,78,2022/05/05 13:57:02,快篩實名制，每天16:00開始販售，售完為止。
5903291168,日初藥局,臺中市北屯區軍功路一段４８２－３號１樓,120.7188,24.17102,(04)24363150,羅氏家用新冠病毒抗原自我檢測套組,78,2022/05/05 13:57:02,無
5903291177,大連何藥局,臺中市北屯區山西路二段２７４號１樓,120.677,24.177,(04)22930895,羅氏家用新冠病毒抗原自我檢測套組,78,2022/05/05 13:57:02,因應配送時間不一，販賣時間改為下午四點。
5905010143,啄木鳥藥師藥局,臺南市新營區新南里民治路２４２號,120.3041,23.30767,(06)6590248,羅氏家用新冠病毒抗原自我檢測套組,78,2022/05/05 13:57:02,5／5下午4:00開始販售，售完為止
5905010250,大樹新營藥局,臺南市新營區民權路７４、７６、７８號１樓,120.3127,23.30615,(06)6328300,羅氏家用新冠病毒抗原自我檢測套組,77,2022/05/05 13:57:02,快篩實名制，每天16:00開始販售，售完為止。
5905010330,新進啄木鳥藥局,臺南市新營區新進路２段２５４號１樓,120.3056,23.30074,(06)6565303,羅氏家用新冠病毒抗原自我檢測套組,78,2022/05/05 13:57:02,無
5905020023,大樹鹽水藥局,臺南市鹽水區朝琴路１２６－３號１樓,120.271,23.32228,(06)6520432,羅氏家用新冠病毒抗原自我檢測套組,78,2022/05/05 13:57:02,快篩實名制，每天16:00開始販售，售完為止。
5905030038,美尚藥局,臺南市白河區白河里康樂路４３號,120.4148,23.34833,(06)6853538,羅氏家用新冠病毒抗原自我檢測套組,15,2022/05/05 13:57:02,快篩販售時間：星期一~五7:00-21:00 六07:00-18:30 禮拜天視診所上班而定
5905030047,大源醫藥局,臺南市白河區中山路１７２之２號,120.4177,23.35257,(06)6852306,羅氏家用新冠病毒抗原自我檢測套組,2,2022/05/05 13:57:02,防疫快篩，每周一至日，上午7:30~晚上9:00販售，售完為止
5905030092,大樹白河藥局,臺南市白河區中山路１５３號１樓,120.417,23.35255,(06)6830006,羅氏家用新冠病毒抗原自我檢測套組,78,2022/05/05 13:57:02,快篩實名制，每天16:00開始販售，售完為止。
5905040141,大樹麻豆藥局,臺南市麻豆區中山路４８、５０號１樓,120.2469,23.18382,(06)5716556,羅氏家用新冠病毒抗原自我檢測套組,78,2022/05/05 13:57:02,快篩實名制，每天16:00開始販售，售完為止。
5905050058,佳里啄木鳥藥局,臺南市佳里區延平路７６號１樓,120.1795,23.15507,(06)7236396,羅氏家用新冠病毒抗原自我檢測套組,78,2022/05/05 13:57:02,1400-售完為止
5905050165,德昌藥局佳里店,臺南市佳里區光復路２３３號,120.1746,23.16095,(06)7232388,羅氏家用新冠病毒抗原自我檢測套組,73,2022/05/05 13:57:02,固定周一至周六14:30開始販售口罩，售完為止
5905050209,大樹佳里藥局,臺南市佳里區延平路２３７號１樓,120.1783,23.1599,(06)7231323,羅氏家用新冠病毒抗原自我檢測套組,78,2022/05/05 13:57:02,快篩實名制，每天16:00開始販售，售完為止。
5905060161,和德藥局新化店,臺南市新化區清水里中山路４２０號１樓,120.3047,23.0359,(06)5802518,羅氏家用新冠病毒抗原自我檢測套組,78,2022/05/05 13:57:02,快篩販售時間:星期一~星期日 一人限2 張卡下午3點~售完
5905060198,大樹新化藥局,臺南市新化區中正路５３１號１樓,120.3072,23.03764,(06)5901331,羅氏家用新冠病毒抗原自我檢測套組,78,2022/05/05 13:57:02,快篩實名制，每天16:00開始販售，售完為止。
5905070050,晶德昌藥局,臺南市善化區文光里中山路８５號,120.3034,23.13298,(06)5856141,羅氏家用新冠病毒抗原自我檢測套組,71,2022/05/05 13:57:02,14:30-16:00.依號碼牌售完為止
5905070112,健登藥局,臺南市善化區大成路２１２號１樓,120.3004,23.13021,(06)5831133,羅氏家用新冠病毒抗原自我檢測套組,73,2022/05/05 13:57:02,快篩實名制販售 : 週一~六 下午兩點開始 週日不販售
5905070121,大樹善化藥局,臺南市善化區民權路５４、５６、５８號１樓,120.3034,23.1322,(06)5830550,羅氏家用新冠病毒抗原自我檢測套組,78,2022/05/05 13:57:02,快篩實名制，每天16:00開始販售，售完為止。
5905070158,南科健登藥局,臺南市善化區龍目井路４１３號１樓,120.3058,23.10922,(06)5836266,羅氏家用新冠病毒抗原自我檢測套組,78,2022/05/05 13:57:02,快篩實名制販售 : 週一~六 下午兩點開始 週日不販售
5905070185,宇康藥局,臺南市善化區蓮潭里蓮潭南街１５０號１樓,120.3077,23.11199,(06)5830963,羅氏家用新冠病毒抗原自我檢測套組,79,2022/05/05 13:57:02,周一至周五快篩販售時間下午2-3點，晚上8-9點（星期六日／國定假日休息）
5905070201,善化啄木鳥藥局,臺南市善化區中山路１８１號１、２樓,120.3006,23.13256,(06)5853585,羅氏家用新冠病毒抗原自我檢測套組,78,2022/05/05 13:57:02,快篩實名制，15:30-售完
5905080056,大樹學甲藥局,臺南市學甲區中正路１３５號１樓,120.1793,23.23029,(06)7820001,羅氏家用新冠病毒抗原自我檢測套組,78,2022/05/05 13:57:02,快篩實名制，每天16:00開始販售，售完為止。
5905140039,安安藥局隆田店,臺南市官田區中山路一段１５號１樓,120.3186,23.1927,(06)5795705,羅氏家用新冠病毒抗原自我檢測套組,78,2022/05/05 13:57:02,全日口罩販賣
5905200030,新和德健保藥局,臺南市新市區中正路３１９－１號,120.2939,23.07958,(06)5997603,羅氏家用新冠病毒抗原自我檢測套組,78,2022/05/05 13:57:02,快篩實名制每日14:15發號碼牌；14:30開始販售，售完為止
5905200058,欣和德藥局,臺南市新市區中正路２００號,120.2916,23.07516,(06)5895658,羅氏家用新冠病毒抗原自我檢測套組,78,2022/05/05 13:57:02,快篩實名制每日14:15發號碼牌；14:30開始販售，售完為止
5905200085,大樹新市藥局,臺南市新市區中正路４９、５１號１樓,120.2916,23.07223,(06)5892552,羅氏家用新冠病毒抗原自我檢測套組,78,2022/05/05 13:57:02,快篩實名制，每天16:00開始販售，售完為止。
5905210027,愛心藥師藥局,臺南市安定區港南里港口１４７號,120.233,23.09041,(06)5935104,羅氏家用新冠病毒抗原自我檢測套組,3,2022/05/05 13:57:02,春節營業時間請電洽或依現場公告
5905270158,佳德藥局,臺南市仁德區德糖路４７０號１樓,120.2522,22.95128,(06)2796767,羅氏家用新冠病毒抗原自我檢測套組,78,2022/05/05 13:57:02,口罩發放時間:禮拜一至禮拜六8:30發號碼牌 9:00領取口罩，禮拜四和六只到中午12:00
5905270176,大樹仁德藥局,臺南市仁德區中正路二段１１５２號１樓,120.2519,22.97062,(06)2797466,羅氏家用新冠病毒抗原自我檢測套組,78,2022/05/05 13:57:02,快篩實名制，每天16:00開始販售，售完為止。
5905280109,大樹青青藥局,臺南市歸仁區中山路三段１２號,120.2875,22.96765,(06)2300301,羅氏家用新冠病毒抗原自我檢測套組,78,2022/05/05 13:57:02,快篩實名制，每天16:00開始販售，售完為止。
5905280136,悅橙歸仁藥局,臺南市歸仁區大通路４３號１樓,120.296,22.9676,(06)2396660,羅氏家用新冠病毒抗原自我檢測套組,66,2022/05/05 13:57:02,實名制Covid-19快篩15:00開始現場販售至售完
5905290034,大樹關廟藥局,臺南市關廟區中央路２６３號１樓,120.3272,22.96109,(06)5965889,羅氏家用新冠病毒抗原自我檢測套組,78,2022/05/05 13:57:02,快篩實名制，每天16:00開始販售，售完為止。
5905310755,德昌藥局永康店,臺南市永康區中華路４６２號,120.2327,23.01082,(06)3020628,羅氏家用新冠病毒抗原自我檢測套組,78,2022/05/05 13:57:02,快篩販售時間：星期一~星期日14:30~16:00
5905310817,永大啄木鳥藥局,臺南市永康區永大路二段３９７號１樓,120.2632,23.01227,(06)2071575,羅氏家用新冠病毒抗原自我檢測套組,78,2022/05/05 13:57:02,快篩販售星期一~星期日15:00~售完
5905311092,永大丁丁藥局,臺南市永康區永大路二段１５１６號１樓,120.2611,23.02493,(06)2013690,羅氏家用新冠病毒抗原自我檢測套組,1,2022/05/05 13:57:02,無
5905311145,慈惠中西藥局,臺南市永康區北興里北興路３５８號１樓,120.2709,23.01289,(06)2050956,羅氏家用新冠病毒抗原自我檢測套組,78,2022/05/05 13:57:02,快篩實名制：週一至週日14:00開始販售（以實際到貨時間為主）
5905320135,安麗兒藥局裕農店,臺南市東區裕農路１００號１樓,120.2268,22.9857,(06)2377378,羅氏家用新冠病毒抗原自我檢測套組,58,2022/05/05 13:57:02,實名制快篩販售時間:星期一到星期日下午三點~售完
5905320466,佑全中華藥局,臺南市東區中華東路三段２１５號,120.2253,22.97603,(06)2906386,羅氏家用新冠病毒抗原自我檢測套組,78,2022/05/05 13:57:02,星期一-六08:00-21:00
5905320564,杏一台南崇德藥局,臺南市東區崇德路６７４號,120.2274,22.96762,(06)2671939,羅氏家用新冠病毒抗原自我檢測套組,78,2022/05/05 13:57:02,健保快篩發送時間:周一至周日:下午:15:00
5905320635,晉大藥局,臺南市東區東平路１３４號１樓,120.2298,22.99522,(06)2092580,羅氏家用新冠病毒抗原自我檢測套組,64,2022/05/05 13:57:02,快篩實名制下午3點開始販售
5905320742,榮記藥健康藥局,臺南市東區成大里育樂街１５６－４號底層,120.2147,22.99538,(06)2760588,羅氏家用新冠病毒抗原自我檢測套組,156,2022/05/05 13:57:02,因物流每天配送快篩抵達藥局的時間不定，原則上以下午三點開放刷實名制快篩試劑，售完為止。
5905320751,倍加藥局,臺南市東區東門路一段２５５號１樓,120.2179,22.9872,(06)2364173,羅氏家用新冠病毒抗原自我檢測套組,84,2022/05/05 13:57:02,快篩販售時段 週一~週六 8:00~12:00 ＆ 14:30~21:30， 週日休息
5905320797,大樹自由藥局,臺南市東區自由路三段３８２號１樓,120.2373,22.98241,(06)2890800,羅氏家用新冠病毒抗原自我檢測套組,78,2022/05/05 13:57:02,快篩實名制，每天16:00開始販售，售完為止。
5905320804,大樹大同藥局,臺南市東區大同路二段２２７、２２９號１樓,120.2143,22.97567,(06)2158700,羅氏家用新冠病毒抗原自我檢測套組,78,2022/05/05 13:57:02,快篩實名制，每天16:00開始販售，售完為止。
5905320868,大樹東寧藥局,臺南市東區東寧路４３６號１樓,120.2291,22.9895,(06)2360006,羅氏家用新冠病毒抗原自我檢測套組,78,2022/05/05 13:57:02,快篩實名制，每天16:00開始販售，售完為止。
5905320886,中華崇德藥局,臺南市東區中華東路三段１８１、１８３號１樓,120.2259,22.97667,(06)2880800,羅氏家用新冠病毒抗原自我檢測套組,78,2022/05/05 13:57:02,快篩實名制，每天16:00開始販售，售完為止。
5905320911,大樹崇道藥局,臺南市東區崇道路６３號１樓,120.2272,22.97227,(06)2680456,羅氏家用新冠病毒抗原自我檢測套組,79,2022/05/05 13:57:02,快篩實名制，每天16:00開始販售，售完為止。
5905320948,崇明台安藥局,臺南市東區崇明路３０４號１樓,120.2198,22.97762,(06)2900350,羅氏家用新冠病毒抗原自我檢測套組,56,2022/05/05 13:57:02,快篩下午2點開始販售
5905320975,萬錠藥局,臺南市東區崇成里崇德路６１９號１樓,120.2277,22.97181,(06)2679299,羅氏家用新冠病毒抗原自我檢測套組,156,2022/05/05 13:57:02,實名制快篩販售時段：第一梯次下午14：00、第二梯次晚上19：00（皆提前15分鐘發放牌子，當日配貨數量售完為止。）
5905330024,聖安健保藥局,臺南市南區健康路二段１７３號１樓,120.193,22.98142,(06)2916898,羅氏家用新冠病毒抗原自我檢測套組,28,2022/05/05 13:57:02,5月4日快篩已售完!星期一~六快篩下午13:30分開始販售!週日店休!
5905330159,勝一藥局,臺南市南區省躬里灣裡路９０號１樓,120.1807,22.93114,(06)2626168,羅氏家用新冠病毒抗原自我檢測套組,78,2022/05/05 13:57:02,快篩實名制時間:下午2點~售完
5905330284,大樹佳華藥局,臺南市南區金華路二段１２９號１樓,120.1911,22.98035,(06)2641238,羅氏家用新冠病毒抗原自我檢測套組,78,2022/05/05 13:57:02,快篩實名制，每天16:00開始販售，售完為止。
5905330337,千薏台安藥局,臺南市南區金華路二段２號１樓,120.1912,22.97556,(06)2638265,羅氏家用新冠病毒抗原自我檢測套組,38,2022/05/05 13:57:02,快篩試劑每天下午兩點開始銷售
5905330417,明興啄木鳥藥局,臺南市南區明興路５１號１樓,120.1883,22.95974,(06)2620793,羅氏家用新冠病毒抗原自我檢測套組,78,2022/05/05 13:57:02,每日10:00開始賣實名制快篩，若配送延遲則14:30開始。
5905340173,賜安大藥局,臺南市中西區光賢里武聖路９號,120.1932,23.00517,(06)3589600,羅氏家用新冠病毒抗原自我檢測套組,78,2022/05/05 13:57:02,快篩 代售時段 星期一-六 下午2點~6點
5905340235,人人藥局,臺南市中西區和緯路５段１９７號１樓,120.1845,23.00393,(06)3583668,羅氏家用新冠病毒抗原自我檢測套組,78,2022/05/05 13:57:02,快篩，每日下午兩點開始過卡販售。
5905340262,瑞城藥局,臺南市中西區赤嵌里忠義路二段１７６號１樓,120.2043,22.99649,(06)2215810,羅氏家用新冠病毒抗原自我檢測套組,156,2022/05/05 13:57:02,週四公休 週一二三五六日09:30販售快篩
5905350133,大昌藥局,臺南市北區北安路１段１３２號１樓,120.2127,23.01481,(06)2519121,羅氏家用新冠病毒抗原自我檢測套組,79,2022/05/05 13:57:02,下午3點開賣快篩
5905350259,樂森藥局,臺南市北區和緯路二段３３６號１樓,120.2048,23.01259,(06)2511338,羅氏家用新冠病毒抗原自我檢測套組,78,2022/05/05 13:57:02,九天玄女唯一指定領取時間為每日下午兩點
5905350302,旻恩藥局,臺南市北區公園里北門路二段３７－１號,120.2123,22.99817,(06)2260590,羅氏家用新冠病毒抗原自我檢測套組,103,2022/05/05 13:57:02,口罩領取時間:週一至周五早上09:00-12:00 下午2:30-5:30 晚間6:30-9:00。周六早上09-12下午2:30-5:30售完為止
5905350366,千多藥局,臺南市北區金華路五段１號,120.1962,23.0016,(06)2228641,羅氏家用新冠病毒抗原自我檢測套組,78,2022/05/05 13:57:02,晚上6點開始銷售實名制快篩試劑，賣完為止
5905350393,和緯啄木鳥藥局,臺南市北區和緯路２段１７６號,120.2074,23.01231,(06)2519805,羅氏家用新冠病毒抗原自我檢測套組,78,2022/05/05 13:57:02,實名制快篩販售時間：周一~周五14:00，周六~周日11:00（若有變更，敬請見諒）    門市另有販售非實名制快篩，歡迎洽詢。
5905350428,大正藥局,臺南市北區公園南路３２４號１樓,120.2033,23.00268,(06)2226899,羅氏家用新冠病毒抗原自我檢測套組,2,2022/05/05 13:57:02,快篩試劑下午13:30發放~售完
5905370180,安南啄木鳥藥局,臺南市安南區安和路一段１０７號,120.2143,23.02826,(06)2821265,羅氏家用新冠病毒抗原自我檢測套組,75,2022/05/05 13:57:02,無
5905370304,大樹安南藥局,臺南市安南區安和路四段５５７號１樓,120.2185,23.06181,(06)3563370,羅氏家用新冠病毒抗原自我檢測套組,78,2022/05/05 13:57:02,快篩實名制，每天16:00開始販售，售完為止。
5905370466,大樹北安藥局,臺南市安南區北安路三段１５８號１樓,120.2036,23.04256,(06)2553633,羅氏家用新冠病毒抗原自我檢測套組,78,2022/05/05 13:57:02,快篩實名制，每天16:00開始販售，售完為止。
5905370484,安中台安藥局,臺南市安南區北安路２段３６３之２４號１樓,120.2022,23.039,(06)2470015,羅氏家用新冠病毒抗原自我檢測套組,78,2022/05/05 13:57:02,實名制快篩劑:周1-周日下午:2:30開賣（如遇物流供貨異動，請電話詢問.不便處請見諒）
5905380408,永華啄木鳥藥局,臺南市安平區永華路二段３６９號１樓,120.1806,22.98956,(06)2985173,羅氏家用新冠病毒抗原自我檢測套組,78,2022/05/05 13:57:02,配送時間不穩，故即日起依門市公告為準
5905380426,好朋友藥師藥局,臺南市安平區建平七街６８３號１樓,120.1692,22.98999,(06)2997907,羅氏家用新冠病毒抗原自我檢測套組,78,2022/05/05 13:57:02,快篩因到貨時間不確定，如當天到貨晚上7點販售，依現場排隊人數決定會提早販售
5907010187,人人好藥局,高雄市鳳山區五甲三路１０巷７號１樓,120.3278,22.59336,(07)8151566,羅氏家用新冠病毒抗原自我檢測套組,235,2022/05/05 13:57:02,上午0830-1330下午1530-2100， 自2／11-2／29口罩販售周一三四五日，時間:9:00-12:00售完為止
5907010212,北京藥局中崙店,高雄市鳳山區中崙四路１６號１樓,120.3519,22.59971,(07)7550655,羅氏家用新冠病毒抗原自我檢測套組,78,2022/05/05 13:57:02,營業時間上午08:00~下午11:00，下午3點開始販售快篩，售完為止。
5907010365,科健藥局,高雄市鳳山區八德路２４６－５號１樓,120.3568,22.63853,(07)7777868,羅氏家用新冠病毒抗原自我檢測套組,78,2022/05/05 13:57:02,下午3:30開始換購
5907010427,好郝藥局鳳林店,高雄市鳳山區誠智里鳳林路２９０號,120.3779,22.62216,(07)7869188,羅氏家用新冠病毒抗原自我檢測套組,159,2022/05/05 13:57:02,健保快篩周一到周日下午三點開始現場販售，售完為止
5907010525,長青連鎖藥局光遠店,高雄市鳳山區光遠路２７１號１樓,120.3588,22.62596,(07)7103487,羅氏家用新冠病毒抗原自我檢測套組,78,2022/05/05 13:57:02,實名制快篩下午4點開始販售
5907010927,元元鳳山藥局,高雄市鳳山區一甲里五甲二路３４８之１號１樓,120.3377,22.59955,(07)7529595,羅氏家用新冠病毒抗原自我檢測套組,156,2022/05/05 13:57:02,15:00開始發快篩，現場排隊，自備500元不找零!一至五最晚銷售時間至晚上六點。星期六銷售至下午五點。星期日公休
5907011086,閤康藥局,高雄市鳳山區忠義里中山西路３７６－７號１樓,120.3412,22.62897,(07)7197787,羅氏家用新冠病毒抗原自我檢測套組,78,2022/05/05 13:57:02,5／5-5／7快篩販售時間 下午2點開始.售完為止!
5907011095,鳳山五甲藥局,高雄市鳳山區正義里五甲二路１３９號１樓,120.3409,22.6014,(07)7269899,羅氏家用新冠病毒抗原自我檢測套組,78,2022/05/05 13:57:02,快篩實名制，每天16:00開始販售，售完為止。
5907011111,壹然藥局,高雄市鳳山區中正里瑞興路４６２號１樓,120.3713,22.63084,(07)7014755,羅氏家用新冠病毒抗原自我檢測套組,71,2022/05/05 13:57:02,每日須等政府當日配售，時間不定；請撥打7014966詢問
5907011148,大樹國泰藥局,高雄市鳳山區興仁里五甲一路２９２號,120.3539,22.61698,(07)7407234,羅氏家用新冠病毒抗原自我檢測套組,78,2022/05/05 13:57:02,快篩實名制，每天16:00開始販售，售完為止。
5907011175,鳳西藥局,高雄市鳳山區忠義里中山西路２３８號１樓,120.3471,22.62831,(07)7902717,羅氏家用新冠病毒抗原自我檢測套組,78,2022/05/05 13:57:02,快篩實名制，每天16:00開始販售，售完為止。
5907011184,肉豆公藥局南榮店,高雄市鳳山區善美里南榮路１６９號１樓,120.3366,22.60186,(07)7278385,羅氏家用新冠病毒抗原自我檢測套組,39,2022/05/05 13:57:02,現場領藥優先處理，快篩販售時間以到貨起
5907011228,鳳山青年藥局,高雄市鳳山區文德里青年路二段３９９號１樓,120.3513,22.64292,(07)7678383,羅氏家用新冠病毒抗原自我檢測套組,78,2022/05/05 13:57:02,口罩販售時間：14:00 - 16:00
5907011317,凱旋藥局,高雄市鳳山區國隆里新富路３７３號１樓,120.3475,22.61494,(07)7671181,羅氏家用新冠病毒抗原自我檢測套組,78,2022/05/05 13:57:02,快篩實名制，每天16:00開始販售，售完為止。
5907011362,佑全鳳山藥局,高雄市鳳山區文德里青年路二段４６３號１－２樓,120.3498,22.64513,(07)7801568,羅氏家用新冠病毒抗原自我檢測套組,78,2022/05/05 13:57:02,實名制快篩14:00~18:00
5907011371,大樹五甲藥局,高雄市鳳山區福祥里五甲三路２４號１－２樓．２６號１－２樓,120.3278,22.59317,(07)8224926,羅氏家用新冠病毒抗原自我檢測套組,78,2022/05/05 13:57:02,快篩實名制，每天16:00開始販售，售完為止。
5907011406,長青連鎖藥局大士店,高雄市鳳山區五甲一路１３９號１樓,120.3562,22.61968,(07)7104618,羅氏家用新冠病毒抗原自我檢測套組,78,2022/05/05 13:57:02,無
5907011497,久億藥局,高雄市鳳山區新泰里海洋一路１２１號１樓,120.3441,22.61007,(07)7663095,羅氏家用新冠病毒抗原自我檢測套組,62,2022/05/05 13:57:02,快篩販售時間 早上9點至售完為止
5907020030,鑫德昌藥局,高雄市岡山區溪東路３８號１樓,120.2915,22.79249,(07)6233338,羅氏家用新冠病毒抗原自我檢測套組,78,2022/05/05 13:57:02,實名制快篩 販售時間 14:30-16:00
5907020085,大德藥局,高雄市岡山區大德一路９８號,120.3025,22.79689,(07)6221456,羅氏家用新冠病毒抗原自我檢測套組,78,2022/05/05 13:57:02,快篩實名制，每天16:00開始販售，售完為止。
5907020094,大樹岡山藥局,高雄市岡山區岡山路１３６號,120.2967,22.78913,(07)6219477,羅氏家用新冠病毒抗原自我檢測套組,78,2022/05/05 13:57:02,快篩實名制，每天16:00開始販售，售完為止。
5907030134,旗山啄木鳥藥局,高雄市旗山區中華路１０５０號,120.4828,22.87904,(07)6625728,羅氏家用新冠病毒抗原自我檢測套組,6,2022/05/05 13:57:02,發口罩時間:09:00-19:00
5907030152,旗山藥局,高雄市旗山區中華路２３號,120.4841,22.88027,(07)6621158,羅氏家用新冠病毒抗原自我檢測套組,78,2022/05/05 13:57:02,快篩實名制，每天16:00開始販售，售完為止。
5907050092,林園啄木鳥藥局,高雄市林園區鳳林路二段８０３號１樓,120.3957,22.5135,(07)6414772,羅氏家用新冠病毒抗原自我檢測套組,78,2022/05/05 13:57:02,5／2 快篩實名制領取時間 下午2點
5907050109,林園藥局,高雄市林園區仁愛路１３號１樓,120.3928,22.50418,(07)6425855,羅氏家用新冠病毒抗原自我檢測套組,78,2022/05/05 13:57:02,快篩實名制，每天16:00開始販售，售完為止。
5907060221,淑德健保藥局,高雄市大寮區內坑里淑德新村１號３樓,120.3707,22.58833,(07)7923556,羅氏家用新冠病毒抗原自我檢測套組,91,2022/05/05 13:57:02,無
5907070012,舒康藥師藥局,高雄市大樹區久堂路１２９號,120.4167,22.65781,(07)6520268,羅氏家用新冠病毒抗原自我檢測套組,66,2022/05/05 13:57:02,14:00~18:00若提前售完，銷售時間提前結束。
5907070030,久堂藥局,高雄市大樹區久堂里久堂路１３６號１樓,120.4178,22.65813,(07)6512800,羅氏家用新冠病毒抗原自我檢測套組,78,2022/05/05 13:57:02,快篩實名制，每天16:00開始販售，售完為止。
5907080189,德昌藥局仁雄店,高雄市仁武區灣內里仁雄路３８、３８－１、３８－２號,120.3506,22.68074,(07)3749166,羅氏家用新冠病毒抗原自我檢測套組,77,2022/05/05 13:57:02,固定週一至週日14:30~16:00開始發放號碼牌並依序販售快篩.售完為止
5907080214,新高橋藥局八德中店,高雄市仁武區八卦里八德中路８６、８８、９０號,120.3393,22.68489,(07)3485857,羅氏家用新冠病毒抗原自我檢測套組,34,2022/05/05 13:57:02,藥局電話 07-3736437
5907080232,大樹仁武藥局,高雄市仁武區赤山里仁雄路８０－９號,120.3469,22.67811,(07)3744777,羅氏家用新冠病毒抗原自我檢測套組,78,2022/05/05 13:57:02,快篩實名制，每天16:00開始販售，售完為止。
5907080269,興德昌藥局,高雄市仁武區文武里中華路２３２號,120.3516,22.69985,(07)3757005,羅氏家用新冠病毒抗原自我檢測套組,60,2022/05/05 13:57:02,固定週一至週日14:30~16:00開始發放號碼牌並依序販售快篩.售完為止
5907080303,群邦藥局,高雄市仁武區八德東路１８０號１樓,120.3422,22.68538,(07)3745985,羅氏家用新冠病毒抗原自我檢測套組,74,2022/05/05 13:57:02,每日下午2:00開始販售公費快篩（售完為止），星期日藥局早上8:30-9:30賣公費快篩
5907080330,文武藥局,高雄市仁武區文武里中華路３５３號,120.3535,22.7011,(07)3733551,羅氏家用新冠病毒抗原自我檢測套組,78,2022/05/05 13:57:02,快篩實名制，每天16:00開始販售，售完為止。
5907090087,安泰專業藥師藥局,高雄市大社區中山路２６７號１樓,120.3492,22.73194,(07)3553715,羅氏家用新冠病毒抗原自我檢測套組,78,2022/05/05 13:57:02,快篩每日14:20發號碼牌，14:30準時發放 請準備現金500元 不找錢
5907090167,大樹大社藥局,高雄市大社區中山路３０８號１樓,120.3503,22.73145,(07)3531682,羅氏家用新冠病毒抗原自我檢測套組,78,2022/05/05 13:57:02,快篩實名制，每天16:00開始販售，售完為止。
5907100088,本館藥局,高雄市鳥松區大華里本館路１９０號１樓,120.3361,22.65556,(07)3707655,羅氏家用新冠病毒抗原自我檢測套組,77,2022/05/05 13:57:02,營業時間每日09:00-22:00  實名制快篩販賣時間15:00-20:00
5907110048,和德藥局橋頭店,高雄市橋頭區橋南路１１６－１號,120.3125,22.75441,(07)6113580,羅氏家用新冠病毒抗原自我檢測套組,78,2022/05/05 13:57:02,快篩下午15:00開賣  售完為止
5907120017,和德藥局燕巢店,高雄市燕巢區西燕里中民路６２８號,120.3612,22.79345,(07)6143499,羅氏家用新冠病毒抗原自我檢測套組,78,2022/05/05 13:57:02,每日下午17:00~18:00販售快篩，『現場排隊購買，不發放號碼牌，1人限2張健保卡』，售完為止
5907140108,德昌藥局阿蓮店,高雄市阿蓮區阿蓮里中正路４５６號,120.3321,22.88075,(07)6318868,羅氏家用新冠病毒抗原自我檢測套組,77,2022/05/05 13:57:02,固定周一至周日14:30-16:00販售快篩，售完為止
5907150257,大樹大立藥局,高雄市路竹區國昌路５１號,120.26,22.85409,(07)6961663,羅氏家用新冠病毒抗原自我檢測套組,78,2022/05/05 13:57:02,快篩實名制，每天16:00開始販售，售完為止。
5907160039,華安藥局,高雄市湖內區中山路一段４５１－１９號,120.2459,22.88472,(07)6938208,羅氏家用新冠病毒抗原自我檢測套組,78,2022/05/05 13:57:02,營業日15:00-21:00為販賣實名制快篩時間，售完為止。現場排隊 沒發號碼牌。（打電來問 時間還是下午3點）
5907160093,保生藥局,高雄市湖內區葉厝里保生路３４０．３４２號,120.2195,22.90733,(07)6990800,羅氏家用新冠病毒抗原自我檢測套組,78,2022/05/05 13:57:02,快篩實名制，每天16:00開始販售，售完為止。
5907200047,永恒健康生活藥局,高雄市梓官區智蚵里通安路１７６號１樓,120.252,22.7307,(07)6102755,羅氏家用新冠病毒抗原自我檢測套組,78,2022/05/05 13:57:02,營業時間週一到週日早上8:30至晚上9:30  實名制快篩 每天下午3:00 開始
5907240014,博林健保藥局,高雄市內門區觀亭里中正路１６０巷５１號,120.4539,22.9232,(07)6671883,羅氏家用新冠病毒抗原自我檢測套組,45,2022/05/05 13:57:02,自2／11日~2／29日，營業日07:40~18:00為販賣口罩時間，售完為止
5907280036,七賢藥局,高雄市鹽埕區七賢三路１６２號１樓,120.2829,22.62712,(07)5330616,羅氏家用新冠病毒抗原自我檢測套組,78,2022/05/05 13:57:02,快篩實名制，每天16:00開始販售，售完為止。
5907290023,明倫藥局,高雄市鼓山區明倫路１５０號１樓,120.2979,22.66507,(07)5520736,羅氏家用新冠病毒抗原自我檢測套組,78,2022/05/05 13:57:02,無
5907290112,新高橋藥局華榮店,高雄市鼓山區華榮路２８７號１樓,120.2967,22.66616,(07)5534727,羅氏家用新冠病毒抗原自我檢測套組,77,2022/05/05 13:57:02,下午2:30開始販售口罩
5907290158,美館久億藥局,高雄市鼓山區美術東二路２４５、２４７號,120.2883,22.66526,(07)5227762,羅氏家用新冠病毒抗原自我檢測套組,70,2022/05/05 13:57:02,星期一至星期天快篩發放，以物流實際到貨時間開始發放，請持續注意快篩地圖
5907290309,鼓山藥局,高雄市鼓山區華榮路１０號,120.2973,22.66156,(07)5520017,羅氏家用新冠病毒抗原自我檢測套組,78,2022/05/05 13:57:02,快篩實名制，每天16:00開始販售，售完為止。
5907290327,金好藥局,高雄市鼓山區青海路４１８號１樓,120.2845,22.65177,(07)5869556,羅氏家用新冠病毒抗原自我檢測套組,78,2022/05/05 13:57:02,無
5907300239,左野藥局,高雄市左營區崇德路２２２號,120.3052,22.675,(07)3486883,羅氏家用新冠病毒抗原自我檢測套組,74,2022/05/05 13:57:02,每日9時開始營業．實名制快篩販售時間15:00-20:00售完為止! 14:50發號碼牌
5907300319,士凱藥局,高雄市左營區孟子路１７８號,120.3126,22.67387,(07)3430257,羅氏家用新冠病毒抗原自我檢測套組,78,2022/05/05 13:57:02,快篩實名制，每天14:30開始販售，售完為止。
5907300346,正心藥師藥局,高雄市左營區左營大路４７３之２號,120.295,22.68946,(07)5880386,羅氏家用新冠病毒抗原自我檢測套組,22,2022/05/05 13:57:02,快篩試劑 9:00開賣，售完為止! 12:00-14:00 休息! W6 和 W7 不販售快篩!
5907300417,森森藥師藥局,高雄市左營區緯六路２１５號１樓,120.2874,22.69707,(07)5853600,羅氏家用新冠病毒抗原自我檢測套組,13,2022/05/05 13:57:02,（W1~W5） 8~19點；（W6） 8:30~12點；快篩售完為止
5907300506,躍獅祐恩藥局,高雄市左營區明華一路１３２號１樓,120.3073,22.66307,(07)5508706,羅氏家用新冠病毒抗原自我檢測套組,43,2022/05/05 13:57:02,到貨時間不固定，到貨會FB通知並立即販售，售完為止~
5907300515,詮裕藥局,高雄市左營區華夏路７０６號１樓,120.3022,22.6778,(07)3453942,羅氏家用新冠病毒抗原自我檢測套組,63,2022/05/05 13:57:02,星期一到星期六早上8點銷售到售完為止.星期日---無
5907300613,新高橋藥局河堤店,高雄市左營區裕誠路１４４號１樓及地下１樓,120.3095,22.66423,(07)5582806,羅氏家用新冠病毒抗原自我檢測套組,58,2022/05/05 13:57:02,下午1:30開始販售口罩至下午5:30
5907300631,大樹孟子藥局,高雄市左營區孟子路２２６、２２８號,120.3112,22.67415,(07)3461772,羅氏家用新冠病毒抗原自我檢測套組,78,2022/05/05 13:57:02,快篩實名制，每天16:00開始販售，售完為止。
5907300659,維康藥局高榮店,高雄市左營區榮總路１６３號、１６５號,120.3216,22.6809,(07)3494540,羅氏家用新冠病毒抗原自我檢測套組,1,2022/05/05 13:57:02,平常日0900-1700為快篩販賣時間賣完為止！假日1000-1800
5907300686,左營自由藥局,高雄市左營區自由二路３５０、３５０－１號,120.3091,22.66599,(07)5589991,羅氏家用新冠病毒抗原自我檢測套組,78,2022/05/05 13:57:02,快篩實名制，每天16:00開始販售，售完為止。
5907300702,禾順左營藥局,高雄市左營區自由三路４１０號２樓,120.3127,22.67563,(07)3592582,羅氏家用新冠病毒抗原自我檢測套組,59,2022/05/05 13:57:02,星期一~星期六 實名制快篩劑發放時間13:30~15:00 （周日公休）
5907300711,富元聯合健康藥局,高雄市左營區博愛三路３７號,120.3038,22.67145,(07)3488585,羅氏家用新冠病毒抗原自我檢測套組,78,2022/05/05 13:57:02,快篩於下午兩點販售
5907300748,翔生藥局合群店,高雄市左營區緯六路２５６號,120.2871,22.6976,(07)5880055,羅氏家用新冠病毒抗原自我檢測套組,3,2022/05/05 13:57:02,實名制快篩販售時間：星期一至星期五，售完為止
5907300766,悠仁藥局,高雄市左營區自由三路１７０號,120.3113,22.67165,(07)3457979,羅氏家用新冠病毒抗原自我檢測套組,78,2022/05/05 13:57:02,本日快篩1600開始販售。如提前一天配送，則為早上0900開始販售。不便之處，敬請見諒
5907300800,元大藥師健保藥局,高雄市左營區榮德街３２７號,120.3211,22.68636,(07)3507531,羅氏家用新冠病毒抗原自我檢測套組,18,2022/05/05 13:57:02,無
5907300882,得孚社區藥局,高雄市左營區重立路５３３號１樓,120.3098,22.67955,(07)3410121,羅氏家用新冠病毒抗原自我檢測套組,78,2022/05/05 13:57:02,營業日上午09:30-11:30為販賣口罩時間.三四下午200-400販售
5907300908,明自丁丁藥局,高雄市左營區自由二路１５２號１樓,120.3089,22.66223,(07)5568902,羅氏家用新冠病毒抗原自我檢測套組,1,2022/05/05 13:57:02,無
5907300926,高鐵藥局,高雄市左營區華夏路１３２２．１３２６號,120.312,22.68587,(07)3452797,羅氏家用新冠病毒抗原自我檢測套組,78,2022/05/05 13:57:02,快篩實名制，每天16:00開始販售，售完為止。
5907300944,左營藥局,高雄市左營區華夏路３２５號,120.2972,22.67167,(07)5501017,羅氏家用新冠病毒抗原自我檢測套組,78,2022/05/05 13:57:02,快篩實名制，每天16:00開始販售，售完為止。
5907300971,健勝藥局,高雄市左營區勝利路１２７－１號１樓,120.2896,22.6806,(07)5811169,羅氏家用新冠病毒抗原自我檢測套組,16,2022/05/05 13:57:02,下午14:00販售當日配送的快篩，上午09:00後會販售前日剩餘的量（若有剩餘的話）
5907300980,大路藥局,高雄市左營區左營大路５５－２號１樓,120.2877,22.6813,(07)5851001,羅氏家用新冠病毒抗原自我檢測套組,78,2022/05/05 13:57:02,快篩實名制，每天16:00開始販售，售完為止。
5907301021,杏一左營自由藥局,高雄市左營區自由二路３９７號,120.3084,22.66541,(07)5509511,羅氏家用新冠病毒抗原自我檢測套組,156,2022/05/05 13:57:02,周一-周六販賣時間:15點；週日無提供快篩實聯制服務
5907301076,熊安心藥局華夏店,高雄市左營區華夏路１２１２號１樓,120.3104,22.68483,(07)3430632,羅氏家用新冠病毒抗原自我檢測套組,156,2022/05/05 13:57:02,快篩試劑-販售時間14:00至售完為止
5907310137,青田藥局,高雄市楠梓區監理南街６８號,120.3188,22.72897,(07)3648257,羅氏家用新冠病毒抗原自我檢測套組,75,2022/05/05 13:57:02,銷售時間才販賣，別在看庫存了 ／ 周一至周五上午10:30-11:00 下午14:30-15:00 晚上19:00-20:00
5907310173,安健藥局,高雄市楠梓區鳳楠路２５０號,120.3296,22.72617,(07)3520167,羅氏家用新冠病毒抗原自我檢測套組,4,2022/05/05 13:57:02,2／06起營業日早上8點開始販賣，周六日早上8:30 .售完為止
5907310262,大樹楠梓藥局,高雄市楠梓區軍校路９０８號,120.2919,22.71246,(07)3632322,羅氏家用新冠病毒抗原自我檢測套組,78,2022/05/05 13:57:02,快篩實名制，每天16:00開始販售，售完為止。
5907310271,漢宏健保藥局,高雄市楠梓區加宏路９７號,120.2966,22.71804,(07)3626086,羅氏家用新冠病毒抗原自我檢測套組,78,2022/05/05 13:57:02,營業時間販賣口罩.售完為止
5907310342,楠梓久億藥局,高雄市楠梓區德祥路２２１號,120.3075,22.72657,(07)3657099,羅氏家用新冠病毒抗原自我檢測套組,71,2022/05/05 13:57:02,每日78份實名制快篩販售時間2:00PM-4:30PM，提早售完即截止。
5907310351,惠民楠梓藥局,高雄市楠梓區建楠路２１７號,120.3248,22.72689,(07)3521896,羅氏家用新冠病毒抗原自我檢測套組,143,2022/05/05 13:57:02,上面數量顯示78盒，是系統錯誤，快篩已經賣完了，麥擱卡啊!!平常二點開始發，發完為止；記得備防疫包，增強免疫力
5907310360,百康藥局,高雄市楠梓區右昌街４１６號,120.2884,22.71571,(07)3601281,羅氏家用新冠病毒抗原自我檢測套組,66,2022/05/05 13:57:02,賣快篩時間：周一至週六早上8:45拿號碼牌早上09:00起賣快篩，至晚上5:00，周日依前日未購完之數量可續購
5907310379,德昌藥局,高雄市楠梓區德賢路２１５號,120.3053,22.72632,(07)3619998,羅氏家用新冠病毒抗原自我檢測套組,71,2022/05/05 13:57:02,實名制快篩販售時間：周一至週日，14:30至16:00，售完為止。
5907310388,宸實藥局,高雄市楠梓區後昌路４７巷２３－１號,120.3129,22.71975,(07)3642142,羅氏家用新冠病毒抗原自我檢測套組,17,2022/05/05 13:57:02,5／5（四）快篩到貨，13:30準實開賣
5907310404,藍田藥局,高雄市楠梓區藍田路１號,120.2953,22.72643,(07)3601236,羅氏家用新冠病毒抗原自我檢測套組,78,2022/05/05 13:57:02,快篩實名制，每天16:00開始販售，售完為止。
5907320428,東京藥局,高雄市三民區建工路６８５號,120.3173,22.6478,(07)3874567,羅氏家用新冠病毒抗原自我檢測套組,72,2022/05/05 13:57:02,實名制快篩販售時間: 每日15:00-晚上20:00
5907320535,康誠藥局,高雄市三民區建工路６１６號,120.3228,22.64934,(07)3893889,羅氏家用新冠病毒抗原自我檢測套組,32,2022/05/05 13:57:02,星期一~星期日早上09：30~11：50。星期一~星期六下午15：30~17：50、晚上19：30~21：20
5907320697,鄰好藥師藥局,高雄市三民區褒揚街２８７號,120.3398,22.64097,(07)3909589,羅氏家用新冠病毒抗原自我檢測套組,78,2022/05/05 13:57:02,購買實名制快篩時間下午14:00-16:00，各類防疫用品販售中
5907320768,心樂保健藥局,高雄市三民區光裕路７８號１樓,120.3331,22.63789,(07)3855377,羅氏家用新冠病毒抗原自我檢測套組,17,2022/05/05 13:57:02,星期一到星期四上午8:30-12:00（快篩售完為止）. 星期五下午14:00-17:00，18:00-20:30（售完為止）
5907320777,桉家藥師藥局,高雄市三民區明誠一路３９３號,120.3228,22.65998,(07)3929732,羅氏家用新冠病毒抗原自我檢測套組,50,2022/05/05 13:57:02,無
5907320811,力生藥局,高雄市三民區鼎中路１６８號１樓,120.3194,22.6622,(07)3105231,羅氏家用新冠病毒抗原自我檢測套組,8,2022/05/05 13:57:02,營業日星期一~星期五11點起、星期六~星期日晚上6點 開始販賣（實名制快篩）.售完為止
5907320893,大樹天祥藥局,高雄市三民區天祥一路１６７號,120.3191,22.66737,(07)3429902,羅氏家用新冠病毒抗原自我檢測套組,78,2022/05/05 13:57:02,快篩實名制，每天16:00開始販售，售完為止。
5907320900,大昌藥局,高雄市三民區大昌二路３９７號,120.3317,22.64915,(07)3961396,羅氏家用新冠病毒抗原自我檢測套組,78,2022/05/05 13:57:02,快篩實名制，每天16:00開始販售，售完為止。
5907320919,心寬福藥局,高雄市三民區大順二路７１８號一樓,120.3193,22.65359,(07)3832366,羅氏家用新冠病毒抗原自我檢測套組,28,2022/05/05 13:57:02,快篩試劑依政府滾動式配送實際發放時間依現場為主，週日公休。
5907320946,熊安心藥局,高雄市三民區陽明路４０８號,120.3429,22.64609,(07)3815212,羅氏家用新冠病毒抗原自我檢測套組,153,2022/05/05 13:57:02,週一 ~ 週六快篩分兩梯次販售，14:00有63份，19:00有15份
5907320982,康圓藥局,高雄市三民區大豐二路３５９．３６１號１樓,120.3343,22.6468,(07)3909978,羅氏家用新冠病毒抗原自我檢測套組,78,2022/05/05 13:57:02,快篩試劑下午2點開賣
5907321005,諾亞藥局,高雄市三民區鼎華路１４號１樓,120.3164,22.65139,(07)3929966,羅氏家用新冠病毒抗原自我檢測套組,132,2022/05/05 13:57:02,（一-五）早上8:00-12:00，下午02:30-6:00（五是5:30休息，六開上午半天）
5907321032,三民明誠藥局,高雄市三民區明誠一路５００號１－２Ｆ及５０２號,120.3223,22.66046,(07)3493137,羅氏家用新冠病毒抗原自我檢測套組,78,2022/05/05 13:57:02,快篩試劑下午2:00販售
5907321041,鼎安健保藥局,高雄市三民區鼎中路４１８號１樓,120.3199,22.66719,(07)3509939,羅氏家用新冠病毒抗原自我檢測套組,53,2022/05/05 13:57:02,快篩實名制:營業日下午2點開始販售，售完為止
5907321069,桂林活力藥局九如店,高雄市三民區懷安街１１２號１樓,120.3176,22.64095,(07)3981009,羅氏家用新冠病毒抗原自我檢測套組,78,2022/05/05 13:57:02,每天15:30發號碼牌，於18:00前兌換完畢，逾期棄權，剩餘則繼續發放
5907321103,自由藥局,高雄市三民區自由一路７８號,120.3089,22.64422,(07)3223113,羅氏家用新冠病毒抗原自我檢測套組,78,2022/05/05 13:57:02,快篩實名制，每天16:00開始販售，售完為止。
5907321167,高杏健保藥局,高雄市三民區義華路４３２號,120.3325,22.6437,(07)3920588,羅氏家用新冠病毒抗原自我檢測套組,20,2022/05/05 13:57:02,無
5907330184,崇信藥局,高雄市新興區中正四路５３號１樓,120.3,22.6305,(07)2810205,羅氏家用新冠病毒抗原自我檢測套組,42,2022/05/05 13:57:02,快篩實名制下午2:00開始販售，人多時發放號碼牌。
5907330200,新興復興藥局,高雄市新興區復興一路７６號１樓,120.3085,22.63312,(07)2352550,羅氏家用新冠病毒抗原自我檢測套組,78,2022/05/05 13:57:02,快篩實名制，每天16:00開始販售，售完為止。
5907350113,英祥藥局,高雄市苓雅區英祥街１９號,120.3257,22.61678,(07)7522786,羅氏家用新冠病毒抗原自我檢測套組,69,2022/05/05 13:57:02,無
5907350195,健順藥局,高雄市苓雅區自強三路１４０號,120.2986,22.61724,(07)2695832,羅氏家用新冠病毒抗原自我檢測套組,78,2022/05/05 13:57:02,自2／6起，營業日0830~22:00為口罩販售時間，售完為止
5907350266,人和藥局,高雄市苓雅區正義路１８０－６號,120.3402,22.63182,(07)7490883,羅氏家用新冠病毒抗原自我檢測套組,155,2022/05/05 13:57:02,實名制快篩販售時間週一到周六早上 09:00
5907350346,武廟幸福藥局,高雄市苓雅區武廟路３５號,120.3316,22.62999,(07)7170085,羅氏家用新冠病毒抗原自我檢測套組,10,2022/05/05 13:57:02,1: 自111／5／1起：快篩販售時間為13:40開始。2: 販售方式依現場公告為主，售完為止。
5907350480,健森藥局,高雄市苓雅區林森二路１３８號１、２樓,120.3066,22.62054,(07)3365169,羅氏家用新冠病毒抗原自我檢測套組,2,2022/05/05 13:57:02,早上9點領牌 下午3~5點領口罩
5907350499,鑫美健保特約藥局,高雄市苓雅區光華一路１４８－５８號１樓,120.3158,22.62389,(07)7715088,羅氏家用新冠病毒抗原自我檢測套組,78,2022/05/05 13:57:02,14:00開賣實名制快篩，馨田診所配合公費快篩，慢箋免費領藥，防疫物資特賣
5907350506,大樹苓雅藥局,高雄市苓雅區中華四路１５３號,120.3001,22.61783,(07)5353111,羅氏家用新冠病毒抗原自我檢測套組,78,2022/05/05 13:57:02,快篩實名制，每天16:00開始販售，售完為止。
5907350551,大樹武廟藥局,高雄市苓雅區武廟路４３、４５號１樓,120.3314,22.63005,(07)7222268,羅氏家用新冠病毒抗原自我檢測套組,78,2022/05/05 13:57:02,快篩實名制，每天16:00開始販售，售完為止。
5907350631,三多藥局,高雄市苓雅區三多二路２９２號１樓,120.3173,22.61838,(07)3365889,羅氏家用新冠病毒抗原自我檢測套組,78,2022/05/05 13:57:02,快篩實名制，每天16:00開始販售，售完為止。
5907350659,北京藥局林泉店,高雄市苓雅區林泉里３鄰林泉街３５號１樓,120.3192,22.62323,(07)7263030,羅氏家用新冠病毒抗原自我檢測套組,591,2022/05/05 13:57:02,無
5907360324,有承中西藥局,高雄市前鎮區德昌路２５７號１樓,120.3155,22.5849,(07)8120880,羅氏家用新冠病毒抗原自我檢測套組,2,2022/05/05 13:57:02,配合政府實名制快篩， 販售時間依政府配送時間滾動式調整
5907360360,親親藥局,高雄市前鎮區天山路１０巷６號,120.3151,22.60991,(07)3391078,羅氏家用新冠病毒抗原自我檢測套組,2,2022/05/05 13:57:02,周日休假，停售快篩!!!5／4快篩已售完
5907360379,金服安藥局,高雄市前鎮區鎮興路１９１號,120.3115,22.59249,(07)8150061,羅氏家用新冠病毒抗原自我檢測套組,51,2022/05/05 13:57:02,每日下午2-4點販賣快篩試劑
5907360413,益源藥局,高雄市前鎮區草衙二路４１８號,120.3226,22.57903,(07)8412120,羅氏家用新冠病毒抗原自我檢測套組,73,2022/05/05 13:57:02,無
5907360431,佛公健保藥局,高雄市前鎮區后平路２０２號１樓,120.3205,22.57371,(07)8317755,羅氏家用新冠病毒抗原自我檢測套組,14,2022/05/05 13:57:02,實名制快篩販售時間依到貨時間滾動式調整，售完為止。建議查看快篩地圖
5907360548,芳鄰藥局,高雄市前鎮區中華五路９９３號１樓,120.3059,22.60262,(07)5361134,羅氏家用新冠病毒抗原自我檢測套組,143,2022/05/05 13:57:02,快篩實名制販售時間：週一～週五下午３點～５點，週六早上８點～１０點，週日不販售
5907360566,祥安健保藥局,高雄市前鎮區復興三路３９３號１樓,120.3116,22.61373,(07)3340393,羅氏家用新冠病毒抗原自我檢測套組,78,2022/05/05 13:57:02,無
5907360628,風鈴藥局,高雄市前鎮區管仲路３７號,120.3117,22.60649,(07)5367833,羅氏家用新冠病毒抗原自我檢測套組,78,2022/05/05 13:57:02,販售快篩：19:30-21:30 依照配送調整販售時間（周日公休）
5907360664,忠純藥局,高雄市前鎮區中華五路１００９號１樓,120.3056,22.60341,(07)3366886,羅氏家用新冠病毒抗原自我檢測套組,78,2022/05/05 13:57:02,快篩實名制，每天16:00開始販售，售完為止。
5907360673,前鎮大樹藥局,高雄市前鎮區瑞隆路４７２號１樓,120.3291,22.60547,(07)7137171,羅氏家用新冠病毒抗原自我檢測套組,78,2022/05/05 13:57:02,快篩實名制，每天16:00開始販售，售完為止。
5907380255,安安藥師藥局,高雄市小港區孔鳳路５６５號１樓,120.3586,22.58393,(07)7915933,羅氏家用新冠病毒抗原自我檢測套組,72,2022/05/05 13:57:02,快篩實名制周一至周六下午14:00開始販售，售完為止
5907380264,大樹孔鳳藥局,高雄市小港區孔鳳路５１９、５２１號,120.3587,22.5828,(07)7918521,羅氏家用新冠病毒抗原自我檢測套組,78,2022/05/05 13:57:02,快篩實名制，每天16:00開始販售，售完為止。
5907380353,桂林活力藥師藥局漢民店,高雄市小港區漢民路６９１－１及６９１－２號１樓,120.3614,22.56762,(07)8010636,羅氏家用新冠病毒抗原自我檢測套組,4,2022/05/05 13:57:02,無
5907380399,百鴻藥局,高雄市小港區康莊路１１５號,120.3549,22.56888,(07)8024141,羅氏家用新冠病毒抗原自我檢測套組,64,2022/05/05 13:57:02,無
5907380424,大樹小港藥局,高雄市小港區康莊路７５號１樓,120.3559,22.56853,(07)8068328,羅氏家用新冠病毒抗原自我檢測套組,78,2022/05/05 13:57:02,快篩實名制，每天16:00開始販售，售完為止。
5911010015,喬寶藥局,基隆市中正區義二路６６號１樓,121.7461,25.13187,(02)24202827,羅氏家用新冠病毒抗原自我檢測套組,78,2022/05/05 13:57:02,下午2點開賣
5911010168,承泰藥局,基隆市中正區新豐街４４２號,121.786,25.13568,(02)24601316,羅氏家用新冠病毒抗原自我檢測套組,78,2022/05/05 13:57:02,實名制快篩販售時間於下午3點開始領取
5911011325,永好藥局,基隆市中正區北寧路３１５號１樓,121.7951,25.13981,(02)24697639,羅氏家用新冠病毒抗原自我檢測套組,76,2022/05/05 13:57:02,快篩星期一*三*五是單號 二*四雙號 下午14:30販售 星期六星期日休息
5911011478,天康新豐藥局,基隆市中正區新豐街２５１巷４弄９號１樓,121.7885,25.13594,(02)24695168,羅氏家用新冠病毒抗原自我檢測套組,70,2022/05/05 13:57:02,無
5911011585,雙鶴藥局,基隆市中正區義一路３５號１樓,121.7456,25.13309,(02)24263193,羅氏家用新冠病毒抗原自我檢測套組,88,2022/05/05 13:57:02,中午14:00開始販售
5911011594,禾新藥局,基隆市中正區新豐街２０５巷７號,121.7895,25.138,(02)24698940,羅氏家用新冠病毒抗原自我檢測套組,78,2022/05/05 13:57:02,快篩實名制販售時間:下午3點開始
5911011638,中正藥局,基隆市中正區新豐街３８５號１、２樓,121.7856,25.13537,(02)24690660,羅氏家用新冠病毒抗原自我檢測套組,78,2022/05/05 13:57:02,快篩實名制，每天16:00開始販售，售完為止。
5911021438,正心藥局,基隆市七堵區南興路１０號１樓,121.7149,25.09755,(02)24563378,羅氏家用新冠病毒抗原自我檢測套組,106,2022/05/05 13:57:02,星期一~六下午13:30發號碼牌，14:00開始販賣，星期日上午9:00發號碼牌，9:30開始販賣，12:00停止領取
5911030035,陸記藥局,基隆市暖暖區源遠路２４１號,121.7543,25.09882,(02)24576712,羅氏家用新冠病毒抗原自我檢測套組,78,2022/05/05 13:57:02,每日下午兩點販售快篩試劑
5911031096,東方藥局,基隆市暖暖區暖暖街１５３號１樓,121.7367,25.10013,(02)24574171,羅氏家用新冠病毒抗原自我檢測套組,49,2022/05/05 13:57:02,下午2點販售
5911031238,碇內東亞藥師藥局,基隆市暖暖區源遠路３１９號１樓,121.7574,25.09941,(02)24590033,羅氏家用新冠病毒抗原自我檢測套組,78,2022/05/05 13:57:02,周一至周六下午三點發放快篩試劑
5911040228,大田大藥局,基隆市仁愛區仁二路５號,121.7507,25.12744,(02)24258762,羅氏家用新冠病毒抗原自我檢測套組,156,2022/05/05 13:57:02,下午2:00發號碼牌並販售
5911040273,第一藥局,基隆市仁愛區愛三路１２０號３樓,121.7436,25.12963,(02)24292288,羅氏家用新冠病毒抗原自我檢測套組,3,2022/05/05 13:57:02,快篩試劑每天下午12點30分到14點販售
5911041332,光華藥局,基隆市仁愛區成功一路１２９號１樓,121.7364,25.12786,(02)24338703,羅氏家用新冠病毒抗原自我檢測套組,78,2022/05/05 13:57:02,快篩試劑販賣下午六點販售.星期日休息
5911041690,佑聖藥局,基隆市仁愛區仁二路１８８號,121.7451,25.12864,(02)24201762,羅氏家用新冠病毒抗原自我檢測套組,156,2022/05/05 13:57:02,即日起口罩販售時間由下午兩點開始，周日公休
5911041958,百福仁愛專業藥局,基隆市仁愛區仁四路５０號１樓,121.7413,25.12829,(02)24266699,羅氏家用新冠病毒抗原自我檢測套組,61,2022/05/05 13:57:02,4／30起，早上8:00販售快篩
5911050153,隆泰藥局,基隆市中山區西定路１２號,121.7355,25.13184,(02)24225889,羅氏家用新冠病毒抗原自我檢測套組,78,2022/05/05 13:57:02,無
5911050162,錦泰藥局,基隆市中山區中山二路４３號,121.7405,25.13786,(02)24228523,羅氏家用新冠病毒抗原自我檢測套組,78,2022/05/05 13:57:02,快篩販賣時間星期一至五晚上7點，星期六，星期日下午5點
5911051365,大慶大藥局,基隆市中山區中和路１６８巷３弄２０號,121.717,25.14982,(02)24378640,羅氏家用新冠病毒抗原自我檢測套組,78,2022/05/05 13:57:02,實名制快篩每日下午4:30開始販售
5911051409,順豐藥局,基隆市中山區中華路４號,121.7388,25.14545,(02)24369176,羅氏家用新冠病毒抗原自我檢測套組,78,2022/05/05 13:57:02,家用快篩每日下2點起隨到隨領售完為止。
5911051490,大哈密藥局,基隆市中山區中山二路５號,121.741,25.13678,(02)24285368,羅氏家用新冠病毒抗原自我檢測套組,78,2022/05/05 13:57:02,發放快篩時間 15:00開始，售完為止
5911051543,復興藥局,基隆市中山區復興路１２８、１３０、１３２、１３４號１、２樓,121.7262,25.1446,(02)24362566,羅氏家用新冠病毒抗原自我檢測套組,78,2022/05/05 13:57:02,快篩實名制，每天16:00開始販售，售完為止。
5911060015,福泰藥局,基隆市安樂區麥金路４３３號,121.7194,25.12511,(02)24311631,羅氏家用新冠病毒抗原自我檢測套組,78,2022/05/05 13:57:02,下午2點發號碼牌  3點領快篩試劑
5911060051,濟生藥局,基隆市安樂區基金三路８２－２號,121.6956,25.15706,(02)24310884,羅氏家用新冠病毒抗原自我檢測套組,78,2022/05/05 13:57:02,無
5911061272,立登藥局,基隆市安樂區麥金路１９７號１樓,121.7216,25.12079,(02)24334477,羅氏家用新冠病毒抗原自我檢測套組,78,2022/05/05 13:57:02,藥局快篩劑代售15:00開始販售 現場排隊
5911061370,佑全基隆麥金藥局,基隆市安樂區麥金路２０１號地下１樓之１,121.7211,25.12158,(02)24347816,羅氏家用新冠病毒抗原自我檢測套組,78,2022/05/05 13:57:02,實名制快篩下午兩點開買，營業時間09:00-21:00
5911071536,小不點健保藥局,基隆市信義區深溪路１２６號１樓,121.7827,25.13375,(02)24683985,羅氏家用新冠病毒抗原自我檢測套組,78,2022/05/05 13:57:02,無
5911071572,元登藥局,基隆市信義區深溪路１４９號,121.7826,25.13475,(02)24663826,羅氏家用新冠病毒抗原自我檢測套組,61,2022/05/05 13:57:02,無
5911071590,基隆藥局,基隆市信義區東信路１６６、１６８號１、２樓,121.7646,25.12821,(02)24680955,羅氏家用新冠病毒抗原自我檢測套組,78,2022/05/05 13:57:02,快篩實名制，每天16:00開始販售，售完為止。
5911071607,家安藥師藥局,基隆市信義區信二路２５７、２５９號１樓,121.7478,25.1301,(02)24223917,羅氏家用新冠病毒抗原自我檢測套組,142,2022/05/05 13:57:02,星期一 ~ 星期六14:00開始銷售。
5912012059,幼安藥局,新竹市東區三民里民族路１２８號,120.9775,24.80799,(03)5316337,羅氏家用新冠病毒抗原自我檢測套組,78,2022/05/05 13:57:02,快篩販賣時間 : 早上1030 點開始至晚上點售完為止
5912012120,仁美藥局,新竹市東區振興里振興路５２號,120.9625,24.79493,(03)5625398,羅氏家用新冠病毒抗原自我檢測套組,78,2022/05/05 13:57:02,快篩試劑，晚上六點開始飯售（周日店休）
5912012433,安安大藥局,新竹市東區金山里光復路一段１６３巷２號,121.0223,24.78144,(03)5772655,羅氏家用新冠病毒抗原自我檢測套組,78,2022/05/05 13:57:02,快篩實名制 預計14:30販售
5912012737,婷婷藥局,新竹市東區明湖路965號,120.9669,24.77371,(03)5290999,羅氏家用新冠病毒抗原自我檢測套組,47,2022/05/05 13:57:02,5／4星期三下午14點賣快篩
5912012979,哈佛藥局,新竹市東區北大路７２－１號,120.971,24.81178,(03)5326777,羅氏家用新冠病毒抗原自我檢測套組,78,2022/05/05 13:57:02,快篩販售時間：週一至周六14:50 週日08:00 請準備好不用找的錢 感謝
5912013243,合康連鎖藥局光復店,新竹市東區光復路１段３７８號,121.0154,24.78422,(03)5670111,羅氏家用新冠病毒抗原自我檢測套組,78,2022/05/05 13:57:02,口罩販賣時段:上午9點至晚上9點，售完為止
5912013494,田美藥局,新竹市東區田美三街３５之１號１樓,120.9767,24.81572,(03)5350233,羅氏家用新冠病毒抗原自我檢測套組,78,2022/05/05 13:57:02,快篩實名制，每天16:00開始販售，售完為止。
5912013501,倫洲藥局,新竹市東區食品路９７號１樓,120.9779,24.79801,(03)5744088,羅氏家用新冠病毒抗原自我檢測套組,78,2022/05/05 13:57:02,快篩開賣時間星期一到五為下午兩點，星期六早上八點半，星期日休息
5912013547,佑全新竹光復藥局,新竹市東區仙水里光復路１段３５３號１樓,121.0176,24.78315,(03)6661826,羅氏家用新冠病毒抗原自我檢測套組,78,2022/05/05 13:57:02,（因快篩配送作業不及，5／4-5／5改為下午4點開賣，3:50發號碼牌。5／6開始恢復上午販售）上午9:30開賣，9:20發號碼牌
5912013565,合康連鎖藥局關新店,新竹市東區關新北路１６１號１樓,121.0204,24.78614,(03)5679666,羅氏家用新冠病毒抗原自我檢測套組,78,2022/05/05 13:57:02,快篩販售時間:17:00
5912013592,康妍藥局,新竹市東區西大路１２６號１樓,120.9703,24.79667,(03)5622476,羅氏家用新冠病毒抗原自我檢測套組,74,2022/05/05 13:57:02,星期一到星期六下午2點開始， 星期日早上9點開始
5912013609,丁丁藥局,新竹市東區中華路二段９１號,120.9812,24.80794,(03)6117888,羅氏家用新冠病毒抗原自我檢測套組,7,2022/05/05 13:57:02,無
5912013627,合康連鎖藥局食品店,新竹市東區食品路１４０號１樓,120.977,24.79771,(03)5621111,羅氏家用新冠病毒抗原自我檢測套組,78,2022/05/05 13:57:02,實名快篩販售時間：下午17:00
5912013672,關東藥局,新竹市東區光復路１段３３２、３３４號１至２樓,121.0187,24.78289,(03)5777077,羅氏家用新冠病毒抗原自我檢測套組,78,2022/05/05 13:57:02,快篩實名制，每天16:00開始販售，售完為止。
5912013681,仁春藥局,新竹市東區慈濟路２５２號１樓,121.0153,24.79245,(03)6686718,羅氏家用新冠病毒抗原自我檢測套組,78,2022/05/05 13:57:02,5／5 實名制快篩 於16:00開始販售
5912013707,信安藥師藥局,新竹市東區南大路８４２號１樓,120.9669,24.78819,(03)5623101,羅氏家用新冠病毒抗原自我檢測套組,78,2022/05/05 13:57:02,下午2點開賣快篩試劑  週日無販售實名制快篩
5912040222,保健藥局,新竹市北區中山路１５３號１樓,120.9635,24.80324,(03)5242088,羅氏家用新冠病毒抗原自我檢測套組,78,2022/05/05 13:57:02,快篩販賣時段：下午2:00現場排隊至售完為止。
5912042098,欣欣藥局,新竹市北區西大路736巷1號,120.9591,24.81011,(03)5351205,羅氏家用新冠病毒抗原自我檢測套組,77,2022/05/05 13:57:02,快篩代售周一~周六下午3點開始販售，售完為止  藥局營業時間上午8:00-12:00 ；下午15:00-18:00 ；晚上18:30-21:30
5912042173,保安藥局,新竹市北區西大路617號,120.9588,24.80991,(03)5258636,羅氏家用新冠病毒抗原自我檢測套組,55,2022/05/05 13:57:02,快篩販售時間:下午3:00起至售完為止
5912042664,永沛藥局,新竹市北區湳雅街２０９號,120.9741,24.82093,(03)5328563,羅氏家用新冠病毒抗原自我檢測套組,78,2022/05/05 13:57:02,快篩開賣時間平日15:00  PS:請自帶一張500鈔票，不收其他面額
5912042815,合康連鎖藥局西大店,新竹市北區西大路６３６、６３８號１樓,120.9585,24.8101,(03)5233111,羅氏家用新冠病毒抗原自我檢測套組,78,2022/05/05 13:57:02,17:00
5912042897,立新藥師藥局,新竹市北區延平路一段２４５號１樓,120.9532,24.80494,(03)5228968,羅氏家用新冠病毒抗原自我檢測套組,78,2022/05/05 13:57:02,周一~周六PM2:00販售快篩。周日不販售
5912042968,大樹新竹藥局,新竹市北區西大路５４０、５４２號１、２樓,120.9619,24.80676,(03)5250388,羅氏家用新冠病毒抗原自我檢測套組,78,2022/05/05 13:57:02,快篩實名制，每天16:00開始販售，售完為止。
5912051350,高晟藥師藥局,新竹市香山區大庄路59號,120.9279,24.78964,(03)5306645,羅氏家用新冠病毒抗原自我檢測套組,78,2022/05/05 13:57:02,下午2點銷售快篩
5912051430,三姓藥局,新竹市香山區中華路四段５７６號１、２樓,120.9297,24.78886,(03)5385886,羅氏家用新冠病毒抗原自我檢測套組,78,2022/05/05 13:57:02,快篩實名制，每天16:00開始販售，售完為止。
5917010082,仁壽藥局,臺中市中區東墩里三民路三段１號,120.6817,24.14482,(04)22228058,羅氏家用新冠病毒抗原自我檢測套組,1,2022/05/05 13:57:02,週一至週日上午9時30分起販售快篩劑
5917010126,永大藥局,臺中市中區錦上里民族路１２２號,120.6786,24.14054,(04)22210180,羅氏家用新冠病毒抗原自我檢測套組,82,2022/05/05 13:57:02,09:00開始代售快篩，人多會發號碼牌
5917011847,郭藥局,臺中市中區平等街一二四號,120.682,24.1426,(04)22200005,羅氏家用新冠病毒抗原自我檢測套組,119,2022/05/05 13:57:02,周一至周六每日上午11點至12點販賣快篩
5917011934,一安堂藥局,臺中市中區臺灣大道一段２０號１樓,120.6847,24.13819,(04)22259616,羅氏家用新冠病毒抗原自我檢測套組,69,2022/05/05 13:57:02,14:00開始領取實名制快篩劑
5917011945,正三吉藥局,臺中市中區臺灣大道一段９５號,120.6831,24.13911,(04)22207700,羅氏家用新冠病毒抗原自我檢測套組,106,2022/05/05 13:57:02,快篩販售時間 14:00~17:00
5917020211,何藥局,臺中市東區精武路１８０號１樓,120.691,24.14765,(04)23605435,羅氏家用新冠病毒抗原自我檢測套組,78,2022/05/05 13:57:02,快篩下午4:00開始販售，現場排隊，直接販售，售完為止。
5917020337,福生藥局,臺中市東區福仁街138號,120.6898,24.1444,(04)22119106,羅氏家用新冠病毒抗原自我檢測套組,22,2022/05/05 13:57:02,無
5917030128,太信藥局,臺中市西區三民路一段９５－１號１樓,120.6698,24.13322,(04)23718318,羅氏家用新冠病毒抗原自我檢測套組,27,2022/05/05 13:57:02,健保卡快篩請0900自備500元／份
5917030271,國良藥局,臺中市西區西屯路１段２２０號,120.6707,24.15344,(04)22018772,羅氏家用新冠病毒抗原自我檢測套組,78,2022/05/05 13:57:02,快篩試劑，下午2點開始販售，售完為止。星期日照常販售。
5917030860,振聲藥局,臺中市西區公正里向上路１段４４７號１樓,120.6541,24.14654,(04)24721100,羅氏家用新冠病毒抗原自我檢測套組,72,2022/05/05 13:57:02,週一至週六早上9:00開始販售口罩，售完為止
5917030995,麗新健保大藥局,臺中市西區向上路一段１６２號,120.6612,24.1469,(04)23017100,羅氏家用新冠病毒抗原自我檢測套組,68,2022/05/05 13:57:02,週一至週日下午15:00至售完為止
5917032382,中港大藥局,臺中市西區臺灣大道２段１３２號,120.6714,24.14995,(04)22080708,羅氏家用新冠病毒抗原自我檢測套組,72,2022/05/05 13:57:02,無
5917032613,向日睽藥局,臺中市西區林森路９８－２號１樓,120.6707,24.1379,(04)23731893,羅氏家用新冠病毒抗原自我檢測套組,77,2022/05/05 13:57:02,無
5917032640,幸福大藥局,臺中市西區向上路一段１９４號１樓,120.6605,24.14684,(04)23026149,羅氏家用新冠病毒抗原自我檢測套組,78,2022/05/05 13:57:02,每日下午3:00開始販售實名制快篩，售完為止（5／7改為上午8點））
5917032800,壹藥局,臺中市西區美村路１段７７５號１樓,120.6618,24.13306,(04)23721998,羅氏家用新冠病毒抗原自我檢測套組,78,2022/05/05 13:57:02,星期一到星期日每天下午二點開始販售快篩試劑售完為止謝謝
5917040464,陳信安藥局,臺中市南區永興里高工路３４９號,120.6665,24.11425,(04)22619560,羅氏家用新冠病毒抗原自我檢測套組,72,2022/05/05 13:57:02,實名制快篩 周一至六14:00開賣，庫存依現場為準，周日依政府配送調整
5917041836,健康人生藥局,臺中市南區美村南路１３１號,120.6666,24.11725,(04)22633936,羅氏家用新冠病毒抗原自我檢測套組,78,2022/05/05 13:57:02,實名制快篩 14:00開賣!     因政府配貨時間不一，若貨運有延後配送，依照門市現場公告時間為主!
5917050577,東生藥局,臺中市北區永興街１１２－１號１樓,120.6825,24.16152,(04)22358880,羅氏家用新冠病毒抗原自我檢測套組,18,2022/05/05 13:57:02,周一到周六上午8:30到晚上10:00開始販售口罩，周日公休
5917050933,英才藥局,臺中市北區英才路２２９號,120.674,24.15558,(04)22012325,羅氏家用新冠病毒抗原自我檢測套組,78,2022/05/05 13:57:02,上午9~10:30及下午5~6:30依序發售口罩，週日公休。
5917060055,德維中西藥局,臺中市西屯區西屯路三段１６４－１３號,120.6174,24.18855,(04)24611579,羅氏家用新冠病毒抗原自我檢測套組,48,2022/05/05 13:57:02,物流配送快篩時間不定，販售時間依現場公告
5917060322,瑞康藥局,臺中市西屯區長安路二段２號１樓,120.6612,24.1724,(04)22914046,羅氏家用新冠病毒抗原自我檢測套組,76,2022/05/05 13:57:02,營業時間8:30~21:30 （家用快篩，酒精及防疫口罩）
5917060331,宏吉藥局,臺中市西屯區大福里長安路二段３１６號１樓,120.6673,24.17773,(04)22910825,羅氏家用新冠病毒抗原自我檢測套組,15,2022/05/05 13:57:02,快篩試劑.防疫口罩.酒精上午7：30開始販售，營業至21:00（週日正常營業）
5917060644,大東藥局,臺中市西屯區西墩里黎明路三段５７號,120.6369,24.1726,(04)27020418,羅氏家用新冠病毒抗原自我檢測套組,78,2022/05/05 13:57:02,5／5快篩尚未到貨，暫勿排隊。
5917061150,裕和藥局,臺中市西屯區大墩路９５１號１Ｆ,120.652,24.15929,(04)23252629,羅氏家用新冠病毒抗原自我檢測套組,64,2022/05/05 13:57:02,實名制快篩以物流實際到貨為準，預定14:00開始販售。目前電腦餘量與實際不符。星期日休息
5917062773,逢甲何藥局,臺中市西屯區青海路二段二八七號一、二樓,120.6418,24.17275,(04)27088495,羅氏家用新冠病毒抗原自我檢測套組,78,2022/05/05 13:57:02,防疫家用快篩試劑販售 下午4:00發號碼牌（到貨時間不確定）
5917063065,達康藥局,臺中市西屯區中工三路１３９號,120.6186,24.17779,(04)23586332,羅氏家用新冠病毒抗原自我檢測套組,71,2022/05/05 13:57:02,週一~周日下午2點販售快篩售完為止，無發放號碼牌.
5917063350,天立專業藥師藥局,臺中市西屯區太原路１段２０７號１樓,120.6617,24.16318,(04)23160455,羅氏家用新冠病毒抗原自我檢測套組,78,2022/05/05 13:57:02,週一~週六快篩9:00售完為止，週日中午12：00售完為止
5917063403,逢甲藥局,臺中市西屯區逢甲路１６２－１號１樓,120.6425,24.17809,(04)27085922,羅氏家用新冠病毒抗原自我檢測套組,27,2022/05/05 13:57:02,5／4快篩未到貨，早上請勿排隊
5917063681,東亞永福藥局,臺中市西屯區永福路３５號,120.6196,24.18259,(04)24638229,羅氏家用新冠病毒抗原自我檢測套組,61,2022/05/05 13:57:02,實名制快篩上午十一點開賣
5917063725,永旭大藥局,臺中市西屯區逢甲路９２號１樓,120.6439,24.17883,(04)27087952,羅氏家用新冠病毒抗原自我檢測套組,79,2022/05/05 13:57:02,5／5快篩已到貨。15:00現場排隊，開始販售。
5917070355,承諭藥局,臺中市南屯區黎明路２段１９９號,120.636,24.14698,(04)23849128,羅氏家用新冠病毒抗原自我檢測套組,14,2022/05/05 13:57:02,快篩實名制周一、二、四、五下午1:30；周三、六晚上7:00 ； 週日下午4:00
5917070382,得安藥局,臺中市南屯區溝墘里大墩路５９６號,120.6495,24.15136,(04)23234168,羅氏家用新冠病毒抗原自我檢測套組,75,2022/05/05 13:57:02,下午2:00開始現場購買快篩試劑，售完為止。
5917070462,長映藥局,臺中市南屯區黎明路二段４３２號１樓,120.6355,24.15166,(04)22510951,羅氏家用新冠病毒抗原自我檢測套組,78,2022/05/05 13:57:02,實名制快篩每日下午2點開賣，售完為止（庫存以現場為主）
5917071727,大愛藥局,臺中市南屯區向心南路９６２．９６４號１樓,120.644,24.13718,(04)24733646,羅氏家用新冠病毒抗原自我檢測套組,79,2022/05/05 13:57:02,快篩販售時間 18：00，若有異動，請依現場公告為主
5917072251,五六藥局,臺中市南屯區南屯路２段２４０號,120.6493,24.13696,(04)24757156,羅氏家用新冠病毒抗原自我檢測套組,78,2022/05/05 13:57:02,快篩週一至週六16 :00；週日20 : 00開始販售， 售完為止. （不發號碼牌）
5917072644,全成藥局,臺中市南屯區大墩６街２２３號,120.6464,24.14254,(04)24712897,羅氏家用新冠病毒抗原自我檢測套組,78,2022/05/05 13:57:02,實名制快篩每日15:00開始販售-售完為止（庫存以現場為主）
5917072699,博仕健保藥局,臺中市南屯區大墩１１街４４５號,120.638,24.14862,(04)23817009,羅氏家用新冠病毒抗原自我檢測套組,77,2022/05/05 13:57:02,星期一至星期五14:00開賣，星期六11:00開賣，現場排隊販售
5917072724,百芳大藥局,臺中市南屯區向上路二段４２１號,120.6377,24.1469,(04)23818307,羅氏家用新冠病毒抗原自我檢測套組,78,2022/05/05 13:57:02,周一到周六，晚上7:00開始販賣快篩，不發號碼牌。
5917080119,李藥局,臺中市北屯區和順路３９８號,120.7227,24.17664,(04)22390950,羅氏家用新冠病毒抗原自我檢測套組,16,2022/05/05 13:57:02,111.5.5 快篩開賣時間改為下午一點半
5917080379,大元藥局,臺中市北屯區北屯里昌平路一段２３號,120.6937,24.16657,(04)22357722,羅氏家用新冠病毒抗原自我檢測套組,78,2022/05/05 13:57:02,週一至週六每天晚上18:00至20:00販售快篩劑，週日晚上快篩劑不確定時間販售
5917080619,永佳藥局,臺中市北屯區昌平路１段１０５－５號１樓,120.6904,24.17362,(04)22438886,羅氏家用新冠病毒抗原自我檢測套組,78,2022/05/05 13:57:02,5／5快篩下午2點販售
5917080744,早安藥局,臺中市北屯區崇德二路一段１９９號１樓,120.693,24.17641,(04)22439411,羅氏家用新冠病毒抗原自我檢測套組,41,2022/05/05 13:57:02,5月起周一至周六開始販售快篩試劑，當日到貨就開賣。周日休息
5917080771,大生大藥局,臺中市北屯區三光里北屯路３３７號,120.6974,24.1703,(04)22337059,羅氏家用新冠病毒抗原自我檢測套組,78,2022/05/05 13:57:02,快篩試劑-周一至周日每天早上8:30開始販售，無發放號碼牌，每天即時現場販售服務，售完為止。（週日正常販售服務）
5917082364,慈慧藥師藥局,臺中市北屯區平田里昌平路１段１７８號１Ｆ,120.6887,24.17108,(04)22389846,羅氏家用新冠病毒抗原自我檢測套組,78,2022/05/05 13:57:02,星期一到星期六早上9點開始販賣快篩試劑全天後供應售完為止星期日早上9點開始
5917082659,信誼藥局,臺中市北屯區瀋陽路二段３１號１樓,120.6808,24.17398,(04)22478695,羅氏家用新冠病毒抗原自我檢測套組,78,2022/05/05 13:57:02,週一~週五全日上班時段，週六上午9:00-12:00販售口罩，周日公休。
5917083049,你好聯合藥局,臺中市北屯區陳平一街８８號,120.6663,24.18637,(04)22925759,羅氏家用新冠病毒抗原自我檢測套組,78,2022/05/05 13:57:02,無
5917083254,建祐藥局,臺中市北屯區太原路三段２６１號,120.6932,24.16505,(04)22389809,羅氏家用新冠病毒抗原自我檢測套組,78,2022/05/05 13:57:02,星期一至星期六17:00開始販售；星期日休
5921010223,王藥局,臺南市東區小東里小東路１９０－１號,120.2276,22.99976,(06)2378697,羅氏家用新冠病毒抗原自我檢測套組,78,2022/05/05 13:57:02,週一 至 週日，下午 2:00 ~ 晚上9:00 （ 需健保卡 ）
5921012085,台安藥局,臺南市東區大同路一段１６３號,120.2113,22.98503,(06)2150011,羅氏家用新冠病毒抗原自我檢測套組,42,2022/05/05 13:57:02,快篩下午四點開始銷售
5921012334,家庭藥局,臺南市東區崇文里生產路３６９─３號,120.2278,22.96502,(06)2607298,羅氏家用新冠病毒抗原自我檢測套組,38,2022/05/05 13:57:02,快篩銷售時間:星期一至星期六下午2點~售完為止.
5921013073,太和藥師藥局,臺南市東區仁和路５１─１號,120.2297,22.98064,(06)2906063,羅氏家用新冠病毒抗原自我檢測套組,28,2022/05/05 13:57:02,實名制快篩.每週一至週六下午1:30販售
5921013206,和德藥局,臺南市東區崇德路４９７號,120.2272,22.97435,(06)2882789,羅氏家用新冠病毒抗原自我檢測套組,78,2022/05/05 13:57:02,實名制快篩試劑販售時間14:30~17:00，開賣前10分鐘發號碼牌，售完即止
5921021708,為仁藥師藥局,臺南市南區大同路二段１０６號,120.2123,22.98022,(06)2139376,羅氏家用新冠病毒抗原自我檢測套組,23,2022/05/05 13:57:02,無
5921030092,三芳藥局,臺南市中西區元安里大勇街５號,120.1954,22.98933,(06)2203084,羅氏家用新冠病毒抗原自我檢測套組,1,2022/05/05 13:57:02,週一至週五09:00~12:00  14:30~17:00執業
5921030298,銘豐藥局,臺南市中西區西賢一街４５號１樓,120.1776,23.00011,(06)2592517,羅氏家用新冠病毒抗原自我檢測套組,78,2022/05/05 13:57:02,星期一-日09:00-22:00.快篩實名制每日下午3點開始販售，發號碼牌.
5921040276,全一藥局,臺南市北區大豐里和緯路四段９５巷３８號,120.1912,23.0076,(06)2580021,羅氏家用新冠病毒抗原自我檢測套組,5,2022/05/05 13:57:02,快篩實名制，每天下午13:30開始販售（週日有）
5921040301,永生藥局,臺南市北區六甲里公園路４８１號,120.2079,23.00898,(06)2813681,羅氏家用新冠病毒抗原自我檢測套組,68,2022/05/05 13:57:02,每日販賣快篩劑下午2時起至售完為止／星期日休息
5921040623,惠光藥局,臺南市北區文亢里文賢路２３６號,120.1938,23.0042,(06)2586316,羅氏家用新冠病毒抗原自我檢測套組,78,2022/05/05 13:57:02,快篩代售:5／5敬請期待.如有到貨，下午4:00販售，星期日公休
5921051582,丞功藥局,臺南市中西區成功路３１號,120.2095,22.99747,(06)2287641,羅氏家用新冠病毒抗原自我檢測套組,78,2022/05/05 13:57:02,星期一-六08:00-售完
5921060161,仲宏藥局,臺南市安南區淵中里安中路３段４３１號,120.1737,23.05,(06)2567798,羅氏家用新冠病毒抗原自我檢測套組,78,2022/05/05 13:57:02,星期一~星期六08:00-22:00 星期日:公休
5921060321,慈安藥局,臺南市安南區大安街５３號,120.1919,23.03148,(06)2551117,羅氏家用新冠病毒抗原自我檢測套組,133,2022/05/05 13:57:02,下午2:00
5921061720,康悅健藥師藥局,臺南市安南區安和路５段１４９-２號,120.2179,23.0659,(06)3556382,羅氏家用新冠病毒抗原自我檢測套組,9,2022/05/05 13:57:02,快篩-星期一-五13:00-售完   星期六-日15:00-售完
5921071226,康活藥局,臺南市安平區健康三街１８６號,120.1686,22.98883,(06)2936483,羅氏家用新冠病毒抗原自我檢測套組,83,2022/05/05 13:57:02,快篩晚上18:00開賣.
5922010281,上安中西藥局,嘉義市東區府路里延平街２３８號之１,120.4502,23.47683,(05)2231005,羅氏家用新冠病毒抗原自我檢測套組,59,2022/05/05 13:57:02,本藥局販售實名制快篩試劑:營業日:上午七點半至八點；下午兩點至下午四點（特殊狀況例外）
5922010361,壽生堂藥局,嘉義市東區府路里延平街２８０號,120.4502,23.47683,(05)2225058,羅氏家用新冠病毒抗原自我檢測套組,11,2022/05/05 13:57:02,周一至周日上午09:00起，至20:00或售鑿為止。
5922010754,松柏藥局,嘉義市東區東平里民權路８７號,120.4618,23.48392,(05)2780909,羅氏家用新冠病毒抗原自我檢測套組,78,2022/05/05 13:57:02,防疫口罩及實名制快篩試劑於週一至週六，每日下午4:30開始販售，售完為止。
5922011966,源豪藥局,嘉義市東區光華路８２號,120.4529,23.4782,(05)2169696,羅氏家用新冠病毒抗原自我檢測套組,48,2022/05/05 13:57:02,周一至周六，售鑿為止。周日休
5922012178,聖心藥局,嘉義市東區大雅路二段５７７號,120.4676,23.47718,(05)2777189,羅氏家用新冠病毒抗原自我檢測套組,78,2022/05/05 13:57:02,每日下午3點領號碼牌
5922012285,聖安藥局,嘉義市東區仁武里民權路３６５號１樓,120.4506,23.48235,(05)2222941,羅氏家用新冠病毒抗原自我檢測套組,78,2022/05/05 13:57:02,每日8:30開始發放，每週四休息.
5922012383,振安藥局,嘉義市東區王田里林森東路３００號１樓,120.464,23.48889,(05)2756541,羅氏家用新冠病毒抗原自我檢測套組,53,2022/05/05 13:57:02,實名制快篩:周一至周日14:00開始販售，售完為止
5922012392,維康藥局,嘉義市東區短竹里大雅路二段５６７號１樓,120.4663,23.47685,(05)2757663,羅氏家用新冠病毒抗原自我檢測套組,176,2022/05/05 13:57:02,＜領購快篩＞ 星期一  ~ 星期五 下午 2:00~5:00 。假日國定假日停售。
5922012945,大明藥局,嘉義市東區大雅路二段６８２號,120.4663,23.47719,(05)2760958,羅氏家用新冠病毒抗原自我檢測套組,55,2022/05/05 13:57:02,5／5 號碼卡已發完
5922012972,百佑藥局,嘉義市東區公明路８２號１樓,120.4602,23.48088,(05)2757387,羅氏家用新冠病毒抗原自我檢測套組,1,2022/05/05 13:57:02,固定周一至周六08:30開始*貨運*來才發放號碼牌並依序販售，售完為止
5922013013,杏一嘉基藥局,嘉義市東區忠孝路５４３－１號,120.4497,23.50018,(05)2786577,羅氏家用新冠病毒抗原自我檢測套組,64,2022/05/05 13:57:02,周一至周日下午2:00時起，售鑿為止。
5922013059,杏光藥局,嘉義市東區保健街１４７號附４,120.4492,23.50036,(05)2745642,羅氏家用新冠病毒抗原自我檢測套組,8,2022/05/05 13:57:02,週一至週五 下午1:00~5:00 （六日及國定假日停售）
5922013068,佑全嘉義吳鳳南藥局,嘉義市東區吳鳳南路５８５、５８７號,120.459,23.45639,(05)2399311,羅氏家用新冠病毒抗原自我檢測套組,74,2022/05/05 13:57:02,領取快篩14:00
5922013102,後庄藥局,嘉義市東區吳鳳南路６４９號,120.4594,23.45511,(05)2391233,羅氏家用新冠病毒抗原自我檢測套組,78,2022/05/05 13:57:02,快篩實名制，每天16:00開始販售，售完為止。
5922013111,富善藥局,嘉義市東區新生路２３４號,120.4609,23.48419,(05)2759559,羅氏家用新冠病毒抗原自我檢測套組,94,2022/05/05 13:57:02,5／13、14休假，實名制快篩早上9:10-12:00下午3:10-5:00
5922013148,後庄弘安藥局,嘉義市東區吳鳳南路２９８號１樓,120.4587,23.4566,(05)2305678,羅氏家用新冠病毒抗原自我檢測套組,78,2022/05/05 13:57:02,無
5922013166,忠孝啄木鳥藥局,嘉義市東區忠孝北街１８５號,120.444,23.51618,(05)2204948,羅氏家用新冠病毒抗原自我檢測套組,78,2022/05/05 13:57:02,有收到配量即每日下午2:00販售
5922013184,軍輝啄木鳥藥局,嘉義市東區軍輝路２２２號,120.4588,23.455,(05)2395963,羅氏家用新冠病毒抗原自我檢測套組,78,2022/05/05 13:57:02,週一~日下午4:00開始
5922020303,新宏祥藥局,嘉義市西區湖內里民生南路５７４號,120.4427,23.45504,(05)2355588,羅氏家用新冠病毒抗原自我檢測套組,44,2022/05/05 13:57:02,羅氏家用快篩:每日早上8點開始販售.售完為止
5922020358,泰春藥局,嘉義市西區學圃里民生北路６６號,120.4468,23.47543,(05)2224118,羅氏家用新冠病毒抗原自我檢測套組,1,2022/05/05 13:57:02,快篩試劑販售時間：早上9點至晚上9點
5922020509,全德藥局,嘉義市西區福民里興業西路２８９號,120.4392,23.46776,(05)2854263,羅氏家用新冠病毒抗原自我檢測套組,70,2022/05/05 13:57:02,營業時間請電話洽詢  販售：19 :30~20:30
5922020563,信康藥局,嘉義市西區翠岱里仁愛路２２６號,120.443,23.46984,(05)2161680,羅氏家用新冠病毒抗原自我檢測套組,10,2022/05/05 13:57:02,快篩星期一至星期五早上11:00開賣 星期六下午14:00開賣
5922020581,杏安藥局,嘉義市西區書院里民族路７８６號,120.4409,23.47535,(05)2271727,羅氏家用新冠病毒抗原自我檢測套組,1,2022/05/05 13:57:02,無
5922020634,利安藥局,嘉義市西區番社里中山路３４４號１樓,120.4473,23.47984,(05)2225756,羅氏家用新冠病毒抗原自我檢測套組,1,2022/05/05 13:57:02,快篩5／6（五）13:30開賣5／7（六）13:30開賣5／8（日）16:00開賣
5922020769,安麗藥師藥局,嘉義市西區車店里廣州街２０６號,120.4302,23.46519,(05)2352395,羅氏家用新冠病毒抗原自我檢測套組,29,2022/05/05 13:57:02,快篩販售時間上午9點~10點，下午2點~3:00點（售完為止），六.日休息。
5922020812,海鴻藥師藥局,嘉義市西區民生南路５５２號,120.4433,23.45878,(05)2837758,羅氏家用新冠病毒抗原自我檢測套組,21,2022/05/05 13:57:02,固定每日上午8 : 00 直接排隊發放
5922020821,明興藥局,嘉義市西區仁愛路２４７號１樓,120.4425,23.47149,(05)2365938,羅氏家用新冠病毒抗原自我檢測套組,78,2022/05/05 13:57:02,快篩 周一至周六下午2點開賣  週日無
5922020858,大統藥局,嘉義市西區慶安里北興街１３６號,120.4421,23.48389,(05)2330230,羅氏家用新冠病毒抗原自我檢測套組,33,2022/05/05 13:57:02,5月5.6.7.8日預約已滿.有預約的民眾請於11:00點後領取
5922020938,仁愛弘安藥局,嘉義市西區仁愛路３９３號１樓,120.442,23.47654,(05)2239000,羅氏家用新冠病毒抗原自我檢測套組,3,2022/05/05 13:57:02,收到快篩即開賣，賣完為止
5922020974,嚴昔志藥局,嘉義市西區新民路７８５號１樓,120.4396,23.4706,(05)2853991,羅氏家用新冠病毒抗原自我檢測套組,24,2022/05/05 13:57:02,無
5922020992,昭安藥局,嘉義市西區民生南路４７９號１樓,120.4437,23.45821,(05)2842240,羅氏家用新冠病毒抗原自我檢測套組,9,2022/05/05 13:57:02,無
5922021006,竹圍藥局,嘉義市西區友愛路２７０、２７２號,120.4339,23.4837,(05)2811233,羅氏家用新冠病毒抗原自我檢測套組,78,2022/05/05 13:57:02,快篩實名制，每天16:00開始販售，售完為止。
5922021024,理維藥局,嘉義市西區民生南路４０９號１樓,120.4436,23.45979,(05)2831110,羅氏家用新冠病毒抗原自我檢測套組,9,2022/05/05 13:57:02,5／5（四）現正熱賣中。公費快篩到貨以及販售時間會於臉書粉絲團及LINE群組公告。
5922028596,一安藥局,嘉義市西區福民里興業西路３１１號,120.4387,23.4677,(05)2859275,羅氏家用新冠病毒抗原自我檢測套組,5,2022/05/05 13:57:02,周一至周日早上9點至晚上10點半依發放號碼排依序售完
5922028925,健安藥局,嘉義市西區民族路６２６號,120.4452,23.4757,(05)2281219,羅氏家用新冠病毒抗原自我檢測套組,1,2022/05/05 13:57:02,口罩:星期一至星期六9點-12點，15點-21點
592202A465,廣元藥局,嘉義市西區民安里中正路６９７號,120.4421,23.47842,(05)2252733,羅氏家用新冠病毒抗原自我檢測套組,54,2022/05/05 13:57:02,今日快篩下午2點開賣!  5／6（五）起，早上8:30開賣~售完為止!
5931010235,友祥藥局,新北市板橋區裕民街１０７號,121.4599,25.02773,(02)22544666,羅氏家用新冠病毒抗原自我檢測套組,78,2022/05/05 13:57:02,無
5931010315,優良藥局,新北市板橋區莊敬路９３號,121.4727,25.02628,(02)22550251,羅氏家用新冠病毒抗原自我檢測套組,79,2022/05/05 13:57:02,無
5931010397,正成藥師藥局,新北市板橋區三民路２段１５４巷７號,121.4787,25.01515,(02)29512760,羅氏家用新冠病毒抗原自我檢測套組,78,2022/05/05 13:57:02,無
