醫事機構代碼,醫事機構名稱,醫事機構地址,經度,緯度,醫事機構電話,廠牌項目,快篩試劑截至目前結餘存貨數量,來源資料時間,備註
2331260016,新北市貢寮區衛生所,新北市貢寮區朝陽街７０巷１０號、新北市貢寮區仁愛路１２８號,121.9095,25.02258,(02)24901431,羅氏家用新冠病毒抗原自我檢測套組,78,2022/05/07 09:50:02,快篩試劑販售時間為周一至周五早上9點開始販售，每日販售一箱，數量有限售完為止。
2333100013,新竹縣寶山鄉衛生所,新竹縣寶山鄉雙溪村７鄰雙園路二段２７３號,120.9949,24.76691,(03)5292106,羅氏家用新冠病毒抗原自我檢測套組,78,2022/05/07 09:50:02,無
2333110019,新竹縣北埔鄉衛生所,新竹縣北埔鄉北埔街９０號,121.0555,24.70055,(03)5801677,羅氏家用新冠病毒抗原自我檢測套組,78,2022/05/07 09:50:02,無
2333130011,新竹縣尖石鄉衛生所,新竹縣尖石鄉嘉樂村２鄰６１號,121.2023,24.70562,(03)5842356,羅氏家用新冠病毒抗原自我檢測套組,78,2022/05/07 09:50:02,無
2333140017,新竹縣五峰鄉衛生所,新竹縣五峰鄉大隘村六鄰９９號,121.1194,24.63184,(03)5851005,羅氏家用新冠病毒抗原自我檢測套組,28,2022/05/07 09:50:02,無
2335110017,苗栗縣南庄鄉衛生所,苗栗縣南庄鄉東村大同路１７號,121,24.59733,(037)822024,羅氏家用新冠病毒抗原自我檢測套組,78,2022/05/07 09:50:02,口罩販賣時段:週一至週五上午8:00~下午5:00
2336210034,臺中市和平區梨山衛生所,臺中市和平區中正路１２號１樓、６８號１樓,121.2592,24.25678,(04)25989540,羅氏家用新冠病毒抗原自我檢測套組,44,2022/05/07 09:50:02,提供24小時急診待診服務，111年4月28日起，快篩試劑販售時段為周一至周五0900-12:00，六日及國定假日為0900-1100
2340170016,嘉義縣大埔鄉衛生所,嘉義縣大埔鄉大埔村５３－１號,120.5928,23.29397,(05)2521214,羅氏家用新冠病毒抗原自我檢測套組,78,2022/05/07 09:50:02,無
2340180012,嘉義縣阿里山鄉衛生所,嘉義縣阿里山鄉樂野村３鄰９７－２號,120.7019,23.4666,(05)2561573,羅氏家用新冠病毒抗原自我檢測套組,78,2022/05/07 09:50:02,無
2341220015,臺南市山上區衛生所,臺南市山上區山上里３５－２號,120.3582,23.09859,(06)5781013,羅氏家用新冠病毒抗原自我檢測套組,78,2022/05/07 09:50:02,5／7 加開10點至11點；販售時間星期一、星期三~星期五為14點至15點，星期二16點至17點，星期六日例假日不販售
2341260019,臺南市左鎮區衛生所,臺南市左鎮區中正里１７２之１５號,120.4099,23.05631,(06)5731114,羅氏家用新冠病毒抗原自我檢測套組,78,2022/05/07 09:50:02,無
2342130010,高雄市田寮區衛生所,高雄市田寮區南安里崗北路３２號,120.3594,22.87301,(07)6361504,羅氏家用新冠病毒抗原自我檢測套組,77,2022/05/07 09:50:02,巡迴醫療:每星期一、四下午及每月第一個有上班的星期三下午巡迴醫療
2342230015,高雄市杉林區衛生所,高雄市杉林區上平里山仙路９３巷２號,120.5386,22.97693,(07)6771319,羅氏家用新冠病毒抗原自我檢測套組,78,2022/05/07 09:50:02,快篩試劑販售時間為週一至週五上午09:00~11:00（當試劑數量售完或超過本所販售時間，則停止當日銷售）
2342250017,高雄市茂林區衛生所,高雄市茂林區茂林里茂林巷８－４號,120.6641,22.88641,(07)6801046,羅氏家用新冠病毒抗原自我檢測套組,60,2022/05/07 09:50:02,夜間急診，請先撥電話07-6801046
2342260013,高雄市桃源區衛生所,高雄市桃源區桃源里南進巷１８８－１號,120.7642,23.15845,(07)6861126,羅氏家用新冠病毒抗原自我檢測套組,152,2022/05/07 09:50:02,IDS提供24小時服務
2342270019,高雄市那瑪夏區衛生所,高雄市那瑪夏區瑪雅里６鄰平和巷２５２號,120.7024,23.24708,(07)6701142,羅氏家用新冠病毒抗原自我檢測套組,208,2022/05/07 09:50:02,春節期間正常門診
2343140010,屏東縣竹田鄉衛生所,屏東縣竹田鄉竹田村中山路２５號,120.5431,22.58637,(08)7710445,羅氏家用新冠病毒抗原自我檢測套組,78,2022/05/07 09:50:02,無
2343230019,屏東縣車城鄉衛生所,屏東縣車城鄉福安村福安路２之３０號,120.7125,22.06986,(08)8821300,羅氏家用新冠病毒抗原自我檢測套組,78,2022/05/07 09:50:02,無
2343250011,屏東縣枋山鄉衛生所,屏東縣枋山鄉枋山村枋山路９８號,120.6527,22.26464,(08)8761150,羅氏家用新冠病毒抗原自我檢測套組,78,2022/05/07 09:50:02,快篩試劑販售時間8點至10點，售完為止
2343260017,屏東縣三地門鄉衛生所,屏東縣三地門鄉三地村行政街４號,120.653,22.71477,(08)7991284,羅氏家用新冠病毒抗原自我檢測套組,10,2022/05/07 09:50:02,假日及夜間提供待診；星期一至日快篩販售時間0900~1200；1400~1700賣完為止
2343270013,屏東縣霧台鄉衛生所,屏東縣霧台鄉霧台村神山巷６８號,120.7261,22.74989,(08)7902232,羅氏家用新冠病毒抗原自我檢測套組,38,2022/05/07 09:50:02,5／6 20份販售於禮納里公共服務中心一樓（下午2~4點）
2343290015,屏東縣泰武鄉衛生所,屏東縣泰武鄉佳平村１７９號,120.6327,22.59212,(08)7832059,羅氏家用新冠病毒抗原自我檢測套組,3,2022/05/07 09:50:02,4／2-4／5門診照常
2343310012,屏東縣春日鄉衛生所,屏東縣春日鄉春日村春日路１７６號,120.6251,22.37008,(08)8780358,羅氏家用新冠病毒抗原自我檢測套組,78,2022/05/07 09:50:02,無
2343320018,屏東縣獅子鄉衛生所,屏東縣獅子鄉楓林村楓林二巷３１號,120.7057,22.18402,(08)8771324,羅氏家用新冠病毒抗原自我檢測套組,15,2022/05/07 09:50:02,特休日：每年農曆除夕、初一
2343330014,屏東縣牡丹鄉衛生所,屏東縣牡丹鄉石門村１９號,120.7469,22.10105,(08)8831013,羅氏家用新冠病毒抗原自我檢測套組,36,2022/05/07 09:50:02,無
2344011036,澎湖縣馬公市第三衛生所,澎湖縣馬公市西文里１１８之２號,119.5836,23.56813,(06)9211723,羅氏家用新冠病毒抗原自我檢測套組,86,2022/05/07 09:50:02,本所快篩試劑只提供離島衛生室（虎井、桶盤）販售，時間週一至週五08:30-17:00售完為止，星期六、日國定假日09:00-12:00。
2344030022,澎湖縣白沙鄉鳥嶼衛生所,澎湖縣白沙鄉鳥嶼村漁港新村３號,119.6599,23.66008,(06)9916092,羅氏家用新冠病毒抗原自我檢測套組,114,2022/05/07 09:50:02,非上班時間提供急診服務
2344030031,澎湖縣白沙鄉吉貝衛生所,澎湖縣白沙鄉吉貝村８－１３號,119.6138,23.74056,(06)9911430,羅氏家用新冠病毒抗原自我檢測套組,96,2022/05/07 09:50:02,無
2344050015,澎湖縣望安鄉衛生所,澎湖縣望安鄉西安村３６－７號,119.4972,23.36161,(06)9991036,羅氏家用新冠病毒抗原自我檢測套組,183,2022/05/07 09:50:02,夜間急診。口罩、快篩試劑販售時間為:每日08:00-12:00、13:30-17:30售完為止，如有餘數為離島未售出（東嶼坪、花嶼）。
2344050024,澎湖縣望安鄉將軍衛生所,澎湖縣望安鄉將軍村１２鄰將軍澳１之３號,119.5216,23.3615,(06)9902066,羅氏家用新冠病毒抗原自我檢測套組,217,2022/05/07 09:50:02,24小時急診
2344060011,澎湖縣七美鄉衛生所,澎湖縣七美鄉中和村埔內５４號,119.431,23.2041,(06)9971005,羅氏家用新冠病毒抗原自我檢測套組,105,2022/05/07 09:50:02,無
2345080017,衛生福利部花蓮醫院豐濱原住民分院,花蓮縣豐濱鄉豐濱村光豐路４１號,121.5215,23.60195,(03)8358141,羅氏家用新冠病毒抗原自我檢測套組,78,2022/05/07 09:50:02,*本院口罩每天販售，時間自上午8點至晚上9點  *本院週一至週五上下午皆有門診，星期六隔週提供門診，及24小時急診。
2345100014,花蓮縣富里鄉衛生所,花蓮縣富里鄉富里村中山路２０３號,121.2491,23.17847,(03)8831029,羅氏家用新冠病毒抗原自我檢測套組,156,2022/05/07 09:50:02,*內科:每週二下午東里玉蓮寺巡診 **牙科:每週二至卓溪醫療站***口罩販賣時間8:30起至11:00止
2345110010,花蓮縣秀林鄉衛生所,花蓮縣秀林鄉秀林村１２鄰秀林路８８號,121.6334,24.1269,(03)8612122,羅氏家用新冠病毒抗原自我檢測套組,78,2022/05/07 09:50:02,口罩代售時間上班日上午8:10至12時止（口罩限量故售完為止）
2345120016,花蓮縣萬榮鄉衛生所,花蓮縣萬榮鄉萬榮村１鄰１６號,121.4092,23.71558,(03)8751651,羅氏家用新冠病毒抗原自我檢測套組,104,2022/05/07 09:50:02,快篩試劑代售時間：週一至週五下午2點至下午4點，販售為止。
2345130012,花蓮縣卓溪鄉衛生所,花蓮縣卓溪鄉卓溪村中正路６５號,121.3033,23.33294,(03)8882592,羅氏家用新冠病毒抗原自我檢測套組,156,2022/05/07 09:50:02,快篩試劑代售時間：週一至週五上午8：30-11：00（售完即結束）
2346020015,台東縣成功鎮衛生所,臺東縣成功鎮忠仁里中山東路６４號,121.3789,23.10003,(089)851419,羅氏家用新冠病毒抗原自我檢測套組,78,2022/05/07 09:50:02,5月7日上午8:30發號碼牌9:00開賣
2346030011,臺東縣關山鎮衛生所,臺東縣關山鎮中福里中華路７８號,121.1639,23.04957,(089)811042,羅氏家用新冠病毒抗原自我檢測套組,78,2022/05/07 09:50:02,無
2346040017,台東縣卑南鄉衛生所,臺東縣卑南鄉太平村和平路１３２號,121.0881,22.78207,(089)382042,羅氏家用新冠病毒抗原自我檢測套組,78,2022/05/07 09:50:02,無
2346110014,台東縣綠島鄉衛生所,臺東縣綠島鄉中寮村１－１號,121.4696,22.67319,(089)672511,羅氏家用新冠病毒抗原自我檢測套組,78,2022/05/07 09:50:02,家用快篩實名制，販售時段為上午08:30至12:00，下午13:30至16:30（周一至周五），售完為止。）
2346130016,台東縣海端鄉衛生所,臺東縣海端鄉海端村３鄰２９號,121.1767,23.10094,(089)931391,羅氏家用新冠病毒抗原自我檢測套組,78,2022/05/07 09:50:02,星期一至星期五家用快篩試劑販售時間上午10點~12點（售完為止）
2346150018,台東縣金峰鄉衛生所,臺東縣金峰鄉賓茂村１鄰１４號,120.9606,22.53248,(089)772201,羅氏家用新冠病毒抗原自我檢測套組,78,2022/05/07 09:50:02,快篩試劑販售時間為星期一至星期五，早上8:30~12:00；下午1:30~5:00
2346160014,台東縣蘭嶼鄉衛生所,臺東縣蘭嶼鄉紅頭村３６號,121.5546,22.02493,(089)732575,羅氏家用新冠病毒抗原自我檢測套組,78,2022/05/07 09:50:02,販售口罩時間 星期一至星期五 8:00~12:00 13:30~17:30
2390050032,金門縣烈嶼鄉衛生所,金門縣烈嶼鄉西口村西方６－５號,118.2395,24.43519,(082)362078,羅氏家用新冠病毒抗原自我檢測套組,12,2022/05/07 09:50:02,快篩試劑販售時間:周一至周五下午1點至3點
2391020010,連江縣北竿鄉衛生所,連江縣北竿鄉塘岐村２８１－６號,119.9991,26.22617,(083)655592,羅氏家用新冠病毒抗原自我檢測套組,24,2022/05/07 09:50:02,新冠快篩試劑販售於週一至周六每日上午08:30-12:00開放購買。
2391030016,連江縣莒光鄉西莒衛生所,連江縣莒光鄉青帆村１４－１號,119.9331,25.97157,(083)689122,羅氏家用新冠病毒抗原自我檢測套組,249,2022/05/07 09:50:02,防疫口罩星期一至五09:00-17:00、（六）09:00-12:00現場購買
2391030026,連江縣莒光鄉東莒衛生所,連江縣莒光鄉大坪村３０－１號,119.9731,25.96113,(083)689038,羅氏家用新冠病毒抗原自我檢測套組,438,2022/05/07 09:50:02,防疫口罩星期一至星期日上午10:00-12:00收取健保卡，下午3:30至本所領取口罩。
2391040012,連江縣東引鄉衛生所,連江縣東引鄉中柳村１２３號,120.4904,26.36701,(083)677206,羅氏家用新冠病毒抗原自我檢測套組,14,2022/05/07 09:50:02,防疫口罩每日10:00-12:00現場購買
5901010165,傑安藥局,臺北市松山區八德路２段４３７巷７弄８號１樓,121.5473,25.04914,(02)27524155,羅氏家用新冠病毒抗原自我檢測套組,137,2022/05/07 09:50:02,9:30開始發號碼牌
5901010272,德靈藥局,臺北市松山區富錦街５４８號,121.5667,25.06178,(02)27646998,羅氏家用新冠病毒抗原自我檢測套組,69,2022/05/07 09:50:02,週日休 .
5901011699,建東大藥局,臺北市松山區三民路９７號１樓,121.5634,25.05723,(02)27676237,羅氏家用新冠病毒抗原自我檢測套組,20,2022/05/07 09:50:02,早上9點發號碼牌.留健保卡.12點前回來買快篩.一人一卡.周日公修（沒快篩）
5901012516,惠登藥局,臺北市松山區民生東路３段１３０巷３４號,121.5461,25.0562,(02)25472432,羅氏家用新冠病毒抗原自我檢測套組,28,2022/05/07 09:50:02,實名制快篩下午2點販售
5901012561,松田藥局,臺北市松山區延吉街９－６號,121.5536,25.04701,(02)25798005,羅氏家用新冠病毒抗原自我檢測套組,53,2022/05/07 09:50:02,每日上午9:30開始實名制快篩販售
5901012712,立康大藥局,臺北市松山區八德路四段２－１號,121.5581,25.04812,(02)27471749,羅氏家用新冠病毒抗原自我檢測套組,77,2022/05/07 09:50:02,快篩時間：周一～周五9:30-14:00，18:00-21:30。周六10:30-12:30，18:00-20:00。周日暫停販售。如有修正以店面公告為主
5901012749,躍獅松和藥局,臺北市松山區八德路四段６６６－１號,121.5761,25.04979,(02)27492569,羅氏家用新冠病毒抗原自我檢測套組,78,2022/05/07 09:50:02,實名制快篩販售時段，每日下午4點販售，售完為止
5901012767,晨新藥局,臺北市松山區八德路４段９１巷１－１號,121.5608,25.04894,(02)27422951,羅氏家用新冠病毒抗原自我檢測套組,66,2022/05/07 09:50:02,本店星期一不販售快篩，其餘時間為下午2點至5點。若有修正依店內公告為主。
5901013095,康采藥局,臺北市松山區南京東路５段２９１巷１７－２號,121.5663,25.05236,(02)27670271,羅氏家用新冠病毒抗原自我檢測套組,18,2022/05/07 09:50:02,（已完售，庫存不準）快篩試劑每日16點販售，週日沒有販售
5901013308,立赫敦北藥局,臺北市松山區敦化北路２２２巷２０號,121.5477,25.05945,(02)27199277,羅氏家用新冠病毒抗原自我檢測套組,51,2022/05/07 09:50:02,5／7 （六）9:30發放號碼牌販售
5901013362,啄木鳥藥局,臺北市松山區八德路４段２０９號、２１１號（１、２層）,121.564,25.04894,(02)27422413,羅氏家用新冠病毒抗原自我檢測套組,39,2022/05/07 09:50:02,無
5901013371,玖田藥局,臺北市松山區八德路４段６５５號,121.5755,25.05018,(02)27666578,羅氏家用新冠病毒抗原自我檢測套組,51,2022/05/07 09:50:02,實名制快篩：09:40開始，售完為止！
5901013693,民生盛康藥局,臺北市松山區民生東路５段２０４號１樓,121.5648,25.05826,(02)27460758,羅氏家用新冠病毒抗原自我檢測套組,167,2022/05/07 09:50:02,【每日70分】每日早上9:00發號碼牌，14:00~20:00拿號碼牌回來領取，每人限1張號碼牌，逾時不候
5901013737,全欣藥局,臺北市松山區復興北路７３號２樓,121.5442,25.05104,(02)87729066,羅氏家用新冠病毒抗原自我檢測套組,37,2022/05/07 09:50:02,9:00am開始販售30人份15:00販售30人份:18:00販售17人份；週六:9:00販售39人份；週日:15:00販售39人份....排隊人數滿會先發號碼
5901020661,泰佑藥局,臺北市大安區安和路２段７２號１Ｆ,121.5517,25.03011,(02)27056841,羅氏家用新冠病毒抗原自我檢測套組,51,2022/05/07 09:50:02,每日早上九點半
5901020732,赫慶藥局,臺北市大安區瑞安街２０８巷１１弄５號１樓,121.5408,25.02866,(02)27063497,羅氏家用新冠病毒抗原自我檢測套組,23,2022/05/07 09:50:02,快篩代售時間：星期一至六上午9點開始，不發號碼牌，星期日停售
5901020901,辰安藥局,臺北市大安區大安路１段３１巷２８號,121.5472,25.04385,(02)27119536,羅氏家用新冠病毒抗原自我檢測套組,34,2022/05/07 09:50:02,早上9:40分開始販賣快篩，賣完為止
5901023304,麗樺藥師藥局,臺北市大安區麗水街３號,121.529,25.03225,(02)23952628,羅氏家用新冠病毒抗原自我檢測套組,78,2022/05/07 09:50:02,無
5901023313,安和藥局,臺北市大安區安和路１段１０２巷３號,121.5519,25.03433,(02)27092349,羅氏家用新冠病毒抗原自我檢測套組,33,2022/05/07 09:50:02,平日下午三點開始販賣賣完 78份結束
5901024427,博昱仁愛藥局,臺北市大安區仁愛路４段６５號,121.5469,25.03821,(02)87739258,羅氏家用新冠病毒抗原自我檢測套組,51,2022/05/07 09:50:02,實名制快篩每周一~五，9:00發放號碼牌收健保卡.下午2:00-4:00持號碼牌領取快篩.並收費和歸還健保
5901024669,百岳藥局,臺北市大安區和平東路２段３１１巷１１號,121.5452,25.02514,(02)27551037,羅氏家用新冠病毒抗原自我檢測套組,78,2022/05/07 09:50:02,快篩試劑販售時間:周一至周五10:30~12:00止
5901024721,麗泰藥局,臺北市大安區復興南路２段１５１巷４號,121.544,25.02832,(02)27079595,羅氏家用新冠病毒抗原自我檢測套組,76,2022/05/07 09:50:02,每天到貨時間不定，到貨後即公告開賣
5901024767,杏一樂業藥局,臺北市大安區樂業街１６２號,121.5535,25.01958,(02)27383194,羅氏家用新冠病毒抗原自我檢測套組,78,2022/05/07 09:50:02,快篩下午三點現場直接販售（不發號碼牌）
5901024918,康祥藥局,臺北市大安區忠孝東路４段２１６巷２１號,121.5531,25.04025,(02)27817891,羅氏家用新冠病毒抗原自我檢測套組,19,2022/05/07 09:50:02,星期天11:00-19:00
5901024945,威康藥局,臺北市大安區和平東路２段２９７號,121.5447,25.02495,(02)27061149,羅氏家用新冠病毒抗原自我檢測套組,1,2022/05/07 09:50:02,無
5901090369,保慶藥局,臺北市大同區保安街２１號,121.5129,25.05926,(02)25538988,羅氏家用新冠病毒抗原自我檢測套組,75,2022/05/07 09:50:02,因到貨時間不定，視到貨時間販售
5901091544,得意藥師藥局,臺北市大同區延平北路２段２２９號,121.5115,25.06029,(02)25534294,羅氏家用新冠病毒抗原自我檢測套組,7,2022/05/07 09:50:02,無
5901091884,躍獅雙蓮藥局,臺北市大同區涼州街４號,121.5147,25.06078,(02)25537551,羅氏家用新冠病毒抗原自我檢測套組,30,2022/05/07 09:50:02,實名制快篩：平日週一～五 下午３點開賣 （六、日停售）
5901092087,躍獅文昌藥局,臺北市大同區民生西路１０８號（實際營業：一層）,121.5197,25.0574,(02)25586189,羅氏家用新冠病毒抗原自我檢測套組,104,2022/05/07 09:50:02,無
5901100155,大信藥局,臺北市中山區林森北路１５９巷６號,121.5255,25.0517,(02)25719080,羅氏家用新冠病毒抗原自我檢測套組,1,2022/05/07 09:50:02,無
5901100628,貢玄藥局,臺北市中山區錦州街２０７號,121.532,25.06039,(02)25637847,羅氏家用新冠病毒抗原自我檢測套組,68,2022/05/07 09:50:02,早上10點~11點領口罩
5901100664,阿里藥局,臺北市中山區錦州街２５１號,121.5342,25.06039,(02)25020638,羅氏家用新冠病毒抗原自我檢測套組,56,2022/05/07 09:50:02,無
5901101072,長青藥局,臺北市中山區興安街５５號１樓,121.5419,25.05621,(02)25053160,羅氏家用新冠病毒抗原自我檢測套組,38,2022/05/07 09:50:02,無
5901101992,大愛藥師藥局,臺北市中山區吉林路２５５號１樓,121.5304,25.06165,(02)25424723,羅氏家用新冠病毒抗原自我檢測套組,42,2022/05/07 09:50:02,週一~週五13:55發放號碼牌14:00發放快篩，週六、週日休息
5901102444,啟美藥師藥局,臺北市中山區錦州街２８２號,121.5352,25.06024,(02)25178032,羅氏家用新冠病毒抗原自我檢測套組,78,2022/05/07 09:50:02,快篩 販售時間 20點開賣到21點，星期六日公休
5901102631,金生藥局,臺北市中山區長安東路２段１６７－１號,121.5407,25.04843,(02)87729808,羅氏家用新冠病毒抗原自我檢測套組,48,2022/05/07 09:50:02,販售實名制快篩時間為週一~週六早上09:00開始（售完為止）
5901102686,富宥康藥局,臺北市中山區北安路６０８巷５弄２２號,121.5496,25.08263,(02)25325277,羅氏家用新冠病毒抗原自我檢測套組,2,2022/05/07 09:50:02,無
5901103558,佳頤中西藥局,臺北市中山區長春路１４７之１號,121.5323,25.05495,(02)25641479,羅氏家用新冠病毒抗原自我檢測套組,78,2022/05/07 09:50:02,實名制快篩販售時間為下午1點起，售完為止，其他販售細節以店內公告為主
5901103745,吉林藥局,臺北市中山區吉林路３７１號（１樓）,121.5305,25.06511,(02)25865990,羅氏家用新冠病毒抗原自我檢測套組,78,2022/05/07 09:50:02,快篩實名制，每天16:00開始販售，售完為止。
5901103772,興耀生活藥局,臺北市中山區林森北路４０５號（１樓）,121.5257,25.05943,(02)25818210,羅氏家用新冠病毒抗原自我檢測套組,1,2022/05/07 09:50:02,國定假日仍執行調劑業務
5901110133,泰成藥局,臺北市內湖區內湖路３段１３５號１樓,121.5899,25.08685,(02)27921231,羅氏家用新冠病毒抗原自我檢測套組,3,2022/05/07 09:50:02,口罩販售:上午9:00開始發號碼牌，9點同步販售.
5901110311,永安藥局,臺北市內湖區文德路２１０巷３０弄４８號,121.5852,25.07723,(02)26586658,羅氏家用新冠病毒抗原自我檢測套組,6,2022/05/07 09:50:02,口罩販售時間早上10點開始發號碼牌  同時販售
5901111890,安康藥局,臺北市內湖區安康路４８２號,121.6158,25.06785,(02)26327675,羅氏家用新冠病毒抗原自我檢測套組,78,2022/05/07 09:50:02,無
5901112600,匯安藥局,臺北市內湖區內湖路１段７０３之１號,121.5774,25.07964,(02)26579255,羅氏家用新冠病毒抗原自我檢測套組,6,2022/05/07 09:50:02,星期一到五下午3:30販售口罩
5901113018,桔子藥局,臺北市內湖區內湖路２段３３３號,121.5917,25.08319,(02)27930052,羅氏家用新冠病毒抗原自我檢測套組,78,2022/05/07 09:50:02,早0900-1200，午1400-1700，晚1900-2100
5901113027,晟安藥局,臺北市內湖區金龍路１３５號,121.5902,25.08593,(02)87919320,羅氏家用新冠病毒抗原自我檢測套組,156,2022/05/07 09:50:02,快篩一~六早上10；00開始販售，星期日不營業
5901113143,躍獅寶湖藥局,臺北市內湖區民權東路６段１２３巷２８號,121.5928,25.0701,(02)87928335,羅氏家用新冠病毒抗原自我檢測套組,36,2022/05/07 09:50:02,實名制快篩: 每日上午9:30 開始販售 現場排隊 售完為止 詳細細節請注意店內公告
5901113652,加一藥師藥局,臺北市內湖區星雲街２４號１樓,121.5908,25.07804,(02)87912653,羅氏家用新冠病毒抗原自我檢測套組,167,2022/05/07 09:50:02,無
5901113723,杏一港墘藥局,臺北市內湖區港墘路８３號（１樓）,121.5781,25.08078,(02)87978746,羅氏家用新冠病毒抗原自我檢測套組,78,2022/05/07 09:50:02,無
5901121841,泓安藥局,臺北市南港區興華路７５號,121.6061,25.05517,(02)27861083,羅氏家用新冠病毒抗原自我檢測套組,153,2022/05/07 09:50:02,星期一至星期日早上10:00開賣快篩試劑
5901121869,南港藥局,臺北市南港區南港路一段１６６號,121.6119,25.05536,(02)27829137,羅氏家用新冠病毒抗原自我檢測套組,78,2022/05/07 09:50:02,快篩販售時間晚上6:00~晚上8:00（每天78份，售完即止）（周日休息）
5901121896,順翔藥局,臺北市南港區研究院路２段１７０號,121.6169,25.03785,(02)27824332,羅氏家用新冠病毒抗原自我檢測套組,8,2022/05/07 09:50:02,代售政府實名制快篩 依到貨時間而定  沒有固定時間  到貨清點完數量即刻開賣 感恩
5901121930,小藥師健保藥局,臺北市南港區福德街３２０之１號,121.588,25.03948,(02)27867002,羅氏家用新冠病毒抗原自我檢測套組,78,2022/05/07 09:50:02,快篩販售時間，每天早上10點開始販售，售完為止
5901122080,成福大藥局,臺北市南港區成福路８號,121.5859,25.04578,(02)27859221,羅氏家用新冠病毒抗原自我檢測套組,78,2022/05/07 09:50:02,無
5901150128,新興藥局,臺北市士林區德行西路１１７號,121.5206,25.10398,(02)28362643,羅氏家用新冠病毒抗原自我檢測套組,15,2022/05/07 09:50:02,無
5901150146,坤成泰藥局,臺北市士林區大南路４１２號,121.5162,25.08996,(02)28813903,羅氏家用新冠病毒抗原自我檢測套組,37,2022/05/07 09:50:02,實名制快篩販賣時間 早上9.30~12.00   下午2.00~6.00  賣完為止
5901150235,杏城藥局,臺北市士林區天母東路２４號,121.5322,25.11764,(02)28725144,羅氏家用新冠病毒抗原自我檢測套組,78,2022/05/07 09:50:02,週一至週五下午2:00 週六上午10:00販售實名制快篩試劑 週日公休 每人限一卡
5901150548,田倉藥局,臺北市士林區士東路１２４號,121.5302,25.11219,(02)88662188,羅氏家用新冠病毒抗原自我檢測套組,78,2022/05/07 09:50:02,每日19:00（傍晚7點）開始販售.
5901150593,安寧藥局,臺北市士林區劍潭路９１號,121.5199,25.08285,(02)28803319,羅氏家用新冠病毒抗原自我檢測套組,78,2022/05/07 09:50:02,領藥星期1.3.5為 9:00~12:00.及16:00~20:00*星期2.4.6.--上午
5901150771,天母大和藥師藥局,臺北市士林區德行東路１８９－１號１樓,121.5317,25.10897,(02)28310142,羅氏家用新冠病毒抗原自我檢測套組,4,2022/05/07 09:50:02,快篩實名制 配合營業時間  賣完為止
5901150815,陽明藥局,臺北市士林區菁山路１０號１樓,121.5469,25.13797,(02)28612863,羅氏家用新冠病毒抗原自我檢測套組,78,2022/05/07 09:50:02,早上9點30到12點健保卡排隊.（作業時間2小時）下午1點到晚上6點領回口罩及健保卡
5901152079,資生堂藥局,臺北市士林區承德路４段４０巷１７號１Ｆ,121.522,25.08107,(02)28857588,羅氏家用新冠病毒抗原自我檢測套組,78,2022/05/07 09:50:02,5／7周六快篩發下午一點
5901152471,得安藥局,臺北市士林區文林路１４０號,121.5267,25.08878,(02)28836336,羅氏家用新冠病毒抗原自我檢測套組,78,2022/05/07 09:50:02,星期三五六下午3:30---10:00   星期二 四日下午5:00--10:00
5901152640,仁大藥局,臺北市士林區社子街１３號１樓,121.5083,25.08769,(02)88113793,羅氏家用新冠病毒抗原自我檢測套組,17,2022/05/07 09:50:02,111.5.7.今日8:40開賣。:週一至週六上午8:40開始，售完為止
5901152659,和樹藥局,臺北市士林區後港街４５巷１號１樓,121.5228,25.08444,(02)28821188,羅氏家用新冠病毒抗原自我檢測套組,79,2022/05/07 09:50:02,實名制快篩發放時間早上 9點30
5901152793,信光藥局,臺北市士林區文昌路６８號,121.5214,25.09619,(02)28366277,羅氏家用新冠病毒抗原自我檢測套組,63,2022/05/07 09:50:02,下午三點發放快篩
5901153683,安奕藥局,臺北市士林區葫蘆街３０巷１２號,121.5099,25.08034,(02)28133289,羅氏家用新冠病毒抗原自我檢測套組,72,2022/05/07 09:50:02,週日休。快篩劑開賣時間，早上10:00。
5901154000,文昌大藥局,臺北市士林區文昌路７２號１樓,121.5213,25.09634,(02)28376196,羅氏家用新冠病毒抗原自我檢測套組,63,2022/05/07 09:50:02,1.周一至周日下午15:00販售實名制快篩，請自備零錢 2.每日提供18份，讓醫護警消憑證購買，請pm14:30前來
5901154028,向宇藥局,臺北市士林區德行東路２１７號１樓,121.5328,25.10935,(02)88661101,羅氏家用新冠病毒抗原自我檢測套組,71,2022/05/07 09:50:02,無
5901154055,天母盛康藥局,臺北市士林區天母東路８巷８４號１樓,121.5304,25.11483,(02)28720208,羅氏家用新冠病毒抗原自我檢測套組,151,2022/05/07 09:50:02,實名制快篩每日14:00開始，賣完為止。
5901154108,藥本家藥局,臺北市士林區中山北路７段１４巷２６號１樓,121.5328,25.11884,(02)28766682,羅氏家用新冠病毒抗原自我檢測套組,12,2022/05/07 09:50:02,無
5901160142,德昇藥局,臺北市北投區裕民二路２０號,121.517,25.11604,(02)28217565,羅氏家用新冠病毒抗原自我檢測套組,1,2022/05/07 09:50:02,週一至週五 &[5／7週六] 下午 2:30分 實名制快篩現場排隊發售
5901160286,昌源藥局,臺北市北投區中央北路４段４８５號,121.4692,25.12843,(02)28928695,羅氏家用新冠病毒抗原自我檢測套組,36,2022/05/07 09:50:02,周日公休
5901160562,名山藥局,臺北市北投區東陽街４７５號１樓,121.5199,25.11231,(02)28226101,羅氏家用新冠病毒抗原自我檢測套組,9,2022/05/07 09:50:02,快篩試劑早上08:30販賣，先拿號碼牌，早上10；00前過卡，逾時放棄
5901162477,長宜藥局,臺北市北投區自強街１１２號,121.5155,25.11074,(02)28216605,羅氏家用新冠病毒抗原自我檢測套組,78,2022/05/07 09:50:02,實名制快篩試劑發放時間:14:00~售完為止，會依政府配送狀況調整
5901163107,小豬藥局,臺北市北投區東陽街４０３號１樓,121.5176,25.11244,(02)28217099,羅氏家用新冠病毒抗原自我檢測套組,73,2022/05/07 09:50:02,星期六.星期日不販售
5901163554,良哲藥局,臺北市北投區明德路１５７－４號（實際使用：１樓）,121.5209,25.11129,(02)28285516,羅氏家用新冠病毒抗原自我檢測套組,2,2022/05/07 09:50:02,實名制快篩販售時間：早上 9:00~9:30／下午 2:30~3:00（週六人力不足不販售／週日休息）
5901163563,躍獅光明藥局,臺北市北投區光明路５１號、５３號（實際使用：１樓）,121.4998,25.13286,(02)28915993,羅氏家用新冠病毒抗原自我檢測套組,1,2022/05/07 09:50:02,1.早上9:30發號碼牌.核對健保卡 2.等快篩到貨才開始賣，到貨時間不確定3.有號碼牌者請在晚上8點前領取，逾期作廢
5901163572,永欣中西藥局,臺北市北投區中和街５０１號,121.4947,25.1452,(02)28910307,羅氏家用新冠病毒抗原自我檢測套組,69,2022/05/07 09:50:02,週一至週六 早上9:30發號碼牌 10點販售 周日公休（庫存不準 號碼牌發完即售完）謝謝
5901170139,福華藥局,臺北市信義區吳興街２８１巷３號１樓,121.5643,25.02656,(02)27208527,羅氏家用新冠病毒抗原自我檢測套組,78,2022/05/07 09:50:02,現階段下午1:30配合政府發售快篩試劑
5901170184,臺陽藥局,臺北市信義區大道路６１號,121.5823,25.04136,(02)27283403,羅氏家用新冠病毒抗原自我檢測套組,39,2022/05/07 09:50:02,快篩試劑早上9:30現場販售，週日沒有販售
5901170264,杏康藥局,臺北市信義區忠孝東路５段３７２巷２７弄６８－２號１Ｆ,121.5753,25.03976,(02)23457422,羅氏家用新冠病毒抗原自我檢測套組,51,2022/05/07 09:50:02,早上9:30開始販售
5901170433,松山大藥局,臺北市信義區永吉路４３６號,121.5781,25.04526,(932)156305,羅氏家用新冠病毒抗原自我檢測套組,75,2022/05/07 09:50:02,購防疫快篩早上10:00_發售.週日下午1點起.售完即止
5901170915,杏仁藥局,臺北市信義區大道路１３５號,121.5834,25.03901,(02)27262541,羅氏家用新冠病毒抗原自我檢測套組,24,2022/05/07 09:50:02,實名制快篩:週一至週五下午3點販售，週六週日無販售
5901172857,永吉藥局,臺北市信義區永吉路２１３號,121.5739,25.04572,(02)87874043,羅氏家用新冠病毒抗原自我檢測套組,19,2022/05/07 09:50:02,快篩代售，下午2:30開始服務，不發號碼牌，售完為止
5901173238,正和藥局,臺北市信義區吳興街２２５巷６號,121.5634,25.02782,(02)23455186,羅氏家用新冠病毒抗原自我檢測套組,78,2022/05/07 09:50:02,下午2點半發放快篩，週日無發放
5901173407,康怡健保藥局,臺北市信義區吳興街４６７巷２弄１２號,121.5695,25.02381,(02)27206193,羅氏家用新冠病毒抗原自我檢測套組,2,2022/05/07 09:50:02,快篩早上9點開賣，賣完為止
5901173738,尚頤中西藥局,臺北市信義區虎林街１４５號,121.5767,25.03959,(02)27253818,羅氏家用新冠病毒抗原自我檢測套組,70,2022/05/07 09:50:02,無
5901173818,博亞藥局,臺北市信義區莊敬路４６２號,121.5677,25.02672,(02)27580506,羅氏家用新冠病毒抗原自我檢測套組,2,2022/05/07 09:50:02,平日早上8:30、晚上8:00；假日早上8:30，發放號碼牌，持號碼牌購買!
5901173863,立赫北醫藥局,臺北市信義區吳興街１１８巷２６弄１７號,121.5599,25.03007,(02)27320100,羅氏家用新冠病毒抗原自我檢測套組,78,2022/05/07 09:50:02,5／7，5／9上午10:00開始販售實名制快篩試劑
5901173943,躍獅興雅藥局,臺北市信義區松德路１２８號,121.5745,25.03734,(02)87808429,羅氏家用新冠病毒抗原自我檢測套組,78,2022/05/07 09:50:02,14:00發號碼牌且同步開賣快篩，販賣至15:00或售完為止，週日無販售。
5901180224,中心藥局,臺北市中正區汀州路３段１２１號,121.5303,25.01654,(02)23689889,羅氏家用新冠病毒抗原自我檢測套組,1,2022/05/07 09:50:02,實名制快篩因物流貨運配送調度，調整領取時間延後至下午3點
5901180322,南昌大藥局,臺北市中正區南昌路１段８６號１樓,121.5174,25.03086,(02)23510322,羅氏家用新冠病毒抗原自我檢測套組,12,2022/05/07 09:50:02,早上10點發號碼牌，下午2點前來購買，逾期作廢。
5901183396,慶安藥局,臺北市中正區徐州路２６號,121.5234,25.04061,(02)23582385,羅氏家用新冠病毒抗原自我檢測套組,4,2022/05/07 09:50:02,無
5901183645,大愛生活藥局,臺北市中正區汀州路２段２３２號,121.5243,25.02189,(02)23661155,羅氏家用新冠病毒抗原自我檢測套組,31,2022/05/07 09:50:02,下午14:30開始發放快篩（不發號碼牌直接買）~~不要太早開始排隊啊啊啊啊
5901184080,活力健康藥妝藥局,臺北市中正區中華路２段３１５巷１號,121.5062,25.02795,(02)23392625,羅氏家用新冠病毒抗原自我檢測套組,1,2022/05/07 09:50:02,快篩14:00-15:00， 建議提早排隊
5901184106,信康藥局,臺北市中正區南昌路１段１４３號,121.5186,25.02953,(02)23961979,羅氏家用新冠病毒抗原自我檢測套組,1,2022/05/07 09:50:02,14:00開始販售實名制快篩
5901184473,中力藥局,臺北市中正區襄陽路１３之５號、１５號,121.5155,25.04349,(02)23313768,羅氏家用新冠病毒抗原自我檢測套組,49,2022/05/07 09:50:02,實名制快篩 販售時間：09:30~售完為止
5901184535,桐心藥局,臺北市中正區金華街１８之６號１樓,121.5202,25.03175,(02)23581663,羅氏家用新冠病毒抗原自我檢測套組,5,2022/05/07 09:50:02,無
5901184633,躍獅東門藥局,臺北市中正區金山南路１段１０８之１號（１樓）,121.5273,25.03538,(02)23920339,羅氏家用新冠病毒抗原自我檢測套組,34,2022/05/07 09:50:02,5／6銷售時間已結束。5／7下午兩點開始販售，不提早發放號碼牌
5901184651,立赫臺大藥局,臺北市中正區公園路２８號１樓,121.517,25.04485,(02)23616162,羅氏家用新冠病毒抗原自我檢測套組,41,2022/05/07 09:50:02,5／7 （六）9:30發放號碼牌販售
5901184697,中英大藥局,臺北市中正區永綏街６號１樓,121.5112,25.043,(02)23617551,羅氏家用新冠病毒抗原自我檢測套組,64,2022/05/07 09:50:02,無
5901184713,建祥武昌藥局,臺北市中正區武昌街１段２９號１樓,121.5121,25.04416,(02)23314038,羅氏家用新冠病毒抗原自我檢測套組,78,2022/05/07 09:50:02,無
5901190024,長泰藥局,臺北市萬華區西園路２段２８０號,121.4942,25.02753,(02)23012869,羅氏家用新冠病毒抗原自我檢測套組,1,2022/05/07 09:50:02,快篩販賣時段，依貨運配送時間而訂
5901190033,世欣藥局,臺北市萬華區東園街１７３號１Ｆ,121.4973,25.02419,(02)23074263,羅氏家用新冠病毒抗原自我檢測套組,78,2022/05/07 09:50:02,防疫快篩劑服務時間週一至五14:00-16:00週六10:00-12:00
5901190079,建和藥局,臺北市萬華區青年路１６８巷４４號,121.5016,25.01987,(02)23010838,羅氏家用新冠病毒抗原自我檢測套組,2,2022/05/07 09:50:02,春節期間看診時段請電洽
5901190220,生活大藥局,臺北市萬華區貴陽街２段１２４號,121.5025,25.03995,(02)23618609,羅氏家用新冠病毒抗原自我檢測套組,9,2022/05/07 09:50:02,無
5901192448,健誠大藥局,臺北市萬華區環河南路２段１８５號,121.4919,25.03246,(02)23042223,羅氏家用新冠病毒抗原自我檢測套組,78,2022/05/07 09:50:02,實名制快篩販售：周一至周五早上9點開始，周六、周日早上10點開始
5901193070,榮勝藥局,臺北市萬華區萬大路２３３號,121.5006,25.02649,(02)23331121,羅氏家用新冠病毒抗原自我檢測套組,78,2022/05/07 09:50:02,每日快篩早上十一點開始販售
5901193221,正盛藥局,臺北市萬華區中華路２段４３４－１號,121.5064,25.02708,(02)23050386,羅氏家用新冠病毒抗原自我檢測套組,69,2022/05/07 09:50:02,1.快篩一~六20點，周日不賣 2.目前排隊人潮多，建議7點左右提前候位 3.詳情請看門口公告或板橋正康總店臉書
5901193365,企鵝藥局,臺北市萬華區西昌街１７５號（１樓）,121.5007,25.03886,(02)23884691,羅氏家用新冠病毒抗原自我檢測套組,78,2022/05/07 09:50:02,公費快篩試劑，下午2點發號碼牌
5901200141,景美藥局,臺北市文山區景文街１２５號,121.5412,24.99033,(02)29335741,羅氏家用新冠病毒抗原自我檢測套組,156,2022/05/07 09:50:02,無
5901201540,逸仙藥師藥局,臺北市文山區興隆路２段２１８－１號１樓,121.5524,25.00148,(02)29312597,羅氏家用新冠病毒抗原自我檢測套組,30,2022/05/07 09:50:02,9:00-10:00
5901201568,康宜庭生活藥局,臺北市文山區興隆路４段６４號,121.5613,24.98514,(02)29385363,羅氏家用新冠病毒抗原自我檢測套組,6,2022/05/07 09:50:02,實名快篩14:00開賣 現場排隊
5901201728,東京晟藥局,臺北市文山區辛亥路４段９７號,121.5587,25.00684,(02)29356354,羅氏家用新冠病毒抗原自我檢測套組,2,2022/05/07 09:50:02,周日不銷售實名制快篩，周一~六09:00開售78盒，憑號碼牌購取，變更銷售規則依政策滾動
5901202396,宇康藥局,臺北市文山區羅斯福路５段２１８巷７號,121.5383,25.00203,(02)29307066,羅氏家用新冠病毒抗原自我檢測套組,68,2022/05/07 09:50:02,無
5901202627,杏隆藥局,臺北市文山區羅斯福路５段２６１號,121.5395,25.00115,(02)29313151,羅氏家用新冠病毒抗原自我檢測套組,156,2022/05/07 09:50:02,快篩實名制採預約登記，至5／14已登記額滿。
5901202949,萬隆大藥局,臺北市文山區羅斯福路５段２１８巷１５號,121.538,25.00203,(02)29334580,羅氏家用新冠病毒抗原自我檢測套組,83,2022/05/07 09:50:02,9：00~23：00
5901203179,健安藥局,臺北市文山區景興路１６５號,121.5447,24.99346,(02)29323757,羅氏家用新冠病毒抗原自我檢測套組,1,2022/05/07 09:50:02,周一到周六.下午三點開賣實名制快篩.現場排隊不發號碼牌
5901203482,健康家藥局,臺北市文山區興隆路２段１３３號１樓,121.5481,25.00011,(02)29330858,羅氏家用新冠病毒抗原自我檢測套組,1,2022/05/07 09:50:02,實名制快篩下午一點開始販售，5／1店休
5902010132,宏恩藥局,高雄市鹽埕區教仁里瀨南街１３３號,120.2823,22.62472,(07)5211318,羅氏家用新冠病毒抗原自我檢測套組,29,2022/05/07 09:50:02,5／6 10:00開始販售 星期一至星期六10:00開始販售，星期日14:00開始販售
5902011291,長庚藥局,高雄市鹽埕區五福四路１６３號一樓,120.2834,22.62347,(07)5513436,羅氏家用新冠病毒抗原自我檢測套組,78,2022/05/07 09:50:02,無
5902011308,昇安藥局,高雄市鹽埕區瀨南街２２５號１樓,120.284,22.62797,(07)5216438,羅氏家用新冠病毒抗原自我檢測套組,1,2022/05/07 09:50:02,快篩試劑早上8:4 0開始發號碼牌
5902021233,崧柏藥局,高雄市鼓山區華榮路５４３號,120.2937,22.66969,(07)5542027,羅氏家用新冠病毒抗原自我檢測套組,3,2022/05/07 09:50:02,藥局販售快篩試劑時間每天8點40發號碼牌，9點開始。每天78份
5902022794,定國藥局,高雄市鼓山區九如四路１１３５號,120.2791,22.65936,(07)5815858,羅氏家用新冠病毒抗原自我檢測套組,28,2022/05/07 09:50:02,無
5902022829,弘興藥局,高雄市鼓山區鼓山三路４８－１１號,120.2757,22.65468,(07)5612677,羅氏家用新冠病毒抗原自我檢測套組,55,2022/05/07 09:50:02,無
5902030312,吉辰藥局,高雄市左營區左營大路４１之１號,120.2876,22.68109,(07)5815069,羅氏家用新冠病毒抗原自我檢測套組,5,2022/05/07 09:50:02,早上9點開賣口罩   賣完為止
5902030643,新高橋藥局,高雄市左營區民族一路１０２８號,120.3201,22.68255,(07)3100696,羅氏家用新冠病毒抗原自我檢測套組,70,2022/05/07 09:50:02,依快篩配送時間滾動式調整（5／6早10:00），請備妥當日可領買之健保卡與現金500元購買，不找零，0號是雙號，謝謝配合
5902032450,可達藥局,高雄市左營區榮德街１７７號,120.3205,22.68359,(07)3420182,羅氏家用新冠病毒抗原自我檢測套組,49,2022/05/07 09:50:02,快篩販售時間週一～週六早上9點～11點。現場排隊，售完為止
5902032647,健智美藥局,高雄市左營區富國路９８號,120.3068,22.6591,(07)5580888,羅氏家用新冠病毒抗原自我檢測套組,1,2022/05/07 09:50:02,早上08:40開賣，自備零錢，售完止。
5902032674,辰暘藥局,高雄市左營區富民路１２０號１、２樓,120.3054,22.66066,(07)5588545,羅氏家用新冠病毒抗原自我檢測套組,6,2022/05/07 09:50:02,無
5902040069,新友藥局,高雄市楠梓區萬昌路１１１號,120.2895,22.71194,(07)3653534,羅氏家用新冠病毒抗原自我檢測套組,5,2022/05/07 09:50:02,藥局販售口罩時間，依藥局門口公告時間為主（售完為止）
5902040229,進昇藥局,高雄市楠梓區德賢路２０２號,120.3068,22.72694,(07)3652334,羅氏家用新冠病毒抗原自我檢測套組,59,2022/05/07 09:50:02,實名制快篩每日上午10點販售，售完為止
5902040498,順明藥局,高雄市楠梓區和光街６５號,120.2939,22.70717,(07)3615574,羅氏家用新冠病毒抗原自我檢測套組,11,2022/05/07 09:50:02,快篩劑販售時間早上 8:30～晚上9:30
5902042447,建佑藥局,高雄市楠梓區右昌街１９１號,120.2889,22.71153,(07)3626893,羅氏家用新冠病毒抗原自我檢測套組,1,2022/05/07 09:50:02,快篩每日早上09:10開賣
5902042769,家安藥局,高雄市楠梓區後昌新路１３號１樓,120.2917,22.71844,(07)3600066,羅氏家用新冠病毒抗原自我檢測套組,3,2022/05/07 09:50:02,無
5902050298,瑞鶴藥局,高雄市三民區寶德里義德路２５號,120.3352,22.64301,(07)3862757,羅氏家用新冠病毒抗原自我檢測套組,4,2022/05/07 09:50:02,下午2:00至4:30午休勿擾，每日08:30至21:30發售快篩。
5902050592,建昌藥局,高雄市三民區十全一路１０５號１樓,120.3105,22.64469,(07)3232356,羅氏家用新冠病毒抗原自我檢測套組,57,2022/05/07 09:50:02,賣口罩時間：周一至週五下午1:00起，周六至週日上午10:00起，售完為止。
5902050798,友泰藥局,高雄市三民區中和街１６９號,120.2868,22.6388,(07)3125236,羅氏家用新冠病毒抗原自我檢測套組,72,2022/05/07 09:50:02,無
5902050903,皇安藥局,高雄市三民區九如一路４６１號,120.3296,22.63865,(07)3866779,羅氏家用新冠病毒抗原自我檢測套組,26,2022/05/07 09:50:02,營業日0900可先領取號碼牌，上午9:00-12:00及下午3:00~10:.00為販賣快篩時間，售完為止
5902051222,利民藥局,高雄市三民區孝順街７４號,120.3128,22.6431,(07)3125436,羅氏家用新冠病毒抗原自我檢測套組,32,2022/05/07 09:50:02,快篩實名制下午3點30分開始販售，發號碼牌           **5／6（五）快篩實名制上午9點30分開始販售，發號碼牌
5902051642,安寧藥局,高雄市三民區嫩江街３９號,120.2981,22.64208,(07)3217585,羅氏家用新冠病毒抗原自我檢測套組,11,2022/05/07 09:50:02,無
5902051866,久大藥局,高雄市三民區本文里立忠路３２號１Ｆ,120.3253,22.65318,(07)3858116,羅氏家用新冠病毒抗原自我檢測套組,7,2022/05/07 09:50:02,無
5902053833,建銘藥局,高雄市三民區吉林街２６２號,120.3068,22.64818,(07)3133460,羅氏家用新冠病毒抗原自我檢測套組,2,2022/05/07 09:50:02,0900營業時間販賣口罩.售完為止
5902054689,善全藥局,高雄市三民區義華路３９１號,120.3332,22.64339,(07)3960269,羅氏家用新冠病毒抗原自我檢測套組,1,2022/05/07 09:50:02,開始營業即販售，售完為止，其它看休息公告.
5902056638,柏仁藥局,高雄市三民區覺民路５０４號,120.3317,22.64092,(07)3976016,羅氏家用新冠病毒抗原自我檢測套組,60,2022/05/07 09:50:02,實名制快篩下午3點開賣，現場排隊，售完為止
5902057126,民安藥局,高雄市三民區嫩江街７０號,120.2985,22.64282,(07)3121381,羅氏家用新冠病毒抗原自我檢測套組,10,2022/05/07 09:50:02,販賣快篩09:00~12:00_16:00~18:00_19:00~21:00（售完為止）
5902057144,欣仁惠藥局,高雄市三民區大昌二路２４８號,120.3323,22.64529,(07)3837833,羅氏家用新冠病毒抗原自我檢測套組,78,2022/05/07 09:50:02,無
5902057484,永勝藥局,高雄市三民區褒忠街１１４號,120.334,22.64262,(07)3814643,羅氏家用新冠病毒抗原自我檢測套組,4,2022/05/07 09:50:02,新冠檢測組-今日銷售中---（售完為止）
5902057902,利安藥局,高雄市三民區建工路５４５號,120.3213,22.64854,(07)3965550,羅氏家用新冠病毒抗原自我檢測套組,9,2022/05/07 09:50:02,營業日9:00AM起販賣口罩，售完為止
5902060150,永明藥局,高雄市新興區仁智街２２３號,120.3027,22.62084,(07)2619832,羅氏家用新冠病毒抗原自我檢測套組,44,2022/05/07 09:50:02,政府專用快篩劑限量販售中，週一至週日早上十時起。5月7日（六）早上9點半開始售完為止！
5902080474,弘宗藥局,高雄市苓雅區武智街２號,120.3356,22.62303,(07)7211088,羅氏家用新冠病毒抗原自我檢測套組,15,2022/05/07 09:50:02,08:30後販售實名制快篩 ，庫存以現場為主。請勿來電詢問餘量
5902080803,功安中西大藥局,高雄市苓雅區三多二路２９１號,120.3195,22.61858,(07)7215949,羅氏家用新冠病毒抗原自我檢測套組,47,2022/05/07 09:50:02,快篩試劑早上8:00開賣
5902080858,福興藥局,高雄市苓雅區成功一路５２號,120.2983,22.6131,(07)3331862,羅氏家用新冠病毒抗原自我檢測套組,23,2022/05/07 09:50:02,每日上午九點販賣快篩試劑售完止.營業時間9-21時.
5902081186,寶麒藥局,高雄市苓雅區三多一路１４４號,120.3315,22.62306,(07)7610355,羅氏家用新冠病毒抗原自我檢測套組,37,2022/05/07 09:50:02,1.停售口罩  2.星期天不販售快篩試劑.
5902083457,順一藥局,高雄市苓雅區田西里成功一路２１０號,120.2969,22.61696,(07)3330011,羅氏家用新冠病毒抗原自我檢測套組,8,2022/05/07 09:50:02,營業時間早上8點30 至12點下午3點至9點（12點至3點休息）
5902083591,晨安藥局,高雄市苓雅區興中一路１６０號,120.3096,22.61753,(07)3365463,羅氏家用新冠病毒抗原自我檢測套組,2,2022/05/07 09:50:02,每日上午9開始販賣快篩.售完為止
5902084703,瑞生藥局,高雄市苓雅區自強三路３１號,120.2996,22.61376,(07)3305239,羅氏家用新冠病毒抗原自我檢測套組,28,2022/05/07 09:50:02,自6／1日~12／31日，營業日09:30~23:00為販賣口罩時間.售完為止
5902084785,新良安藥局,高雄市苓雅區苓雅二路１０６號,120.2987,22.61731,(07)3386980,羅氏家用新冠病毒抗原自我檢測套組,6,2022/05/07 09:50:02,早上9點開始代售實名制快篩.星期天早上有代售實名制快篩
5902085031,上好藥局,高雄市苓雅區四維一路六三號一樓,120.3294,22.6257,(07)7266863,羅氏家用新冠病毒抗原自我檢測套組,32,2022/05/07 09:50:02,快篩販售時間＞＞上午10:30~下午13:00
5902085184,惠春藥局,高雄市苓雅區武慶三路９６號,120.3319,22.62043,(07)7611358,羅氏家用新冠病毒抗原自我檢測套組,6,2022/05/07 09:50:02,「藥局販售口罩時間，依藥局門口公告時間為主（售完為止）」
5902085228,永森藥局,高雄市苓雅區建國一路２９０號,120.3262,22.63308,(07)7163087,羅氏家用新冠病毒抗原自我檢測套組,44,2022/05/07 09:50:02,快篩代售時間:營業時間
5902085344,意祥藥局,高雄市苓雅區武廟路１４２之１號,120.3276,22.63125,(07)7224835,羅氏家用新冠病毒抗原自我檢測套組,6,2022/05/07 09:50:02,藥局販售口罩時間，依藥局門口公告時間為主（售完為止）
5902085371,加和藥局,高雄市苓雅區和平一路１４３之７號,120.3205,22.62331,(07)7219332,羅氏家用新冠病毒抗原自我檢測套組,78,2022/05/07 09:50:02,快篩試劑每日下午2:30販售，務再來電詢問。星期天不販售快篩試劑
5902090167,勝惠藥局,高雄市前鎮區忠孝里三多三路７１號,120.3122,22.6163,(07)3354766,羅氏家用新冠病毒抗原自我檢測套組,21,2022/05/07 09:50:02,快篩發放時間早上9點
5902092205,百宏中西大藥局,高雄市前鎮區復興三路１９４號,120.3117,22.61311,(07)3386719,羅氏家用新冠病毒抗原自我檢測套組,27,2022/05/07 09:50:02,無
5902092296,迎廣藥局,高雄市前鎮區林森三路１５０號２樓,120.3089,22.61357,(07)3321466,羅氏家用新冠病毒抗原自我檢測套組,14,2022/05/07 09:50:02,週一至周六08:30至12:00  15:00至18:00 19:00至21:30 星期六晚休息  星期日休息
5902092321,彥芳藥局,高雄市前鎮區長江街６５號１樓,120.3156,22.60993,(07)3302007,羅氏家用新冠病毒抗原自我檢測套組,9,2022/05/07 09:50:02,實名制快篩及口罩銷售時間:  週一至週六 早上8:30 開始賣完為止（ 備註 : 週日公休` 週六營業到下午6:00止）
5902092410,旺盛藥局,高雄市前鎮區永豐路１０８號,120.3337,22.6065,(07)7512899,羅氏家用新冠病毒抗原自我檢測套組,1,2022/05/07 09:50:02,過年期間 111／01／31下午至111／02／03  休診
5902092910,健家藥局,高雄市前鎮區二聖二路４５號,120.3165,22.61293,(07)3389986,羅氏家用新冠病毒抗原自我檢測套組,22,2022/05/07 09:50:02,早上9:30營業，售完為止
5902110628,悅是康藥局,高雄市小港區漢民路２７６號,120.3536,22.56665,(07)8010012,羅氏家用新冠病毒抗原自我檢測套組,49,2022/05/07 09:50:02,每日早上10:00開賣、不須拿號碼牌、領完為止。
5903010270,福心藥局,臺中市豐原區中正路７１５號１樓,120.7014,24.2491,(04)25229292,羅氏家用新冠病毒抗原自我檢測套組,71,2022/05/07 09:50:02,快篩販賣時間5／4-5／5下午4點.5／6-5／9改早上10點.週日休
5903010449,豐原藥局,臺中市豐原區新生北路２０６號之１（１樓）,120.7219,24.2551,(04)25260119,羅氏家用新冠病毒抗原自我檢測套組,56,2022/05/07 09:50:02,今日號碼牌已發送完畢
5903010556,升禾和大藥局,臺中市豐原區育英路２６號１樓,120.7163,24.24346,(04)25293099,羅氏家用新冠病毒抗原自我檢測套組,78,2022/05/07 09:50:02,快篩試劑1800領取.採現場排隊.售完為止
5903020089,新明通藥局,臺中市東勢區豐勢路２３２號１樓,120.8302,24.25113,(04)25873969,羅氏家用新冠病毒抗原自我檢測套組,47,2022/05/07 09:50:02,5／6 8:30     5／7 9:30
5903040072,碧綠谷藥局,臺中市清水區中華路５２５號,120.5718,24.27605,(04)26281151,羅氏家用新冠病毒抗原自我檢測套組,7,2022/05/07 09:50:02,09:30發放快篩.星期日休息.癌症諮詢.慢箋領藥.長照特約.更年期.糖尿病.戒菸諮詢.孕期保健.小兒營養
5903040107,佑全清水中山三藥局,臺中市清水區中山路２４、２６、２８號１樓,120.572,24.26043,(04)26224469,羅氏家用新冠病毒抗原自我檢測套組,78,2022/05/07 09:50:02,5／7實名制快篩發放時間下午2:00開始，1:50發放號碼牌，請關注本藥局臉書隨時公告最新訊息。慢箋牙科箋領藥全年無休。
5903050103,北勢進騰藥局,臺中市沙鹿區北勢東路５０９之７號１樓,120.576,24.22526,(04)26330893,羅氏家用新冠病毒抗原自我檢測套組,78,2022/05/07 09:50:02,營業時間12:00-22:00，每日12:00販售實名制快篩
5903060092,佑全梧棲文化藥局,臺中市梧棲區文化路二段１５０號１樓,120.531,24.25526,(04)26566433,羅氏家用新冠病毒抗原自我檢測套組,78,2022/05/07 09:50:02,實名制快篩，下午1:50發號碼牌，14:00開始販售
5903060127,沐光藥師連鎖藥局梧棲店,臺中市梧棲區文昌路４４９號１樓,120.5386,24.24486,(04)26562262,羅氏家用新冠病毒抗原自我檢測套組,44,2022/05/07 09:50:02,實名制快篩當天物流配送到就開賣（https:／／reurl.cc／NA67lm） 營業時間 9:30~21:30慢箋領藥／長照特約／孕期&小兒保健
5903080138,佑全神岡中山藥局,臺中市神岡區中山路５４９、５４９之１、５４９之２號１樓,120.6842,24.24638,(04)25634677,羅氏家用新冠病毒抗原自我檢測套組,78,2022/05/07 09:50:02,5／7下午1點50分發號碼牌2點開賣
5903090116,上宇藥局,臺中市潭子區中山路２段３８１號１樓,120.7051,24.21301,(04)25321258,羅氏家用新冠病毒抗原自我檢測套組,50,2022/05/07 09:50:02,週一至週五上午9點至12點，下午三點至九點，週六，日，早上9點至12點，依序發售快篩。
5903090143,佳福藥局,臺中市潭子區中山路１段４３－１號,120.7023,24.19138,(04)25332982,羅氏家用新冠病毒抗原自我檢測套組,78,2022/05/07 09:50:02,每日中午12:00至下午3:00休息，星期六公休，營業日上午8:00快篩試劑開賣
5903090394,全球健康藥局,臺中市潭子區南環路５號１樓,120.7045,24.21661,(04)25340212,羅氏家用新冠病毒抗原自我檢測套組,48,2022/05/07 09:50:02,無
5903100037,大雅東亞藥師大藥局,臺中市大雅區民生路１段２２、２２－１號,120.6543,24.22924,(04)25605233,羅氏家用新冠病毒抗原自我檢測套組,32,2022/05/07 09:50:02,5／7號.....早上9點半開賣....
5903100091,樂心藥局,臺中市大雅區建興路１４３號,120.6659,24.21654,(04)25682568,羅氏家用新冠病毒抗原自我檢測套組,78,2022/05/07 09:50:02,每日上午10:00販售。星期日公休
5903150019,統元藥局,臺中市烏日區中華路５８３號,120.6342,24.10755,(04)23377588,羅氏家用新冠病毒抗原自我檢測套組,65,2022/05/07 09:50:02,快篩販售時間:早上9:00至12:00或（售完即止）.
5903150135,全品藥局,臺中市烏日區公園路２４０之１號１樓,120.6254,24.10234,(04)23362690,羅氏家用新冠病毒抗原自我檢測套組,56,2022/05/07 09:50:02,週一 ~ 週五  下午2:00 & 週六 早上9點 販售 ，售完為止
5903150171,上益藥局,臺中市烏日區公園路３２０號１樓,120.6238,24.10287,(04)23360398,羅氏家用新冠病毒抗原自我檢測套組,40,2022/05/07 09:50:02,快篩實際到貨開始賣至售完為止
5903150180,九德藥局,臺中市烏日區中山路一段４３８、４４０號１樓,120.6365,24.10748,(04)23385456,羅氏家用新冠病毒抗原自我檢測套組,78,2022/05/07 09:50:02,快篩實名制，每天16:00開始販售，售完為止。
5903160088,必安藥局,臺中市大肚區沙田路二段６３４號,120.5455,24.15084,(04)26992116,羅氏家用新冠病毒抗原自我檢測套組,78,2022/05/07 09:50:02,**限購1份**早上8點販售**每天固定78份，非156**
5903170020,理想藥局,臺中市龍井區國際街１２１號,120.5953,24.18672,(04)26521597,羅氏家用新冠病毒抗原自我檢測套組,17,2022/05/07 09:50:02,快篩周一到周五，傍晚6點開賣。星期六早上8點半，星期日，依現場公告。
5903170146,向陽藥師連鎖藥局,臺中市龍井區中央路三段３７號１樓,120.5248,24.21176,(04)26390500,羅氏家用新冠病毒抗原自我檢測套組,73,2022/05/07 09:50:02,實名制快篩當天物流配送到就開賣，營業時間:0930~2130慢箋領藥.長照特約.更年期.糖尿病.孕期保健.小兒營養
5903190022,藥源藥局,臺中市太平區中山路４段２２０號,120.7019,24.14817,(04)23955108,羅氏家用新冠病毒抗原自我檢測套組,33,2022/05/07 09:50:02,無
5903190139,劍橋藥局,臺中市太平區宜昌路５５２號１樓,120.7157,24.14758,(04)22776619,羅氏家用新冠病毒抗原自我檢測套組,23,2022/05/07 09:50:02,星期一到星期日
5903190335,育賢德侑藥局,臺中市太平區育賢路１０７號、１０９號,120.7219,24.15768,(04)23920696,羅氏家用新冠病毒抗原自我檢測套組,90,2022/05/07 09:50:02,實名制快篩販售時間：星期一~星期日 早上8:30點開賣（售完為止）
5903190380,及宏藥局,臺中市太平區樹孝路５０２號,120.7205,24.15806,(04)23919911,羅氏家用新冠病毒抗原自我檢測套組,8,2022/05/07 09:50:02,5／3起快篩發放時段為晚間6:30開始，詳情請隨時看臉書公告
5903190737,精武丁丁藥局,臺中市太平區中山路四段１３２－１號,120.7044,24.14856,(04)23957235,羅氏家用新冠病毒抗原自我檢測套組,14,2022/05/07 09:50:02,無
5903200229,信元藥局,臺中市大里區益民路２段３７２號１樓,120.684,24.11545,(04)24876051,羅氏家用新冠病毒抗原自我檢測套組,60,2022/05/07 09:50:02,下午5點發號碼牌並依序販賣
5903200621,德芳東榮藥局,臺中市大里區東榮路８號,120.6893,24.1102,(04)24863898,羅氏家用新冠病毒抗原自我檢測套組,9,2022/05/07 09:50:02,快篩販售時間：下午3點~6點，現場排隊，完售即停
5903200649,躍獅日新藥局,臺中市大里區日新路３４２號１樓,120.6925,24.11528,(04)24822345,羅氏家用新冠病毒抗原自我檢測套組,43,2022/05/07 09:50:02,每日9:00代售口罩及快篩（星期日公休）（週六到17:30）
5903200658,德芳成功藥局,臺中市大里區成功路５３５－３號１樓,120.7033,24.0913,(04)24920298,羅氏家用新冠病毒抗原自我檢測套組,21,2022/05/07 09:50:02,快篩販售時間:下午3點~6點
5903200667,永欣東榮藥局,臺中市大里區東榮路３７０號１樓,120.6836,24.11032,(04)24810599,羅氏家用新冠病毒抗原自我檢測套組,1,2022/05/07 09:50:02,快篩發放無特定時間.收到貨即發放.營業時間早上08:30至晚上10:00
5903200738,杏一大里國光藥局,臺中市大里區國光路二段４１１號１樓,120.6796,24.10921,(04)24071492,羅氏家用新冠病毒抗原自我檢測套組,78,2022/05/07 09:50:02,周一至周六16:00~19:00，周日及補假日人力不足不販售
5903220141,雙十小林健保藥局,臺中市中區雙十路一段３５號,120.6855,24.14172,(04)22253662,羅氏家用新冠病毒抗原自我檢測套組,33,2022/05/07 09:50:02,每日8點販賣
5903220169,公園大藥局,臺中市中區公園路９５號１樓,120.6796,24.1462,(04)22062682,羅氏家用新冠病毒抗原自我檢測套組,24,2022/05/07 09:50:02,每日上午8點至下午11點59分
5903230183,恒生藥局,臺中市東區樂業路３９５號１樓,120.7051,24.138,(04)22135179,羅氏家用新冠病毒抗原自我檢測套組,78,2022/05/07 09:50:02,快篩11點開始過卡，中午1~3點為清消時間 暫停發放。周日公休。另有提供領慢箋服務及保健食品，任何疑問請洽藥師。
5903230209,東京藥師藥局,臺中市東區復興路五段１４９號１樓,120.6893,24.14543,(04)22132278,羅氏家用新冠病毒抗原自我檢測套組,30,2022/05/07 09:50:02,無
5903230227,東區小林健保藥局,臺中市東區十甲路４８５號１樓,120.7104,24.14464,(04)22135148,羅氏家用新冠病毒抗原自我檢測套組,32,2022/05/07 09:50:02,無
5903240410,德芳美村藥局,臺中市西區美村路一段６８１、６８３號１樓,120.6618,24.13545,(04)23782848,羅氏家用新冠病毒抗原自我檢測套組,2,2022/05/07 09:50:02,周一到周五下午3點~6點
5903240438,真誠藥局,臺中市西區美村路一段３７８號１樓,120.6615,24.14458,(04)23015750,羅氏家用新冠病毒抗原自我檢測套組,40,2022/05/07 09:50:02,世鴻診所旁，星期六雙號8:30開始販售，中午休息，週日休息
5903240447,大樹五權藥局,臺中市西區五權路９７－１號１樓,120.6717,24.14626,(04)22022910,羅氏家用新冠病毒抗原自我檢測套組,1,2022/05/07 09:50:02,快篩實名制，每天16:00開始販售，售完為止。
5903250194,元氣家藥局,臺中市南區文心南路８８８－３號１樓,120.6594,24.11167,(04)22631660,羅氏家用新冠病毒抗原自我檢測套組,78,2022/05/07 09:50:02,政府配送時間不定，販售時間以門市公告為準! 庫存依現場為準!星期日公休!
5903250587,俊達藥師藥局,臺中市南區五權南路５２９號１樓,120.6698,24.11692,(04)22650023,羅氏家用新冠病毒抗原自我檢測套組,19,2022/05/07 09:50:02,快篩販售時間上午9點至12點，周日店休
5903250596,白金藥局,臺中市南區復興路一段３８０號４樓,120.6564,24.11572,(04)22609879,羅氏家用新冠病毒抗原自我檢測套組,24,2022/05/07 09:50:02,星期一至六早上9:30開始販售快篩
5903260449,喜樂藥局,臺中市北區中清路１段３１號,120.677,24.1529,(04)22060423,羅氏家用新冠病毒抗原自我檢測套組,47,2022/05/07 09:50:02,無
5903260476,康媞藥局,臺中市北區北平路二段１２８號１樓,120.6774,24.17124,(04)22925388,羅氏家用新冠病毒抗原自我檢測套組,1,2022/05/07 09:50:02,無
5903260654,康新藥局,臺中市北區五權路２３２號,120.677,24.15078,(04)22020008,羅氏家用新冠病毒抗原自我檢測套組,46,2022/05/07 09:50:02,無
5903260789,瑞昌藥局,臺中市北區學士路１５５號１樓,120.6807,24.15841,(04)22056819,羅氏家用新冠病毒抗原自我檢測套組,18,2022/05/07 09:50:02,每日中午9:00開始販售，販售至21:30（周日不販售）
5903260798,光恒藥局,臺中市北區五權路２６１號１樓,120.6767,24.15097,(04)22068638,羅氏家用新冠病毒抗原自我檢測套組,7,2022/05/07 09:50:02,快篩 周一到周六早上8:00到12:00 開放購買
5903260896,中清丁丁藥局,臺中市北區中清路一段５３１號１樓,120.6728,24.1678,(04)22919866,羅氏家用新冠病毒抗原自我檢測套組,1,2022/05/07 09:50:02,快篩實名制到貨後開始販售  facebook公告 賣完為止
5903270061,青育藥師藥局,臺中市西屯區河南路２段３６２號１樓,120.6469,24.17368,(04)27068798,羅氏家用新冠病毒抗原自我檢測套組,64,2022/05/07 09:50:02,週一至週六早上9:00開始販賣口罩、週日早上10:00開始販售口罩
5903270105,樂得好大藥局,臺中市西屯區上石路２號１樓,120.644,24.16669,(04)24521173,羅氏家用新冠病毒抗原自我檢測套組,3,2022/05/07 09:50:02,試劑09:00販賣（依到貨狀況滾動式調整）
5903270230,大心藥局,臺中市西屯區西屯路２段２９５－１９號,120.6418,24.17795,(04)24528355,羅氏家用新冠病毒抗原自我檢測套組,2,2022/05/07 09:50:02,實名制快篩，早上9:00開始販售（售完為止），星期日固定公休
5903270392,瑞德大藥局,臺中市西屯區中清西二街８４號,120.6671,24.17511,(04)22939820,羅氏家用新冠病毒抗原自我檢測套組,18,2022/05/07 09:50:02,固定周一至周日早上9:00開始販售口罩.售完為止
5903270776,河南丁丁藥局,臺中市西屯區河南路４段１９１號,120.6367,24.15565,(04)22511658,羅氏家用新冠病毒抗原自我檢測套組,1,2022/05/07 09:50:02,周一至周日每天上午9:00開始販售口罩[有口罩庫存時]
5903270847,分子藥局,臺中市西屯區惠來路二段２３６－１號,120.6421,24.16318,(04)22513080,羅氏家用新冠病毒抗原自我檢測套組,49,2022/05/07 09:50:02,發放時間週一至週日早上10點起售完為止
5903270927,河南小林健保藥局,臺中市西屯區河南路二段２９８號１樓,120.6485,24.17477,(04)24512830,羅氏家用新冠病毒抗原自我檢測套組,6,2022/05/07 09:50:02,固定每日早上8點發放口罩號碼牌，下午4點半開始販售。
5903270936,新元藥局,臺中市西屯區文心路三段５３２號１樓,120.6659,24.17267,(04)23121383,羅氏家用新冠病毒抗原自我檢測套組,78,2022/05/07 09:50:02,5／1-5／2公休，快篩為滾動式配送，請電洽04-23121383
5903271031,美十樂中科藥局,臺中市西屯區西屯路三段１６６－６５號１樓,120.6129,24.19035,(04)24610219,羅氏家用新冠病毒抗原自我檢測套組,468,2022/05/07 09:50:02,醫事人員卡片損壞，暫時無法販賣快篩
5903271157,富康家健保藥局,臺中市西屯區漢成四街８號１樓,120.6652,24.17026,(04)23174741,羅氏家用新冠病毒抗原自我檢測套組,15,2022/05/07 09:50:02,無
5903271291,西屯長安藥局,臺中市西屯區成都路３６８號１樓,120.6641,24.17322,(04)22981221,羅氏家用新冠病毒抗原自我檢測套組,78,2022/05/07 09:50:02,快篩實名制，每天16:00開始販售，售完為止。
5903271308,祐生藥局,臺中市西屯區文華路３之１號１樓,120.6447,24.17535,(04)24517169,羅氏家用新冠病毒抗原自我檢測套組,192,2022/05/07 09:50:02,快篩發放時間：第一批中午12:00，第二批傍晚18:00，售完為止
5903280361,誠美健保藥局,臺中市南屯區南屯路２段１６９號１樓,120.6509,24.1361,(04)24752000,羅氏家用新冠病毒抗原自我檢測套組,12,2022/05/07 09:50:02,週一~週六快篩試劑早上九點開賣（週日公休），售完為止!
5903280567,康總藥局,臺中市南屯區南屯路二段１０１號１樓,120.6524,24.13579,(04)24735285,羅氏家用新冠病毒抗原自我檢測套組,32,2022/05/07 09:50:02,周一到周日每日上午收到貨立即發送，發完為止（營業時間到晚上10:00）。
5903280718,樂活藥局,臺中市南屯區大聖街３３２號１樓,120.6508,24.15401,(04)23106301,羅氏家用新冠病毒抗原自我檢測套組,3,2022/05/07 09:50:02,無
5903280898,佑全台中忠勇藥局,臺中市南屯區忠勇路５１－８號１樓,120.614,24.14376,(04)23803282,羅氏家用新冠病毒抗原自我檢測套組,78,2022/05/07 09:50:02,實名制快篩發放號碼牌13:50  販售14:00（限量78份）
5903290045,康美得藥局,臺中市北屯區昌平路１段１０５－８號,120.6903,24.17373,(04)22467128,羅氏家用新冠病毒抗原自我檢測套組,20,2022/05/07 09:50:02,早上9:30開始。W日早上10點販售。快篩使用方法請上（康美得藥局）官方臉書
5903290385,元復藥局,臺中市北屯區東山路１段２２５－７號,120.7155,24.17475,(04)24362075,羅氏家用新冠病毒抗原自我檢測套組,72,2022/05/07 09:50:02,上午7:20-7:40及8:20起發號碼牌。
5903290607,敦化小林健保藥局,臺中市北屯區敦化路１段６６８號,120.6643,24.18593,(04)24261881,羅氏家用新冠病毒抗原自我檢測套組,2,2022/05/07 09:50:02,每日早上8:00領號碼牌，16:30再回藥局領口罩（全年無休）
5903290661,康博中西健保藥局,臺中市北屯區后庄一街７號１樓,120.6644,24.1865,(04)24252468,羅氏家用新冠病毒抗原自我檢測套組,1,2022/05/07 09:50:02,快篩下午01:00發售53份；晚上06:00銷售25份.週六.日及假日下午06:30開始依配送滾動調整
5903290689,大德安藥局,臺中市北屯區景賢路２３６號,120.7241,24.16701,(04)24378351,羅氏家用新冠病毒抗原自我檢測套組,1,2022/05/07 09:50:02,口罩代售時間從週一到週六09:00~現場排隊售完為止星期日早上10:00起至售完為止
5903290947,德寶健保藥局,臺中市北屯區熱河路一段７０號１樓,120.687,24.1674,(04)22325511,羅氏家用新冠病毒抗原自我檢測套組,78,2022/05/07 09:50:02,下午二點開始販賣快篩試劑
5903291104,惠登藥局,臺中市北屯區豐樂路３２之９號１樓,120.6897,24.19282,(04)24225682,羅氏家用新冠病毒抗原自我檢測套組,44,2022/05/07 09:50:02,今日快篩量已完售
5903291159,均福藥局,臺中市北屯區軍福十三路１００號１樓,120.7308,24.17096,(04)24391169,羅氏家用新冠病毒抗原自我檢測套組,3,2022/05/07 09:50:02,快篩實名制規則:晚上七點依現場排隊順序發號碼牌 （周日公休不販售）
5903291248,潔西卡大藥局,臺中市北屯區崇德路二段３１４號１樓,120.686,24.1765,(04)22416879,羅氏家用新冠病毒抗原自我檢測套組,48,2022/05/07 09:50:02,無
5903291275,康是美藥局東山店,臺中市北屯區東山路一段３２０號１樓、和福路２５８號１樓,120.7229,24.17591,(04)24364571,羅氏家用新冠病毒抗原自我檢測套組,27,2022/05/07 09:50:02,無
5905030047,大源醫藥局,臺南市白河區中山路１７２之２號,120.4177,23.35257,(06)6852306,羅氏家用新冠病毒抗原自我檢測套組,12,2022/05/07 09:50:02,防疫快篩，每周一至日，上午7:30~晚上9:00販售，售完為止
5905070050,晶德昌藥局,臺南市善化區文光里中山路８５號,120.3034,23.13298,(06)5856141,羅氏家用新冠病毒抗原自我檢測套組,76,2022/05/07 09:50:02,14:30-16:00.依號碼牌售完為止
5905140011,振安藥局,臺南市官田區隆田里中山路一段６０號,120.3178,23.1929,(06)5791810,羅氏家用新冠病毒抗原自我檢測套組,76,2022/05/07 09:50:02,無
5905140039,安安藥局隆田店,臺南市官田區中山路一段１５號１樓,120.3186,23.1927,(06)5795705,羅氏家用新冠病毒抗原自我檢測套組,1,2022/05/07 09:50:02,全日口罩販賣
5905200094,大華藥局,臺南市新市區大社里大社７０８號１樓,120.3176,23.08945,(06)5997119,羅氏家用新冠病毒抗原自我檢測套組,60,2022/05/07 09:50:02,週一至週五8:30、週六14:00發號碼牌收健保卡（現場排隊人數眾多會提前發放，避免群聚）。 收卡後兩小時再來取回。
5905210027,愛心藥師藥局,臺南市安定區港南里港口１４７號,120.233,23.09041,(06)5935104,羅氏家用新冠病毒抗原自我檢測套組,38,2022/05/07 09:50:02,春節營業時間請電洽或依現場公告
5905310157,信仁藥局,臺南市永康區中華西街１４９號,120.2257,23.01581,(06)2337755,羅氏家用新冠病毒抗原自我檢測套組,33,2022/05/07 09:50:02,實名制快篩販售時間 : 9:30起至售完為止
5905310871,晶辰藥局,臺南市永康區大灣里民族路３９６巷１號、３號１樓、３９８號１樓,120.2661,23.00825,(06)2733368,羅氏家用新冠病毒抗原自我檢測套組,10,2022/05/07 09:50:02,周一~周五早上10點開始售完為止，周六日10點開始售完為止
5905311127,台南永康藥局,臺南市永康區中山南路８１６、８１６─１、２、３號１樓,120.2471,23.02099,(06)2020201,羅氏家用新冠病毒抗原自我檢測套組,1,2022/05/07 09:50:02,快篩實名制，每天16:00開始販售，售完為止。
5905320091,台和群康藥局,臺南市東區崇善路４７０號１樓,120.2295,22.97292,(06)2891360,羅氏家用新冠病毒抗原自我檢測套組,18,2022/05/07 09:50:02,每日0900後發售快篩試劑 數量有限售完為止
5905320135,安麗兒藥局裕農店,臺南市東區裕農路１００號１樓,120.2268,22.9857,(06)2377378,羅氏家用新冠病毒抗原自我檢測套組,76,2022/05/07 09:50:02,實名制快篩販售時間:星期一到星期日下午三點~售完
5905320797,大樹自由藥局,臺南市東區自由路三段３８２號１樓,120.2373,22.98241,(06)2890800,羅氏家用新冠病毒抗原自我檢測套組,78,2022/05/07 09:50:02,快篩實名制，每天16:00開始販售，售完為止。
5905320966,安納藥局,臺南市東區裕文路２３５號１樓,120.2438,22.98249,(06)3313316,羅氏家用新冠病毒抗原自我檢測套組,76,2022/05/07 09:50:02,早上10點開賣，一人一卡，認卡不認人，第二份請排第二輪，現場排隊，不發號碼牌
5905330113,進祥藥局,臺南市南區文南里健康路２段３４２－１號１樓,120.1879,22.98205,(06)2630571,羅氏家用新冠病毒抗原自我檢測套組,40,2022/05/07 09:50:02,週一到週六，早上9:00開始販售快篩，售完為止。
5905330417,明興啄木鳥藥局,臺南市南區明興路５１號１樓,120.1883,22.95974,(06)2620793,羅氏家用新冠病毒抗原自我檢測套組,78,2022/05/07 09:50:02,每日10:00開始賣實名制快篩，若配送延遲則14:30開始。
5905340164,田邊藥局,臺南市中西區中正路２３６號,120.1969,22.99326,(06)2200106,羅氏家用新冠病毒抗原自我檢測套組,87,2022/05/07 09:50:02,口罩下午1:00販售售完為止.請自備零錢，
5905350302,旻恩藥局,臺南市北區公園里北門路二段３７－１號,120.2123,22.99817,(06)2260590,羅氏家用新冠病毒抗原自我檢測套組,17,2022/05/07 09:50:02,口罩領取時間:週一至周五早上09:00-12:00 下午2:30-5:30 晚間6:30-9:00。周六早上09-12下午2:30-5:30售完為止
5905350311,美康藥局,臺南市北區公園路３７５－５號,120.2102,23.00597,(06)2810311,羅氏家用新冠病毒抗原自我檢測套組,24,2022/05/07 09:50:02,快篩實名制販賣時間上午9:00~11:00
5905350384,北安台安藥局,臺南市北區北安路一段１６３號,120.2087,23.01755,(06)2518166,羅氏家用新冠病毒抗原自我檢測套組,72,2022/05/07 09:50:02,家用快篩試劑 1100開始販售
5905370135,安南日日康藥局,臺南市安南區安和路五段３３號,120.2185,23.06398,(06)3550995,羅氏家用新冠病毒抗原自我檢測套組,11,2022/05/07 09:50:02,實名制快篩試劑周一至周六下午2點開始售完為止
5905370180,安南啄木鳥藥局,臺南市安南區安和路一段１０７號,120.2143,23.02826,(06)2821265,羅氏家用新冠病毒抗原自我檢測套組,1,2022/05/07 09:50:02,5／7早上9:00
5905380051,安平藥局,臺南市安平區國平路５６６號１樓,120.1719,22.99676,(06)2970551,羅氏家用新冠病毒抗原自我檢測套組,10,2022/05/07 09:50:02,目前快篩配送時間不定.收到才能販售.售完為止.請自備剛好金額.售完為止.週日公休.
5907010098,建明藥局,高雄市鳳山區海洋一路１２２號,120.3449,22.60985,(07)7668550,羅氏家用新冠病毒抗原自我檢測套組,9,2022/05/07 09:50:02,實名制快篩試劑9:30開始販售，售完為止
5907010187,人人好藥局,高雄市鳳山區五甲三路１０巷７號１樓,120.3278,22.59336,(07)8151566,羅氏家用新冠病毒抗原自我檢測套組,34,2022/05/07 09:50:02,上午0830-1330下午1530-2100， 自2／11-2／29口罩販售周一三四五日，時間:9:00-12:00售完為止
5907010267,禾康藥局,高雄市鳳山區瑞竹路１６號１樓,120.3662,22.62462,(07)7997139,羅氏家用新冠病毒抗原自我檢測套組,1,2022/05/07 09:50:02,發快篩時間為早上9點開始，售完即止，星期日公休
5907010276,愛家社區藥局,高雄市鳳山區福德街１４１號,120.3267,22.59042,(07)8123698,羅氏家用新冠病毒抗原自我檢測套組,9,2022/05/07 09:50:02,星期一~星期日早上9:30開始販售快篩，現場發號碼牌，售完為止
5907010409,好郝藥局,高雄市鳳山區武松里經武路１７８號１樓,120.3642,22.63619,(07)7468840,羅氏家用新冠病毒抗原自我檢測套組,78,2022/05/07 09:50:02,營業日15:00開始販售快篩，售完為止
5907010427,好郝藥局鳳林店,高雄市鳳山區誠智里鳳林路２９０號,120.3779,22.62216,(07)7869188,羅氏家用新冠病毒抗原自我檢測套組,78,2022/05/07 09:50:02,健保快篩周一到周六（周日不販售）下午三點開始現場販售，售完為止
5907010927,元元鳳山藥局,高雄市鳳山區一甲里五甲二路３４８之１號１樓,120.3377,22.59955,(07)7529595,羅氏家用新冠病毒抗原自我檢測套組,82,2022/05/07 09:50:02,現場排隊，自備500元不找零!一至五下午3-6點。星期六下午2-5點。星期日公休
5907011068,新高橋藥局文龍東店,高雄市鳳山區鎮北里文龍東路３１０號,120.3666,22.64074,(07)7353946,羅氏家用新冠病毒抗原自我檢測套組,78,2022/05/07 09:50:02,快篩星期一~六 早上9:50發號碼牌 10:00準時販售快篩
5907011148,大樹國泰藥局,高雄市鳳山區興仁里五甲一路２９２號,120.3539,22.61698,(07)7407234,羅氏家用新冠病毒抗原自我檢測套組,78,2022/05/07 09:50:02,快篩實名制，每天16:00開始販售，售完為止。
5907011193,新高橋藥局新富店,高雄市鳳山區新泰里新富路４２８號１樓,120.3451,22.61288,(07)9630233,羅氏家用新冠病毒抗原自我檢測套組,78,2022/05/07 09:50:02,早上10:00開始販售口罩
5907011273,鳳山服安藥局,高雄市鳳山區忠義里中山西路３８０號１樓,120.3409,22.62906,(07)7406330,羅氏家用新冠病毒抗原自我檢測套組,17,2022/05/07 09:50:02,自3／1日~3／31日，營業日08:00~21:00為販賣口罩時間
5907011291,桂林活力藥師藥局鳳山店,高雄市鳳山區中正里瑞興路４８８號１樓,120.3719,22.63089,(07)7012827,羅氏家用新冠病毒抗原自我檢測套組,154,2022/05/07 09:50:02,早上9點發放號碼牌，發完號碼牌即售完
5907011497,久億藥局,高雄市鳳山區新泰里海洋一路１２１號１樓,120.3441,22.61007,(07)7663095,羅氏家用新冠病毒抗原自我檢測套組,4,2022/05/07 09:50:02,快篩販售時間 早上9點至售完為止
5907030090,睛好活力藥局,高雄市旗山區湄洲里中山路１２７號,120.482,22.88873,(07)6625119,羅氏家用新冠病毒抗原自我檢測套組,5,2022/05/07 09:50:02,無
5907060034,化春藥師藥局,高雄市大寮區中庄里中庄路３７號,120.3964,22.63453,(07)7037275,羅氏家用新冠病毒抗原自我檢測套組,1,2022/05/07 09:50:02,快篩實名制星期一至星期五早上8:00開始，六.日9:00開始
5907060043,永成專業藥師藥局,高雄市大寮區中興里鳳林四路６２號,120.3878,22.6152,(07)7816221,羅氏家用新冠病毒抗原自我檢測套組,10,2022/05/07 09:50:02,星期一至五.銷售時間早上09:30開始.星期六.日為早上10:00開始
5907060098,佳和健保藥局,高雄市大寮區鳳林三路５１２號,120.3954,22.60616,(07)7821500,羅氏家用新冠病毒抗原自我檢測套組,1,2022/05/07 09:50:02,自2／11日~2／29日，營業日8:30~12:00、15:00-21:00為販賣口罩時間，售完為止。
5907080189,德昌藥局仁雄店,高雄市仁武區灣內里仁雄路３８、３８－１、３８－２號,120.3506,22.68074,(07)3749166,羅氏家用新冠病毒抗原自我檢測套組,71,2022/05/07 09:50:02,固定週一至週日14:30~16:00開始發放號碼牌並依序販售快篩.售完為止
5907080214,新高橋藥局八德中店,高雄市仁武區八卦里八德中路８６、８８、９０號,120.3393,22.68489,(07)3485857,羅氏家用新冠病毒抗原自我檢測套組,78,2022/05/07 09:50:02,藥局電話 07-3736437
5907080223,新高橋藥局仁雄店,高雄市仁武區赤山里仁雄路８９－３號,120.3457,22.67722,(07)3485857,羅氏家用新冠病毒抗原自我檢測套組,78,2022/05/07 09:50:02,藥局電話07-3743243
5907080330,文武藥局,高雄市仁武區文武里中華路３５３號,120.3535,22.7011,(07)3733551,羅氏家用新冠病毒抗原自我檢測套組,78,2022/05/07 09:50:02,快篩實名制，每天16:00開始販售，售完為止。
5907140126,天德藥局阿蓮店,高雄市阿蓮區南蓮里忠孝路１６８、１７０號,120.3304,22.87917,(07)6311566,羅氏家用新冠病毒抗原自我檢測套組,12,2022/05/07 09:50:02,販售快篩時間：視快篩到貨時間即開始販售
5907150024,安麗兒藥局路竹店,高雄市路竹區大社路５１號１樓,120.262,22.8632,(07)6071699,羅氏家用新冠病毒抗原自我檢測套組,78,2022/05/07 09:50:02,快篩實名制，週一至週六，早上8：30 開始，售完為止（週日無販售）
5907150202,永昌藥局,高雄市路竹區延平路８１號,120.2579,22.85786,(07)6964321,羅氏家用新冠病毒抗原自我檢測套組,113,2022/05/07 09:50:02,周一至周六上午10:00~12:30；下午15:30-18:00開始依序販售快篩試劑，售完為止。星期日休息。
5907150220,天德藥局路竹店,高雄市路竹區忠孝路２６－２、２６－３號１樓,120.2601,22.86059,(07)6975656,羅氏家用新冠病毒抗原自我檢測套組,78,2022/05/07 09:50:02,下午三點發放快篩
5907160075,安麗兒藥局東方店,高雄市湖內區湖東里東方路９０號,120.2483,22.87968,(07)6936029,羅氏家用新冠病毒抗原自我檢測套組,78,2022/05/07 09:50:02,領快篩時間一~日早上11點開始~售完 （以郵局配送時間為主）
5907160093,保生藥局,高雄市湖內區葉厝里保生路３４０．３４２號,120.2195,22.90733,(07)6990800,羅氏家用新冠病毒抗原自我檢測套組,1,2022/05/07 09:50:02,快篩實名制，每天16:00開始販售，售完為止。
5907290176,為安藥局,高雄市鼓山區九如四路９５９號,120.2788,22.65541,(07)5212912,羅氏家用新冠病毒抗原自我檢測套組,71,2022/05/07 09:50:02,快篩實名制販賣時間：星期一至星期六  10:00開始，賣完為止  星期日休息
5907290238,聯合藥師藥局,高雄市鼓山區中華一路９７０號１樓,120.2919,22.65515,(07)5500558,羅氏家用新冠病毒抗原自我檢測套組,78,2022/05/07 09:50:02,預計中午12:00開始販售快篩，請從騎樓排隊並遵守防疫規範
5907290274,明誠丁丁藥局,高雄市鼓山區明誠三路４６５號,120.3011,22.66097,(07)5520120,羅氏家用新冠病毒抗原自我檢測套組,42,2022/05/07 09:50:02,無
5907290327,金好藥局,高雄市鼓山區青海路４１８號１樓,120.2845,22.65177,(07)5869556,羅氏家用新冠病毒抗原自我檢測套組,78,2022/05/07 09:50:02,無
5907300024,重愛藥局,高雄市左營區文自路９３０號１樓,120.3161,22.68547,(07)3501870,羅氏家用新冠病毒抗原自我檢測套組,64,2022/05/07 09:50:02,下午2:30開始販售口罩
5907300168,金元藥局,高雄市左營區重愛路２２０號,120.3156,22.68562,(07)3458378,羅氏家用新冠病毒抗原自我檢測套組,5,2022/05/07 09:50:02,快篩試劑郵差配送，約10點至11點左右會送到藥局，即開始販售，星期四，六營業時間至中午12點
5907300211,勁好健保藥局,高雄市左營區果峰街１２巷２６號１樓,120.2881,22.67178,(07)5855767,羅氏家用新冠病毒抗原自我檢測套組,77,2022/05/07 09:50:02,無
5907300346,正心藥師藥局,高雄市左營區左營大路４７３之２號,120.295,22.68946,(07)5880386,羅氏家用新冠病毒抗原自我檢測套組,11,2022/05/07 09:50:02,快篩試劑 9:00開賣，售完為止! 12:00-14:00 休息! W6 和 W7 不販售快篩!
5907300613,新高橋藥局河堤店,高雄市左營區裕誠路１４４號１樓及地下１樓,120.3095,22.66423,(07)5582806,羅氏家用新冠病毒抗原自我檢測套組,78,2022/05/07 09:50:02,下午1:30開始販售口罩至下午5:30
5907300659,維康藥局高榮店,高雄市左營區榮總路１６３號、１６５號,120.3216,22.6809,(07)3494540,羅氏家用新冠病毒抗原自我檢測套組,78,2022/05/07 09:50:02,平常日0900-1700為快篩販賣時間賣完為止！假日1000-1800
5907300677,佳寧峰藥局,高雄市左營區部後街２號,120.2886,22.6834,(07)5886408,羅氏家用新冠病毒抗原自我檢測套組,18,2022/05/07 09:50:02,快篩試劑販賣時段:上午8:30起至售完為止
5907300766,悠仁藥局,高雄市左營區自由三路１７０號,120.3113,22.67165,(07)3457979,羅氏家用新冠病毒抗原自我檢測套組,23,2022/05/07 09:50:02,今日快篩0900開始販售。如提前一天配送，則為早上0900販售。不便之處，敬請見諒
5907300800,元大藥師健保藥局,高雄市左營區榮德街３２７號,120.3211,22.68636,(07)3507531,羅氏家用新冠病毒抗原自我檢測套組,68,2022/05/07 09:50:02,無
5907300882,得孚社區藥局,高雄市左營區重立路５３３號１樓,120.3098,22.67955,(07)3410121,羅氏家用新冠病毒抗原自我檢測套組,24,2022/05/07 09:50:02,營業日上午09:30-11:30為販賣快篩時間.三四下午200-400販售
5907300908,明自丁丁藥局,高雄市左營區自由二路１５２號１樓,120.3089,22.66223,(07)5568902,羅氏家用新冠病毒抗原自我檢測套組,39,2022/05/07 09:50:02,無
5907300953,翔生藥局,高雄市左營區左營大路５１４號,120.2953,22.68921,(07)5827329,羅氏家用新冠病毒抗原自我檢測套組,6,2022/05/07 09:50:02,快篩實名制早上9點開賣
5907300971,健勝藥局,高雄市左營區勝利路１２７－１號１樓,120.2896,22.6806,(07)5811169,羅氏家用新冠病毒抗原自我檢測套組,24,2022/05/07 09:50:02,下午14:00販售當日配送的快篩，上午09:00後會販售前日剩餘的量（若有剩餘的話）
5907310173,安健藥局,高雄市楠梓區鳳楠路２５０號,120.3296,22.72617,(07)3520167,羅氏家用新冠病毒抗原自我檢測套組,5,2022/05/07 09:50:02,2／06起營業日早上8點開始販賣，周六日早上8:30 .售完為止
5907310280,久和藥局,高雄市楠梓區德民路１００６－５號,120.2863,22.71906,(07)3659555,羅氏家用新冠病毒抗原自我檢測套組,15,2022/05/07 09:50:02,9:00開始販售實名制快篩 國定假日.周日休息.
5907310388,宸實藥局,高雄市楠梓區後昌路４７巷２３－１號,120.3129,22.71975,(07)3642142,羅氏家用新冠病毒抗原自我檢測套組,8,2022/05/07 09:50:02,5／7（六）09:00開賣，W1星期一 ~ W5星期五（10:30開賣）。W6星期六（9:00開賣）。貨運時間尚未穩定請以快篩地圖公告為準。
5907320179,新高橋藥局天祥店,高雄市三民區天祥一路１１７號,120.3205,22.66711,(07)3102683,羅氏家用新冠病毒抗原自我檢測套組,78,2022/05/07 09:50:02,上午10:00開始販售快篩，9:50發號碼牌
5907320302,新高橋藥局明誠店,高雄市三民區明誠一路４９２號,120.3226,22.66046,(07)3107072,羅氏家用新冠病毒抗原自我檢測套組,69,2022/05/07 09:50:02,早上10:00開始販售口罩
5907320535,康誠藥局,高雄市三民區建工路６１６號,120.3228,22.64934,(07)3893889,羅氏家用新冠病毒抗原自我檢測套組,41,2022/05/07 09:50:02,星期一~星期日早上09：30~11：50。星期一~星期六下午15：30~17：50、晚上19：30~21：20
5907320580,丸之內藥局,高雄市三民區十全二路３２１、３２３號,120.2923,22.64601,(07)3156688,羅氏家用新冠病毒抗原自我檢測套組,78,2022/05/07 09:50:02,無
5907320633,勁康健保藥局,高雄市三民區義華路４０２號１樓,120.3331,22.64371,(07)3966716,羅氏家用新冠病毒抗原自我檢測套組,76,2022/05/07 09:50:02,如為當日配量快篩實名制配貨到即可販售，若前一日就到貨，則早上10點開始
5907320866,意朋建興藥局,高雄市三民區建興路２２５號１樓,120.3251,22.64418,(07)3929507,羅氏家用新冠病毒抗原自我檢測套組,86,2022/05/07 09:50:02,無
5907320946,熊安心藥局,高雄市三民區陽明路４０８號,120.3429,22.64609,(07)3815212,羅氏家用新冠病毒抗原自我檢測套組,37,2022/05/07 09:50:02,週一 ~ 週六快篩 14:00 販售
5907320964,森心藥局,高雄市三民區自強一路２１６號１樓,120.2917,22.63527,(07)2818580,羅氏家用新冠病毒抗原自我檢測套組,9,2022/05/07 09:50:02,快篩購買時間星期一至五中午12點，售完為止。 星期六、日早上九點販售。
5907321005,諾亞藥局,高雄市三民區鼎華路１４號１樓,120.3164,22.65139,(07)3929966,羅氏家用新冠病毒抗原自我檢測套組,78,2022/05/07 09:50:02,快篩早上10:00開始，營業時間:（一-五）早上8:00-12:00，下午02:30-6:00（五-下午5:30休息，六-開上午半天，日-休息）
5907321069,桂林活力藥局九如店,高雄市三民區懷安街１１２號１樓,120.3176,22.64095,(07)3981009,羅氏家用新冠病毒抗原自我檢測套組,78,2022/05/07 09:50:02,每天15:30發號碼牌，於18:00前兌換完畢，逾期棄權，剩餘則繼續發放
5907321078,振源藥局,高雄市三民區熱河一街３５５號１樓,120.3061,22.64365,(07)3112541,羅氏家用新冠病毒抗原自我檢測套組,11,2022/05/07 09:50:02,4／30起15:00開始販售快篩，六日皆有營業
5907330031,健美藥局,高雄市新興區復興一路４０之４號,120.3084,22.62985,(07)2291108,羅氏家用新冠病毒抗原自我檢測套組,2,2022/05/07 09:50:02,111／5／3近期因供貨時間不穩定.先取消上午8:40販售快篩.實際以收到貨時間開始販賣
5907330219,美麗島台安藥局,高雄市新興區中山一路１１５號地下２樓（轉換層）,120.3015,22.63155,(07)2365490,羅氏家用新冠病毒抗原自我檢測套組,78,2022/05/07 09:50:02,位於美麗島捷運站內，往西子灣方向地下二樓。販賣時間依現場公告為主，可來電詢問。
5907350186,中美藥局,高雄市苓雅區武廟路９８號,120.3303,22.6307,(07)7151149,羅氏家用新冠病毒抗原自我檢測套組,34,2022/05/07 09:50:02,快篩試劑販售，週一~週六09:30開始
5907350220,仁愛藥師藥局,高雄市苓雅區中正一路２３０號,120.3296,22.62921,(07)7222300,羅氏家用新冠病毒抗原自我檢測套組,76,2022/05/07 09:50:02,快篩販售一到五10:00開始發號碼牌，紅字假日12:00開始發號碼牌
5907350328,安杏藥局,高雄市苓雅區四維二路９４－１７號,120.3197,22.62273,(07)7511739,羅氏家用新冠病毒抗原自我檢測套組,24,2022/05/07 09:50:02,快篩試劑代售時間自早上9:00點服務
5907350480,健森藥局,高雄市苓雅區林森二路１３８號１、２樓,120.3066,22.62054,(07)3365169,羅氏家用新冠病毒抗原自我檢測套組,34,2022/05/07 09:50:02,早上9點領牌 下午3~5點領口罩
5907350560,成功合豐藥局,高雄市苓雅區成功一路１７０號１樓,120.2972,22.61595,(07)2695657,羅氏家用新冠病毒抗原自我檢測套組,24,2022/05/07 09:50:02,早上9點開始賣口罩~晚上9點   售完為止
5907350597,武廟台安藥局,高雄市苓雅區武廟路１３３－１號,120.3266,22.63106,(07)7228893,羅氏家用新冠病毒抗原自我檢測套組,1,2022/05/07 09:50:02,實名制快篩販售時間：（一）~（六） 9:00~17:00
5907360324,有承中西藥局,高雄市前鎮區德昌路２５７號１樓,120.3155,22.5849,(07)8120880,羅氏家用新冠病毒抗原自我檢測套組,4,2022/05/07 09:50:02,配合政府實名制快篩， 早上08:00發放號碼牌
5907360520,大樹瑞福藥局,高雄市前鎮區瑞隆路１７０號１樓、２樓,120.3357,22.60598,(07)7271170,羅氏家用新冠病毒抗原自我檢測套組,78,2022/05/07 09:50:02,快篩實名制，每天16:00開始販售，售完為止。
5907360584,聖名健保藥局,高雄市前鎮區復興三路２４６號１樓,120.312,22.61558,(07)3319431,羅氏家用新冠病毒抗原自我檢測套組,61,2022/05/07 09:50:02,無
5907360600,桂林活力藥師藥局草衙店,高雄市前鎮區草衙二路３６０號,120.323,22.57801,(07)8131819,羅氏家用新冠病毒抗原自我檢測套組,16,2022/05/07 09:50:02,9:00發放實名制快篩號碼牌.售完為止
5907360655,民權丁丁藥局,高雄市前鎮區民權二路３４５號１－３樓,120.3128,22.61005,(07)9650177,羅氏家用新冠病毒抗原自我檢測套組,5,2022/05/07 09:50:02,快篩實名制早上9點開始販售
5907360664,忠純藥局,高雄市前鎮區中華五路１００９號１樓,120.3056,22.60341,(07)3366886,羅氏家用新冠病毒抗原自我檢測套組,78,2022/05/07 09:50:02,快篩實名制，每天16:00開始販售，售完為止。
5907380184,桂林活力藥師藥局孔鳳店,高雄市小港區孔鳳路５６１號１樓,120.3586,22.58393,(07)7912331,羅氏家用新冠病毒抗原自我檢測套組,8,2022/05/07 09:50:02,無
5907380291,富康活力藥局小港店,高雄市小港區二苓路２０４號１樓,120.3488,22.56552,(07)8020333,羅氏家用新冠病毒抗原自我檢測套組,39,2022/05/07 09:50:02,實名制快篩販售時間: 星期一至五早上8點，星期六日早上9點，售完為止。
5907380317,朋盛藥局,高雄市小港區大鵬路１４２號,120.3586,22.56906,(07)8017288,羅氏家用新冠病毒抗原自我檢測套組,2,2022/05/07 09:50:02,健保快篩販售時間為星期一至星期六早上8點半
5907380353,桂林活力藥師藥局漢民店,高雄市小港區漢民路６９１－１及６９１－２號１樓,120.3614,22.56762,(07)8010636,羅氏家用新冠病毒抗原自我檢測套組,4,2022/05/07 09:50:02,無
5907380399,百鴻藥局,高雄市小港區康莊路１１５號,120.3549,22.56888,(07)8024141,羅氏家用新冠病毒抗原自我檢測套組,75,2022/05/07 09:50:02,無
5907380424,大樹小港藥局,高雄市小港區康莊路７５號１樓,120.3559,22.56853,(07)8068328,羅氏家用新冠病毒抗原自我檢測套組,78,2022/05/07 09:50:02,快篩實名制，每天16:00開始販售，售完為止。
5911011334,海大藥局,基隆市中正區新豐街２５５號１樓,121.7879,25.13621,(02)24699222,羅氏家用新冠病毒抗原自我檢測套組,78,2022/05/07 09:50:02,平日：8：30~12：00，15：00~21：30；星期日：~12：00
5911011585,雙鶴藥局,基隆市中正區義一路３５號１樓,121.7456,25.13309,(02)24263193,羅氏家用新冠病毒抗原自我檢測套組,5,2022/05/07 09:50:02,下午14:00開始販售
5911021438,正心藥局,基隆市七堵區南興路１０號１樓,121.7149,25.09755,(02)24563378,羅氏家用新冠病毒抗原自我檢測套組,78,2022/05/07 09:50:02,每日限量78盒， 星期一~六下午13:30發號碼牌，14:00開始販賣，星期日上午9:00發號碼牌，9:30開始販賣，12:00停止領取
5911031176,家宏藥局,基隆市暖暖區源遠路２８１之２號１樓,121.7563,25.0992,(02)24595982,羅氏家用新冠病毒抗原自我檢測套組,46,2022/05/07 09:50:02,4／30~5／3無配送實名制快篩試劑，4天無試劑販售.
5911040273,第一藥局,基隆市仁愛區愛三路１２０號３樓,121.7436,25.12963,(02)24292288,羅氏家用新冠病毒抗原自我檢測套組,78,2022/05/07 09:50:02,快篩試劑每天下午12點發號碼牌，12點20分到14點販售
5911041350,何房藥局,基隆市仁愛區忠三路８１號,121.7389,25.12931,(02)24222978,羅氏家用新冠病毒抗原自我檢測套組,78,2022/05/07 09:50:02,無
5911041403,佑昌藥局,基隆市仁愛區南榮路１７號,121.7423,25.12697,(02)24293309,羅氏家用新冠病毒抗原自我檢測套組,21,2022/05/07 09:50:02,無
5911041510,聯安藥局,基隆市仁愛區仁二路２５１號２樓,121.7428,25.1296,(02)24288809,羅氏家用新冠病毒抗原自我檢測套組,1,2022/05/07 09:50:02,安東耳鼻喉科二樓循環站正對面 快篩販售時間9:00-11:50， 假日9:00-11:00 售完為止
5911041949,捷登藥局,基隆市仁愛區孝三路９２號１樓,121.7399,25.1309,(02)24237888,羅氏家用新冠病毒抗原自我檢測套組,33,2022/05/07 09:50:02,國定假日有提供藥事調劑服務
5911041967,東隆藥局,基隆市仁愛區仁二路１０５號２樓,121.7482,25.12742,(02)24260727,羅氏家用新冠病毒抗原自我檢測套組,21,2022/05/07 09:50:02,無
5911051409,順豐藥局,基隆市中山區中華路４號,121.7388,25.14545,(02)24369176,羅氏家用新冠病毒抗原自我檢測套組,78,2022/05/07 09:50:02,家用快篩每日下午2點起隨到隨領售完為止。
5912012120,仁美藥局,新竹市東區振興里振興路５２號,120.9625,24.79493,(03)5625398,羅氏家用新冠病毒抗原自我檢測套組,78,2022/05/07 09:50:02,週一~週六晚上六點販售（週日店休）不發號碼牌!請不要問我要幾點排隊，我不是九天玄女!盡量不打電話，感恩!!
5912012353,康田大藥局,新竹市東區金山街１０２號１樓,121.0238,24.77687,(03)5638217,羅氏家用新冠病毒抗原自我檢測套組,78,2022/05/07 09:50:02,週一-六 AM10點販售快篩 週日休息沒賣
5912012433,安安大藥局,新竹市東區金山里光復路一段１６３巷２號,121.0223,24.78144,(03)5772655,羅氏家用新冠病毒抗原自我檢測套組,78,2022/05/07 09:50:02,快篩實名制 5／7.5／8 13:00販售
5912012988,杏康健保特約藥局,新竹市東區光復路一段５２５巷２３號１樓,121.0135,24.78384,(03)5772966,羅氏家用新冠病毒抗原自我檢測套組,22,2022/05/07 09:50:02,週一至五09:00-21:00 （週六公休） 週日09:00-18:00
5912013412,牛津藥局,新竹市東區民族路６２號１樓,120.9756,24.8067,(03)5320780,羅氏家用新冠病毒抗原自我檢測套組,33,2022/05/07 09:50:02,無
5912013458,佑全新竹自由藥局,新竹市東區自由路１０７號１、２樓,120.9798,24.81395,(03)5428497,羅氏家用新冠病毒抗原自我檢測套組,13,2022/05/07 09:50:02,實名制快篩依指揮中心公告每日販售時間以當日到貨時間為主，無固定時間。門市營業時間0900-2100
5912013547,佑全新竹光復藥局,新竹市東區仙水里光復路１段３５３號１樓,121.0176,24.78315,(03)6661826,羅氏家用新冠病毒抗原自我檢測套組,13,2022/05/07 09:50:02,（5／6開始恢復上午販售）上午9:30開賣，9:20發號碼牌
5912013609,丁丁藥局,新竹市東區中華路二段９１號,120.9812,24.80794,(03)6117888,羅氏家用新冠病毒抗原自我檢測套組,13,2022/05/07 09:50:02,無
5912013654,七二八藥局,新竹市東區明湖路１２４５號１樓,120.979,24.76774,(03)5200530,羅氏家用新冠病毒抗原自我檢測套組,1,2022/05/07 09:50:02,5／7政府快篩，12:30開始販售。
5912040491,全禾藥局,新竹市北區潛園里集和街２５號,120.9616,24.80483,(03)5249173,羅氏家用新冠病毒抗原自我檢測套組,41,2022/05/07 09:50:02,早上9點半至12點，下午3點至9點
5912042066,佑健藥局,新竹市北區經國路二段５３１號１樓,120.9556,24.80447,(03)5230356,羅氏家用新冠病毒抗原自我檢測套組,15,2022/05/07 09:50:02,快篩販賣時段:早上9:30現場排隊至售完為止
5912042235,均祐健康藥局,新竹市北區境福里１５鄰中正路３８９號１樓,120.961,24.81546,(03)5325369,羅氏家用新冠病毒抗原自我檢測套組,28,2022/05/07 09:50:02,口罩販售時間：09:00
5912042664,永沛藥局,新竹市北區湳雅街２０９號,120.9741,24.82093,(03)5328563,羅氏家用新冠病毒抗原自我檢測套組,78,2022/05/07 09:50:02,快篩周一~周六 15:00開賣 現場排隊 請別再打電話來問  PS:請自帶一張500鈔票，不收其他面額
5912042986,仁佑藥局,新竹市北區南寮里西濱路一段５００號１樓,120.9342,24.8422,(03)5363818,羅氏家用新冠病毒抗原自我檢測套組,78,2022/05/07 09:50:02,周一~周五13：00開始販售實名制快篩，周日不販售
5912051467,健佑藥局,新竹市香山區大庄路４５巷２、６號,120.9284,24.78931,(03)5306555,羅氏家用新冠病毒抗原自我檢測套組,78,2022/05/07 09:50:02,快篩試劑下午兩點開始販售
5917010082,仁壽藥局,臺中市中區東墩里三民路三段１號,120.6817,24.14482,(04)22228058,羅氏家用新冠病毒抗原自我檢測套組,52,2022/05/07 09:50:02,週一至週日上午9時30分起販售快篩劑
5917010126,永大藥局,臺中市中區錦上里民族路１２２號,120.6786,24.14054,(04)22210180,羅氏家用新冠病毒抗原自我檢測套組,39,2022/05/07 09:50:02,09:00開始代售快篩，人多會發號碼牌。明天早上（5／8） 8:00開始販售
5917011945,正三吉藥局,臺中市中區臺灣大道一段９５號,120.6831,24.13911,(04)22207700,羅氏家用新冠病毒抗原自我檢測套組,78,2022/05/07 09:50:02,快篩販售時間 14:00~17:00
5917020122,周藥師藥局,臺中市東區合作里力行路５５號１樓,120.6956,24.15085,(04)23606800,羅氏家用新冠病毒抗原自我檢測套組,1,2022/05/07 09:50:02,營業時間早上8:30-12:30 下午2:30-晚上9:00 ｛8:30賣快篩；週日不賣快篩｝
5917030066,立安藥局,臺中市西區土庫里忠明南路３４８號,120.6576,24.14276,(04)23719125,羅氏家用新冠病毒抗原自我檢測套組,6,2022/05/07 09:50:02,每天09:00開始依排隊先後序開始發放號碼牌並配售口罩，售完為止。
5917030128,太信藥局,臺中市西區三民路一段９５－１號１樓,120.6698,24.13322,(04)23718318,羅氏家用新冠病毒抗原自我檢測套組,28,2022/05/07 09:50:02,健保卡快篩請0900自備500元／份
5917030520,林西藥局,臺中市西區向上路一段４６－１號,120.6661,24.14688,(04)23014023,羅氏家用新冠病毒抗原自我檢測套組,21,2022/05/07 09:50:02,每日早上9點開始依序當場領口罩，售完為止。
5917030600,永昇藥局,臺中市西區東昇里朝陽街４５號,120.6701,24.13522,(04)23717280,羅氏家用新冠病毒抗原自我檢測套組,20,2022/05/07 09:50:02,九時開賣快篩   周日休息
5917030726,元泉藥局,臺中市西區公益里中美街２５７號,120.6601,24.14874,(04)23015503,羅氏家用新冠病毒抗原自我檢測套組,19,2022/05/07 09:50:02,固定週一至週六早上8:30開始販售口罩.售完為止
5917030860,振聲藥局,臺中市西區公正里向上路１段４４７號１樓,120.6541,24.14654,(04)24721100,羅氏家用新冠病毒抗原自我檢測套組,5,2022/05/07 09:50:02,週一至週六早上9:00開始販售口罩，售完為止
5917032220,匯康藥局,臺中市西區向上路一段二七七號一樓,120.6585,24.14651,(04)23014038,羅氏家用新冠病毒抗原自我檢測套組,8,2022/05/07 09:50:02,週一至週六早上09:30開始販售至口罩售完為止
5917032462,名亨藥局,臺中市西區五權路２９號１樓,120.6696,24.14423,(04)22201089,羅氏家用新冠病毒抗原自我檢測套組,23,2022/05/07 09:50:02,每日上午8:20至12，下午3至6時販售.周 日  休 息. 周 六    下 午 休 息 .
5917032613,向日睽藥局,臺中市西區林森路９８－２號１樓,120.6707,24.1379,(04)23731893,羅氏家用新冠病毒抗原自我檢測套組,7,2022/05/07 09:50:02,快篩.每天早上9點開賣
5917032908,佑恩藥師藥局,臺中市西區精誠路６７號１樓,120.6553,24.15224,(04)23100058,羅氏家用新冠病毒抗原自我檢測套組,60,2022/05/07 09:50:02,實名制快篩周一到周六，早上9:00，周日下午2:10開始販賣
5917040106,侑民藥局,臺中市南區興大路３９６巷４９號１樓,120.6712,24.11564,(04)22860146,羅氏家用新冠病毒抗原自我檢測套組,9,2022/05/07 09:50:02,週一至週日上午9點販賣防疫快篩試劑
5917040124,慧寧藥局,臺中市南區德義里忠孝路２號,120.6754,24.12662,(04)22851858,羅氏家用新冠病毒抗原自我檢測套組,30,2022/05/07 09:50:02,配合實名制快篩，星期一至星期六每天上午九時開始販售。
5917041765,荃大藥局,臺中市南區臺中路１５４號,120.6843,24.13114,(04)22858850,羅氏家用新冠病毒抗原自我檢測套組,10,2022/05/07 09:50:02,防疫快篩販售，早上09:10~10:00止...若貨運延誤，依門市公告販售時間
5917050433,松鶴藥局,臺中市北區文莊里篤行路２２４號,120.6738,24.15187,(04)22028790,羅氏家用新冠病毒抗原自我檢測套組,2,2022/05/07 09:50:02,口罩每日上午8:30開始販售，現場排隊售完為止。（全年無休）
5917050577,東生藥局,臺中市北區永興街１１２－１號１樓,120.6825,24.16152,(04)22358880,羅氏家用新冠病毒抗原自我檢測套組,50,2022/05/07 09:50:02,周一到周六上午8:30到晚上10:00開始販售口罩，周日公休
5917050586,仁柏藥局,臺中市北區賴明里山西街二段６２號,120.6758,24.16874,(04)22924462,羅氏家用新冠病毒抗原自我檢測套組,1,2022/05/07 09:50:02,實名制每日上午9:00開始現場排隊販售
5917050719,百鴻藥局,臺中市北區金龍里北屯路１３－１號,120.6914,24.15981,(04)22336330,羅氏家用新冠病毒抗原自我檢測套組,55,2022/05/07 09:50:02,固定周一至周五10.00--16.00 17.00--21.00開始販售口罩售完為止
5917050880,欣康藥局,臺中市北區館前路２１號,120.6657,24.15543,(04)23226837,羅氏家用新冠病毒抗原自我檢測套組,18,2022/05/07 09:50:02,週一至週六上午9時開始發放號碼牌，週日上午10時開始發放號碼牌。
5917053514,學士藥局,臺中市北區學士路１３號之１樓,120.6823,24.15372,(04)22015008,羅氏家用新冠病毒抗原自我檢測套組,156,2022/05/07 09:50:02,固定周一到周日，早上09:50開始發放號碼牌及販賣快篩
5917053550,嘉樂藥局,臺中市北區西屯路一段３５１－７號,120.6658,24.15956,(04)23263967,羅氏家用新冠病毒抗原自我檢測套組,29,2022/05/07 09:50:02,星期一~五8.30~12.30，14.00~21.30，星期六8.30-12.30
5917060064,揚善藥局,臺中市西屯區中清路二段１３８６巷７６號,120.6587,24.19602,(04)24251242,羅氏家用新冠病毒抗原自我檢測套組,2,2022/05/07 09:50:02,周一到周六上午 9:00-22:30發售，售完為止
5917060322,瑞康藥局,臺中市西屯區長安路二段２號１樓,120.6612,24.1724,(04)22914046,羅氏家用新冠病毒抗原自我檢測套組,55,2022/05/07 09:50:02,營業時間8:30~21:30 （家用快篩，酒精及防疫口罩）
5917060359,明達藥局,臺中市西屯區何厝里青海路一段１７號,120.6564,24.16345,(04)23137079,羅氏家用新冠病毒抗原自我檢測套組,18,2022/05/07 09:50:02,固定周一至周六9:30開始販售口罩
5917062353,典安大藥局,臺中市西屯區西屯路３段１５９－６０號,120.6177,24.18807,(04)24616571,羅氏家用新冠病毒抗原自我檢測套組,75,2022/05/07 09:50:02,每天10:00發放快篩
5917062406,健康藥局,臺中市西屯區何南里大墩１９街２６號１樓,120.6568,24.15693,(04)23190305,羅氏家用新冠病毒抗原自我檢測套組,10,2022/05/07 09:50:02,原則上W1-W6 10:00開始販售快篩（視排隊狀況提前），星期日休息
5917063350,天立專業藥師藥局,臺中市西屯區太原路１段２０７號１樓,120.6617,24.16318,(04)23160455,羅氏家用新冠病毒抗原自我檢測套組,73,2022/05/07 09:50:02,週一~週六快篩9:00售完為止，週日中午12：00售完為止
5917063403,逢甲藥局,臺中市西屯區逢甲路１６２－１號１樓,120.6425,24.17809,(04)27085922,羅氏家用新冠病毒抗原自我檢測套組,26,2022/05/07 09:50:02,實名制快篩販售時間:每日早上9:30~12:00
5917063676,百惠藥師藥局,臺中市西屯區漢口路二段２４７號,120.6649,24.16696,(04)23169852,羅氏家用新冠病毒抗原自我檢測套組,3,2022/05/07 09:50:02,實名制快篩購買時間:星期一至五:早上9-11  ， 星期六早上10-12 ，星期日店休.
5917063725,永旭大藥局,臺中市西屯區逢甲路９２號１樓,120.6439,24.17883,(04)27087952,羅氏家用新冠病毒抗原自我檢測套組,1,2022/05/07 09:50:02,5／6起實名快篩，星期一到五早上10點開始，星期六日中午12點開始排隊販售。
5917070248,聯發藥局,臺中市南屯區溝墘里大墩路８５０號,120.6496,24.15551,(04)23262738,羅氏家用新冠病毒抗原自我檢測套組,78,2022/05/07 09:50:02,週一至周六早上十點開賣，以現場數量為主，售完為止。販售時間忙碌，恕無法接聽電話，請見諒。
5917070515,裕登藥局,臺中市南屯區大墩二街９１號１Ｆ,120.6515,24.13873,(04)24715280,羅氏家用新冠病毒抗原自我檢測套組,66,2022/05/07 09:50:02,固定周一到周日早上9:00開始販賣防疫口罩。
5917071781,吉運藥局,臺中市南屯區南屯里黎明路１段１１３５號,120.6382,24.14047,(04)23834755,羅氏家用新冠病毒抗原自我檢測套組,48,2022/05/07 09:50:02,固定周一到周六，早上8:00賣實名制快篩。不發號碼牌
5917071996,乾生大藥局,臺中市南屯區大業路９５號,120.6524,24.15336,(04)23281277,羅氏家用新冠病毒抗原自我檢測套組,7,2022/05/07 09:50:02,09:00
5917072564,恒安藥局,臺中市南屯區南屯路２段１１９號,120.652,24.13585,(04)24722887,羅氏家用新冠病毒抗原自我檢測套組,4,2022/05/07 09:50:02,5／7快篩試劑下午3:00開始販售，5／9（一）起快篩試劑早上8:30開始販售
5917080137,日盛藥局,臺中市北屯區東山路一段１４２-１１號,120.7036,24.16934,(04)24360810,羅氏家用新冠病毒抗原自我檢測套組,14,2022/05/07 09:50:02,每天（不含星期日）早上9點開始發售快篩，售完為止，歡迎洽購。
5917080762,順泰大藥局,臺中市北屯區北屯村北屯路１１５號,120.6939,24.165,(04)22341477,羅氏家用新冠病毒抗原自我檢測套組,49,2022/05/07 09:50:02,周三及周日公休，其餘時間每日上午9:00開賣，不需發號碼牌
5917082364,慈慧藥師藥局,臺中市北屯區平田里昌平路１段１７８號１Ｆ,120.6887,24.17108,(04)22389846,羅氏家用新冠病毒抗原自我檢測套組,16,2022/05/07 09:50:02,星期一到星期日早上9點開始販售，5／6已販售完
5917083209,崇德啄木鳥藥局,臺中市北屯區崇德路二段２１７號,120.6852,24.17423,(04)22410441,羅氏家用新冠病毒抗原自我檢測套組,7,2022/05/07 09:50:02,每天早上8點40分發放號碼牌發售口罩，當天領取。
5917083272,吉富康藥局,臺中市北屯區大連路三段９９號１樓,120.6935,24.17494,(04)22473057,羅氏家用新冠病毒抗原自我檢測套組,16,2022/05/07 09:50:02,營業時間早上9點至晚上9點，快篩早上9點開賣，中午12:30至14:00午休及清消，周日公休
5917083334,瑞東大藥局,臺中市北屯區東山路一段２４６之３號,120.7179,24.17542,(04)24373799,羅氏家用新冠病毒抗原自我檢測套組,92,2022/05/07 09:50:02,5／6 快篩 已售完
5917083343,豋盛藥局,臺中市北屯區北平路三段１０７號,120.6827,24.17117,(04)22373863,羅氏家用新冠病毒抗原自我檢測套組,78,2022/05/07 09:50:02,實名制快篩販賣時間:5／7日上午10點開賣
5921010223,王藥局,臺南市東區小東里小東路１９０－１號,120.2276,22.99976,(06)2378697,羅氏家用新冠病毒抗原自我檢測套組,78,2022/05/07 09:50:02,週一 至 週日，下午 2:00 ~ 晚上9:00 （ 需健保卡 ）
5921012094,王瑞敏藥師藥局,臺南市東區崇德路７３９號,120.2277,22.96801,(06)2896888,羅氏家用新冠病毒抗原自我檢測套組,2,2022/05/07 09:50:02,快篩送達時間不定（一般是早上）送達即開始販售至售完
5921021584,大愛藥局,臺南市南區大同路２段１８２號１樓,120.2135,22.97705,(06)2137587,羅氏家用新冠病毒抗原自我檢測套組,9,2022/05/07 09:50:02,星期一~日 09:00–售完 （全年無休）
5921021780,國山健保特約藥局,臺南市南區大同路２段４７８號,120.2145,22.97307,(06)2159570,羅氏家用新冠病毒抗原自我檢測套組,17,2022/05/07 09:50:02,無
5921030127,平安藥局,臺南市中西區永華路一段２３６號,120.1909,22.98852,(06)2292789,羅氏家用新冠病毒抗原自我檢測套組,1,2022/05/07 09:50:02,上午10:00到晚上23:00
5921040481,眾安藥局,臺南市北區文元里文賢路１０３４號,120.1938,23.0153,(06)2588339,羅氏家用新冠病毒抗原自我檢測套組,51,2022/05/07 09:50:02,星期一~六，上午10點下午9點.（星期日休假）快篩劑販售上午10點起
5921042289,公園店菁安藥局,臺南市北區公園路６１１號,120.2132,23.01501,(06)2834488,羅氏家用新冠病毒抗原自我檢測套組,52,2022/05/07 09:50:02,星期一~日08:00~20:00（或售完）
5921050076,千代藥局,臺南市中西區民生路一段６０號１樓,120.2034,22.99337,(06)2256895,羅氏家用新冠病毒抗原自我檢測套組,72,2022/05/07 09:50:02,快篩試劑實名制:星期1~6下午一點至三點販售（星期日當日貨到開始販售）
5921050423,吉仁大藥局,臺南市中西區白金里民權路２段８６號,120.2045,22.99468,(06)2263777,羅氏家用新冠病毒抗原自我檢測套組,49,2022/05/07 09:50:02,周ㄧ09:30~10:30到周日11:00~12:00開始依序購買快篩，售完為止。
5921051582,丞功藥局,臺南市中西區成功路３１號,120.2095,22.99747,(06)2287641,羅氏家用新冠病毒抗原自我檢測套組,6,2022/05/07 09:50:02,星期一-六08:00-售完
5921060143,嘉庭藥局,臺南市安南區海佃里國安街１１８號,120.1887,23.0224,(06)2581618,羅氏家用新冠病毒抗原自我檢測套組,67,2022/05/07 09:50:02,快篩試劑.進貨時間不確定.貨到即賣.請來電洽詢
5921060321,慈安藥局,臺南市安南區大安街５３號,120.1919,23.03148,(06)2551117,羅氏家用新冠病毒抗原自我檢測套組,78,2022/05/07 09:50:02,下午2:00
5921071226,康活藥局,臺南市安平區健康三街１８６號,120.1686,22.98883,(06)2936483,羅氏家用新冠病毒抗原自我檢測套組,4,2022/05/07 09:50:02,快篩晚上18:00開賣.
5922010147,普羅藥局,嘉義市東區民權路１１４號,120.458,23.48361,(05)2754836,羅氏家用新冠病毒抗原自我檢測套組,6,2022/05/07 09:50:02,快篩試劑實名制每日08:00開始銷售
5922010361,壽生堂藥局,嘉義市東區府路里延平街２８０號,120.4502,23.47683,(05)2225058,羅氏家用新冠病毒抗原自我檢測套組,19,2022/05/07 09:50:02,周一至周日上午09:00起，至20:00或售鑿為止。
5922011966,源豪藥局,嘉義市東區光華路８２號,120.4529,23.4782,(05)2169696,羅氏家用新冠病毒抗原自我檢測套組,16,2022/05/07 09:50:02,周一至周六，售鑿為止。周日休
5922012972,百佑藥局,嘉義市東區公明路８２號１樓,120.4602,23.48088,(05)2757387,羅氏家用新冠病毒抗原自我檢測套組,7,2022/05/07 09:50:02,固定周一至周六08:30開始*貨運*來才發放號碼牌並依序販售，售完為止
5922013111,富善藥局,嘉義市東區新生路２３４號,120.4609,23.48419,(05)2759559,羅氏家用新冠病毒抗原自我檢測套組,70,2022/05/07 09:50:02,5／13、14休假，實名制快篩早上9:10-12:00下午3:10-5:00
5922013120,大雅藥局,嘉義市東區大雅路二段４８７號,120.4714,23.47751,(05)2778237,羅氏家用新冠病毒抗原自我檢測套組,59,2022/05/07 09:50:02,有提前收到快篩就9:30營業就發 沒提前收到就依當天到貨時間發
5922013148,後庄弘安藥局,嘉義市東區吳鳳南路２９８號１樓,120.4587,23.4566,(05)2305678,羅氏家用新冠病毒抗原自我檢測套組,1,2022/05/07 09:50:02,無
5922013175,森活中西藥局,嘉義市東區吳鳳北路２０８號一樓,120.4533,23.47931,(05)2288518,羅氏家用新冠病毒抗原自我檢測套組,78,2022/05/07 09:50:02,8:30開始發放號碼牌，12:00~14:00領取快篩
5922013184,軍輝啄木鳥藥局,嘉義市東區軍輝路２２２號,120.4588,23.455,(05)2395963,羅氏家用新冠病毒抗原自我檢測套組,78,2022/05/07 09:50:02,週一~日下午4:00開始
5922020116,興業藥局,嘉義市西區福民里興業西路３８１號,120.4366,23.46751,(05)2861880,羅氏家用新冠病毒抗原自我檢測套組,23,2022/05/07 09:50:02,依到貨時間  售完為止
5922020358,泰春藥局,嘉義市西區學圃里民生北路６６號,120.4468,23.47543,(05)2224118,羅氏家用新冠病毒抗原自我檢測套組,26,2022/05/07 09:50:02,快篩試劑販售時間：早上9點至晚上9點
5922020456,啄木鳥藥局,嘉義市西區國華里文化路２５３號,120.4488,23.48298,(05)2226497,羅氏家用新冠病毒抗原自我檢測套組,5,2022/05/07 09:50:02,無
5922020581,杏安藥局,嘉義市西區書院里民族路７８６號,120.4409,23.47535,(05)2271727,羅氏家用新冠病毒抗原自我檢測套組,28,2022/05/07 09:50:02,無
5922020689,齊悅藥局,嘉義市西區西平里玉山路１４５號１樓,120.4274,23.47221,(05)2843514,羅氏家用新冠病毒抗原自我檢測套組,26,2022/05/07 09:50:02,星期一至星期六，星期日休息，早上九點開賣售完為止
5922020796,佑安藥局,嘉義市西區民權路４２３號１樓,120.4469,23.48185,(05)2278298,羅氏家用新冠病毒抗原自我檢測套組,17,2022/05/07 09:50:02,近期快篩配送時間不固定 每日預計上午10點半到貨
5922020858,大統藥局,嘉義市西區慶安里北興街１３６號,120.4421,23.48389,(05)2330230,羅氏家用新冠病毒抗原自我檢測套組,59,2022/05/07 09:50:02,5月7日預約登記已滿.有預約的民眾請於上午9:00點後領取
5922020938,仁愛弘安藥局,嘉義市西區仁愛路３９３號１樓,120.442,23.47654,(05)2239000,羅氏家用新冠病毒抗原自我檢測套組,3,2022/05/07 09:50:02,收到快篩即開賣，賣完為止
5922020956,國同藥局,嘉義市西區八德路１０１號１樓,120.4305,23.48528,(05)2327336,羅氏家用新冠病毒抗原自我檢測套組,5,2022/05/07 09:50:02,快篩早上9點販售.售完為止
5922020992,昭安藥局,嘉義市西區民生南路４７９號１樓,120.4437,23.45821,(05)2842240,羅氏家用新冠病毒抗原自我檢測套組,24,2022/05/07 09:50:02,無
5922028925,健安藥局,嘉義市西區民族路６２６號,120.4452,23.4757,(05)2281219,羅氏家用新冠病毒抗原自我檢測套組,1,2022/05/07 09:50:02,口罩:星期一至星期六9點-12點，15點-21點
592202A054,萬泰藥師藥局,嘉義市西區民族路４９４號,120.449,23.47605,(05)2168605,羅氏家用新冠病毒抗原自我檢測套組,6,2022/05/07 09:50:02,快篩實名制8:00開始販售
592202A358,國豐藥局,嘉義市西區北興街２４５－２號１樓,120.4386,23.4854,(05)2318473,羅氏家用新冠病毒抗原自我檢測套組,78,2022/05/07 09:50:02,週一至週六上午10:00開始販售，無號碼牌（週六下午及例假日停售）
592202A518,徠的安藥師藥局,嘉義市西區保安里世賢路１段６鄰５４９號,120.4306,23.48982,(05)2318532,羅氏家用新冠病毒抗原自我檢測套組,3,2022/05/07 09:50:02,無
5931010315,優良藥局,新北市板橋區莊敬路９３號,121.4727,25.02628,(02)22550251,羅氏家用新冠病毒抗原自我檢測套組,1,2022/05/07 09:50:02,無
5931010342,宏達大藥局,新北市板橋區莒光路１７號,121.47,25.02478,(02)22572345,羅氏家用新冠病毒抗原自我檢測套組,156,2022/05/07 09:50:02,快篩 晚上20:00開始販售! 不要打電話來 問題這麼多就到現場 也不給你問
5931010397,正成藥師藥局,新北市板橋區三民路２段１５４巷７號,121.4787,25.01515,(02)29512760,羅氏家用新冠病毒抗原自我檢測套組,78,2022/05/07 09:50:02,無
5931010726,賜您康大藥局,新北市板橋區國泰街５０號,121.4679,25.00668,(02)29513166,羅氏家用新冠病毒抗原自我檢測套組,65,2022/05/07 09:50:02,快篩配發時間，每天早上:10:00~11:00
5931010888,俊昌藥局,新北市板橋區三民路２段２４５巷１２號,121.4797,25.0125,(02)29642498,羅氏家用新冠病毒抗原自我檢測套組,48,2022/05/07 09:50:02,AM.9:15發號碼牌9:30開始販售
5931011009,祥聖藥局,新北市板橋區溪崑二街１１２巷３５弄１號,121.4253,24.98921,(02)26835677,羅氏家用新冠病毒抗原自我檢測套組,78,2022/05/07 09:50:02,5／7（六）下午1:30 販售。5／8（週日）早上9:00~10:00販售。5／9（一）下午1:30販售。
5931011223,民侑藥局,新北市板橋區大觀路２段３７巷３１０號,121.45,25.00221,(02)22755938,羅氏家用新冠病毒抗原自我檢測套組,10,2022/05/07 09:50:02,快篩號碼牌發放時間為早上9點。12點前須拿號碼牌完成購買。
5931011474,新欣藥局,新北市板橋區金門街１２８號,121.4328,24.99117,(02)26828061,羅氏家用新冠病毒抗原自我檢測套組,18,2022/05/07 09:50:02,實名制快篩每日上午9:00開始販售售完為止 星期日公休
5931012042,喬治藥局,新北市板橋區國慶路１５５號１樓,121.4616,24.99617,(02)29630787,羅氏家用新冠病毒抗原自我檢測套組,78,2022/05/07 09:50:02,數量依現場為主。13:00開賣，如排隊人數過半，將開始販售。離開隊伍，視同放棄排隊。星期日公休無販售
5931012131,中山大藥局,新北市板橋區中山路１段１０７號,121.4618,25.01025,(02)29575029,羅氏家用新冠病毒抗原自我檢測套組,10,2022/05/07 09:50:02,口罩配發時間.星期一~六早上9點開始.星期日下午1點開始
5931013692,合泰藥局,新北市板橋區忠孝路１９號１樓,121.4604,25.002,(02)29572437,羅氏家用新冠病毒抗原自我檢測套組,4,2022/05/07 09:50:02,無
5931014046,欣安藥局,新北市板橋區懷德街１０９號１樓,121.4786,25.03147,(02)82570296,羅氏家用新冠病毒抗原自我檢測套組,52,2022/05/07 09:50:02,目前快篩送貨時間不定，發放時間依現場公告為主。
5931014420,萬泰藥局,新北市板橋區信義路２２１之１號,121.4597,24.99145,(02)89645570,羅氏家用新冠病毒抗原自我檢測套組,78,2022/05/07 09:50:02,無
5931014537,友虹藥師藥局,新北市板橋區國光路１６號,121.457,25.01739,(02)29691181,羅氏家用新冠病毒抗原自我檢測套組,31,2022/05/07 09:50:02,早上十點開始販賣到十一點
5931015329,杏澤藥局,新北市板橋區國光路５５號,121.4584,25.01799,(02)29657959,羅氏家用新冠病毒抗原自我檢測套組,74,2022/05/07 09:50:02,口罩發放時間:星期一到星期六每天早上10；00-12；00
5931015687,正康健保藥局,新北市板橋區大觀路２段６５號１樓,121.4467,25.00246,(02)22756681,羅氏家用新冠病毒抗原自我檢測套組,78,2022/05/07 09:50:02,下午13:30依現場順序開始販售快篩，快篩配送絮亂庫存不準!!
5931015721,新進發大藥局,新北市板橋區大同街２４號１樓,121.4787,25.0275,(02)22593926,羅氏家用新冠病毒抗原自我檢測套組,47,2022/05/07 09:50:02,快篩上午10點開門即賣，排隊不發號碼
5931015749,品品藥局,新北市板橋區中山路２段４０２號〈１樓〉,121.4827,25.02073,(02)29647917,羅氏家用新冠病毒抗原自我檢測套組,35,2022/05/07 09:50:02,星期六9:30-15:30.連假上班9:30-15:30（半天）快篩每日下午4點發.
5931015874,家碩藥局,新北市板橋區金門街３００號,121.4289,24.98539,(02)26755715,羅氏家用新冠病毒抗原自我檢測套組,70,2022/05/07 09:50:02,快篩9點發號碼牌和收健保卡.中午12點至下午六點憑號碼牌領快篩和健保卡.
5931016273,湯明藥局,新北市板橋區中山路２段３１９號１樓,121.479,25.01866,(02)29571980,羅氏家用新冠病毒抗原自我檢測套組,78,2022/05/07 09:50:02,週一到週五 下午四點  六日時間未定 排隊不發號碼
5931016335,康匯藥局,新北市板橋區實踐路１６７號（１樓）,121.4644,25.00394,(02)29512610,羅氏家用新冠病毒抗原自我檢測套組,2,2022/05/07 09:50:02,★★★每天都有 現領不用等★★★
5931016595,宥康婦幼健保藥局,新北市板橋區仁化街３０號１樓,121.4748,25.03155,(02)82528162,羅氏家用新冠病毒抗原自我檢測套組,5,2022/05/07 09:50:02,實名制快篩78份 周一~週六 早上九點開賣....早點來唷 周日公休
5931016611,民川藥局,新北市板橋區四川路１段９７號１樓,121.4598,25.00544,(02)29520090,羅氏家用新冠病毒抗原自我檢測套組,40,2022/05/07 09:50:02,星期一~星期六（快篩上午9:00販售38份下午3:00販售40份）
5931016808,正安健保藥局,新北市板橋區民族路２２４號（１樓）,121.4687,25.00733,(02)29526813,羅氏家用新冠病毒抗原自我檢測套組,150,2022/05/07 09:50:02,17時依現場順序開始販售.週六12點.電腦配送庫存不準..以現場數量為準
5931017092,康橋藥局,新北市板橋區文化路１段２７３號,121.4646,25.01848,(02)22532560,羅氏家用新冠病毒抗原自我檢測套組,78,2022/05/07 09:50:02,快篩試劑 每天下午2點販售 不發號碼牌 售完為止 周日公休
5931017556,光鹽藥局,新北市板橋區中山路２段８４之２號（２樓）,121.4748,25.0161,(02)29552167,羅氏家用新冠病毒抗原自我檢測套組,1,2022/05/07 09:50:02,無
5931017636,福澤藥局,新北市板橋區南雅南路１段８５號（１樓）,121.4556,25.00543,(02)29690013,羅氏家用新冠病毒抗原自我檢測套組,78,2022/05/07 09:50:02,口罩代售9:00-23:00
5931017654,葆康藥局,新北市板橋區四川路２段２４５巷３號（１樓）,121.4507,24.99346,(02)89678373,羅氏家用新冠病毒抗原自我檢測套組,78,2022/05/07 09:50:02,下午四點開始販售實名制快篩，不用抽號碼牌，直接排隊購買。
5931017789,明翠藥局,新北市板橋區四維路１４６、１４８號１、２樓,121.4651,25.02555,(02)22550201,羅氏家用新冠病毒抗原自我檢測套組,78,2022/05/07 09:50:02,快篩實名制，每天16:00開始販售，售完為止。
5931017814,順儷新板藥局,新北市板橋區漢生東路１８７號１樓,121.4698,25.01181,(02)29512590,羅氏家用新冠病毒抗原自我檢測套組,4,2022/05/07 09:50:02,5／7 快篩早上9點販售
5931017869,躍獅國慶藥局,新北市板橋區國慶路１７９號（１樓）,121.4626,24.99636,(02)29641548,羅氏家用新冠病毒抗原自我檢測套組,156,2022/05/07 09:50:02,快篩實名制，每天14:00開始販售，售完為止
5931017967,曉品中西藥局,新北市板橋區貴興路２４號（１樓）,121.4575,25.00389,(02)29586990,羅氏家用新冠病毒抗原自我檢測套組,57,2022/05/07 09:50:02,無
5931017994,後埔藥局,新北市板橋區華興街９號（１樓）,121.459,25.00457,(02)89510306,羅氏家用新冠病毒抗原自我檢測套組,78,2022/05/07 09:50:02,5／7 下午2點發放號碼牌*確保作業流暢請自備500元*每天 78 份晚上10 點以前領取完畢（過卡時間差異剩餘數量僅供參考）
5931018099,廣品藥局,新北市板橋區漢生西路８２號（１樓）,121.4628,25.01934,(02)22576880,羅氏家用新冠病毒抗原自我檢測套組,24,2022/05/07 09:50:02,實名制快篩 周一~周五下午16；00發放 週六.日 早上09；30發放 請勿打電話詢問 感謝配合
5931018106,力安藥局,新北市板橋區莒光路１９６巷８號（１樓）,121.4738,25.02255,(02)22503349,羅氏家用新冠病毒抗原自我檢測套組,34,2022/05/07 09:50:02,快篩實名制，早上9點依現場順序開始販售快篩，售完為止。
5931018124,大楓藥師藥局,新北市板橋區懷仁街８４號（１樓）,121.4774,25.01819,(02)29560576,羅氏家用新冠病毒抗原自我檢測套組,1,2022/05/07 09:50:02,快篩販售時間  下午13:30開始，售完為止。
5931020400,新迪化中西藥局,新北市三重區三陽路２７號１樓,121.4855,25.05893,(02)29884755,羅氏家用新冠病毒抗原自我檢測套組,78,2022/05/07 09:50:02,快篩實名制中午12點開始販售，發號碼牌
5931020473,天佑藥局,新北市三重區大同北路８號,121.4954,25.06207,(02)29857456,羅氏家用新冠病毒抗原自我檢測套組,59,2022/05/07 09:50:02,無
5931020562,力健藥局,新北市三重區自強路３段３８號,121.4868,25.07266,(02)29856255,羅氏家用新冠病毒抗原自我檢測套組,48,2022/05/07 09:50:02,無
5931020795,杜廣德藥師藥局,新北市三重區大智街５３號,121.4928,25.06775,(02)29843152,羅氏家用新冠病毒抗原自我檢測套組,74,2022/05/07 09:50:02,防疫快篩代售時間 星期一至星期日 時間未定
5931020866,裕福藥局,新北市三重區長壽西街１４４號,121.4939,25.06661,(02)29831769,羅氏家用新冠病毒抗原自我檢測套組,78,2022/05/07 09:50:02,快篩代售等貨到才販售；現場排隊
5931021014,鴻成藥局,新北市三重區同安街１１３號,121.4943,25.0564,(02)29727025,羅氏家用新冠病毒抗原自我檢測套組,50,2022/05/07 09:50:02,無
5931021167,禮隆藥局,新北市三重區自強路４段６４號,121.4901,25.07853,(02)29894735,羅氏家用新冠病毒抗原自我檢測套組,22,2022/05/07 09:50:02,快篩試劑早上九點開始發號碼牌，發完為止
5931021532,龍門藥局,新北市三重區龍門路１８９號,121.4996,25.07322,(02)29756141,羅氏家用新冠病毒抗原自我檢測套組,78,2022/05/07 09:50:02,實名制快篩販售時間~星期一至星期六下午3點
5931023349,迪化藥局,新北市三重區中華路７７號,121.4836,25.06267,(02)29834445,羅氏家用新冠病毒抗原自我檢測套組,67,2022/05/07 09:50:02,實名制快篩每日早上九點發牌號／週日食藥署暫停供應快篩
5931023447,安泰藥局,新北市三重區正義北路３００－３號２樓,121.4953,25.06978,(02)89815379,羅氏家用新冠病毒抗原自我檢測套組,109,2022/05/07 09:50:02,5／2只有早上8:30--12:00營業下午.及晚上休息
5931023527,德慈藥局,新北市三重區重新路３段１６號１樓,121.4951,25.06138,(02)29736693,羅氏家用新冠病毒抗原自我檢測套組,74,2022/05/07 09:50:02,快篩試劑販售時間自每日13:00開始
5931023581,大重仁藥局,新北市三重區重新路５段５９２號１樓,121.4694,25.04539,(02)29958283,羅氏家用新冠病毒抗原自我檢測套組,5,2022/05/07 09:50:02,販賣快篩：星期一~四 1830-1850，星期五1500-1520，星期六日0900-0920
5931023830,忠信藥局,新北市三重區仁興街３２號,121.4991,25.07552,(02)29762963,羅氏家用新冠病毒抗原自我檢測套組,78,2022/05/07 09:50:02,無
5931024962,建祥三和藥局,新北市三重區三和路２段１６０號１樓,121.4992,25.06853,(02)29703379,羅氏家用新冠病毒抗原自我檢測套組,140,2022/05/07 09:50:02,實名制快篩10:00發放號碼牌
5931025398,昌誠藥局,新北市三重區三和路４段１６１號１樓,121.4835,25.0785,(02)22876338,羅氏家用新冠病毒抗原自我檢測套組,5,2022/05/07 09:50:02,5／2 （休診）
5931025521,徐匯藥局,新北市三重區仁愛街７５５號１樓,121.4809,25.07996,(02)28572234,羅氏家用新冠病毒抗原自我檢測套組,59,2022/05/07 09:50:02,實名快篩星期一~六，下午2:30開賣，1人限1卡
5931025567,閎安藥局,新北市三重區重新路２段８５號１樓、２樓,121.4962,25.06181,(02)29881968,羅氏家用新冠病毒抗原自我檢測套組,4,2022/05/07 09:50:02,每日皆執行調劑業務，快篩代售時間每日下午三點發號碼牌並領取
5931025898,新宜安中西藥局,新北市三重區三陽路３０號１樓,121.4854,25.05867,(02)29883693,羅氏家用新冠病毒抗原自我檢測套組,1,2022/05/07 09:50:02,【實名制快篩試劑】依每日物流到貨狀況，請加LINE ID：「@692qferj」或FB：新宜安中西藥局公告告知。
5931025996,信義忠孝藥局,新北市三重區忠孝路２段４０號１樓,121.4854,25.07056,(02)89813529,羅氏家用新冠病毒抗原自我檢測套組,65,2022/05/07 09:50:02,早上8:30發放號碼牌 自備500+健保卡 12:00以後領取快篩歸還健保卡
5931026064,五華春天生活藥局,新北市三重區五華街７３號１、２樓,121.4925,25.08291,(02)29876838,羅氏家用新冠病毒抗原自我檢測套組,1,2022/05/07 09:50:02,快篩代售時間：週一至週日15：00，現場排隊購買，售完為止。（物流配送不及則例外，以門市公告為主）
5931026091,重新藥局,新北市三重區重新路４段１２號１樓,121.4888,25.05775,(02)29742700,羅氏家用新冠病毒抗原自我檢測套組,78,2022/05/07 09:50:02,快篩實名制，每天16:00開始販售，售完為止。
5931030013,皇誼藥局,新北市永和區文化路３３號,121.5147,25.01499,(02)29278732,羅氏家用新冠病毒抗原自我檢測套組,79,2022/05/07 09:50:02,無
5931030568,仲景藥局,新北市永和區竹林路２１３巷１號,121.521,25.00893,(02)89281687,羅氏家用新冠病毒抗原自我檢測套組,78,2022/05/07 09:50:02,實名制快篩每日總量78份，下午2點現場排隊過卡，1人1卡每月限領1次，不發號碼牌；營業時間9:30-10:30
5931032099,德和便利藥局,新北市永和區得和路１９４號１樓,121.5201,24.99963,(02)89431417,羅氏家用新冠病毒抗原自我檢測套組,1,2022/05/07 09:50:02,營業時間為9：00~22：00（下午1點~3點休息）實名制快篩9:00販售
5931032133,宸安藥局,新北市永和區得和路３８５號１樓,121.5251,24.99943,(02)22328274,羅氏家用新冠病毒抗原自我檢測套組,1,2022/05/07 09:50:02,星期一至六 實名制快篩  PM2:00-3；00； 星期日公休
5931032759,友辰藥局,新北市永和區中正路３８０號１樓,121.5177,25.00123,(02)29267131,羅氏家用新冠病毒抗原自我檢測套組,10,2022/05/07 09:50:02,快篩配送時間不定，請電話諮詢。5／7早上9點30分開始販售。
5931033103,皇家藥師藥局,新北市永和區中正路７２０號１樓,121.5158,25.01017,(02)89216867,羅氏家用新冠病毒抗原自我檢測套組,78,2022/05/07 09:50:02,無
5931033461,常安中西藥局,新北市永和區保平路２６號１樓,121.5122,25.00749,(02)29283530,羅氏家用新冠病毒抗原自我檢測套組,2,2022/05/07 09:50:02,每日下午三點開始實名制快篩
5931033603,安安藥局,新北市永和區竹林路２０３號１樓,121.5209,25.00911,(02)89263651,羅氏家用新冠病毒抗原自我檢測套組,36,2022/05/07 09:50:02,實名制快篩每日上午10點現場排隊過卡.不發號碼牌；營業時間9:30-21:30
5931033649,敦品民治藥局,新北市永和區民治街８１號１樓,121.5175,24.99805,(02)29494150,羅氏家用新冠病毒抗原自我檢測套組,77,2022/05/07 09:50:02,口罩下午2點-4點半現場購買
5931033774,台化藥局,新北市永和區勵行街１１９號１樓,121.5175,25.01202,(02)22318585,羅氏家用新冠病毒抗原自我檢測套組,1,2022/05/07 09:50:02,無
5931034020,順和藥局,新北市永和區中正路７５號１樓,121.5149,24.99687,(02)86680362,羅氏家用新冠病毒抗原自我檢測套組,44,2022/05/07 09:50:02,無
5931034039,叁品藥局,新北市永和區秀朗路２段１１８號１樓,121.5244,25.00152,(02)29208800,羅氏家用新冠病毒抗原自我檢測套組,4,2022/05/07 09:50:02,實名制快篩 下午一點發放號碼牌
5931034048,崇恩藥局,新北市永和區成功路２段１３５號１樓,121.5267,24.9981,(02)89214022,羅氏家用新冠病毒抗原自我檢測套組,2,2022/05/07 09:50:02,無
5931034119,仁愛陽光藥局,新北市永和區仁愛路１４３號１樓,121.5114,25.01293,(02)89213691,羅氏家用新冠病毒抗原自我檢測套組,2,2022/05/07 09:50:02,快篩代售時段14:00，售完為止...
5931034146,亮點藥局,新北市永和區竹林路７１號１樓,121.5186,25.01355,(02)89253895,羅氏家用新冠病毒抗原自我檢測套組,102,2022/05/07 09:50:02,快篩發放時段 下午16:30-18:00
5931034208,正銨藥局,新北市永和區得和路２４７－１號（１樓）,121.5206,25.00009,(02)29288100,羅氏家用新冠病毒抗原自我檢測套組,22,2022/05/07 09:50:02,星期1~6下午1:45發號碼牌.星期日休息
5931040297,信隆大藥局,新北市中和區安樂路６號１至２樓,121.5118,24.99168,(02)29426196,羅氏家用新冠病毒抗原自我檢測套組,1,2022/05/07 09:50:02,無
5931040617,田邊藥局,新北市中和區泰和街４３號１樓,121.4991,24.99942,(02)22407725,羅氏家用新冠病毒抗原自我檢測套組,78,2022/05/07 09:50:02,W1~W6 下午1點發售快篩 （5／1 晚上7點開始發售快篩）
5931040680,博健藥局,新北市中和區忠孝街３７巷４號,121.5112,24.98368,(02)29402107,羅氏家用新冠病毒抗原自我檢測套組,78,2022/05/07 09:50:02,無
5931042326,璟福藥局,新北市中和區安平路７６號１樓,121.511,24.99652,(02)29408669,羅氏家用新冠病毒抗原自我檢測套組,3,2022/05/07 09:50:02,無
5931042371,真成大藥局,新北市中和區光華街３８號,121.5048,25.00389,(02)22447008,羅氏家用新冠病毒抗原自我檢測套組,78,2022/05/07 09:50:02,實名快篩平日 早上9:30發放號碼牌 當日早上10點~12點前領完 週日無販售
5931043529,新雙和藥師藥局,新北市中和區中正路２８１－８號１樓,121.4943,24.99374,(02)22404276,羅氏家用新冠病毒抗原自我檢測套組,31,2022/05/07 09:50:02,週1-週5早上8:45發售快篩  （週六早上9:30  周日下午2:30）
5931043565,一安藥妝藥局,新北市中和區中和路９號１.２樓,121.4998,25.00221,(02)22483778,羅氏家用新冠病毒抗原自我檢測套組,78,2022/05/07 09:50:02,下午3點開始發號碼牌販售快篩
5931043627,銓家藥局,新北市中和區員山路３１９號１-２樓,121.4812,25.0006,(02)22257728,羅氏家用新冠病毒抗原自我檢測套組,59,2022/05/07 09:50:02,實名制快篩 下午3點販售 前15分鐘發號碼牌
5931043636,雙合藥局,新北市中和區中正路２９１號１樓,121.4941,24.99375,(02)22476607,羅氏家用新冠病毒抗原自我檢測套組,4,2022/05/07 09:50:02,無
5931043798,永成藥局,新北市中和區景平路１５６號１樓,121.5176,24.99222,(02)29407619,羅氏家用新冠病毒抗原自我檢測套組,78,2022/05/07 09:50:02,實名制快篩，下午三點領取號碼並開始販售（每日78份）
5931043921,良安藥局,新北市中和區連城路４７７巷１號１樓,121.4833,24.99555,(02)22225798,羅氏家用新冠病毒抗原自我檢測套組,8,2022/05/07 09:50:02,週六日不開店，實名制快篩，晚上9:00開始販售
5931044017,幸福連鎖藥局,新北市中和區忠孝街１２２號１樓,121.5122,24.98581,(02)29410771,羅氏家用新冠病毒抗原自我檢測套組,1,2022/05/07 09:50:02,無
5931044133,康富力藥局,新北市中和區仁愛街３２號１樓,121.5109,24.98843,(02)29429896,羅氏家用新冠病毒抗原自我檢測套組,78,2022/05/07 09:50:02,快篩代售時間：周一至周五9:30、週六14:00
5931044464,健暉藥局,新北市中和區連城路４８７號１樓,121.4829,24.99552,(02)22231437,羅氏家用新冠病毒抗原自我檢測套組,78,2022/05/07 09:50:02,實名快篩 早上10點 39份 ／ 晚上7點 39份 賣完為止
5931044624,奕采藥局,新北市中和區宜安路７７號１樓,121.5109,24.99733,(02)29429770,羅氏家用新冠病毒抗原自我檢測套組,54,2022/05/07 09:50:02,週一至週六10:00~12:00販售實名制快篩9:00發號碼牌（週日停售）
5931044704,惠民藥局,新北市中和區中興街１５３號１樓,121.5001,24.99102,(02)22475303,羅氏家用新冠病毒抗原自我檢測套組,2,2022/05/07 09:50:02,快篩試劑於8:30發放號碼牌，並同時開始領取。
5931045112,景安藥局,新北市中和區景德街１４１號１樓及景平路１１１巷６０弄５６號,121.5175,24.99156,(02)86688215,羅氏家用新冠病毒抗原自我檢測套組,57,2022/05/07 09:50:02,實名制快篩每日販售時段08:10~21:00，請持健保卡現場排隊依序購買，售完為止。
5931045210,廣來藥師藥局,新北市中和區員山路３９３號１樓,121.4811,25.00293,(02)32340393,羅氏家用新冠病毒抗原自我檢測套組,78,2022/05/07 09:50:02,代為販售實名制快篩，販售時間：每天上午11點到中午12點為止。
5931045327,景新藥局,新北市中和區景新街４２９號１樓,121.513,24.98908,(02)86686091,羅氏家用新冠病毒抗原自我檢測套組,76,2022/05/07 09:50:02,無
5931045372,伍品藥局,新北市中和區莊敬路３５號１樓,121.5007,25.00503,(02)82456789,羅氏家用新冠病毒抗原自我檢測套組,70,2022/05/07 09:50:02,實名制快篩下午14:00點發號碼牌，請自備500元紙鈔　－　15:00後取回健保卡 感謝！（週日）停止販售快篩！
5931045452,安華藥局,新北市中和區圓通路２９３之２號２樓,121.4949,24.99236,(02)22426010,羅氏家用新冠病毒抗原自我檢測套組,50,2022/05/07 09:50:02,無
5931045461,富康活力遠東藥局,新北市中和區建八路１０之１號１樓,121.4865,24.99805,(02)82262299,羅氏家用新冠病毒抗原自我檢測套組,78,2022/05/07 09:50:02,因屬園區大樓，販售時間請依LINE社群公告
5931050131,再生藥局,新北市新店區北新路３段６５巷９號,121.5412,24.981,(02)29113781,羅氏家用新冠病毒抗原自我檢測套組,40,2022/05/07 09:50:02,5／7之後上午9點半販售實名制快篩試劑 請自備500元
5931050444,活元藥局,新北市新店區民族路４９號１樓,121.5403,24.97854,(02)29125526,羅氏家用新冠病毒抗原自我檢測套組,78,2022/05/07 09:50:02,快篩代售時間平日早上10:00開始   星期日休息
5931052699,維顥藥局,新北市新店區中興路１段２７９號１樓,121.5451,24.9683,(02)29171986,羅氏家用新冠病毒抗原自我檢測套組,47,2022/05/07 09:50:02,無
5931053007,康曜藥師藥局,新北市新店區安康路２段２０４號１樓,121.5103,24.95964,(02)86669660,羅氏家用新冠病毒抗原自我檢測套組,3,2022/05/07 09:50:02,[週一至週五]13:20發號碼牌／13:30開始販售  [例假日無販售]
5931053123,大吉藥局,新北市新店區中正路３０號１樓,121.5452,24.96977,(02)29110151,羅氏家用新冠病毒抗原自我檢測套組,36,2022/05/07 09:50:02,實名制快篩，早上0905開賣，現場排隊販售，賣完為止。六日【無】販售
5931053141,禾康藥局,新北市新店區德正街４４號１樓,121.5443,24.97143,(02)29160596,羅氏家用新冠病毒抗原自我檢測套組,2,2022/05/07 09:50:02,無
5931053178,長照藥局,新北市新店區如意街１６號１樓,121.4944,24.94838,(02)22153325,羅氏家用新冠病毒抗原自我檢測套組,78,2022/05/07 09:50:02,請注意5／7快篩下午2:00開賣 雙號 （一人一卡）自備500 現場排隊（請勿再來電詢問囉!）
5931053196,康心藥局,新北市新店區北新路３段１０４號１樓,121.5419,24.9812,(02)86655858,羅氏家用新冠病毒抗原自我檢測套組,78,2022/05/07 09:50:02,快篩販售：周一~週六，15:00開始（若遇物流延遲則順延），以現場排隊為主
5931060262,明生藥局,新北市新莊區福樂街１３號,121.4578,25.04504,(02)29913260,羅氏家用新冠病毒抗原自我檢測套組,30,2022/05/07 09:50:02,無
5931060342,十安藥局,新北市新莊區中港路３１６號,121.4524,25.04544,(02)29922859,羅氏家用新冠病毒抗原自我檢測套組,3,2022/05/07 09:50:02,自111／04／01起不再販賣實名制口罩
5931060628,錄新藥局,新北市新莊區後港一路７６巷１０弄１號,121.427,25.02604,(02)22051849,羅氏家用新冠病毒抗原自我檢測套組,156,2022/05/07 09:50:02,無
5931060815,祐全大藥局,新北市新莊區建安街８８號,121.4262,25.02423,(02)22026008,羅氏家用新冠病毒抗原自我檢測套組,157,2022/05/07 09:50:02,快篩代售時間:10:00；現場排隊售完為止.週日不營業
5931060824,禮安藥師藥局,新北市新莊區自立街１０９號１樓,121.4555,25.0455,(02)29942891,羅氏家用新冠病毒抗原自我檢測套組,1,2022/05/07 09:50:02,無
5931067403,建嘉藥局,新北市新莊區中誠街４２號１樓,121.4513,25.04812,(02)29925261,羅氏家用新冠病毒抗原自我檢測套組,78,2022/05/07 09:50:02,無
5931068464,健安藥局,新北市新莊區光和里民安西路２０９號１樓,121.4261,25.0147,(02)22043765,羅氏家用新冠病毒抗原自我檢測套組,155,2022/05/07 09:50:02,無
5931068722,庭安藥局,新北市新莊區民有里西盛街１７２號１樓,121.4281,25.01901,(02)22080528,羅氏家用新冠病毒抗原自我檢測套組,33,2022/05/07 09:50:02,早上9:30開始販售實名制快篩.賣完為止週日公休
5931069603,中信藥師藥局,新北市新莊區中信街８０號１樓,121.448,25.05311,(02)29969811,羅氏家用新冠病毒抗原自我檢測套組,78,2022/05/07 09:50:02,AM 07:30 開始
593106A824,家禾藥局,新北市新莊區立信五街６號１樓,121.4445,25.05148,(02)29972121,羅氏家用新冠病毒抗原自我檢測套組,78,2022/05/07 09:50:02,若有配送會在12:00及18:00固定販售各39份，不提前販售，沒有發放號碼牌，請耐心等待。人手不足若無法接電話請見諒。
593106A833,欣國藥局,新北市新莊區富國路５７號１樓、２樓,121.4196,25.02625,(02)29080958,羅氏家用新冠病毒抗原自我檢測套組,40,2022/05/07 09:50:02,每天快篩劑發號碼牌AM09:30販賣AM09:30售完為止
593106A897,陽光豐年藥局,新北市新莊區豐年街１４號１樓,121.4463,25.03287,(02)22060665,羅氏家用新冠病毒抗原自我檢測套組,87,2022/05/07 09:50:02,無
593106B045,力源藥局,新北市新莊區復興路２段１３３號１樓,121.4572,25.04452,(02)89929919,羅氏家用新冠病毒抗原自我檢測套組,8,2022/05/07 09:50:02,無
593106B214,微笑埔銓藥局,新北市新莊區中平路７７號（１樓、２樓）,121.4447,25.04507,(02)29901680,羅氏家用新冠病毒抗原自我檢測套組,1,2022/05/07 09:50:02,無
593106B223,吉田藥局,新北市新莊區西盛街３１３號１樓,121.4281,25.01516,(02)22065185,羅氏家用新冠病毒抗原自我檢測套組,78,2022/05/07 09:50:02,無
593106B241,善美藥局,新北市新莊區公園路８９號１樓,121.4546,25.04041,(02)29960979,羅氏家用新冠病毒抗原自我檢測套組,76,2022/05/07 09:50:02,無
593106B287,盛弘藥局,新北市新莊區中平路２９５號１樓,121.4447,25.05099,(02)22763336,羅氏家用新冠病毒抗原自我檢測套組,78,2022/05/07 09:50:02,政府快篩於平日下午13:50發放號碼牌，下午14:00準時販售，假日視政府配量（販售時間相同）
593106B303,新莊丁丁藥局,新北市新莊區民安西路２３７號１樓,121.4261,25.01398,(02)22022388,羅氏家用新冠病毒抗原自我檢測套組,74,2022/05/07 09:50:02,無
5931070062,鴻真藥局,新北市樹林區保安街１段２０巷６號,121.4277,24.99363,(02)26828977,羅氏家用新冠病毒抗原自我檢測套組,25,2022/05/07 09:50:02,無
5931070213,明川藥師藥局,新北市樹林區三福街１號,121.4093,25.0169,(02)26894728,羅氏家用新冠病毒抗原自我檢測套組,78,2022/05/07 09:50:02,實名制快篩:早上11:00販售
5931070366,聖和藥局,新北市樹林區太元街５０號,121.4183,24.97967,(02)86866609,羅氏家用新冠病毒抗原自我檢測套組,78,2022/05/07 09:50:02,中午12:30分開始發放快篩
5931071881,盛立藥局,新北市樹林區大雅路２８５號１樓,121.3795,24.94735,(02)35018218,羅氏家用新冠病毒抗原自我檢測套組,78,2022/05/07 09:50:02,政府快篩平日下午1:50發號碼牌，下午2:00準時販售，假日視政府配量（販售時間相同）
5931072066,琉璃水藥師藥局,新北市樹林區龍興街２１號１樓,121.403,25.01614,(02)26764262,羅氏家用新冠病毒抗原自我檢測套組,78,2022/05/07 09:50:02,無
5931072404,伯安綜合藥局,新北市樹林區中華路１０８號１樓,121.4183,24.98074,(02)86856551,羅氏家用新冠病毒抗原自我檢測套組,41,2022/05/07 09:50:02,初一至初五春節休息
5931072468,樹林丁丁藥局,新北市樹林區中華路１７４號１樓,121.4208,24.9819,(02)86851518,羅氏家用新冠病毒抗原自我檢測套組,77,2022/05/07 09:50:02,無
5931072520,世淇健保藥局,新北市樹林區復興路５０號１樓,121.4221,24.99391,(02)26842255,羅氏家用新冠病毒抗原自我檢測套組,69,2022/05/07 09:50:02,無
5931081396,祐康藥局,新北市鶯歌區建國路３６號,121.356,24.95596,(02)26771223,羅氏家用新冠病毒抗原自我檢測套組,63,2022/05/07 09:50:02,快篩代售時段:星期一&四 上午8:30~9:30；星期二三五六 下午3:00~4:00；星期日公休。
5931081412,小樹藥師藥局,新北市鶯歌區光明街１２６號１樓,121.3455,24.95592,(02)26785107,羅氏家用新冠病毒抗原自我檢測套組,72,2022/05/07 09:50:02,快篩販賣時間: 早上10:00~11:00開始販售
5931081421,萊爾康健保藥局,新北市鶯歌區永明街１７號１樓,121.3385,24.95548,(02)26775092,羅氏家用新冠病毒抗原自我檢測套組,26,2022/05/07 09:50:02,星期一到星期六9:30開始販售  星期天會前一天公告
5931081510,鶯歌藥局,新北市鶯歌區鶯桃路２段１１號１樓,121.3258,24.97205,(02)86778778,羅氏家用新冠病毒抗原自我檢測套組,78,2022/05/07 09:50:02,口罩販售時間：14:00 - 16:00
5931091865,大新藥局,新北市三峽區大義路２５９號１樓,121.3774,24.94638,(02)86713204,羅氏家用新冠病毒抗原自我檢測套組,1,2022/05/07 09:50:02,實名制快篩下午2:50開始發號碼牌 3:00販售
5931091892,三峽藥局,新北市三峽區介壽路１段２７號１樓,121.3757,24.93321,(02)26738868,羅氏家用新冠病毒抗原自我檢測套組,1,2022/05/07 09:50:02,快篩實名制，每天16:00開始販售，售完為止。
5931091990,欣美大藥局,新北市三峽區大同路５２號１樓,121.377,24.92864,(02)86712269,羅氏家用新冠病毒抗原自我檢測套組,6,2022/05/07 09:50:02,營業時間:9:00-22:00
5931092022,瑞達美藥局,新北市三峽區民權街１８０號１樓,121.3678,24.92983,(02)86741627,羅氏家用新冠病毒抗原自我檢測套組,6,2022/05/07 09:50:02,若政府有配送則早上9點10分開始發號碼牌，拿到號碼牌要離開請先寄卡付費，否則視同放棄
5931092068,益銘藥師藥局,新北市三峽區大德路１８１號１樓,121.3753,24.94573,(02)26723662,羅氏家用新冠病毒抗原自我檢測套組,33,2022/05/07 09:50:02,無
5931092111,立雅藥局,新北市三峽區文化路８４號（１樓）,121.3719,24.93627,(02)26712601,羅氏家用新冠病毒抗原自我檢測套組,5,2022/05/07 09:50:02,無
5931092200,金美藥局,新北市三峽區大同路２３８號１樓,121.3663,24.92573,(02)86715859,羅氏家用新冠病毒抗原自我檢測套組,32,2022/05/07 09:50:02,無
5931100092,上全藥局,新北市淡水區民族路３６號,121.4614,25.13622,(02)28098022,羅氏家用新冠病毒抗原自我檢測套組,68,2022/05/07 09:50:02,實名制快篩若有到貨，早上十點現場販售，售完為止。星期天若無庫存則不販售。
5931100154,尚運藥局,新北市淡水區學府路５１巷１弄２０號,121.4473,25.16892,(02)26225149,羅氏家用新冠病毒抗原自我檢測套組,183,2022/05/07 09:50:02,無
5931101973,良順藥局,新北市淡水區中山北路１段２４號１樓,121.4417,25.1751,(02)26218111,羅氏家用新冠病毒抗原自我檢測套組,32,2022/05/07 09:50:02,快篩販售時間為週一至週六每日上午10:00. 週日為下午6:00
5931102078,躍獅竹圍藥局,新北市淡水區民生路４６號,121.4617,25.13781,(02)28090565,羅氏家用新冠病毒抗原自我檢測套組,15,2022/05/07 09:50:02,晚上7點販售快篩
5931102176,淡水健康人生藥局,新北市淡水區清水街９－２號１樓,121.4447,25.17037,(02)26269679,羅氏家用新冠病毒抗原自我檢測套組,63,2022/05/07 09:50:02,快篩代售時間:週一至週日09:30，現場排隊購買，售完為止。（物流配送不及則例外，以門市公告為主）
5931102309,憲立藥局,新北市淡水區自強路２９５號１樓,121.4619,25.12951,(02)28092212,羅氏家用新冠病毒抗原自我檢測套組,48,2022/05/07 09:50:02,快篩星期一至六 早上09:30發放號碼牌 現場等待領取
5931102336,淡大郭藥局,新北市淡水區英專路３２號１樓,121.4456,25.17008,(02)26229966,羅氏家用新冠病毒抗原自我檢測套組,78,2022/05/07 09:50:02,如前日有收到快篩，隔日販售時間為上午10點。（以現場公告為主）
5931110034,麒豐藥局,新北市汐止區樟樹一路１３５巷２號,121.6421,25.0656,(02)26434737,羅氏家用新冠病毒抗原自我檢測套組,36,2022/05/07 09:50:02,實名制口罩銷售時間9:30~21:00
5931111755,幸福藥局,新北市汐止區大同路２段３３２號１．２樓,121.6565,25.06694,(02)26490127,羅氏家用新冠病毒抗原自我檢測套組,4,2022/05/07 09:50:02,星期日暫停販售快篩試劑
5931111835,全家藥局,新北市汐止區明峰街１４３號１樓,121.6297,25.0706,(02)26954990,羅氏家用新冠病毒抗原自我檢測套組,27,2022/05/07 09:50:02,快篩試劑販售:週1-6，上午9-11點（現場排隊，不發號碼牌，售完為止）
5931111844,福恩藥師大藥局,新北市汐止區福德二路１７１之１號１樓,121.6307,25.06506,(02)26940835,羅氏家用新冠病毒抗原自我檢測套組,21,2022/05/07 09:50:02,無
5931111988,滿益藥局,新北市汐止區仁愛路１３０號,121.6632,25.06397,(02)86421562,羅氏家用新冠病毒抗原自我檢測套組,77,2022/05/07 09:50:02,口罩代售時間自13:30 ， 現場排隊
5931112083,裕和藥局,新北市汐止區宜興街４號１樓,121.6211,25.04126,(02)26609119,羅氏家用新冠病毒抗原自我檢測套組,40,2022/05/07 09:50:02,晚上9.00領實名制快篩時間
5931112314,杏光藥局,新北市汐止區建成路５９巷１９號１樓,121.6617,25.07287,(02)26411340,羅氏家用新冠病毒抗原自我檢測套組,78,2022/05/07 09:50:02,快篩每日早上十點販售  不發號碼牌
5931112341,躍獅尚揚藥局,新北市汐止區忠孝東路３９９號１樓,121.6657,25.07096,(02)86483158,羅氏家用新冠病毒抗原自我檢測套組,26,2022/05/07 09:50:02,早上9點半開始快篩實名制販售，現場排隊，星期天沒有販售實名制快篩
5931112510,汐興藥局,新北市汐止區中興路１１３號１樓、２樓,121.632,25.06494,(02)26927733,羅氏家用新冠病毒抗原自我檢測套組,32,2022/05/07 09:50:02,無
5931112645,健成藥局,新北市汐止區新興路２０號１樓,121.6564,25.06456,(02)26428989,羅氏家用新冠病毒抗原自我檢測套組,73,2022/05/07 09:50:02,無
5931112789,富康東科藥局,新北市汐止區新台五路１段９６號Ｃ棟１樓Ｃ１５號,121.6483,25.06047,(02)26969222,羅氏家用新冠病毒抗原自我檢測套組,1,2022/05/07 09:50:02,每日九點至下午六點開放購買口罩，周六周日公休
5931113071,蒲公英藥局,新北市汐止區連興街１２６號（１樓）,121.6538,25.06188,(02)26907770,羅氏家用新冠病毒抗原自我檢測套組,78,2022/05/07 09:50:02,實名制快篩銷售時間:下午17:00-19:00（無發放號碼牌）
5931113115,躍獅大同藥局,新北市汐止區新興路７號１樓,121.6565,25.06493,(02)26418399,羅氏家用新冠病毒抗原自我檢測套組,56,2022/05/07 09:50:02,每日15:30販售實名制快篩
5931113133,祐欣藥局,新北市汐止區中興路２４０號１樓,121.6296,25.06805,(02)26950778,羅氏家用新冠病毒抗原自我檢測套組,6,2022/05/07 09:50:02,實名制快篩-每日早上9點開始發放號碼牌，發完78張號碼即=售完!! 請不要看帳面庫存!!
5931113197,博昱忠孝藥局,新北市汐止區忠孝東路２７８號（１樓）,121.6637,25.06809,(02)86423838,羅氏家用新冠病毒抗原自我檢測套組,1,2022/05/07 09:50:02,下午兩點開始賣快篩
5931120049,本平藥局,新北市瑞芳區瑞芳街４５號,121.8076,25.10913,(02)24972167,羅氏家用新冠病毒抗原自我檢測套組,2,2022/05/07 09:50:02,無
5931130205,瑞益藥局,新北市土城區廣明街６３巷４號,121.4546,24.99356,(02)89668598,羅氏家用新冠病毒抗原自我檢測套組,24,2022/05/07 09:50:02,星期1-6早上9:30開始賣快篩.星期日休息.
5931130349,祥發藥局,新北市土城區青雲路２５５號,121.4592,24.9809,(02)22655056,羅氏家用新冠病毒抗原自我檢測套組,76,2022/05/07 09:50:02,快篩周一~周六上午8:點發放號碼牌，下午2點後憑號碼牌購買!週日上午9點現場購買
5931131579,祥安大藥局,新北市土城區立德路４２－１號,121.4636,24.98727,(02)22629707,羅氏家用新冠病毒抗原自我檢測套組,78,2022/05/07 09:50:02,無
5931132236,善淳藥師藥局,新北市土城區福仁街１９號１樓、B１樓,121.4406,24.97626,(02)82627371,羅氏家用新冠病毒抗原自我檢測套組,24,2022/05/07 09:50:02,快篩早上9:30點發售.週日公休一天:午休12:30至14:00點
5931132263,立新藥局,新北市土城區光明街５號１樓,121.4421,24.97475,(02)82626111,羅氏家用新冠病毒抗原自我檢測套組,38,2022/05/07 09:50:02,快篩試劑下午3點開始銷售
5931132343,誠安藥局,新北市土城區中央路４段３６號１樓,121.4207,24.96088,(02)22677737,羅氏家用新冠病毒抗原自我檢測套組,78,2022/05/07 09:50:02,快篩代售時段：平日晚上8點，售完為止
5931132389,凱一藥局,新北市土城區裕民路９２巷２１弄８號１樓,121.4501,24.98629,(02)22707679,羅氏家用新冠病毒抗原自我檢測套組,78,2022/05/07 09:50:02,服務時間10:00~21:00，每週二休息。實名制快篩皆於營業日的10:00開賣。
5931132538,宏奇藥局,新北市土城區延吉街１２６號１樓,121.4695,24.98586,(02)82619585,羅氏家用新冠病毒抗原自我檢測套組,78,2022/05/07 09:50:02,無
5931132610,久安藥局,新北市土城區廣明街７０號１樓,121.455,24.9938,(02)89671097,羅氏家用新冠病毒抗原自我檢測套組,114,2022/05/07 09:50:02,每日依現場排隊於9:30開始販售，售完為止。5／1號勞動節 無販售
5931132807,健業藥局,新北市土城區中央路２段２２３－１０號,121.4407,24.97312,(02)22704798,羅氏家用新冠病毒抗原自我檢測套組,78,2022/05/07 09:50:02,無
5931132950,美康藥妝藥局,新北市土城區延吉街２５４號１樓,121.4664,24.98465,(02)22616868,羅氏家用新冠病毒抗原自我檢測套組,58,2022/05/07 09:50:02,實名制快篩前一天若有到貨，則隔日三點販售
5931133108,三豐藥局,新北市土城區永豐路１３５巷８號,121.4672,24.98333,(02)22733766,羅氏家用新冠病毒抗原自我檢測套組,77,2022/05/07 09:50:02,無
5931133126,成康藥局,新北市土城區學府路１段１８８號１樓,121.4532,24.98614,(02)22706596,羅氏家用新冠病毒抗原自我檢測套組,73,2022/05/07 09:50:02,春節期間看診時段請電洽
5931133331,城安大藥局,新北市土城區金城路３段４０號,121.4656,24.98639,(02)22646561,羅氏家用新冠病毒抗原自我檢測套組,75,2022/05/07 09:50:02,快篩代售時間晚上8:30
5931133564,城恩藥局,新北市土城區學成路３４號１樓,121.4527,24.9873,(02)22735808,羅氏家用新冠病毒抗原自我檢測套組,4,2022/05/07 09:50:02,無
5931141726,松展多利日式連鎖藥粧藥局,新北市蘆洲區民族路１６１號,121.4793,25.08817,(02)22882586,羅氏家用新冠病毒抗原自我檢測套組,3,2022/05/07 09:50:02,防疫物資每日下午02:00開始販售
5931141959,長榮大藥局,新北市蘆洲區長榮路５１號,121.4626,25.08307,(02)82863837,羅氏家用新冠病毒抗原自我檢測套組,34,2022/05/07 09:50:02,實名制快篩販售時間，依配送狀況機動調整。
5931150163,德泰藥局,新北市五股區成泰路１段９號,121.4336,25.06674,(02)29095927,羅氏家用新冠病毒抗原自我檢測套組,1,2022/05/07 09:50:02,無
5931151302,宏安藥局,新北市五股區成泰路２段１３６號,121.4382,25.08369,(02)22915932,羅氏家用新冠病毒抗原自我檢測套組,77,2022/05/07 09:50:02,口罩販售時間:每日08:15~23:00售完為止 星期日如果前一日還有庫存，當日照常販售
5931151606,陽光樂活藥局,新北市五股區成泰路２段１０１－２號１樓,121.4383,25.08436,(02)22928799,羅氏家用新冠病毒抗原自我檢測套組,1,2022/05/07 09:50:02,5／6快篩已售罄 5／7快篩於早上9點發售. 請持雙號健保卡依序排隊購買
5931160141,日泰藥局,新北市泰山區泰林路２段２２７號,121.4323,25.06194,(02)29095989,羅氏家用新冠病毒抗原自我檢測套組,5,2022/05/07 09:50:02,下午兩點開始販售實名制快篩，不預留健保卡。每日提供10份確診個案與居隔民眾。
5931161344,北安藥妝藥局,新北市泰山區明志路２段６１號,121.4292,25.0526,(02)22967199,羅氏家用新冠病毒抗原自我檢測套組,50,2022/05/07 09:50:02,早上9:30開始發號碼牌
5931161353,台灣藥局,新北市泰山區明志路１段２８２－２８６號,121.4319,25.06002,(02)22971969,羅氏家用新冠病毒抗原自我檢測套組,70,2022/05/07 09:50:02,下午2:20發號碼牌2:30販售實名制快篩試劑
5931161460,紅葉藥局,新北市泰山區楓江路８號２樓,121.4335,25.06244,(02)22960328,羅氏家用新冠病毒抗原自我檢測套組,73,2022/05/07 09:50:02,無
5931170021,士昌藥局,新北市林口區工六路３６號１樓,121.3982,25.07874,(02)26018863,羅氏家用新冠病毒抗原自我檢測套組,12,2022/05/07 09:50:02,防疫口罩代售:週一至週六下午2:00~4:00，週日早上10:00~12:00現場排隊
5931171242,旺林藥局,新北市林口區文化二路１段２２８號,121.3697,25.0724,(02)26000186,羅氏家用新冠病毒抗原自我檢測套組,78,2022/05/07 09:50:02,政府實名制快篩早上10點開始賣
5931171582,綠園藥局,新北市林口區仁愛路２段１０５號１樓,121.3843,25.07507,(02)86012258,羅氏家用新冠病毒抗原自我檢測套組,12,2022/05/07 09:50:02,上午8:30-12:00、下午2:30-18:00、晚上18:00-21:30
5931171680,一家好藥局,新北市林口區中山路５００號,121.3794,25.08303,(02)26028270,羅氏家用新冠病毒抗原自我檢測套組,45,2022/05/07 09:50:02,無
5931171742,唯恩藥局,新北市林口區麗園一街９巷１號１樓之２,121.3768,25.07139,(02)26005805,羅氏家用新冠病毒抗原自我檢測套組,78,2022/05/07 09:50:02,快篩發放固定13點，領取號碼牌
5931171813,力行藥局,新北市林口區文化３路１段４２３、４２５號１、２樓,121.3653,25.07438,(02)26080711,羅氏家用新冠病毒抗原自我檢測套組,82,2022/05/07 09:50:02,快篩實名制，每天16:00開始販售，售完為止。
5931171895,奇異果三井藥局,新北市林口區文化三路１段２４１號１樓,121.3632,25.07147,(02)26068650,羅氏家用新冠病毒抗原自我檢測套組,78,2022/05/07 09:50:02,實名制快篩每日13:00開賣喔
5931181159,信東深坑北深藥局,新北市深坑區北深路３段１０３號１樓,121.6056,25.00171,(02)77092976,羅氏家用新冠病毒抗原自我檢測套組,78,2022/05/07 09:50:02,快篩代售時間自13:00 ； 現場排隊
5931181195,健康小站藥局,新北市深坑區埔新里北深路２段７５號,121.6184,25.00373,(02)26629568,羅氏家用新冠病毒抗原自我檢測套組,33,2022/05/07 09:50:02,販售時間
5931231225,小蘋果藥局,新北市八里區中山路１段２２９號,121.411,25.1576,(02)26108206,羅氏家用新冠病毒抗原自我檢測套組,74,2022/05/07 09:50:02,無
5931231314,天康八里藥局,新北市八里區中山路２段３６７號１樓,121.3988,25.14701,(02)26101569,羅氏家用新冠病毒抗原自我檢測套組,2,2022/05/07 09:50:02,不用問我幾點賣，問你幾點要排隊買
5931250042,信芳藥局,新北市雙溪區中華路５０號,121.866,25.03761,(02)24931301,羅氏家用新冠病毒抗原自我檢測套組,2,2022/05/07 09:50:02,無
5931280013,萬里藥局,新北市萬里區瑪鍊路９０號,121.6837,25.18504,(02)24922235,羅氏家用新冠病毒抗原自我檢測套組,280,2022/05/07 09:50:02,無
5932011058,富仕康藥局,桃園市桃園區中華路１１８號地下１樓,121.3082,24.99023,(03)3391318,羅氏家用新冠病毒抗原自我檢測套組,46,2022/05/07 09:50:02,口罩販賣時段：週一至週日15:30起
5932011316,大興藥局,桃園市桃園區大德一街９６號,121.3133,25.01579,(03)3266868,羅氏家用新冠病毒抗原自我檢測套組,9,2022/05/07 09:50:02,口罩販賣時段：AM:09:00
5932011610,郁祥藥局,桃園市桃園區成功里春日路２１６號,121.3156,24.99722,(03)3335495,羅氏家用新冠病毒抗原自我檢測套組,73,2022/05/07 09:50:02,無
5932011870,永祥大藥局,桃園市桃園區永安路５２８號,121.2986,25.00181,(03)3337161,羅氏家用新冠病毒抗原自我檢測套組,9,2022/05/07 09:50:02,口罩販賣時段：週一至週六早上9點
5932012813,桃園大興藥局,桃園市桃園區大興西路二段７６巷３號,121.2984,25.01183,(03)3013222,羅氏家用新冠病毒抗原自我檢測套組,18,2022/05/07 09:50:02,快篩實名制，每天16:00開始販售，售完為止。
5932013392,桃園中正藥局,桃園市桃園區中正路３７３號,121.3079,24.99955,(03)3381600,羅氏家用新冠病毒抗原自我檢測套組,13,2022/05/07 09:50:02,快篩實名制，每天16:00開始販售，售完為止。
5932013687,桃園春日藥局,桃園市桃園區春日路８７８號,121.3096,25.01561,(03)3580101,羅氏家用新冠病毒抗原自我檢測套組,79,2022/05/07 09:50:02,快篩實名制，每天16:00開始販售，售完為止。
5932013721,桃園民光藥局,桃園市桃園區中正路５６９號,121.3049,25.0041,(03)3364888,羅氏家用新冠病毒抗原自我檢測套組,78,2022/05/07 09:50:02,快篩實名制，每天16:00開始販售，售完為止。
5932013829,春日丁丁藥局,桃園市桃園區春日路６９０號,121.3105,25.01124,(03)3570966,羅氏家用新冠病毒抗原自我檢測套組,6,2022/05/07 09:50:02,實名制快篩試劑已政府物流到貨時間為主販售
5932014004,同德辰安藥局,桃園市桃園區同德十街２５號,121.294,25.01835,(03)3012028,羅氏家用新冠病毒抗原自我檢測套組,78,2022/05/07 09:50:02,實名制快篩試劑於下午4點開始販售，現場排隊，沒有發放號碼牌。
5932014013,力行藥局,桃園市桃園區力行路９８號,121.3027,25.00206,(03)3391368,羅氏家用新冠病毒抗原自我檢測套組,78,2022/05/07 09:50:02,每日14點開賣售78份為止不發號碼牌，若14點前沒來排隊，肯定買不到請別問了現場爆忙，若15點後還有庫存78以上是隔天賣
5932014102,小飛象藥局,桃園市桃園區慈文路１９２號,121.3041,25.00907,(03)3552771,羅氏家用新冠病毒抗原自我檢測套組,39,2022/05/07 09:50:02,5／7 [09:30] 開賣78份，再打來問一律掛電話。不發放號碼牌，請自行計算人數。即起調劑確診者之視訊處方，請自保。
5932014111,鴻發藥師藥局,桃園市桃園區大有路５４３號,121.3171,25.0149,(03)3582468,羅氏家用新冠病毒抗原自我檢測套組,78,2022/05/07 09:50:02,實聯快篩:早上09:30發放號碼牌，限當日下午2~4點憑牌購買，逾時不候請見諒
5932014175,東門大藥局,桃園市桃園區春日路７５號,121.3169,24.99305,(03)3378919,羅氏家用新冠病毒抗原自我檢測套組,24,2022/05/07 09:50:02,無
5932014184,浤安藥局,桃園市桃園區慈德街１號１樓,121.3019,25.00685,(03)3577665,羅氏家用新冠病毒抗原自我檢測套組,78,2022/05/07 09:50:02,14:00開始發放實名制快篩
5932014317,躍獅省桃藥局,桃園市桃園區龍壽街２４號,121.2697,24.97836,(03)3791488,羅氏家用新冠病毒抗原自我檢測套組,78,2022/05/07 09:50:02,週1-7實名制快篩10:00開賣，5／6開始每日10點販售，沒發號碼牌
5932014433,樺品藥局,桃園市桃園區中華路４８號１樓,121.3104,24.99093,(03)3476667,羅氏家用新冠病毒抗原自我檢測套組,75,2022/05/07 09:50:02,營業時間:9:30-21:30，11:00取號碼牌購買快篩
5932014442,新光藥局,桃園市桃園區大有路１７２號,121.3209,25.00752,(03)3310133,羅氏家用新冠病毒抗原自我檢測套組,48,2022/05/07 09:50:02,營業時間:週一至週五10:00-22:00；快篩下午2:00開始，賣完為止，不發號碼牌
5932014460,桃鶯藥局,桃園市桃園區桃鶯路１０２號,121.318,24.98516,(03)3675100,羅氏家用新冠病毒抗原自我檢測套組,78,2022/05/07 09:50:02,快篩實名制，每天16:00開始販售，售完為止。
5932017112,全安藥師藥局,桃園市桃園區寶慶路４２９號,121.29,25.01915,(03)3023107,羅氏家用新冠病毒抗原自我檢測套組,1,2022/05/07 09:50:02,快篩實名制0900起販售~售完（5／7，5／9）
5932019045,大一藥局,桃園市桃園區中山路684之一號一樓,121.2946,24.9912,(03)2171836,羅氏家用新冠病毒抗原自我檢測套組,1,2022/05/07 09:50:02,快篩試劑每日下午3點半發號碼牌，4點開賣。星期日停售。
5932019929,元氣藥局,桃園市桃園區民光東路一Ｏ九號,121.3183,25.0079,(03)3332201,羅氏家用新冠病毒抗原自我檢測套組,78,2022/05/07 09:50:02,現場排隊喔!，快篩試劑銷售時間:星期一三四六15:30，星期二五19:00，星期日無，12:00~15:00；18:00~18:30為休息時間
5932021269,優良藥局,桃園市中壢區長春路２０號,121.2499,24.97907,(03)4612336,羅氏家用新冠病毒抗原自我檢測套組,41,2022/05/07 09:50:02,快篩販售時間10:00
5932021689,立康專業藥局,桃園市中壢區莊敬路８６５號,121.2543,24.96376,(03)4553121,羅氏家用新冠病毒抗原自我檢測套組,78,2022/05/07 09:50:02,快篩實名制販售時間週一到週五下午14:00販售 週六週日早上10:00販售 現場排隊
5932022159,躍獅新明藥局,桃園市中壢區新明路６６號１樓,121.215,24.95868,(03)2813361,羅氏家用新冠病毒抗原自我檢測套組,89,2022/05/07 09:50:02,快篩販賣時段：14:00~售完為止，現場排隊 ， 星期天沒有販售快篩
5932023656,思琁藥師藥局,桃園市中壢區中北路二段４３０號,121.2331,24.95448,(03)4162189,羅氏家用新冠病毒抗原自我檢測套組,1,2022/05/07 09:50:02,週一~週五早上10:30發快篩..週六公休..週日看到貨狀況再另行公告
5932023772,佑全中壢中正藥局,桃園市中壢區中正路１０８號１、２樓,121.2229,24.95498,(03)2807899,羅氏家用新冠病毒抗原自我檢測套組,77,2022/05/07 09:50:02,實名制快篩販售時間：下午1400-售完為止
5932023889,華勛藥局,桃園市中壢區華勛街１１２、１１４號,121.2597,24.95065,(03)4161881,羅氏家用新冠病毒抗原自我檢測套組,1,2022/05/07 09:50:02,快篩實名制，每天16:00開始販售，售完為止。
5932023932,龍東藥局,桃園市中壢區龍東路２０５號,121.2523,24.92966,(03)4383088,羅氏家用新冠病毒抗原自我檢測套組,78,2022/05/07 09:50:02,快篩實名制，每天16:00開始販售，售完為止。
5932024162,大賀藥局,桃園市中壢區龍東路３９９號１樓,121.2558,24.93335,(03)4375977,羅氏家用新冠病毒抗原自我檢測套組,78,2022/05/07 09:50:02,快篩領取號碼牌時間:周一 ~ 周日 上午11:30 相關資訊請臉書搜尋  中壢大賀藥局
5932024260,新資生福州大藥局,桃園市中壢區福州二街４０９號,121.232,24.96789,(03)3606180,羅氏家用新冠病毒抗原自我檢測套組,35,2022/05/07 09:50:02,營業時間：星期六 日 上午0900至下午1000
5932029676,中日大藥局,桃園市中壢區中北路二段７８號,121.225,24.95063,(03)4285068,羅氏家用新冠病毒抗原自我檢測套組,78,2022/05/07 09:50:02,快篩11點前到貨，11點開始販售；11點後到貨，到貨開始販售
593202A931,佳佑藥局,桃園市中壢區環中東路二四一號,121.2573,24.96345,(03)4356190,羅氏家用新冠病毒抗原自我檢測套組,10,2022/05/07 09:50:02,口罩販賣時段：09:00以後發號碼牌，售完為止
5932031756,明仁藥局,桃園市大溪區介壽路８１號１樓,121.2949,24.92218,(03)3804832,羅氏家用新冠病毒抗原自我檢測套組,19,2022/05/07 09:50:02,0800-11000
5932031890,福生藥局,桃園市大溪區民權東路１０３號１樓,121.2919,24.88209,(03)3873533,羅氏家用新冠病毒抗原自我檢測套組,2,2022/05/07 09:50:02,早上八點開始發放快篩試劑
5932031907,福澤大溪藥局,桃園市大溪區復興路１０５號１樓,121.2911,24.87917,(03)3884886,羅氏家用新冠病毒抗原自我檢測套組,2,2022/05/07 09:50:02,家用快篩販賣時段15:30至售完為止
5932040246,龍泰藥局,桃園市楊梅區民族路五段１４７巷２號,121.1736,24.9586,(03)4901525,羅氏家用新冠病毒抗原自我檢測套組,3,2022/05/07 09:50:02,快篩販售時間:早上7:30領號碼牌下午2點至4點領快篩（當日有效） 六日中午10點至12點領快篩
5932043130,宜康美藥局,桃園市楊梅區環東路４５２號,121.1571,24.91005,(03)4883805,羅氏家用新冠病毒抗原自我檢測套組,62,2022/05/07 09:50:02,快篩販賣時段：早上09:30~10:30（20份）下午15:30~16:30（38份）晚上19:30~20:30（20份）
5932043309,資生楊梅大藥局,桃園市楊梅區楊新路１００號,121.1449,24.91341,(03)2889590,羅氏家用新冠病毒抗原自我檢測套組,14,2022/05/07 09:50:02,每日快篩代售時間14:00-21:00
5932050215,九德藥局,桃園市蘆竹區中山路６９號,121.3003,25.05242,(03)3116868,羅氏家用新冠病毒抗原自我檢測套組,62,2022/05/07 09:50:02,口罩販賣時段：中午12點
5932051472,康而美聖安藥師藥局,桃園市蘆竹區南山路一段二之一號,121.2916,25.04879,(03)3228753,羅氏家用新冠病毒抗原自我檢測套組,3,2022/05/07 09:50:02,暫停止販售
5932052068,誼康藥局,桃園市蘆竹區奉化路一二六號,121.2885,25.03943,(03)3129045,羅氏家用新冠病毒抗原自我檢測套組,39,2022/05/07 09:50:02,每日實名制快篩販售時間早上九點半開始
5932052835,悅兒藥局,桃園市蘆竹區忠孝西路１８６號,121.2892,25.04011,(03)3126967,羅氏家用新冠病毒抗原自我檢測套組,78,2022/05/07 09:50:02,快篩販賣時段：週一到週日 14:30 開賣
5932052979,南崁藥局,桃園市蘆竹區中正路２５１、２５３、２５５號,121.2921,25.04695,(03)3522022,羅氏家用新冠病毒抗原自我檢測套組,157,2022/05/07 09:50:02,快篩實名制，每天16:00開始販售，售完為止。
5932060088,銘方大藥局,桃園市大園區大園里中華路３２號,121.1982,25.06647,(03)3865077,羅氏家用新冠病毒抗原自我檢測套組,2,2022/05/07 09:50:02,快篩試劑販賣時段 : 早上 8:30 起至售完為止
5932076844,帕米爾藥局,桃園市龜山區萬壽路二段９９１號,121.3369,24.99464,(03)3295522,羅氏家用新冠病毒抗原自我檢測套組,2,2022/05/07 09:50:02,星期一~六:家用快篩試劑販賣時段：14:30~售完。不發號碼牌，請直接排隊購買。
5932077118,文青藥局,桃園市龜山區文青路２０２號,121.3878,25.04034,(03)3270581,羅氏家用新冠病毒抗原自我檢測套組,75,2022/05/07 09:50:02,快篩販賣時段：上午10點到12點。（星期一下午2點開始），快篩無每日配送
5932077270,明昌藥局,桃園市龜山區中興里萬壽路二段１１９１－６號,121.3318,24.99291,(03)3501205,羅氏家用新冠病毒抗原自我檢測套組,1,2022/05/07 09:50:02,無
5932077298,家和藥局,桃園市龜山區建國東路９７號,121.3252,24.98754,(03)3196416,羅氏家用新冠病毒抗原自我檢測套組,3,2022/05/07 09:50:02,快篩販賣時段：週一至週日15:00-17:00
5932077510,左外野藥局,桃園市龜山區文光街６號１樓,121.3802,25.05471,(03)3271503,羅氏家用新冠病毒抗原自我檢測套組,77,2022/05/07 09:50:02,5月6日（週五）10:00-12:00加班販售快篩  *不發號碼牌 請直接排隊購買
5932077574,樂樂聯合藥局,桃園市龜山區萬壽路１段１０９號１、２樓,121.4091,25.01886,(02)82000560,羅氏家用新冠病毒抗原自我檢測套組,25,2022/05/07 09:50:02,實名制快篩於每日9點開始發放號碼牌，發完為止。 中午12點至14點半為藥局休息時間
5932077609,新資生中興大藥局,桃園市龜山區中興路３５０號１樓,121.3352,24.9917,(03)3596959,羅氏家用新冠病毒抗原自我檢測套組,79,2022/05/07 09:50:02,快篩試劑早上10點開始到中午12點止 不發號碼牌
5932077618,大山藥局,桃園市龜山區中興路１段１８、２２、２４號１樓,121.3379,24.99376,(03)3191057,羅氏家用新冠病毒抗原自我檢測套組,134,2022/05/07 09:50:02,無
5932083303,吉康生活藥局,桃園市八德區義勇街１２０號,121.3045,24.96354,(03)3768577,羅氏家用新冠病毒抗原自我檢測套組,78,2022/05/07 09:50:02,周休二日，周一到周五09.:30發放快篩號碼牌 銷售時間 09:30-11:30
5932083670,保健藥局,桃園市八德區介壽路一段８３３號２樓,121.3,24.96168,(03)3669486,羅氏家用新冠病毒抗原自我檢測套組,200,2022/05/07 09:50:02,無
5932083974,晨鴻藥師藥局,桃園市八德區桃鶯路７號１樓,121.3265,24.97179,(03)3764299,羅氏家用新冠病毒抗原自我檢測套組,100,2022/05/07 09:50:02,快篩為早上8:30跟晚上6:00領取號碼牌，因有送貨時間及短少的因素，所以快篩地圖數量參考就好，請勿再打電話詢問 謝謝
5932084435,康健藥局,桃園市八德區介壽路ㄧ段８６３號,121.2999,24.96109,(03)3617226,羅氏家用新冠病毒抗原自我檢測套組,39,2022/05/07 09:50:02,無
5932084695,康馥藥局,桃園市八德區金和路５３號１樓,121.2971,24.95494,(03)3749620,羅氏家用新冠病毒抗原自我檢測套組,78,2022/05/07 09:50:02,口罩販賣時段：15:00 ， 週日14:30開始營業；星期六公休。
5932084757,康是美藥局廣福店,桃園市八德區廣福路３０號,121.2981,24.95894,(03)3610841,羅氏家用新冠病毒抗原自我檢測套組,16,2022/05/07 09:50:02,無
5932084793,美康健保藥局,桃園市八德區桃鶯路９１號１、２樓,121.328,24.97036,(03)3613624,羅氏家用新冠病毒抗原自我檢測套組,1,2022/05/07 09:50:02,無
5932098091,悅發藥局,桃園市龍潭區龍元路８６號,121.2119,24.86481,(03)4705098,羅氏家用新冠病毒抗原自我檢測套組,78,2022/05/07 09:50:02,快篩販賣時段:貨源隨到隨賣
5932099203,普善藥局,桃園市龍潭區北龍路３３３號,121.219,24.86887,(03)4705877,羅氏家用新冠病毒抗原自我檢測套組,76,2022/05/07 09:50:02,快篩試劑販賣時段：14:10~售完為止
5932099623,中興藥師藥局,桃園市龍潭區中興路３９９號,121.2308,24.87293,(03)4091005,羅氏家用新冠病毒抗原自我檢測套組,15,2022/05/07 09:50:02,快篩販賣時間-早上9:15發號碼牌、9:30開始販售‧‧‧週六、日停售
5932100185,德聯藥師藥局,桃園市平鎮區龍南路３１號,121.2452,24.92473,(03)4603613,羅氏家用新冠病毒抗原自我檢測套組,52,2022/05/07 09:50:02,快篩 5月7日 上午9:30點開始賣
5932100354,世新藥局,桃園市平鎮區廣泰路７５之２號,121.2052,24.94629,(03)4941234,羅氏家用新冠病毒抗原自我檢測套組,1,2022/05/07 09:50:02,實名制快篩13:30販售
5932100925,譽達藥局,桃園市平鎮區育達路２４０號１樓,121.2072,24.95155,(03)4922990,羅氏家用新冠病毒抗原自我檢測套組,43,2022/05/07 09:50:02,快篩星期一到五下午三點開始，現場領取，口罩地圖不準，以現場門口公告為主
5932101084,佳仁藥局,桃園市平鎮區平東路２４３號,121.2486,24.91553,(03)4609335,羅氏家用新冠病毒抗原自我檢測套組,73,2022/05/07 09:50:02,快篩販售時間週一至日中午12:00開始，11:30發放號碼牌（僅供統計非保留）一人僅限一張健保卡，請自備500元，不找零。
5932108430,建德藥局,桃園市平鎮區北勢里金陵路１０３號,121.2229,24.94747,(03)4686662,羅氏家用新冠病毒抗原自我檢測套組,44,2022/05/07 09:50:02,國定假日皆休診.口罩販售時段:上午9:30起至售完為止
5932108574,天健示範藥局,桃園市平鎮區文化街２５２號,121.2032,24.95127,(03)4937169,羅氏家用新冠病毒抗原自我檢測套組,27,2022/05/07 09:50:02,快篩販賣時段:早上8點至售完（為了不讓民眾群聚我們採取發號碼牌制度喔）5／8（日）無配送快篩，暫停販售。
5932130049,德怡藥局,桃園市復興區澤仁里忠孝路３４號,121.3514,24.81463,(03)3821686,羅氏家用新冠病毒抗原自我檢測套組,76,2022/05/07 09:50:02,快篩販售時間：週一至週六 下午13:30發號碼牌13:40發售 每日售完為止 週日休息停售
5933010064,明德藥局,新竹縣關西鎮中山路１８號,121.1778,24.79152,(03)5874335,羅氏家用新冠病毒抗原自我檢測套組,39,2022/05/07 09:50:02,無
5933010144,佳仁藥局,新竹縣關西鎮中興路１２號,121.1771,24.79227,(035)872298,羅氏家用新冠病毒抗原自我檢測套組,1,2022/05/07 09:50:02,全年無休（星期日不定期）
5933011258,安東藥師藥局,新竹縣關西鎮中山路６２號,121.1766,24.79147,(03)5872385,羅氏家用新冠病毒抗原自我檢測套組,78,2022/05/07 09:50:02,口罩販賣時段：星期一至六08:00-21:00、星期日08:00-17:00
5933052606,正科大藥局,新竹縣竹北市科大一路１６號,121.0075,24.82198,(03)6573561,羅氏家用新冠病毒抗原自我檢測套組,75,2022/05/07 09:50:02,快篩實名制，若正常到貨，早上10點販售。
5933052660,阿姆斯壯藥局,新竹縣竹北市六家五路一段１２５號,121.0254,24.80966,(03)6589178,羅氏家用新冠病毒抗原自我檢測套組,78,2022/05/07 09:50:02,快篩5／3早上9:00開始販售，5／4起改下午5點。
