醫事機構代碼,醫事機構名稱,醫事機構地址,經度,緯度,醫事機構電話,廠牌項目,快篩試劑截至目前結餘存貨數量,來源資料時間,備註
2331200010,新北市坪林區衛生所,新北市坪林區坪林街１０４號,121.7095,24.93592,(02)26656272,羅氏家用新冠病毒抗原自我檢測套組,78,2022/05/06 08:58:02,防疫口罩販售服務時間，星期一至五09:00-12:00 。（倘若遇政府規定補班日，仍會提供販售口罩服務）
2331240014,新北市平溪區衛生所,新北市平溪區公園街１７號１樓,121.7365,25.02469,(02)24951015,羅氏家用新冠病毒抗原自我檢測套組,78,2022/05/06 08:58:02,快篩試劑販售時間:週一至週五上午9:00至12:00 ，上午9:00開始發放號碼牌，限額78盒，若提前售完，即截止當日販售服務。
2331260016,新北市貢寮區衛生所,新北市貢寮區朝陽街７０巷１０號、新北市貢寮區仁愛路１２８號,121.9095,25.02258,(02)24901431,羅氏家用新冠病毒抗原自我檢測套組,156,2022/05/06 08:58:02,快篩試劑販售時間為周一至周五早上9點開始販售，每日販售一箱，數量有限售完為止。
2331290014,新北市烏來區衛生所,新北市烏來區新烏路５段１０９號,121.548,24.87197,(02)26617200,羅氏家用新冠病毒抗原自我檢測套組,76,2022/05/06 08:58:02,無
2333070010,新竹縣橫山鄉衛生所,新竹縣橫山鄉大肚村３鄰新興街１４１巷１０號,121.1393,24.71756,(03)5932004,羅氏家用新冠病毒抗原自我檢測套組,78,2022/05/06 08:58:02,實名制快篩試劑販賣：週一至週五12：30~13：30
2333120015,新竹縣峨眉鄉衛生所,新竹縣峨眉鄉峨眉村峨眉街２鄰５號,121.0214,24.68842,(03)5800314,羅氏家用新冠病毒抗原自我檢測套組,78,2022/05/06 08:58:02,本所5月13日（五）下午眼科，自5月6日起販賣快篩試劑現場排隊12時至13時止，國定及例假日不賣
2333140017,新竹縣五峰鄉衛生所,新竹縣五峰鄉大隘村六鄰９９號,121.1194,24.63184,(03)5851005,羅氏家用新冠病毒抗原自我檢測套組,78,2022/05/06 08:58:02,無
2335110017,苗栗縣南庄鄉衛生所,苗栗縣南庄鄉東村大同路１７號,121,24.59733,(037)822024,羅氏家用新冠病毒抗原自我檢測套組,79,2022/05/06 08:58:02,口罩販賣時段:週一至週五上午8:00~下午5:00
2335180019,苗栗縣泰安鄉衛生所,苗栗縣泰安鄉清安村２鄰７２號,120.9083,24.44722,(037)941054,羅氏家用新冠病毒抗原自我檢測套組,65,2022/05/06 08:58:02,口罩販賣時段：星期一~五：8:30~15：00。
2338070010,南投縣鹿谷鄉衛生所,南投縣鹿谷鄉中正路二段２０號,120.7542,23.74488,(049)2752002,羅氏家用新冠病毒抗原自我檢測套組,56,2022/05/06 08:58:02,快篩試劑販售時間 上班日（星期一至星期五）14:00~16:00
2340170016,嘉義縣大埔鄉衛生所,嘉義縣大埔鄉大埔村５３－１號,120.5928,23.29397,(05)2521214,羅氏家用新冠病毒抗原自我檢測套組,156,2022/05/06 08:58:02,無
2342130010,高雄市田寮區衛生所,高雄市田寮區南安里崗北路３２號,120.3594,22.87301,(07)6361504,羅氏家用新冠病毒抗原自我檢測套組,95,2022/05/06 08:58:02,巡迴醫療:每星期一、四下午及每月第一個有上班的星期三下午巡迴醫療
2342180010,高雄市永安區衛生所,高雄市永安區永安路２６號,120.2254,22.81879,(07)6912015,羅氏家用新冠病毒抗原自我檢測套組,64,2022/05/06 08:58:02,本所防疫快篩試劑販賣時間為週一到週五上班日 9:00-11:00 （或售罄為止），現場叫號不到，視同放棄
2342250017,高雄市茂林區衛生所,高雄市茂林區茂林里茂林巷８－４號,120.6641,22.88641,(07)6801046,羅氏家用新冠病毒抗原自我檢測套組,176,2022/05/06 08:58:02,夜間急診，請先撥電話07-6801046
2342260013,高雄市桃源區衛生所,高雄市桃源區桃源里南進巷１８８－１號,120.7642,23.15845,(07)6861126,羅氏家用新冠病毒抗原自我檢測套組,174,2022/05/06 08:58:02,IDS提供24小時服務
2342270019,高雄市那瑪夏區衛生所,高雄市那瑪夏區瑪雅里６鄰平和巷２５２號,120.7024,23.24708,(07)6701142,羅氏家用新冠病毒抗原自我檢測套組,359,2022/05/06 08:58:02,春節期間正常門診
2343270013,屏東縣霧台鄉衛生所,屏東縣霧台鄉霧台村神山巷６８號,120.7261,22.74989,(08)7902232,羅氏家用新冠病毒抗原自我檢測套組,115,2022/05/06 08:58:02,無
2343290015,屏東縣泰武鄉衛生所,屏東縣泰武鄉佳平村１７９號,120.6327,22.59212,(08)7832059,羅氏家用新冠病毒抗原自我檢測套組,24,2022/05/06 08:58:02,4／2-4／5門診照常
2343300016,屏東縣來義鄉衛生所,屏東縣來義鄉古樓村中正路９０號,120.632,22.52584,(08)7850103,羅氏家用新冠病毒抗原自我檢測套組,20,2022/05/06 08:58:02,無
2343320018,屏東縣獅子鄉衛生所,屏東縣獅子鄉楓林村楓林二巷３１號,120.7057,22.18402,(08)8771324,羅氏家用新冠病毒抗原自我檢測套組,6,2022/05/06 08:58:02,特休日：每年農曆除夕、初一
2343330014,屏東縣牡丹鄉衛生所,屏東縣牡丹鄉石門村１９號,120.7469,22.10105,(08)8831013,羅氏家用新冠病毒抗原自我檢測套組,24,2022/05/06 08:58:02,無
2344011036,澎湖縣馬公市第三衛生所,澎湖縣馬公市西文里１１８之２號,119.5836,23.56813,(06)9211723,羅氏家用新冠病毒抗原自我檢測套組,82,2022/05/06 08:58:02,本所快篩試劑只提供離島衛生室（虎井、桶盤）販售，時間週一至週五08:30-17:00售完為止，星期六、日國定假日09:00-12:00。
2344030013,澎湖縣白沙鄉衛生所,澎湖縣白沙鄉赤崁村３５９號,119.5982,23.66669,(06)9931044,羅氏家用新冠病毒抗原自我檢測套組,1,2022/05/06 08:58:02,星期日上午門診看診（每月最後一個星期日休診）； 星期五上午巡迴醫療（中屯村，講美村，通樑村）
2344030022,澎湖縣白沙鄉鳥嶼衛生所,澎湖縣白沙鄉鳥嶼村漁港新村３號,119.6599,23.66008,(06)9916092,羅氏家用新冠病毒抗原自我檢測套組,142,2022/05/06 08:58:02,非上班時間提供急診服務
2344030031,澎湖縣白沙鄉吉貝衛生所,澎湖縣白沙鄉吉貝村８－１３號,119.6138,23.74056,(06)9911430,羅氏家用新冠病毒抗原自我檢測套組,71,2022/05/06 08:58:02,無
2344050015,澎湖縣望安鄉衛生所,澎湖縣望安鄉西安村３６－７號,119.4972,23.36161,(06)9991036,羅氏家用新冠病毒抗原自我檢測套組,191,2022/05/06 08:58:02,夜間急診。口罩、快篩試劑販售時間為:每日08:00-12:00、13:30-17:30售完為止，如有餘數為離島未售出（東嶼坪、花嶼）。
2344050024,澎湖縣望安鄉將軍衛生所,澎湖縣望安鄉將軍村１２鄰將軍澳１之３號,119.5216,23.3615,(06)9902066,羅氏家用新冠病毒抗原自我檢測套組,196,2022/05/06 08:58:02,24小時急診
2344060011,澎湖縣七美鄉衛生所,澎湖縣七美鄉中和村埔內５４號,119.431,23.2041,(06)9971005,羅氏家用新冠病毒抗原自我檢測套組,46,2022/05/06 08:58:02,無
2345080017,花蓮縣豐濱鄉衛生所,花蓮縣豐濱鄉豐濱村光豐路３９號,121.5215,23.60195,(03)8791156,羅氏家用新冠病毒抗原自我檢測套組,123,2022/05/06 08:58:02,*本院口罩每天販售，時間自上午8點至晚上9點  *本院週一至週五上下午皆有門診，星期六隔週提供門診，及24小時急診。
2345100014,花蓮縣富里鄉衛生所,花蓮縣富里鄉富里村中山路２０３號,121.2491,23.17847,(03)8831029,羅氏家用新冠病毒抗原自我檢測套組,180,2022/05/06 08:58:02,*內科:每週二下午東里玉蓮寺巡診 **牙科:每週二至卓溪醫療站***口罩販賣時間8:30起至11:00止
2345120016,花蓮縣萬榮鄉衛生所,花蓮縣萬榮鄉萬榮村１鄰１６號,121.4092,23.71558,(03)8751651,羅氏家用新冠病毒抗原自我檢測套組,156,2022/05/06 08:58:02,快篩試劑代售時間：週一至週五下午2點至下午4點，販售為止。
2345130012,花蓮縣卓溪鄉衛生所,花蓮縣卓溪鄉卓溪村中正路６５號,121.3033,23.33294,(03)8882592,羅氏家用新冠病毒抗原自我檢測套組,202,2022/05/06 08:58:02,快篩試劑代售時間：週一至週五上午8：30-11：00（售完即結束）
2346050013,台東縣大武鄉衛生所,臺東縣大武鄉大武村復興路２－２號,120.9078,22.36414,(089)791143,羅氏家用新冠病毒抗原自我檢測套組,42,2022/05/06 08:58:02,24小時急診服務（急診無販售快篩試劑）
2346070015,臺東縣東河鄉衛生所,臺東縣東河鄉東河村南東河路１０鄰３００號,121.3031,22.96846,(089)896289,羅氏家用新冠病毒抗原自我檢測套組,76,2022/05/06 08:58:02,快篩試劑販售時間:◆平日（星期一三四五）上午9-11時販售，星期二下午13-15時販售售完為止。
2346120010,台東縣延平鄉衛生所,臺東縣延平鄉桃源村昇平路１１號,121.0855,22.90217,(089)561358,羅氏家用新冠病毒抗原自我檢測套組,57,2022/05/06 08:58:02,星期一至星期五上午8:00-11:00下午13:30-16:30販售快篩試劑現場一卡一號78號收完卡即完售，遇國定假日休息
2346130016,台東縣海端鄉衛生所,臺東縣海端鄉海端村３鄰２９號,121.1767,23.10094,(089)931391,羅氏家用新冠病毒抗原自我檢測套組,78,2022/05/06 08:58:02,星期一至星期五家用快篩試劑販售時間上午10點~12點（售完為止）
2346140012,台東縣達仁鄉衛生所,臺東縣達仁鄉安朔村復興路１２２號,120.8836,22.29488,(089)702209,羅氏家用新冠病毒抗原自我檢測套組,46,2022/05/06 08:58:02,12／31 元旦連假
2346150018,台東縣金峰鄉衛生所,臺東縣金峰鄉賓茂村１鄰１４號,120.9606,22.53248,(089)772201,羅氏家用新冠病毒抗原自我檢測套組,104,2022/05/06 08:58:02,快篩試劑販售時間為星期一至星期五，早上8:30~12:00；下午1:30~5:00
2346160014,台東縣蘭嶼鄉衛生所,臺東縣蘭嶼鄉紅頭村３６號,121.5546,22.02493,(089)732575,羅氏家用新冠病毒抗原自我檢測套組,41,2022/05/06 08:58:02,販售口罩時間 星期一至星期五 8:00~12:00 13:30~17:30
2391020010,連江縣北竿鄉衛生所,連江縣北竿鄉塘岐村２８１－６號,119.9991,26.22617,(083)655592,羅氏家用新冠病毒抗原自我檢測套組,52,2022/05/06 08:58:02,新冠快篩試劑販售於週一至周六每日上午08:30-12:00開放購買。
2391030016,連江縣莒光鄉西莒衛生所,連江縣莒光鄉青帆村１４－１號,119.9331,25.97157,(083)689122,羅氏家用新冠病毒抗原自我檢測套組,283,2022/05/06 08:58:02,防疫口罩星期一至五09:00-17:00、（六）09:00-12:00現場購買
2391030026,連江縣莒光鄉東莒衛生所,連江縣莒光鄉大坪村３０－１號,119.9731,25.96113,(083)689038,羅氏家用新冠病毒抗原自我檢測套組,506,2022/05/06 08:58:02,防疫口罩星期一至星期日上午10:00-12:00收取健保卡，下午3:30至本所領取口罩。
2391040012,連江縣東引鄉衛生所,連江縣東引鄉中柳村１２３號,120.4904,26.36701,(083)677206,羅氏家用新冠病毒抗原自我檢測套組,35,2022/05/06 08:58:02,防疫口罩每日10:00-12:00現場購買
5901010165,傑安藥局,臺北市松山區八德路２段４３７巷７弄８號１樓,121.5473,25.04914,(02)27524155,羅氏家用新冠病毒抗原自我檢測套組,78,2022/05/06 08:58:02,9:30開始發號碼牌
5901010174,仁弘藥局,臺北市松山區民生東路３段１１３巷２５弄６號１樓,121.5466,25.05948,(02)27136764,羅氏家用新冠病毒抗原自我檢測套組,67,2022/05/06 08:58:02,5／6（星期五）早上九點開始直接發售.
5901010192,益華藥局,臺北市松山區民生東路５段１３８巷６號,121.5615,25.05827,(02)27624898,羅氏家用新冠病毒抗原自我檢測套組,69,2022/05/06 08:58:02,無
5901010576,合生藥局,臺北市松山區南京東路５段１２３巷４５號１樓,121.5607,25.05364,(02)27602932,羅氏家用新冠病毒抗原自我檢測套組,65,2022/05/06 08:58:02,口罩發放方式:早上9點至晚上10點 ， 週日店休
5901011699,建東大藥局,臺北市松山區三民路９７號１樓,121.5634,25.05723,(02)27676237,羅氏家用新冠病毒抗原自我檢測套組,78,2022/05/06 08:58:02,早上9點發號碼牌.留健保卡.12點前回來買快篩.一人一卡.周日公修（沒快篩）
5901012516,惠登藥局,臺北市松山區民生東路３段１３０巷３４號,121.5461,25.0562,(02)25472432,羅氏家用新冠病毒抗原自我檢測套組,60,2022/05/06 08:58:02,無
5901012561,松田藥局,臺北市松山區延吉街９－６號,121.5536,25.04701,(02)25798005,羅氏家用新冠病毒抗原自我檢測套組,78,2022/05/06 08:58:02,每日上午9:30開始實名制快篩販售
5901012570,予志藥局,臺北市松山區富錦街５２１號,121.5649,25.06119,(02)27623522,羅氏家用新冠病毒抗原自我檢測套組,78,2022/05/06 08:58:02,實名制快篩星期一到三下午2點、星期四到六晚上8點、星期日停售
5901012712,立康大藥局,臺北市松山區八德路四段２－１號,121.5581,25.04812,(02)27471749,羅氏家用新冠病毒抗原自我檢測套組,78,2022/05/06 08:58:02,快篩時間：周一～周五9:30-14:00，18:00-21:30。周六10:30-12:30，18:00-20:00。周日暫停販售。如有修正以店面公告為主
5901012749,躍獅松和藥局,臺北市松山區八德路四段６６６－１號,121.5761,25.04979,(02)27492569,羅氏家用新冠病毒抗原自我檢測套組,78,2022/05/06 08:58:02,實名制快篩販售時段，每日下午4點販售，售完為止
5901012767,晨新藥局,臺北市松山區八德路４段９１巷１－１號,121.5608,25.04894,(02)27422951,羅氏家用新冠病毒抗原自我檢測套組,78,2022/05/06 08:58:02,本店星期一不販售快篩，其餘時間為下午2點至5點。若有修正依店內公告為主。
5901012963,綠之家藥局,臺北市松山區延壽街４２８號,121.5562,25.0562,(02)25289595,羅氏家用新冠病毒抗原自我檢測套組,78,2022/05/06 08:58:02,禮拜日不販售快篩
5901013095,康采藥局,臺北市松山區南京東路５段２９１巷１７－２號,121.5663,25.05236,(02)27670271,羅氏家用新冠病毒抗原自我檢測套組,30,2022/05/06 08:58:02,（已完售，庫存不準）快篩試劑每日16點販售，週日沒有販售
5901013148,唯康藥局,臺北市松山區八德路３段２１１號,121.5566,25.0482,(02)25775000,羅氏家用新冠病毒抗原自我檢測套組,1,2022/05/06 08:58:02,無
5901013362,啄木鳥藥局,臺北市松山區八德路４段２０９號、２１１號（１、２層）,121.564,25.04894,(02)27422413,羅氏家用新冠病毒抗原自我檢測套組,78,2022/05/06 08:58:02,無
5901013371,玖田藥局,臺北市松山區八德路４段６５５號,121.5755,25.05018,(02)27666578,羅氏家用新冠病毒抗原自我檢測套組,52,2022/05/06 08:58:02,實名制快篩：09:40開始，售完為止！
5901013399,一安正昇藥局,臺北市松山區南京東路５段３０９號,121.5667,25.05155,(02)27680993,羅氏家用新冠病毒抗原自我檢測套組,1,2022/05/06 08:58:02,快篩發放時間  下午14:30
5901013451,新德大藥局,臺北市松山區饒河街２０４號,121.577,25.05074,(02)27673402,羅氏家用新冠病毒抗原自我檢測套組,78,2022/05/06 08:58:02,周一至周六上午九點開賣；快篩實名制（周日休息）
5901013504,杏一台北長庚藥局,臺北市松山區敦化北路１９９巷２弄３號,121.55,25.05569,(02)25149463,羅氏家用新冠病毒抗原自我檢測套組,78,2022/05/06 08:58:02,無
5901013586,安禾大藥局,臺北市松山區撫遠街３８２號,121.5656,25.06443,(02)27602952,羅氏家用新冠病毒抗原自我檢測套組,1,2022/05/06 08:58:02,週一~週五 14:00發放號碼牌，65歲以上老人12歲以下兒童優先
5901013693,民生盛康藥局,臺北市松山區民生東路５段２０４號１樓,121.5648,25.05826,(02)27460758,羅氏家用新冠病毒抗原自我檢測套組,90,2022/05/06 08:58:02,【每日70分】每日早上9:00發號碼牌，14:00~20:00拿號碼牌回來領取，每人限1張號碼牌，逾時不候
5901013737,全欣藥局,臺北市松山區復興北路７３號２樓,121.5442,25.05104,(02)87729066,羅氏家用新冠病毒抗原自我檢測套組,58,2022/05/06 08:58:02,9:00am開始販售30人份15:00販售30人份:18:00販售17人份；週六:9:00販售39人份；週日:15:00販售39人份....排隊人數滿會先發號碼
5901020303,宏恩藥局,臺北市大安區大安路１段１８１號,121.5461,25.03619,(02)27000956,羅氏家用新冠病毒抗原自我檢測套組,1,2022/05/06 08:58:02,實名制快篩每周一~六，10:00發放號碼牌， 後於12:00~21:00自由擇時，持號碼牌領取快篩並收費
5901020385,延吉大藥局,臺北市大安區延吉街１５３號１樓,121.5548,25.04066,(02)27819227,羅氏家用新冠病毒抗原自我檢測套組,81,2022/05/06 08:58:02,無
5901020732,赫慶藥局,臺北市大安區瑞安街２０８巷１１弄５號１樓,121.5408,25.02866,(02)27063497,羅氏家用新冠病毒抗原自我檢測套組,76,2022/05/06 08:58:02,快篩代售時間：星期一至六上午9點開始，不發號碼牌，星期日停售
5901020858,順天堂藥局,臺北市大安區龍泉街９６號,121.5292,25.02256,(02)23627149,羅氏家用新冠病毒抗原自我檢測套組,78,2022/05/06 08:58:02,實名制快篩早上9:30開始發放，每日78份，發完為止。禮拜日公休
5901020876,大興藥局,臺北市大安區通化街３９巷５０弄１５號１樓,121.5555,25.03056,(02)27053369,羅氏家用新冠病毒抗原自我檢測套組,25,2022/05/06 08:58:02,快篩試劑販售時間自08:30開始，現場排隊。（週日休息）
5901023313,安和藥局,臺北市大安區安和路１段１０２巷３號,121.5519,25.03433,(02)27092349,羅氏家用新冠病毒抗原自我檢測套組,78,2022/05/06 08:58:02,平日下午三點開始販賣賣完 78份結束
5901024114,好安心藥局,臺北市大安區和平東路２段９８之２號,121.5415,25.02493,(02)23772166,羅氏家用新冠病毒抗原自我檢測套組,76,2022/05/06 08:58:02,快篩發放: 週一至週六 15:30現場開始販售，不發號碼牌。
5901024481,微笑藥師藥局,臺北市大安區信義路３段３１巷４號,121.5345,25.03401,(02)27009655,羅氏家用新冠病毒抗原自我檢測套組,78,2022/05/06 08:58:02,9點發放號碼牌，12點前過卡完畢
5901024543,奇威藥局,臺北市大安區雲和街９３號,121.5312,25.02338,(02)23651110,羅氏家用新冠病毒抗原自我檢測套組,36,2022/05/06 08:58:02,無
5901024669,百岳藥局,臺北市大安區和平東路２段３１１巷１１號,121.5452,25.02514,(02)27551037,羅氏家用新冠病毒抗原自我檢測套組,78,2022/05/06 08:58:02,快篩試劑販售時間:周一至周五10:30~12:00止
5901024767,杏一樂業藥局,臺北市大安區樂業街１６２號,121.5535,25.01958,(02)27383194,羅氏家用新冠病毒抗原自我檢測套組,79,2022/05/06 08:58:02,快篩下午三點現場直接販售（不發號碼牌）
5901024838,昶青藥局,臺北市大安區濟南路３段２２之１號,121.5346,25.04008,(02)27515678,羅氏家用新冠病毒抗原自我檢測套組,24,2022/05/06 08:58:02,每天下午13:00販售快篩實名制
5901024865,沛林東區生活藥粧藥局,臺北市大安區忠孝東路４段１８１巷７弄５號,121.551,25.04219,(02)27763759,羅氏家用新冠病毒抗原自我檢測套組,74,2022/05/06 08:58:02,每日早上11:00營業，若快篩有到貨，每日發放時間為下午2:00開始
5901024918,康祥藥局,臺北市大安區忠孝東路４段２１６巷２１號,121.5531,25.04025,(02)27817891,羅氏家用新冠病毒抗原自我檢測套組,78,2022/05/06 08:58:02,星期天11:00-19:00
5901024945,威康藥局,臺北市大安區和平東路２段２９７號,121.5447,25.02495,(02)27061149,羅氏家用新冠病毒抗原自我檢測套組,40,2022/05/06 08:58:02,無
5901024954,佑全大安敦南藥局,臺北市大安區敦化南路２段６３巷４６號,121.5512,25.03089,(02)23257579,羅氏家用新冠病毒抗原自我檢測套組,78,2022/05/06 08:58:02,早上10點發放號碼牌，同時開始販賣實名制快篩
5901024981,專品六張犁藥局,臺北市大安區基隆路２段２１７號１樓,121.5513,25.02299,(02)87322226,羅氏家用新冠病毒抗原自我檢測套組,3,2022/05/06 08:58:02,無
5901025004,早安藥局,臺北市大安區建國南路２段１５１巷４２號１樓,121.5396,25.02865,(02)27002209,羅氏家用新冠病毒抗原自我檢測套組,69,2022/05/06 08:58:02,快篩早上9點發號碼牌留卡下午2點領取
5901025068,鎮安中西安和藥局,臺北市大安區安和路１段１２３號１樓,121.5527,25.03488,(02)27015201,羅氏家用新冠病毒抗原自我檢測套組,61,2022/05/06 08:58:02,無
5901090154,柯藥局,臺北市大同區重慶北路３段３３５巷６號,121.5144,25.07452,(02)25948515,羅氏家用新冠病毒抗原自我檢測套組,131,2022/05/06 08:58:02,库存已零如何歸零
5901090216,裕仁藥局,臺北市大同區迪化街２段２７０號－１,121.5115,25.07068,(02)25910064,羅氏家用新冠病毒抗原自我檢測套組,33,2022/05/06 08:58:02,無
5901091544,得意藥師藥局,臺北市大同區延平北路２段２２９號,121.5115,25.06029,(02)25534294,羅氏家用新冠病毒抗原自我檢測套組,7,2022/05/06 08:58:02,無
5901091820,富康藥局,臺北市大同區延平北路２段１２６號,121.5115,25.05733,(02)25537782,羅氏家用新冠病毒抗原自我檢測套組,78,2022/05/06 08:58:02,代售快篩早上9:00開始售完為止
5901091884,躍獅雙蓮藥局,臺北市大同區涼州街４號,121.5147,25.06078,(02)25537551,羅氏家用新冠病毒抗原自我檢測套組,78,2022/05/06 08:58:02,實名制快篩：平日週一～五 下午３點開賣 （六、日停售）
5901092087,躍獅文昌藥局,臺北市大同區民生西路１０８號（實際營業：一層）,121.5197,25.0574,(02)25586189,羅氏家用新冠病毒抗原自我檢測套組,78,2022/05/06 08:58:02,無
5901100155,大信藥局,臺北市中山區林森北路１５９巷６號,121.5255,25.0517,(02)25719080,羅氏家用新冠病毒抗原自我檢測套組,1,2022/05/06 08:58:02,無
5901100342,順泰藥局,臺北市中山區錦州街２６６號,121.5348,25.06025,(02)25038916,羅氏家用新冠病毒抗原自我檢測套組,78,2022/05/06 08:58:02,無
5901100422,滿順藥局,臺北市中山區伊通街５４號１樓,121.5347,25.05145,(02)25075283,羅氏家用新冠病毒抗原自我檢測套組,28,2022/05/06 08:58:02,快篩服務時間 AM 8:30 起 售完為止
5901100431,長生藥局,臺北市中山區松江路３６２巷５５號１樓,121.5313,25.06207,(02)25816210,羅氏家用新冠病毒抗原自我檢測套組,52,2022/05/06 08:58:02,無
5901100628,貢玄藥局,臺北市中山區錦州街２０７號,121.532,25.06039,(02)25637847,羅氏家用新冠病毒抗原自我檢測套組,68,2022/05/06 08:58:02,早上10點~11點領口罩
5901101161,晏晟藥局,臺北市中山區林森北路６２５號,121.5259,25.06703,(02)25851445,羅氏家用新冠病毒抗原自我檢測套組,70,2022/05/06 08:58:02,無
5901101992,大愛藥師藥局,臺北市中山區吉林路２５５號１樓,121.5304,25.06165,(02)25424723,羅氏家用新冠病毒抗原自我檢測套組,78,2022/05/06 08:58:02,週一~週五13:55發放號碼牌14:00發放快篩，週六、週日休息
5901102444,啟美藥師藥局,臺北市中山區錦州街２８２號,121.5352,25.06024,(02)25178032,羅氏家用新冠病毒抗原自我檢測套組,78,2022/05/06 08:58:02,快篩 販售時間 20點開賣到21點，星期六日公休
5901102686,富宥康藥局,臺北市中山區北安路６０８巷５弄２２號,121.5496,25.08263,(02)25325277,羅氏家用新冠病毒抗原自我檢測套組,6,2022/05/06 08:58:02,無
5901103227,建誠中西藥局,臺北市中山區龍江路３８５之１號,121.541,25.06511,(02)25158608,羅氏家用新冠病毒抗原自我檢測套組,29,2022/05/06 08:58:02,實名制快篩發放時間 週一至週六13:00-14:00
5901103236,誠意中西藥局,臺北市中山區林森北路６１３號,121.5258,25.06647,(02)25950951,羅氏家用新冠病毒抗原自我檢測套組,82,2022/05/06 08:58:02,依情況調整
5901103423,農安藥局,臺北市中山區農安街１８之１號,121.5248,25.06483,(02)25959293,羅氏家用新冠病毒抗原自我檢測套組,2,2022/05/06 08:58:02,快篩2點發號碼牌 3點後來拿
5901103665,安悅藥局,臺北市中山區吉林路１８９號,121.5304,25.0597,(02)25419879,羅氏家用新冠病毒抗原自我檢測套組,71,2022/05/06 08:58:02,實名制快篩販售時間:早上11點~售完為止，不發號碼牌僅現場排隊（每周日不販售）
5901103736,杏一龍錦藥局,臺北市中山區龍江路２７９號１樓,121.5408,25.05973,(02)25174618,羅氏家用新冠病毒抗原自我檢測套組,153,2022/05/06 08:58:02,快篩提供時段週一到週六 9:00-12:00 週日不提供發放!!! 不發號碼牌 每日販售78人次 售完為止＞＜
5901103754,永育康暉藥局,臺北市中山區樂群二路２１０之２號１樓,121.5593,25.07952,(02)85012227,羅氏家用新冠病毒抗原自我檢測套組,38,2022/05/06 08:58:02,國定假日仍執行調劑業務
5901110268,赫得藥局,臺北市內湖區康樂街７２巷１７弄４號１Ｆ,121.6178,25.06976,(02)26328642,羅氏家用新冠病毒抗原自我檢測套組,104,2022/05/06 08:58:02,每周日公休。快篩試劑於周一至周六，早上8:30開賣（賣完為止）。
5901110339,富山藥局,臺北市內湖區麗山街３６４巷２號１樓,121.5728,25.08168,(02)27996446,羅氏家用新冠病毒抗原自我檢測套組,78,2022/05/06 08:58:02,周日公休，政府供貨不穩定，請搜尋facebook「富山生活藥妝」查看每日公告
5901112600,匯安藥局,臺北市內湖區內湖路１段７０３之１號,121.5774,25.07964,(02)26579255,羅氏家用新冠病毒抗原自我檢測套組,77,2022/05/06 08:58:02,星期一到五下午3:30販售口罩
5901112726,高昱藥局,臺北市內湖區陽光街３２１巷２６號２樓之１５,121.5786,25.07236,(02)87519962,羅氏家用新冠病毒抗原自我檢測套組,22,2022/05/06 08:58:02,週六日預約
5901112780,樂康藥妝藥局,臺北市內湖區文德路１１７號,121.5841,25.0787,(02)26562110,羅氏家用新冠病毒抗原自我檢測套組,81,2022/05/06 08:58:02,無
5901112824,思恩藥局,臺北市內湖區成功路４段６１巷２６號,121.5932,25.08121,(02)27965808,羅氏家用新冠病毒抗原自我檢測套組,108,2022/05/06 08:58:02,快篩販售時間:禮拜一~五 14:00~17:00
5901112860,展恩藥局,臺北市內湖區民權東路６段１３６巷４號,121.5877,25.06866,(02)27953041,羅氏家用新冠病毒抗原自我檢測套組,150,2022/05/06 08:58:02,快篩試劑販售時間:每周一至周六早上9:00開始販售，現場排隊，售完為止.
5901113018,桔子藥局,臺北市內湖區內湖路２段３３３號,121.5917,25.08319,(02)27930052,羅氏家用新冠病毒抗原自我檢測套組,78,2022/05/06 08:58:02,早0900-1200，午1400-1700，晚1900-2100
5901113027,晟安藥局,臺北市內湖區金龍路１３５號,121.5902,25.08593,(02)87919320,羅氏家用新冠病毒抗原自我檢測套組,77,2022/05/06 08:58:02,快篩一~六早上10；00開始販售，星期日不營業
5901113269,樂齡藥師藥局,臺北市內湖區內湖路３段１０３號,121.5909,25.08641,(02)27919707,羅氏家用新冠病毒抗原自我檢測套組,5,2022/05/06 08:58:02,早上8:30
5901113296,喜越藥局,臺北市內湖區內湖路１段２８５巷５９弄７號,121.5673,25.08377,(02)26271955,羅氏家用新冠病毒抗原自我檢測套組,2,2022/05/06 08:58:02,無
5901113312,江南大藥局,臺北市內湖區文德路２２巷９弄５６號,121.5791,25.07656,(02)26595430,羅氏家用新冠病毒抗原自我檢測套組,74,2022/05/06 08:58:02,每日上午9點賣快篩，週末視配發情況調整
5901113367,瑞暉藥局,臺北市內湖區文德路１０５號,121.5837,25.0787,(02)26276828,羅氏家用新冠病毒抗原自我檢測套組,153,2022/05/06 08:58:02,營業時間: 09:00~22:00
5901113385,躍獅康成藥局,臺北市內湖區成功路４段６１巷１１號,121.5928,25.0814,(02)87922031,羅氏家用新冠病毒抗原自我檢測套組,78,2022/05/06 08:58:02,如有收到政府配送，實名制快篩13:40發號碼牌，14:00開賣。實名制口罩已無販售。
5901113509,安安藥局,臺北市內湖區康寧路１段４號１樓,121.5912,25.08057,(02)87912187,羅氏家用新冠病毒抗原自我檢測套組,59,2022/05/06 08:58:02,快篩時段9:00-9:30；營業時段8:30~22:30
5901113563,耀元藥局,臺北市內湖區康樂街１５０號,121.6192,25.07263,(02)26337369,羅氏家用新冠病毒抗原自我檢測套組,78,2022/05/06 08:58:02,週一至週六實名制快篩下午兩點販售，依現場排隊順序購買，沒有發放號碼牌。週日無販售。特殊情況依現場公告為主。
5901113572,西湖藥局,臺北市內湖區內湖路１段３５５號,121.5693,25.0822,(02)26279291,羅氏家用新冠病毒抗原自我檢測套組,143,2022/05/06 08:58:02,國定假日不執行調劑業務
5901113590,維安藥局,臺北市內湖區成功路３段１７４巷２３號,121.5906,25.08143,(02)27944520,羅氏家用新冠病毒抗原自我檢測套組,78,2022/05/06 08:58:02,快篩每周一至六0930開賣，10點結束，視人數發號，每日固定78位，多的78為隔日庫存
5901113652,加一藥師藥局,臺北市內湖區星雲街２４號１樓,121.5908,25.07804,(02)87912653,羅氏家用新冠病毒抗原自我檢測套組,167,2022/05/06 08:58:02,無
5901113741,原大藥局,臺北市內湖區內湖路１段７３７巷５０弄５號１樓,121.5788,25.08058,(02)26596358,羅氏家用新冠病毒抗原自我檢測套組,154,2022/05/06 08:58:02,9:00開賣快篩，不發號碼牌，現場售完為止。
5901120175,新錦安藥局,臺北市南港區南港路３段３４號,121.5922,25.05429,(02)27825218,羅氏家用新冠病毒抗原自我檢測套組,3,2022/05/06 08:58:02,快篩販售時間星期一到星期六上午8:30開始   星期日上午10:30開始
5901121583,健園藥局,臺北市南港區研究院路１段１９號１樓,121.6166,25.05401,(02)27851567,羅氏家用新冠病毒抗原自我檢測套組,78,2022/05/06 08:58:02,早上8點開賣 （政府有配送的狀況下） 沒發放號碼牌售完為止
5901121823,儀安健保藥局,臺北市南港區同德路７４號,121.5853,25.0457,(02)27859893,羅氏家用新冠病毒抗原自我檢測套組,77,2022/05/06 08:58:02,實名制快篩下午三點開賣，無發放號碼牌（只有週日為晚上六點）
5901121841,泓安藥局,臺北市南港區興華路７５號,121.6061,25.05517,(02)27861083,羅氏家用新冠病毒抗原自我檢測套組,156,2022/05/06 08:58:02,星期一至星期日早上10:00開賣快篩試劑
5901121869,南港藥局,臺北市南港區南港路一段１６６號,121.6119,25.05536,(02)27829137,羅氏家用新冠病毒抗原自我檢測套組,78,2022/05/06 08:58:02,快篩販售時間晚上6:00~晚上8:00（每天78份，售完即止）（周日休息）
5901122080,成福大藥局,臺北市南港區成福路８號,121.5859,25.04578,(02)27859221,羅氏家用新冠病毒抗原自我檢測套組,78,2022/05/06 08:58:02,無
5901150128,新興藥局,臺北市士林區德行西路１１７號,121.5206,25.10398,(02)28362643,羅氏家用新冠病毒抗原自我檢測套組,62,2022/05/06 08:58:02,無
5901150146,坤成泰藥局,臺北市士林區大南路４１２號,121.5162,25.08996,(02)28813903,羅氏家用新冠病毒抗原自我檢測套組,107,2022/05/06 08:58:02,實名制快篩販賣時間 早上9.30~12.00   下午2.00~6.00  賣完為止
5901150244,佳赫藥局,臺北市士林區文昌路６２號,121.5214,25.09605,(02)28367202,羅氏家用新冠病毒抗原自我檢測套組,1,2022/05/06 08:58:02,快篩早上8:30開始販售
5901150548,田倉藥局,臺北市士林區士東路１２４號,121.5302,25.11219,(02)88662188,羅氏家用新冠病毒抗原自我檢測套組,78,2022/05/06 08:58:02,每日19:00（傍晚7點）開始販售.
5901150593,安寧藥局,臺北市士林區劍潭路９１號,121.5199,25.08285,(02)28803319,羅氏家用新冠病毒抗原自我檢測套組,214,2022/05/06 08:58:02,領藥星期1.3.5為 9:00~12:00.及16:00~20:00*星期2.4.6.--上午
5901150771,天母大和藥師藥局,臺北市士林區德行東路１８９－１號１樓,121.5317,25.10897,(02)28310142,羅氏家用新冠病毒抗原自我檢測套組,30,2022/05/06 08:58:02,快篩實名制 配合營業時間  賣完為止
5901152024,今欣藥局,臺北市士林區天母西路４１巷９號１樓,121.5274,25.11931,(02)28713129,羅氏家用新冠病毒抗原自我檢測套組,78,2022/05/06 08:58:02,快篩周一到周五每天早上10點開始販售，周日及國定假日休息
5901152079,資生堂藥局,臺北市士林區承德路４段４０巷１７號１Ｆ,121.522,25.08107,(02)28857588,羅氏家用新冠病毒抗原自我檢測套組,78,2022/05/06 08:58:02,今日快篩已售完
5901152471,得安藥局,臺北市士林區文林路１４０號,121.5267,25.08878,(02)28836336,羅氏家用新冠病毒抗原自我檢測套組,78,2022/05/06 08:58:02,星期三五六下午3:30---10:00   星期二 四日下午5:00--10:00
5901152640,仁大藥局,臺北市士林區社子街１３號１樓,121.5083,25.08769,(02)88113793,羅氏家用新冠病毒抗原自我檢測套組,203,2022/05/06 08:58:02,販售時間:週一至週六上午配送到貨後開賣，時間不確定，通常10:30過後
5901152659,和樹藥局,臺北市士林區後港街４５巷１號１樓,121.5228,25.08444,(02)28821188,羅氏家用新冠病毒抗原自我檢測套組,78,2022/05/06 08:58:02,實名制快篩發放時間 依到貨時間發售
5901152686,三光藥局,臺北市士林區延平北路５段３２０號１樓,121.5096,25.08628,(02)28123786,羅氏家用新冠病毒抗原自我檢測套組,39,2022/05/06 08:58:02,無
5901153263,健揚藥局,臺北市士林區延平北路５段２５１號,121.5097,25.08483,(02)28163698,羅氏家用新冠病毒抗原自我檢測套組,1,2022/05/06 08:58:02,每日下午13:30開始販售
5901153674,愛佳藥局,臺北市士林區承德路４段２２２之１號,121.5215,25.0885,(02)28811199,羅氏家用新冠病毒抗原自我檢測套組,156,2022/05/06 08:58:02,實名制快篩平日一~五下午5:00販售，假日（六、日）不販售
5901153709,全予藥局,臺北市士林區德行東路２２１號,121.5329,25.10938,(02)28386955,羅氏家用新冠病毒抗原自我檢測套組,78,2022/05/06 08:58:02,實名制快篩販售時間為周一至周六上午11點， 周日公休
5901153727,前港盛康藥局,臺北市士林區前港街２８號,121.522,25.0846,(02)28831079,羅氏家用新冠病毒抗原自我檢測套組,64,2022/05/06 08:58:02,實名制快篩5／6 上午9點開始販售
5901153825,太和堂中西藥局,臺北市士林區大東路７４號（實際使用：１樓）,121.5257,25.09037,(02)28814122,羅氏家用新冠病毒抗原自我檢測套組,23,2022/05/06 08:58:02,上午8:30現場領號碼牌。週日公休
5901153861,佩佩藥局,臺北市士林區中山北路６段１８２號,121.5252,25.10759,(02)28382662,羅氏家用新冠病毒抗原自我檢測套組,16,2022/05/06 08:58:02,5／5已售完。08:30開始販售快篩，售完為止。
5901153905,躍獅芝山藥局,臺北市士林區福華路１５４號（實際使用：１樓）,121.5227,25.10357,(02)28365822,羅氏家用新冠病毒抗原自我檢測套組,49,2022/05/06 08:58:02,無
5901154000,文昌大藥局,臺北市士林區文昌路７２號１樓,121.5213,25.09634,(02)28376196,羅氏家用新冠病毒抗原自我檢測套組,64,2022/05/06 08:58:02,1.周一至周日下午15:00販售實名制口罩，請自備零錢 2.每日保留18份，提供醫護警消憑證購買，僅保留至pm14:30
5901154028,向宇藥局,臺北市士林區德行東路２１７號１樓,121.5328,25.10935,(02)88661101,羅氏家用新冠病毒抗原自我檢測套組,78,2022/05/06 08:58:02,無
5901154108,藥本家藥局,臺北市士林區中山北路７段１４巷２６號１樓,121.5328,25.11884,(02)28766682,羅氏家用新冠病毒抗原自我檢測套組,21,2022/05/06 08:58:02,無
5901154144,加赫藥局,臺北市士林區文昌路７６號１樓,121.5212,25.09646,(02)28336362,羅氏家用新冠病毒抗原自我檢測套組,1,2022/05/06 08:58:02,無
5901160053,天蓮藥局,臺北市北投區石牌路１段１６６巷１１５號,121.5155,25.11192,(02)28211824,羅氏家用新冠病毒抗原自我檢測套組,90,2022/05/06 08:58:02,5／6週五補發5／2的快篩共136份， 8:45開始發，晚上7點發20份
5901160099,進春藥局,臺北市北投區明德路１５１號,121.5206,25.11086,(02)28216938,羅氏家用新冠病毒抗原自我檢測套組,63,2022/05/06 08:58:02,無休 上午九點開始販售，現場排隊。（依現場公告為主）
5901160142,德昇藥局,臺北市北投區裕民二路２０號,121.517,25.11604,(02)28217565,羅氏家用新冠病毒抗原自我檢測套組,1,2022/05/06 08:58:02,週一至週五下午 2:30分 實名制快篩現場排隊發售
5901160277,建民藥局,臺北市北投區光明路１６１號,121.5027,25.13538,(02)28912339,羅氏家用新冠病毒抗原自我檢測套組,18,2022/05/06 08:58:02,快篩實名制星期一至星期六早上十點開始 （依現場公告為主）
5901160428,九福藥局,臺北市北投區公館路２３６號,121.5081,25.12612,(02)28953009,羅氏家用新冠病毒抗原自我檢測套組,78,2022/05/06 08:58:02,★週日店休未營業. 快篩下午1點發號碼牌
5901160562,名山藥局,臺北市北投區東陽街４７５號１樓,121.5199,25.11231,(02)28226101,羅氏家用新冠病毒抗原自我檢測套組,41,2022/05/06 08:58:02,快篩試劑早上08:30販賣，先拿號碼牌，早上10；00前過卡，逾時放棄
5901160704,明華藥局,臺北市北投區清江路８號（實際使用：１樓）,121.5015,25.13156,(02)28971056,羅氏家用新冠病毒抗原自我檢測套組,66,2022/05/06 08:58:02,實名制快篩上午9:00現場販售
5901162173,小明藥局,臺北市北投區中央南路１段６９號２樓,121.5014,25.13145,(02)28928950,羅氏家用新冠病毒抗原自我檢測套組,17,2022/05/06 08:58:02,快篩實名制購買時間:週一至週六早上8:00-9:00，9點後系統顯示尚有庫存，為隔日販售的量，請勿再來電詢問，謝謝!
5901162306,上頤藥局,臺北市北投區中和街３２７號１樓,121.4997,25.14097,(02)28981230,羅氏家用新冠病毒抗原自我檢測套組,463,2022/05/06 08:58:02,無
5901162833,維康藥局,臺北市北投區石牌路２段１９１．１９３號,121.5184,25.11874,(02)28206343,羅氏家用新冠病毒抗原自我檢測套組,5,2022/05/06 08:58:02,快篩發放時間為每日下午3點排隊，現場購賣
5901163107,小豬藥局,臺北市北投區東陽街４０３號１樓,121.5176,25.11244,(02)28217099,羅氏家用新冠病毒抗原自我檢測套組,88,2022/05/06 08:58:02,星期六.星期日不販售
5901163214,鴻恩藥局,臺北市北投區中央南路１段１２９號,121.5012,25.13015,(02)28926410,羅氏家用新冠病毒抗原自我檢測套組,18,2022/05/06 08:58:02,快篩試劑代售時間自08:30 ，現場排隊
5901163465,振生大藥局,臺北市北投區中央北路３段６１號,121.4847,25.13785,(02)28977292,羅氏家用新冠病毒抗原自我檢測套組,101,2022/05/06 08:58:02,早上9點開始販售
5901163536,天富大藥局,臺北市北投區石牌路２段１７１號（實際使用：１樓）,121.518,25.11848,(02)28225812,羅氏家用新冠病毒抗原自我檢測套組,49,2022/05/06 08:58:02,週一至週六下午2-3點直接販售；週日暫停販售
5901163554,良哲藥局,臺北市北投區明德路１５７－４號（實際使用：１樓）,121.5209,25.11129,(02)28285516,羅氏家用新冠病毒抗原自我檢測套組,79,2022/05/06 08:58:02,實名制快篩販售時間：早上 9:00~9:30／下午 2:30~3:00（週六人力不足不販售／週日休息）
5901163563,躍獅光明藥局,臺北市北投區光明路５１號、５３號（實際使用：１樓）,121.4998,25.13286,(02)28915993,羅氏家用新冠病毒抗原自我檢測套組,1,2022/05/06 08:58:02,1.早上9:30發號碼牌.核對健保卡 2.等快篩到貨才開始賣，到貨時間不確定3.有號碼牌者請在晚上8點前領取，逾期作廢
5901170139,福華藥局,臺北市信義區吳興街２８１巷３號１樓,121.5643,25.02656,(02)27208527,羅氏家用新冠病毒抗原自我檢測套組,78,2022/05/06 08:58:02,現階段下午1:30配合政府發售快篩試劑
5901170184,臺陽藥局,臺北市信義區大道路６１號,121.5823,25.04136,(02)27283403,羅氏家用新冠病毒抗原自我檢測套組,78,2022/05/06 08:58:02,快篩試劑早上9:30現場販售，週日沒有販售
5901170915,杏仁藥局,臺北市信義區大道路１３５號,121.5834,25.03901,(02)27262541,羅氏家用新冠病毒抗原自我檢測套組,57,2022/05/06 08:58:02,實名制快篩:週一至週五下午3點販售，週六週日無販售
5901172651,康杏藥局,臺北市信義區福德街３０６號１樓,121.5874,25.03931,(02)27591510,羅氏家用新冠病毒抗原自我檢測套組,79,2022/05/06 08:58:02,無
5901172740,信桉藥局,臺北市信義區莊敬路２３６號,121.5621,25.0296,(02)87860005,羅氏家用新冠病毒抗原自我檢測套組,234,2022/05/06 08:58:02,快篩販售 W1-5 11:00-20:00，W6 11:00-15:00
5901172820,安心藥局,臺北市信義區永吉路３０巷１４８弄４之１號,121.5685,25.04266,(02)27474992,羅氏家用新冠病毒抗原自我檢測套組,1,2022/05/06 08:58:02,快篩代售時間14:00起現場排隊
5901173283,上禾藥師藥局,臺北市信義區林口街２７號,121.5792,25.03741,(02)27592686,羅氏家用新冠病毒抗原自我檢測套組,69,2022/05/06 08:58:02,無
5901173372,新永春藥局,臺北市信義區忠孝東路５段４２３巷１號,121.5753,25.04126,(02)27667385,羅氏家用新冠病毒抗原自我檢測套組,74,2022/05/06 08:58:02,快篩販售時間:每日13:00開始，售完為止
5901173407,康怡健保藥局,臺北市信義區吳興街４６７巷２弄１２號,121.5695,25.02381,(02)27206193,羅氏家用新冠病毒抗原自我檢測套組,80,2022/05/06 08:58:02,快篩早上9點開賣，賣完為止
5901173587,新興健保藥局,臺北市信義區永吉路３０巷１１３號,121.5689,25.04324,(02)27494892,羅氏家用新冠病毒抗原自我檢測套組,7,2022/05/06 08:58:02,無
5901173603,松德盛康藥局,臺北市信義區松德路４０號,121.5767,25.03896,(02)87891622,羅氏家用新冠病毒抗原自我檢測套組,78,2022/05/06 08:58:02,無
5901173738,尚頤中西藥局,臺北市信義區虎林街１４５號,121.5767,25.03959,(02)27253818,羅氏家用新冠病毒抗原自我檢測套組,79,2022/05/06 08:58:02,無
5901173818,博亞藥局,臺北市信義區莊敬路４６２號,121.5677,25.02672,(02)27580506,羅氏家用新冠病毒抗原自我檢測套組,40,2022/05/06 08:58:02,平日早上8:30、晚上8:00；假日早上8:30，發放號碼牌，持號碼牌購買!
5901173845,躍獅永吉藥局,臺北市信義區永吉路５２０號,121.5804,25.04521,(02)27658924,羅氏家用新冠病毒抗原自我檢測套組,56,2022/05/06 08:58:02,發放快篩時間為 9:30-10:30 （39人次） 20:30-21:30 （39人次） 星期日停發
5901173934,躍獅光復藥局,臺北市信義區光復南路４１７之８號,121.5577,25.03682,(02)87862307,羅氏家用新冠病毒抗原自我檢測套組,74,2022/05/06 08:58:02,下午1點開始販售
5901173943,躍獅興雅藥局,臺北市信義區松德路１２８號,121.5745,25.03734,(02)87808429,羅氏家用新冠病毒抗原自我檢測套組,78,2022/05/06 08:58:02,14:00發號碼牌且同步開賣快篩，販賣至15:00或售完為止，週日無販售。
5901173961,北一忠孝藥局,臺北市信義區忠孝東路５段５２４巷１弄１６號１樓,121.5802,25.04133,(02)23464588,羅氏家用新冠病毒抗原自我檢測套組,78,2022/05/06 08:58:02,實名制快篩一~六販早上10點販售，周日不販售
5901174066,愛維喜藥局,臺北市信義區莊敬路２７８號１樓,121.5627,25.02882,(02)27586989,羅氏家用新冠病毒抗原自我檢測套組,73,2022/05/06 08:58:02,快篩周一至周五下午3:30開賣.約3:00收健保卡現金500元1張.發號碼牌
5901174075,信義盛康藥局,臺北市信義區永吉路２８６號（１樓）,121.5744,25.04538,(02)23460521,羅氏家用新冠病毒抗原自我檢測套組,156,2022/05/06 08:58:02,無
5901180037,崇信藥局,臺北市中正區齊東街８８號,121.5272,25.04162,(02)23417557,羅氏家用新冠病毒抗原自我檢測套組,22,2022/05/06 08:58:02,上午8.30開始代售快篩 .售完為止.
5901180126,民生藥局,臺北市中正區濟南路２段４５－１號１樓,121.5305,25.0406,(02)23416470,羅氏家用新冠病毒抗原自我檢測套組,78,2022/05/06 08:58:02,4／15 公休無售口罩
5901180224,中心藥局,臺北市中正區汀州路３段１２１號,121.5303,25.01654,(02)23689889,羅氏家用新冠病毒抗原自我檢測套組,1,2022/05/06 08:58:02,實名制快篩因物流貨運配送調度，調整領取時間延後至下午3點
5901182068,永興藥局,臺北市中正區汀州路１段９２巷２８號,121.5068,25.02999,(02)23050986,羅氏家用新冠病毒抗原自我檢測套組,67,2022/05/06 08:58:02,無
5901182228,合泰大藥局,臺北市中正區衡陽路２６號,121.5129,25.04221,(02)23899977,羅氏家用新冠病毒抗原自我檢測套組,77,2022/05/06 08:58:02,快篩代售時間自09:00；現場排隊
5901183510,怡誠藥局,臺北市中正區汀州路２段２１２號,121.5237,25.02236,(02)23626905,羅氏家用新冠病毒抗原自我檢測套組,120,2022/05/06 08:58:02,無
5901183645,大愛生活藥局,臺北市中正區汀州路２段２３２號,121.5243,25.02189,(02)23661155,羅氏家用新冠病毒抗原自我檢測套組,56,2022/05/06 08:58:02,下午14:30開始發放快篩（不發號碼牌直接買）~~不要太早開始排隊啊啊啊啊
5901184080,活力健康藥妝藥局,臺北市中正區中華路２段３１５巷１號,121.5062,25.02795,(02)23392625,羅氏家用新冠病毒抗原自我檢測套組,10,2022/05/06 08:58:02,無
5901184106,信康藥局,臺北市中正區南昌路１段１４３號,121.5186,25.02953,(02)23961979,羅氏家用新冠病毒抗原自我檢測套組,5,2022/05/06 08:58:02,14:00開始販售實名制快篩
5901184213,71恩典藥局,臺北市中正區信義路２段７１號,121.5264,25.03466,(02)23223371,羅氏家用新冠病毒抗原自我檢測套組,82,2022/05/06 08:58:02,快篩販售時間：◆週一到週五19:00 ◆週六17:00，十分鐘前發號碼牌
5901184366,宏越藥局,臺北市中正區中華路２段３１３巷４號,121.5061,25.02813,(02)23050880,羅氏家用新冠病毒抗原自我檢測套組,76,2022/05/06 08:58:02,代售實名制快篩時間 每日下午14:30開始  售完即停止  可關注FB公告當日是否代售
5901184473,中力藥局,臺北市中正區襄陽路１３之５號、１５號,121.5155,25.04349,(02)23313768,羅氏家用新冠病毒抗原自我檢測套組,78,2022/05/06 08:58:02,實名制快篩 販售時間：09:30~售完為止
5901184606,躍獅南寧藥局,臺北市中正區南昌路１段８１號,121.5178,25.03057,(02)23967072,羅氏家用新冠病毒抗原自我檢測套組,78,2022/05/06 08:58:02,上午10點售實名制快篩
5901184633,躍獅東門藥局,臺北市中正區金山南路１段１０８之１號（１樓）,121.5273,25.03538,(02)23920339,羅氏家用新冠病毒抗原自我檢測套組,34,2022/05/06 08:58:02,5／5銷售時間已結束。5／6下午兩點開始販售，不提早發放號碼牌
5901184642,康呈安藥局,臺北市中正區汀州路２段１８７號１樓,121.522,25.02403,(02)23672215,羅氏家用新冠病毒抗原自我檢測套組,2,2022/05/06 08:58:02,每天下午3點才發放快篩
5901184713,建祥武昌藥局,臺北市中正區武昌街１段２９號１樓,121.5121,25.04416,(02)23314038,羅氏家用新冠病毒抗原自我檢測套組,78,2022/05/06 08:58:02,無
5901190033,世欣藥局,臺北市萬華區東園街１７３號１Ｆ,121.4973,25.02419,(02)23074263,羅氏家用新冠病毒抗原自我檢測套組,3,2022/05/06 08:58:02,防疫快篩劑服務時間週一至五14:00-16:00週六10:00-12:00
5901190079,建和藥局,臺北市萬華區青年路１６８巷４４號,121.5016,25.01987,(02)23010838,羅氏家用新冠病毒抗原自我檢測套組,5,2022/05/06 08:58:02,春節期間看診時段請電洽
5901190668,聯慶大藥局,臺北市萬華區萬大路３０６號１樓,121.5003,25.02495,(02)23039850,羅氏家用新冠病毒抗原自我檢測套組,1,2022/05/06 08:58:02,無
5901192546,躍獅西園藥局,臺北市萬華區西園路２段２６０號,121.4946,25.02784,(02)23094063,羅氏家用新冠病毒抗原自我檢測套組,78,2022/05/06 08:58:02,快篩販售時段：下午2點至售完為止（政府正常配貨的情況下，現場排隊）
5901193070,榮勝藥局,臺北市萬華區萬大路２３３號,121.5006,25.02649,(02)23331121,羅氏家用新冠病毒抗原自我檢測套組,78,2022/05/06 08:58:02,每日快篩早上十一點開始販售 週日無提供販售
5901193105,安誠貴陽藥局,臺北市萬華區貴陽街２段１４８號,121.5016,25.04017,(02)23812190,羅氏家用新冠病毒抗原自我檢測套組,156,2022/05/06 08:58:02,無
5901193169,柏祥藥局,臺北市萬華區西藏路１４１號,121.5017,25.02944,(02)23018272,羅氏家用新冠病毒抗原自我檢測套組,24,2022/05/06 08:58:02,1快篩服務時間pm6:00起售完截止。2販售詳情請見門口公告。3周日公休不販售。
5901193196,青年宏越藥局,臺北市萬華區青年路４４號,121.5042,25.0255,(02)23011037,羅氏家用新冠病毒抗原自我檢測套組,110,2022/05/06 08:58:02,快篩六日不販售，禮拜一~五下午2:30-3:30，現場排隊
5901193221,正盛藥局,臺北市萬華區中華路２段４３４－１號,121.5064,25.02708,(02)23050386,羅氏家用新冠病毒抗原自我檢測套組,64,2022/05/06 08:58:02,1.快篩一~六20點，周日不賣 2.目前排隊人潮多，建議7點左右提前候位 3.詳情請看門口公告或板橋正康總店臉書
5901193301,富安藥局,臺北市萬華區萬大路４２６號,121.4981,25.02096,(02)23377878,羅氏家用新冠病毒抗原自我檢測套組,143,2022/05/06 08:58:02,快篩實名制：一人一卡，現場排隊，售完為止。【5／3早上暫停販售，販售時間待更新！】
5901193329,西園宏越藥局,臺北市萬華區西園路２段２１３號,121.4942,25.02714,(02)23097336,羅氏家用新冠病毒抗原自我檢測套組,78,2022/05/06 08:58:02,實名制快篩下午4點~5點販售
5901200141,景美藥局,臺北市文山區景文街１２５號,121.5412,24.99033,(02)29335741,羅氏家用新冠病毒抗原自我檢測套組,78,2022/05/06 08:58:02,無
5901200490,永明大藥局,臺北市文山區興隆路１段２９７號１樓,121.5449,24.99875,(02)29314428,羅氏家用新冠病毒抗原自我檢測套組,78,2022/05/06 08:58:02,每日下午2點50發放號碼牌，3點進行快篩販售，6點前未領取視同放棄，限一人一卡一份。
5901201540,逸仙藥師藥局,臺北市文山區興隆路２段２１８－１號１樓,121.5524,25.00148,(02)29312597,羅氏家用新冠病毒抗原自我檢測套組,76,2022/05/06 08:58:02,9:00-10:00
5901201568,康宜庭生活藥局,臺北市文山區興隆路４段６４號,121.5613,24.98514,(02)29385363,羅氏家用新冠病毒抗原自我檢測套組,9,2022/05/06 08:58:02,實名快篩14:00開賣 現場排隊
5901201728,東京晟藥局,臺北市文山區辛亥路４段９７號,121.5587,25.00684,(02)29356354,羅氏家用新冠病毒抗原自我檢測套組,73,2022/05/06 08:58:02,周日不銷售實名制快篩，5\1-5\7以實收貨後開賣
5901201826,舒博威藥局,臺北市文山區興隆路２段９５巷３號,121.547,24.99952,(02)29306805,羅氏家用新冠病毒抗原自我檢測套組,100,2022/05/06 08:58:02,早上8:30開始販售
5901202627,杏隆藥局,臺北市文山區羅斯福路５段２６１號,121.5395,25.00115,(02)29313151,羅氏家用新冠病毒抗原自我檢測套組,78,2022/05/06 08:58:02,快篩實名制採預約登記，至5／14已登記額滿。
5901202949,萬隆大藥局,臺北市文山區羅斯福路５段２１８巷１５號,121.538,25.00203,(02)29334580,羅氏家用新冠病毒抗原自我檢測套組,79,2022/05/06 08:58:02,9：00~23：00
5901203044,木新健康人生藥局,臺北市文山區木新路３段２０３號,121.5598,24.9814,(02)86611465,羅氏家用新冠病毒抗原自我檢測套組,78,2022/05/06 08:58:02,10:00~21:00；13:45發號碼牌，14點發放快篩
5901203160,路加健康藥局,臺北市文山區興隆路２段２２０巷３９號,121.5522,25.00022,(02)29302336,羅氏家用新冠病毒抗原自我檢測套組,2,2022/05/06 08:58:02,無
5901203204,躍獅新芳藥局,臺北市文山區興隆路３段１６號（實際營業地址：１樓）,121.5549,25.00062,(02)29308172,羅氏家用新冠病毒抗原自我檢測套組,78,2022/05/06 08:58:02,早上九點開始販售實名制快篩，售完為止
5901203455,全球萬芳藥局,臺北市文山區興隆路３段６３號（１樓）,121.5562,25.00024,(02)89352147,羅氏家用新冠病毒抗原自我檢測套組,78,2022/05/06 08:58:02,營業時間9:00~22:00
5902011291,長庚藥局,高雄市鹽埕區五福四路１６３號一樓,120.2834,22.62347,(07)5513436,羅氏家用新冠病毒抗原自我檢測套組,74,2022/05/06 08:58:02,無
5902011308,昇安藥局,高雄市鹽埕區瀨南街２２５號１樓,120.284,22.62797,(07)5216438,羅氏家用新冠病毒抗原自我檢測套組,76,2022/05/06 08:58:02,快篩試劑早上8:4 0開始發號碼牌
5902021233,崧柏藥局,高雄市鼓山區華榮路５４３號,120.2937,22.66969,(07)5542027,羅氏家用新冠病毒抗原自我檢測套組,38,2022/05/06 08:58:02,藥局販售快篩試劑時間每天8點40發號碼牌，9點開始。每天78份
5902021377,藍玉藥局,高雄市鼓山區鼓峰里九如四路２００２號,120.2861,22.66774,(07)5837528,羅氏家用新冠病毒抗原自我檢測套組,37,2022/05/06 08:58:02,賣口罩時間：周一至週五早上9:30起，售完為止。
5902022794,定國藥局,高雄市鼓山區九如四路１１３５號,120.2791,22.65936,(07)5815858,羅氏家用新冠病毒抗原自我檢測套組,47,2022/05/06 08:58:02,無
5902030090,宏仁藥局,高雄市左營區左營大路３９０號,120.2932,22.68702,(07)5817895,羅氏家用新冠病毒抗原自我檢測套組,29,2022/05/06 08:58:02,口罩代售時間自早上10:00開始，售完為止。
5902030269,立文藥局,高雄市左營區立文路５４號,120.3058,22.66458,(07)5572899,羅氏家用新冠病毒抗原自我檢測套組,16,2022/05/06 08:58:02,0
5902030287,慈德藥局,高雄市左營區重愛路５３號,120.3186,22.68308,(07)3416212,羅氏家用新冠病毒抗原自我檢測套組,29,2022/05/06 08:58:02,快篩發放時間:週一至周六:上午9點至12點.週日下午2點半至5點；請自備剛好的錢.不用找錢.以利流程
5902030312,吉辰藥局,高雄市左營區左營大路４１之１號,120.2876,22.68109,(07)5815069,羅氏家用新冠病毒抗原自我檢測套組,69,2022/05/06 08:58:02,早上9點開賣口罩   賣完為止
5902030410,重仁藥局,高雄市左營區左營大路４０８號,120.2935,22.68725,(07)5824083,羅氏家用新冠病毒抗原自我檢測套組,3,2022/05/06 08:58:02,自2／11日~2／29日，營業日08:00~22:30為販賣口罩時間.售完為止
5902031999,平安藥局,高雄市左營區中華一路５之１號,120.287,22.66961,(07)5833688,羅氏家用新冠病毒抗原自我檢測套組,33,2022/05/06 08:58:02,週一~週六上午:8:00~12:00，下午:4:00~9:00， 週日例假日晚上6:00~9:00
5902032441,健怡藥局,高雄市左營區翠峰路４０號,120.2897,22.67229,(07)5821891,羅氏家用新冠病毒抗原自我檢測套組,14,2022/05/06 08:58:02,快篩星期一~星期六每天早上8:10開始販售
5902032450,可達藥局,高雄市左營區榮德街１７７號,120.3205,22.68359,(07)3420182,羅氏家用新冠病毒抗原自我檢測套組,76,2022/05/06 08:58:02,快篩販售時間週一～週五早上9點～11點。
5902032530,杏光藥局,高雄市左營區果峰街４７巷１號１樓,120.2869,22.6703,(07)5837060,羅氏家用新冠病毒抗原自我檢測套組,62,2022/05/06 08:58:02,上午營業時間為9 :00~12:00；晚上營業至21:30
5902032647,健智美藥局,高雄市左營區富國路９８號,120.3068,22.6591,(07)5580888,羅氏家用新冠病毒抗原自我檢測套組,37,2022/05/06 08:58:02,早上08:30開賣，售完止。
5902040069,新友藥局,高雄市楠梓區萬昌路１１１號,120.2895,22.71194,(07)3653534,羅氏家用新冠病毒抗原自我檢測套組,68,2022/05/06 08:58:02,藥局販售口罩時間，依藥局門口公告時間為主（售完為止）
5902040112,丁丁楠梓藥局,高雄市楠梓區建楠路１３０、１３２、１３４號,120.3247,22.72731,(07)3533743,羅氏家用新冠病毒抗原自我檢測套組,75,2022/05/06 08:58:02,5／2快篩尚未到貨，貨到立即開賣
5902040532,聯亞藥局,高雄市楠梓區軍校路７１０號,120.293,22.70779,(07)3638387,羅氏家用新冠病毒抗原自我檢測套組,42,2022/05/06 08:58:02,到貨開始販售 1200-1500休息
5902042376,佶辰藥局,高雄市楠梓區德民路６４１號１Ｆ,120.2962,22.72237,(07)3662802,羅氏家用新冠病毒抗原自我檢測套組,78,2022/05/06 08:58:02,營業日09:00~22:00為販賣快篩試劑時間 售完為止.如有更動以現場公告為主
5902042447,建佑藥局,高雄市楠梓區右昌街１９１號,120.2889,22.71153,(07)3626893,羅氏家用新冠病毒抗原自我檢測套組,68,2022/05/06 08:58:02,快篩每日早上09:10開賣
5902042474,誠群藥局,高雄市楠梓區樂群路１８２號１樓,120.297,22.71914,(07)3661733,羅氏家用新冠病毒抗原自我檢測套組,68,2022/05/06 08:58:02,5／6早上9點開始販賣快篩試劑
5902042492,合德中西藥師藥局,高雄市楠梓區楠梓路４８６號,120.3244,22.73812,(07)3581291,羅氏家用新冠病毒抗原自我檢測套組,78,2022/05/06 08:58:02,快篩實名制09:00開始販售
5902042563,天健藥局,高雄市楠梓區後昌路１０８７號,120.2922,22.71718,(07)3634179,羅氏家用新冠病毒抗原自我檢測套組,77,2022/05/06 08:58:02,到貨既售5／5 12時販售   5／6 早上9時販售
5902042769,家安藥局,高雄市楠梓區後昌新路１３號１樓,120.2917,22.71844,(07)3600066,羅氏家用新冠病毒抗原自我檢測套組,32,2022/05/06 08:58:02,無
5902050298,瑞鶴藥局,高雄市三民區寶德里義德路２５號,120.3352,22.64301,(07)3862757,羅氏家用新冠病毒抗原自我檢測套組,11,2022/05/06 08:58:02,下午2:00至4:30午休勿擾，每日08:30至21:30發售快篩。
5902050412,春仁藥局,高雄市三民區覺民路２２５號,120.3391,22.63944,(07)3962341,羅氏家用新冠病毒抗原自我檢測套組,52,2022/05/06 08:58:02,5／1-5／301時間自9:00-22:30現場排隊.（賣完為止）
5902050798,友泰藥局,高雄市三民區中和街１６９號,120.2868,22.6388,(07)3125236,羅氏家用新冠病毒抗原自我檢測套組,1,2022/05/06 08:58:02,無
5902050903,皇安藥局,高雄市三民區九如一路４６１號,120.3296,22.63865,(07)3866779,羅氏家用新冠病毒抗原自我檢測套組,130,2022/05/06 08:58:02,營業日0900可先領取號碼牌，上午9:00-12:00及下午3:00~10:.00為販賣快篩時間，售完為止
5902051240,明皇藥局,高雄市三民區寶國里義華路１８１號,120.3399,22.64276,(07)3860121,羅氏家用新冠病毒抗原自我檢測套組,18,2022/05/06 08:58:02,藥局販售口罩時間，依藥局門口公告時間為主（售完為止）
5902051642,安寧藥局,高雄市三民區嫩江街３９號,120.2981,22.64208,(07)3217585,羅氏家用新冠病毒抗原自我檢測套組,53,2022/05/06 08:58:02,無
5902053833,建銘藥局,高雄市三民區吉林街２６２號,120.3068,22.64818,(07)3133460,羅氏家用新冠病毒抗原自我檢測套組,73,2022/05/06 08:58:02,0900營業時間販賣口罩.售完為止
5902056638,柏仁藥局,高雄市三民區覺民路５０４號,120.3317,22.64092,(07)3976016,羅氏家用新冠病毒抗原自我檢測套組,57,2022/05/06 08:58:02,實名制快篩下午3點開賣，現場排隊，售完為止
5902056754,大家藥局,高雄市三民區鼎中路２２９號１樓,120.3191,22.66421,(07)3107632,羅氏家用新冠病毒抗原自我檢測套組,47,2022/05/06 08:58:02,實名制快篩販售時間   08:30-12:00
5902057126,民安藥局,高雄市三民區嫩江街７０號,120.2985,22.64282,(07)3121381,羅氏家用新冠病毒抗原自我檢測套組,72,2022/05/06 08:58:02,販賣快篩09:00~12:00_16:00~18:00_19:00~21:00（售完為止）
5902057144,欣仁惠藥局,高雄市三民區大昌二路２４８號,120.3323,22.64529,(07)3837833,羅氏家用新冠病毒抗原自我檢測套組,15,2022/05/06 08:58:02,無
5902057368,崧民藥師藥局,高雄市三民區金鼎路２２８號,120.3238,22.66483,(07)3102496,羅氏家用新冠病毒抗原自我檢測套組,58,2022/05/06 08:58:02,服務時間9:00-22:30自05／01日~5月31日
5902057484,永勝藥局,高雄市三民區褒忠街１１４號,120.334,22.64262,(07)3814643,羅氏家用新冠病毒抗原自我檢測套組,38,2022/05/06 08:58:02,新冠檢測組-銷售中---（售完為止）
5902057546,華南藥局,高雄市三民區中和街１２４號,120.2878,22.63941,(07)3127483,羅氏家用新冠病毒抗原自我檢測套組,71,2022/05/06 08:58:02,快篩代售時間9:00起，售完為止，11:30點-1:30點，5點-6點30分用餐時間不代售，週日不代售。
5902057680,健爾康藥局,高雄市三民區正興路２３號,120.3226,22.6456,(07)3965658,羅氏家用新冠病毒抗原自我檢測套組,78,2022/05/06 08:58:02,自2／11日~2／29日，營業日08:30~2100為販賣口罩時間，售完為止。
5902057902,利安藥局,高雄市三民區建工路５４５號,120.3213,22.64854,(07)3965550,羅氏家用新冠病毒抗原自我檢測套組,60,2022/05/06 08:58:02,營業日9:00AM起販賣口罩，售完為止
5902057920,必好藥局,高雄市三民區義華路４６０號,120.3313,22.64356,(07)3851751,羅氏家用新冠病毒抗原自我檢測套組,71,2022/05/06 08:58:02,早上九點開始販售快篩，售完為止。
5902080474,弘宗藥局,高雄市苓雅區武智街２號,120.3356,22.62303,(07)7211088,羅氏家用新冠病毒抗原自我檢測套組,30,2022/05/06 08:58:02,13:00後販售 ，販售扔以現場為主。請勿來電詢問餘量
5902080518,福海藥局,高雄市苓雅區武慶三路５８號,120.332,22.61958,(07)7618855,羅氏家用新冠病毒抗原自我檢測套組,66,2022/05/06 08:58:02,無
5902080858,福興藥局,高雄市苓雅區成功一路５２號,120.2983,22.6131,(07)3331862,羅氏家用新冠病毒抗原自我檢測套組,67,2022/05/06 08:58:02,每日上午九點販賣快篩試劑售完止.營業時間9-21時.
5902081328,東信藥局,高雄市苓雅區三多一路１８９號,120.3313,22.62258,(07)7613309,羅氏家用新冠病毒抗原自我檢測套組,40,2022/05/06 08:58:02,早上8:30開始發送號碼牌販售口罩，售完為止，假日正常販售
5902083457,順一藥局,高雄市苓雅區田西里成功一路２１０號,120.2969,22.61696,(07)3330011,羅氏家用新冠病毒抗原自我檢測套組,3,2022/05/06 08:58:02,營業時間早上8點30 至12點下午3點至9點（12點至3點休息）
5902083582,健智藥局,高雄市苓雅區四維二路９６之２號,120.3192,22.62258,(07)7249153,羅氏家用新冠病毒抗原自我檢測套組,32,2022/05/06 08:58:02,營業日8:30~12:00為販賣口罩時間.售完為止
5902083591,晨安藥局,高雄市苓雅區興中一路１６０號,120.3096,22.61753,(07)3365463,羅氏家用新冠病毒抗原自我檢測套組,68,2022/05/06 08:58:02,每日上午9開始販賣快篩.售完為止
5902084703,瑞生藥局,高雄市苓雅區自強三路３１號,120.2996,22.61376,(07)3305239,羅氏家用新冠病毒抗原自我檢測套組,29,2022/05/06 08:58:02,自6／1日~12／31日，營業日09:30~23:00為販賣口罩時間.售完為止
5902084749,琉璃光藥師藥局,高雄市苓雅區四維一路２９２號之一樓,120.3244,22.6242,(07)7160930,羅氏家用新冠病毒抗原自我檢測套組,52,2022/05/06 08:58:02,早上8點10分開始販賣
5902084801,邱吉祥藥局,高雄市苓雅區凱旋二路１３５號,120.3218,22.62917,(07)2226055,羅氏家用新冠病毒抗原自我檢測套組,10,2022/05/06 08:58:02,快篩販賣時間:週一至週六早上08:30現場賣~週日下午1:30到5:00販賣
5902085184,惠春藥局,高雄市苓雅區武慶三路９６號,120.3319,22.62043,(07)7611358,羅氏家用新冠病毒抗原自我檢測套組,40,2022/05/06 08:58:02,「藥局販售口罩時間，依藥局門口公告時間為主（售完為止）」
5902085228,永森藥局,高雄市苓雅區建國一路２９０號,120.3262,22.63308,(07)7163087,羅氏家用新冠病毒抗原自我檢測套組,49,2022/05/06 08:58:02,快篩代售時間:營業時間
5902085371,加和藥局,高雄市苓雅區和平一路１４３之７號,120.3205,22.62331,(07)7219332,羅氏家用新冠病毒抗原自我檢測套組,78,2022/05/06 08:58:02,無
5902090167,勝惠藥局,高雄市前鎮區忠孝里三多三路７１號,120.3122,22.6163,(07)3354766,羅氏家用新冠病毒抗原自我檢測套組,78,2022/05/06 08:58:02,快篩發放時間早上9點
5902090765,家安大藥局,高雄市前鎮區崗山南街３４２巷２１號,120.3323,22.6021,(07)7137711,羅氏家用新冠病毒抗原自我檢測套組,71,2022/05/06 08:58:02,販售快篩實名制時間:週一.二.三.五.六.日（上午9點）、週四（晚上7點），依藥局門口公告時間為主（售完為止）
5902090827,博平藥局,高雄市前鎮區草衙二路３７７號,120.3224,22.57808,(07)8311814,羅氏家用新冠病毒抗原自我檢測套組,77,2022/05/06 08:58:02,下午2點開始販售快篩.售完為止
5902092296,迎廣藥局,高雄市前鎮區林森三路１５０號２樓,120.3089,22.61357,(07)3321466,羅氏家用新冠病毒抗原自我檢測套組,30,2022/05/06 08:58:02,週一至周六08:30至12:00  15:00至18:00 19:00至21:30 星期六晚休息  星期日休息
5902092410,旺盛藥局,高雄市前鎮區永豐路１０８號,120.3337,22.6065,(07)7512899,羅氏家用新冠病毒抗原自我檢測套組,29,2022/05/06 08:58:02,過年期間 111／01／31下午至111／02／03  休診
5902092492,元生藥局,高雄市前鎮區鎮興路２２６號１樓,120.3117,22.59305,(07)8156356,羅氏家用新冠病毒抗原自我檢測套組,75,2022/05/06 08:58:02,無
5902092643,晏昇藥局,高雄市前鎮區凱旋三路８１號,120.3247,22.60678,(07)7235136,羅氏家用新冠病毒抗原自我檢測套組,51,2022/05/06 08:58:02,快篩代售時間:早上8:30發放號碼牌並同時現場發放購買，取得號碼牌後離開現場者， 不予保留
5902092910,健家藥局,高雄市前鎮區二聖二路４５號,120.3165,22.61293,(07)3389986,羅氏家用新冠病毒抗原自我檢測套組,61,2022/05/06 08:58:02,早上9:30營業，售完為止
5902092956,慈濟健保藥局,高雄市前鎮區鎮州路２１１號,120.3082,22.58819,(07)8159788,羅氏家用新冠病毒抗原自我檢測套組,54,2022/05/06 08:58:02,每天早上8點開始賣.售完為止藥局販售口罩時間，依藥局門口公告時間為主（售完為止）
5902100042,千佑藥局,高雄市旗津區復興里中洲三路５１３號,120.2736,22.60608,(07)5712619,羅氏家用新冠病毒抗原自我檢測套組,22,2022/05/06 08:58:02,5月1日-5月31日早上0831至2130為販賣快篩時間
5902110066,文祺藥局,高雄市小港區正苓里平治街１１２號,120.3543,22.56743,(07)8014066,羅氏家用新冠病毒抗原自我檢測套組,60,2022/05/06 08:58:02,自2／11日~2／29日，6:00發號碼牌，14:00為販賣口罩時間.售完為止
5902110299,大裕藥局,高雄市小港區小港里小港路２６１號,120.3359,22.56386,(07)8211467,羅氏家用新冠病毒抗原自我檢測套組,75,2022/05/06 08:58:02,快篩星期一到六早上九點販售 星期日休息
5902110422,臨生藥局,高雄市小港區鳳鳴路１４６－４號,120.3588,22.51445,(07)8711290,羅氏家用新冠病毒抗原自我檢測套組,66,2022/05/06 08:58:02,上午9時開始販售快篩劑售完為止。
5902110593,慈林藥局,高雄市小港區鳳林路９３號,120.3464,22.52635,(07)8718087,羅氏家用新冠病毒抗原自我檢測套組,52,2022/05/06 08:58:02,早上9:00開始販售，售完為止，周日不販售（10:30~12:00）（18:30~20:00）較忙碌，需稍作等待.
5902111938,丁丁藥局小港店,高雄市小港區宏平路８５號,120.3635,22.57096,(07)8603388,羅氏家用新冠病毒抗原自我檢測套組,78,2022/05/06 08:58:02,營業時間9-23
5903010350,甲蒂健保藥局,臺中市豐原區豐東路３０８號,120.7331,24.25093,(04)25256028,羅氏家用新冠病毒抗原自我檢測套組,57,2022/05/06 08:58:02,9點30分開始發號碼牌購買
5903010556,升禾和大藥局,臺中市豐原區育英路２６號１樓,120.7163,24.24346,(04)25293099,羅氏家用新冠病毒抗原自我檢測套組,78,2022/05/06 08:58:02,快篩試劑1800領取.採現場排隊.售完為止
5903020052,東勢福倫藥局,臺中市東勢區豐勢路４３８號,120.829,24.25586,(04)25876118,羅氏家用新冠病毒抗原自我檢測套組,27,2022/05/06 08:58:02,快篩:1.當日到貨中午12:00開賣，2.前一日到貨隔日早上08:30開賣.
5903020089,新明通藥局,臺中市東勢區豐勢路２３２號１樓,120.8302,24.25113,(04)25873969,羅氏家用新冠病毒抗原自我檢測套組,44,2022/05/06 08:58:02,5／6 8:30     5／7 9:30
5903040072,碧綠谷藥局,臺中市清水區中華路５２５號,120.5718,24.27605,(04)26281151,羅氏家用新冠病毒抗原自我檢測套組,49,2022/05/06 08:58:02,09:30發放快篩.星期日休息.癌症諮詢.慢箋領藥.長照特約.更年期.糖尿病.戒菸諮詢.孕期保健.小兒營養
5903050103,北勢進騰藥局,臺中市沙鹿區北勢東路５０９之７號１樓,120.576,24.22526,(04)26330893,羅氏家用新冠病毒抗原自我檢測套組,78,2022/05/06 08:58:02,營業時間12:00-22:00，每日12:00販售實名制快篩
5903050256,大安心藥局,臺中市沙鹿區星河路１２－１號１樓,120.5679,24.25208,(04)26620082,羅氏家用新冠病毒抗原自我檢測套組,143,2022/05/06 08:58:02,快篩實名制每日上午9時開始販售，周日也有販售
5903060038,梧棲玖裕藥局,臺中市梧棲區中和街８５號,120.5316,24.25545,(04)26583909,羅氏家用新冠病毒抗原自我檢測套組,78,2022/05/06 08:58:02,快篩代售星期一~五 下午2點發.星期六早上10:30點 星期休假
5903070025,得安藥局,臺中市后里區四村路７８號,120.7129,24.30469,(04)25585333,羅氏家用新冠病毒抗原自我檢測套組,78,2022/05/06 08:58:02,快篩販賣時間 14:00~15:00（售完為止）
5903080030,捷達藥局,臺中市神岡區大漢街２５號,120.6974,24.25352,(04)25225207,羅氏家用新冠病毒抗原自我檢測套組,22,2022/05/06 08:58:02,周一到周六上午8:00開始販售，售完為止。
5903090223,均安藥局,臺中市潭子區興華一路５０３號１樓,120.7014,24.21401,(04)25310998,羅氏家用新冠病毒抗原自我檢測套組,26,2022/05/06 08:58:02,早上 8:30開始販售
5903090330,潭子炘星藥局,臺中市潭子區中山路一段９７號１樓,120.7023,24.19319,(04)25320107,羅氏家用新冠病毒抗原自我檢測套組,1,2022/05/06 08:58:02,系統入庫異常，顯示的庫存量不準喔!通常早上才到貨（時間不定），故快篩下午3:15開始販售／ 12:00~15:00中午休息時間
5903100037,大雅東亞藥師大藥局,臺中市大雅區民生路１段２２、２２－１號,120.6543,24.22924,(04)25605233,羅氏家用新冠病毒抗原自我檢測套組,78,2022/05/06 08:58:02,5／5號.....早上9點半開賣....今日已售完
5903100180,杏一大雅中清藥局,臺中市大雅區中清路四段３１、３３、３５號１樓,120.6448,24.22615,(04)25601791,羅氏家用新冠病毒抗原自我檢測套組,5,2022/05/06 08:58:02,週一~週六14:00販售（13:50發號碼牌）每人每卡限定1份500元!週日無販售!
5903130035,政修藥局,臺中市外埔區中山路２９０號,120.6569,24.33043,(04)26831881,羅氏家用新冠病毒抗原自我檢測套組,1,2022/05/06 08:58:02,政府防疫口罩每日早上7:45發放號碼牌，8:05依序販售口罩，售完為止
5903150019,統元藥局,臺中市烏日區中華路５８３號,120.6342,24.10755,(04)23377588,羅氏家用新冠病毒抗原自我檢測套組,78,2022/05/06 08:58:02,快篩販售時間:早上9:00至12:00或（售完即止）.
5903150135,全品藥局,臺中市烏日區公園路２４０之１號１樓,120.6254,24.10234,(04)23362690,羅氏家用新冠病毒抗原自我檢測套組,78,2022/05/06 08:58:02,因近期快篩配貨時間不定，早上如有配送 下午2:00販售，售完為止
5903170039,大佶安藥局龍井店,臺中市龍井區沙田路６段１９７號１樓,120.5496,24.20907,(04)26361410,羅氏家用新冠病毒抗原自我檢測套組,47,2022/05/06 08:58:02,營業時間（早上9:30-12:30，下午13:30-21:30）都有賣口罩，售完為止
5903180133,正開心大藥局,臺中市霧峰區中正路９５１號１樓,120.6987,24.06565,(04)23396940,羅氏家用新冠病毒抗原自我檢測套組,78,2022/05/06 08:58:02,週一~週五09:00販賣快篩試劑，賣完為止。
5903190139,劍橋藥局,臺中市太平區宜昌路５５２號１樓,120.7157,24.14758,(04)22776619,羅氏家用新冠病毒抗原自我檢測套組,78,2022/05/06 08:58:02,星期一到星期日
5903190157,春長藥局,臺中市太平區太平路１４７號,120.7212,24.12003,(04)22799286,羅氏家用新冠病毒抗原自我檢測套組,78,2022/05/06 08:58:02,快篩代售時間:早上9點，現場排隊
5903190184,太平中大藥局,臺中市太平區宜欣二路４４號１樓,120.7164,24.14525,(04)22787846,羅氏家用新冠病毒抗原自我檢測套組,19,2022/05/06 08:58:02,快篩販售時間，早上8：40。營業時間：早上9點～晚上9點，星期日休息。
5903190273,太平小林健保藥局,臺中市太平區育賢路５１８號,120.7133,24.15883,(04)23954436,羅氏家用新冠病毒抗原自我檢測套組,24,2022/05/06 08:58:02,每天早上8點發號碼牌，下午4:30販售口罩
5903190282,雪仁藥局,臺中市太平區太平路５０９號,120.7141,24.12497,(04)22755053,羅氏家用新冠病毒抗原自我檢測套組,43,2022/05/06 08:58:02,每日早上九點販售快篩，週日公休。
5903190335,育賢德侑藥局,臺中市太平區育賢路１０７號、１０９號,120.7219,24.15768,(04)23920696,羅氏家用新冠病毒抗原自我檢測套組,124,2022/05/06 08:58:02,實名制快篩販售時間：星期一~星期日 早上8:30點開賣（售完為止）
5903190586,樹孝炘星藥局,臺中市太平區樹孝路４７６號１樓,120.7203,24.15735,(04)23929578,羅氏家用新冠病毒抗原自我檢測套組,27,2022/05/06 08:58:02,快篩早上8:00開賣，售完為止！周六固定休息。5／7（六）早上8:00加開販售快篩
5903190675,德芳太平藥局,臺中市太平區中興路１３３巷１－１號１樓,120.7146,24.12617,(04)23511588,羅氏家用新冠病毒抗原自我檢測套組,78,2022/05/06 08:58:02,快篩販售時間:下午3點~6點
5903190737,精武丁丁藥局,臺中市太平區中山路四段１３２－１號,120.7044,24.14856,(04)23957235,羅氏家用新冠病毒抗原自我檢測套組,78,2022/05/06 08:58:02,無
5903200176,聖康藥局,臺中市大里區立仁路７９號１樓,120.7036,24.1078,(04)22700625,羅氏家用新冠病毒抗原自我檢測套組,78,2022/05/06 08:58:02,星期一到六 早上9點營業 星期日下午2點營業
5903200194,博德藥局,臺中市大里區成功２路１０４號１樓,120.7044,24.09467,(04)24968642,羅氏家用新冠病毒抗原自我檢測套組,9,2022/05/06 08:58:02,無
5903200229,信元藥局,臺中市大里區益民路２段３７２號１樓,120.684,24.11545,(04)24876051,羅氏家用新冠病毒抗原自我檢測套組,63,2022/05/06 08:58:02,下午5點發號碼牌並依序販賣
5903200372,國光丁丁藥局,臺中市大里區國光路２段５５１－１號１樓,120.6788,24.11241,(04)24069711,羅氏家用新冠病毒抗原自我檢測套組,78,2022/05/06 08:58:02,星期一至星期日早上9點依排隊順序直接領取
5903200443,佳霖藥局,臺中市大里區塗城路９６４號１樓,120.6933,24.09081,(04)24960895,羅氏家用新冠病毒抗原自我檢測套組,74,2022/05/06 08:58:02,健保卡快篩:（周日和周三停賣）.請備好健保卡和500元整.下午3點半開賣.現場排隊／售完為止
5903200569,和信健康藥局,臺中市大里區德芳路一段５９號,120.6905,24.11342,(04)24833677,羅氏家用新冠病毒抗原自我檢測套組,60,2022/05/06 08:58:02,9am，發號碼牌，周日休
5903200587,大里安德健保藥局,臺中市大里區大明路１１７號,120.6861,24.11527,(04)24875607,羅氏家用新冠病毒抗原自我檢測套組,77,2022/05/06 08:58:02,早上9點開始發放
5903200621,德芳東榮藥局,臺中市大里區東榮路８號,120.6893,24.1102,(04)24863898,羅氏家用新冠病毒抗原自我檢測套組,39,2022/05/06 08:58:02,快篩販售時間：下午3點~6點，現場排隊，完售即停
5903200649,躍獅日新藥局,臺中市大里區日新路３４２號１樓,120.6925,24.11528,(04)24822345,羅氏家用新冠病毒抗原自我檢測套組,149,2022/05/06 08:58:02,每日9:00代售口罩及快篩（星期日公休）（週六到17:30）
5903200658,德芳成功藥局,臺中市大里區成功路５３５－３號１樓,120.7033,24.0913,(04)24920298,羅氏家用新冠病毒抗原自我檢測套組,37,2022/05/06 08:58:02,快篩販售時間:下午3點~6點
5903200667,永欣東榮藥局,臺中市大里區東榮路３７０號１樓,120.6836,24.11032,(04)24810599,羅氏家用新冠病毒抗原自我檢測套組,39,2022/05/06 08:58:02,快篩發放無特定時間.收到貨即發放.營業時間早上08:30至晚上10:00
5903220141,雙十小林健保藥局,臺中市中區雙十路一段３５號,120.6855,24.14172,(04)22253662,羅氏家用新冠病毒抗原自我檢測套組,59,2022/05/06 08:58:02,每日8點販賣
5903220169,公園大藥局,臺中市中區公園路９５號１樓,120.6796,24.1462,(04)22062682,羅氏家用新冠病毒抗原自我檢測套組,28,2022/05/06 08:58:02,每日上午8點至下午11點59分
5903220196,日安藥局,臺中市中區臺灣大道一段３３０號１樓,120.6801,24.1422,(04)22234246,羅氏家用新冠病毒抗原自我檢測套組,1,2022/05/06 08:58:02,郵差送達後，開始販售快篩!!!
5903230094,平祐健保藥局,臺中市東區旱溪東路１段２９７號１樓,120.7009,24.13481,(04)22113898,羅氏家用新冠病毒抗原自我檢測套組,143,2022/05/06 08:58:02,早上九點開始販售!週六公休，週日正常販售!
5903230156,樂業小林健保藥局,臺中市東區樂業路４４３號１樓,120.7062,24.13693,(04)22139123,羅氏家用新冠病毒抗原自我檢測套組,21,2022/05/06 08:58:02,無
5903230183,恒生藥局,臺中市東區樂業路３９５號１樓,120.7051,24.138,(04)22135179,羅氏家用新冠病毒抗原自我檢測套組,78,2022/05/06 08:58:02,快篩11點開始過卡，中午1~3點為清消時間 暫停發放。周日公休。另有提供領慢箋服務及保健食品，任何疑問請洽藥師。
5903230227,東區小林健保藥局,臺中市東區十甲路４８５號１樓,120.7104,24.14464,(04)22135148,羅氏家用新冠病毒抗原自我檢測套組,25,2022/05/06 08:58:02,無
5903240152,陽光藥局,臺中市西區中美街３０５號１樓,120.6601,24.14977,(04)23020711,羅氏家用新冠病毒抗原自我檢測套組,61,2022/05/06 08:58:02,早上9點開始銷售，庫存正確，直接來買。售完為止
5903240198,鑫祐藥局,臺中市西區民權路３０２－５號,120.67,24.14767,(04)23027778,羅氏家用新冠病毒抗原自我檢測套組,61,2022/05/06 08:58:02,實名快篩每日開賣時間以店外公告為主，1人1或2卡，週一至週六早上銷售，週日停售
5903240376,台丞藥局,臺中市西區三民路一段１６６－５號,120.6746,24.13743,(04)22279666,羅氏家用新冠病毒抗原自我檢測套組,14,2022/05/06 08:58:02,快篩實名制販賣時間即藥局營業時間；早上:0800-1200，下午:1430-1730，晚上:1800-2100
5903240410,德芳美村藥局,臺中市西區美村路一段６８１、６８３號１樓,120.6618,24.13545,(04)23782848,羅氏家用新冠病毒抗原自我檢測套組,79,2022/05/06 08:58:02,快篩販售時間:周一到周五下午3點~6點 每日配發78份
5903240438,真誠藥局,臺中市西區美村路一段３７８號１樓,120.6615,24.14458,(04)23015750,羅氏家用新冠病毒抗原自我檢測套組,34,2022/05/06 08:58:02,世鴻診所旁，星期五單號8:30開始販售，中午休息，週日休息
5903240465,德恩藥師藥局,臺中市西區精誠路２５２號１樓,120.6549,24.14949,(04)23102358,羅氏家用新冠病毒抗原自我檢測套組,3,2022/05/06 08:58:02,下午2:00開賣。若延後送貨，會再另外公告開賣時間。
5903240474,佑全台中向上藥局,臺中市西區向上路一段３８６、３８８號１樓,120.6559,24.14688,(04)23204732,羅氏家用新冠病毒抗原自我檢測套組,78,2022/05/06 08:58:02,因政府配貨時間不一，依照門市現場公告時間為主
5903250041,小林健保藥局,臺中市南區美村路２段１８２號,120.6631,24.12549,(04)22622099,羅氏家用新冠病毒抗原自我檢測套組,5,2022/05/06 08:58:02,固定周一到周日，早上8:00發號碼牌，下午4:30開始販賣防疫口罩
5903250103,忠孝德侑健保藥局,臺中市南區正義街１５９號,120.6806,24.12919,(04)22851400,羅氏家用新冠病毒抗原自我檢測套組,78,2022/05/06 08:58:02,實名制快篩:早上九點販售（售完為止，一人一卡）以現場庫存為主）
5903250505,心安藥局,臺中市南區國光路２４１號１樓,120.6794,24.12676,(04)22858773,羅氏家用新冠病毒抗原自我檢測套組,77,2022/05/06 08:58:02,每天下午三點排隊開賣，一人一卡，週日公休下次是5／6號.5／5已售完.
5903250587,俊達藥師藥局,臺中市南區五權南路５２９號１樓,120.6698,24.11692,(04)22650023,羅氏家用新冠病毒抗原自我檢測套組,155,2022/05/06 08:58:02,快篩販售時間上午9點至12點，周日店休
5903250658,田園藥局,臺中市南區學府路１６０號１樓,120.6742,24.12909,(04)22220605,羅氏家用新冠病毒抗原自我檢測套組,79,2022/05/06 08:58:02,每週三公休。每天13:30 開始販售，一人限一卡，依到貨數量販售
5903260163,康甫藥師藥局,臺中市北區進化北路３６６號１樓,120.6806,24.16333,(04)22366682,羅氏家用新冠病毒抗原自我檢測套組,3,2022/05/06 08:58:02,有關口罩販售：周一至周六早上9:30發號碼牌，下午3:00過後發售口罩。周日休息。
5903260421,忠明小林健保藥局,臺中市北區忠明路１６１號,120.6642,24.16235,(04)22013666,羅氏家用新冠病毒抗原自我檢測套組,6,2022/05/06 08:58:02,每日早上8點發號碼牌及收健保卡，下午4點半領回
5903260449,喜樂藥局,臺中市北區中清路１段３１號,120.677,24.1529,(04)22060423,羅氏家用新冠病毒抗原自我檢測套組,1,2022/05/06 08:58:02,無
5903260618,中清小林健保藥局,臺中市北區中清路一段８６、８８號１樓,120.6767,24.15622,(04)22034197,羅氏家用新冠病毒抗原自我檢測套組,16,2022/05/06 08:58:02,24小時營業無公休，早上八點發號碼牌，十二點以後過健保卡發放口罩.
5903260798,光恒藥局,臺中市北區五權路２６１號１樓,120.6767,24.15097,(04)22068638,羅氏家用新冠病毒抗原自我檢測套組,5,2022/05/06 08:58:02,快篩 周一到周六早上8:00到12:00 開放購買
5903260814,杏一北區文心藥局,臺中市北區文心路４段２１０－８號１、２樓,120.678,24.1729,(04)22993847,羅氏家用新冠病毒抗原自我檢測套組,1,2022/05/06 08:58:02,實名制快篩下午16:00開始販售
5903260832,維康學士藥局,臺中市北區學士路１９號１樓,120.6822,24.15384,(04)22080545,羅氏家用新冠病毒抗原自我檢測套組,33,2022/05/06 08:58:02,無
5903260985,森川健保藥局,臺中市北區五權路２５１號１樓,120.6764,24.15074,(09)78157008,羅氏家用新冠病毒抗原自我檢測套組,55,2022/05/06 08:58:02,快篩試劑每日下午三點開賣，售完為止
5903270105,樂得好大藥局,臺中市西屯區上石路２號１樓,120.644,24.16669,(04)24521173,羅氏家用新冠病毒抗原自我檢測套組,78,2022/05/06 08:58:02,試劑09:00販賣（依到貨狀況滾動式調整）
5903270230,大心藥局,臺中市西屯區西屯路２段２９５－１９號,120.6418,24.17795,(04)24528355,羅氏家用新冠病毒抗原自我檢測套組,144,2022/05/06 08:58:02,實名制快篩，早上9:00開始販售（售完為止），星期日固定公休
5903270301,宥承藥局,臺中市西屯區西屯路３段１４８－１６號,120.6242,24.18563,(04)24626559,羅氏家用新冠病毒抗原自我檢測套組,2,2022/05/06 08:58:02,星期一到星期六， 開始快篩
5903270614,至善德侑藥局,臺中市西屯區至善路６０號,120.6395,24.17141,(04)24518729,羅氏家用新冠病毒抗原自我檢測套組,1,2022/05/06 08:58:02,實名制快篩下午14:00開始發號碼牌.14:15開始販售
5903270776,河南丁丁藥局,臺中市西屯區河南路４段１９１號,120.6367,24.15565,(04)22511658,羅氏家用新冠病毒抗原自我檢測套組,79,2022/05/06 08:58:02,周一至周日每天上午9:00開始販售口罩[有口罩庫存時]
5903270847,分子藥局,臺中市西屯區惠來路二段２３６－１號,120.6421,24.16318,(04)22513080,羅氏家用新冠病毒抗原自我檢測套組,64,2022/05/06 08:58:02,發放時間週一至週日早上10點起售完為止
5903270936,新元藥局,臺中市西屯區文心路三段５３２號１樓,120.6659,24.17267,(04)23121383,羅氏家用新冠病毒抗原自我檢測套組,82,2022/05/06 08:58:02,5／1-5／2公休，快篩為滾動式配送，請電洽04-23121383
5903271031,美十樂中科藥局,臺中市西屯區西屯路三段１６６－６５號１樓,120.6129,24.19035,(04)24610219,羅氏家用新冠病毒抗原自我檢測套組,468,2022/05/06 08:58:02,醫事人員卡片損壞，暫時無法販賣快篩
5903271139,百吉藥局,臺中市西屯區青海路一段７１號１樓,120.6547,24.1644,(04)23135698,羅氏家用新冠病毒抗原自我檢測套組,6,2022/05/06 08:58:02,周六休息
5903271157,富康家健保藥局,臺中市西屯區漢成四街８號１樓,120.6652,24.17026,(04)23174741,羅氏家用新冠病毒抗原自我檢測套組,48,2022/05/06 08:58:02,無
5903271308,祐生藥局,臺中市西屯區文華路３之１號１樓,120.6447,24.17535,(04)24517169,羅氏家用新冠病毒抗原自我檢測套組,188,2022/05/06 08:58:02,快篩發放時間：第一批中午12:00，第二批傍晚18:00，售完為止
5903280361,誠美健保藥局,臺中市南屯區南屯路２段１６９號１樓,120.6509,24.1361,(04)24752000,羅氏家用新冠病毒抗原自我檢測套組,78,2022/05/06 08:58:02,5／6快篩試劑早上九點準時開賣，售完為止!
5903280656,熊大心藥局,臺中市南屯區河南路四段３７６號,120.6369,24.15208,(04)22516252,羅氏家用新冠病毒抗原自我檢測套組,50,2022/05/06 08:58:02,app庫存錯誤。周一至周六，15:00-16:00售實名制快篩
5903280683,詠悅藥局,臺中市南屯區大墩十二街６３７號,120.6369,24.15009,(04)22515012,羅氏家用新冠病毒抗原自我檢測套組,78,2022/05/06 08:58:02,快篩實名制販售時間:周一~周六早上9點開賣，售完為止
5903280718,樂活藥局,臺中市南屯區大聖街３３２號１樓,120.6508,24.15401,(04)23106301,羅氏家用新冠病毒抗原自我檢測套組,67,2022/05/06 08:58:02,無
5903290232,弘映藥局,臺中市北屯區崇德路２段４６７號,120.6859,24.18133,(04)22464485,羅氏家用新冠病毒抗原自我檢測套組,59,2022/05/06 08:58:02,快篩代售時間早上09:00開始，一人一份五入售完為止
5903290607,敦化小林健保藥局,臺中市北屯區敦化路１段６６８號,120.6643,24.18593,(04)24261881,羅氏家用新冠病毒抗原自我檢測套組,15,2022/05/06 08:58:02,每日早上8:00領號碼牌，16:30再回藥局領口罩（全年無休）
5903290821,昌平炘星藥局,臺中市北屯區昌平路二段１１－３６號,120.6886,24.18159,(04)22417616,羅氏家用新冠病毒抗原自我檢測套組,44,2022/05/06 08:58:02,快篩收到貨後開賣，禮拜六18:00後公休，禮拜日公休
5903290849,新盛藥局,臺中市北屯區松竹路二段１５７號１樓,120.6959,24.18312,(04)22467779,羅氏家用新冠病毒抗原自我檢測套組,78,2022/05/06 08:58:02,下午2:30至8:30賣快篩試劑週一至週六
5903291042,全成北屯藥局,臺中市北屯區北屯路４３９－１１號１樓,120.7004,24.17913,(04)22463518,羅氏家用新冠病毒抗原自我檢測套組,78,2022/05/06 08:58:02,快篩每日下午3:00開始販售
5905010296,躍獅新營藥局,臺南市新營區民生路１６８號１樓,120.3073,23.31112,(06)6564325,羅氏家用新冠病毒抗原自我檢測套組,11,2022/05/06 08:58:02,固定下午6點半發放實名制快篩 （週日依配送狀況與否發放）
5905030038,美尚藥局,臺南市白河區白河里康樂路４３號,120.4148,23.34833,(06)6853538,羅氏家用新冠病毒抗原自我檢測套組,17,2022/05/06 08:58:02,快篩販售時間：星期一~五7:00-21:00 六07:00-18:30 禮拜天視診所上班而定
5905130024,人大藥局,臺南市六甲區中山路７號,120.3513,23.23059,(06)6988802,羅氏家用新冠病毒抗原自我檢測套組,46,2022/05/06 08:58:02,快篩販售時間：星期一-日07:30-售完
5905210027,愛心藥師藥局,臺南市安定區港南里港口１４７號,120.233,23.09041,(06)5935104,羅氏家用新冠病毒抗原自我檢測套組,49,2022/05/06 08:58:02,春節營業時間請電洽或依現場公告
5905270041,仁德市安藥師藥局,臺南市仁德區中正西路２５號,120.2244,22.91814,(06)2661933,羅氏家用新冠病毒抗原自我檢測套組,1,2022/05/06 08:58:02,快篩販賣：5／6星期五~以貨運配送抵達時間再決定販售時間 暫定14:00開始販售
5905270158,佳德藥局,臺南市仁德區德糖路４７０號１樓,120.2522,22.95128,(06)2796767,羅氏家用新冠病毒抗原自我檢測套組,49,2022/05/06 08:58:02,口罩發放時間:禮拜一至禮拜六8:30發號碼牌 9:00領取口罩，禮拜四和六只到中午12:00
5905310273,誠康藥局,臺南市永康區中山東路１１３號１樓,120.2367,23.01266,(06)3022005,羅氏家用新冠病毒抗原自我檢測套組,19,2022/05/06 08:58:02,實名制快篩販售時間：星期一到星期六  早上08:30~售完為止
5905310291,俐欣藥局,臺南市永康區大仁街２０６號１樓,120.2582,23.00553,(06)2050777,羅氏家用新冠病毒抗原自我檢測套組,42,2022/05/06 08:58:02,口罩販售時間：星期一~星期六10:00~13:00
5905310540,裕安藥局,臺南市永康區中華二路３８５號,120.2315,23.0083,(06)3133251,羅氏家用新冠病毒抗原自我檢測套組,33,2022/05/06 08:58:02,早8:30-1200／午15:00-18:00／晚18:30-21:00。周日午14:00-17:00
5905310871,晶辰藥局,臺南市永康區大灣里民族路３９６巷１號、３號１樓、３９８號１樓,120.2661,23.00825,(06)2733368,羅氏家用新冠病毒抗原自我檢測套組,78,2022/05/06 08:58:02,周一~周五早上10點開始售完為止，周六日10點開始售完為止
5905320135,安麗兒藥局裕農店,臺南市東區裕農路１００號１樓,120.2268,22.9857,(06)2377378,羅氏家用新冠病毒抗原自我檢測套組,77,2022/05/06 08:58:02,實名制快篩販售時間:星期一到星期日下午三點~售完
5905320475,美生藥局,臺南市東區德高里自由路一段１６１號１樓,120.2367,22.96862,(06)2670035,羅氏家用新冠病毒抗原自我檢測套組,14,2022/05/06 08:58:02,無
5905320537,舒惠藥局,臺南市東區青年路４３２－６號１樓,120.2168,22.99104,(06)2087052,羅氏家用新冠病毒抗原自我檢測套組,2,2022/05/06 08:58:02,快篩每日販賣時間將依物流實際到貨時間
5905320653,東門台安藥局,臺南市東區中華東路三段２號１樓,120.2291,22.98105,(06)2904377,羅氏家用新冠病毒抗原自我檢測套組,68,2022/05/06 08:58:02,國定假日不開放領口罩
5905320877,靈安藥局,臺南市東區大福里榮譽街３２－２號１樓,120.2163,22.97419,(06)2143727,羅氏家用新冠病毒抗原自我檢測套組,4,2022/05/06 08:58:02,週一至週五早上九點至晚上九點／週六早上九點至中午十二點
5905330113,進祥藥局,臺南市南區文南里健康路２段３４２－１號１樓,120.1879,22.98205,(06)2630571,羅氏家用新冠病毒抗原自我檢測套組,59,2022/05/06 08:58:02,無
5905330220,合樂藥局,臺南市南區灣裡路３０９號,120.1824,22.92566,(06)2625016,羅氏家用新冠病毒抗原自我檢測套組,31,2022/05/06 08:58:02,快篩週一~六中午12點開賣，週日暫停
5905340155,東北藥局,臺南市中西區福安里西門路二段１４號１樓,120.1981,22.99075,(06)2226753,羅氏家用新冠病毒抗原自我檢測套組,66,2022/05/06 08:58:02,早上貨到開始販售，售完為止
5905340164,田邊藥局,臺南市中西區中正路２３６號,120.1969,22.99326,(06)2200106,羅氏家用新冠病毒抗原自我檢測套組,78,2022/05/06 08:58:02,口罩下午1:00販售售完為止.請自備零錢，
5905340226,楊藥局,臺南市中西區西和路３３號１樓,120.1926,23.00336,(06)2806353,羅氏家用新冠病毒抗原自我檢測套組,35,2022/05/06 08:58:02,販售時間:周一至周六:9:00--12:30； 14:30--22:30售完為止，周日9:00開始販售，售完為止
5905340253,永華台安藥局,臺南市中西區永華路一段１８４、１８４－１號１、２、３樓,120.1919,22.98831,(06)2225531,羅氏家用新冠病毒抗原自我檢測套組,77,2022/05/06 08:58:02,10:00販售快篩試劑（若有收到配送）
5905350062,嘉星藥師大藥局,臺南市北區開元路３３９號１樓,120.222,23.00854,(06)2093737,羅氏家用新冠病毒抗原自我檢測套組,12,2022/05/06 08:58:02,實名快篩因物流延遲，貨到立刻銷售，售完為止，12~2點午休時間
5905350240,健康藥局,臺南市北區長榮路５段２１號,120.2206,23.00827,(06)2003078,羅氏家用新冠病毒抗原自我檢測套組,63,2022/05/06 08:58:02,9:00開始販售快篩，售完為止；六日停止販售快篩
5905350311,美康藥局,臺南市北區公園路３７５－５號,120.2102,23.00597,(06)2810311,羅氏家用新冠病毒抗原自我檢測套組,70,2022/05/06 08:58:02,快篩實名制販賣時間上午9:00~11:00
5905350428,大正藥局,臺南市北區公園南路３２４號１樓,120.2033,23.00268,(06)2226899,羅氏家用新冠病毒抗原自我檢測套組,76,2022/05/06 08:58:02,快篩試劑下午13:30發放~售完
5905370135,安南日日康藥局,臺南市安南區安和路五段３３號,120.2185,23.06398,(06)3550995,羅氏家用新冠病毒抗原自我檢測套組,33,2022/05/06 08:58:02,實名制快篩試劑周一至周六下午2點開始售完為止
5905370322,鳳凰平光中西藥局,臺南市安南區鳳凰里安中路一段７００巷２７號１樓,120.1967,23.04319,(06)2565635,羅氏家用新冠病毒抗原自我檢測套組,5,2022/05/06 08:58:02,快篩平日AM8:30開店起販售 周日不營業
5905380275,心悅藥局,臺南市安平區華平里華平路５３７號１樓,120.1754,22.99425,(06)2973727,羅氏家用新冠病毒抗原自我檢測套組,57,2022/05/06 08:58:02,9:00-12:00， 16:00-20:00
5905380417,好心情藥局,臺南市安平區平通路５８６號１樓,120.1701,22.99393,(06)2995885,羅氏家用新冠病毒抗原自我檢測套組,78,2022/05/06 08:58:02,快篩實名制早上9:00開始發號碼牌，9:45開始執行販售。
5907010043,北京藥局文山店,高雄市鳳山區青年路二段３６７號１．２樓,120.3511,22.64152,(07)7676766,羅氏家用新冠病毒抗原自我檢測套組,76,2022/05/06 08:58:02,無
5907010187,人人好藥局,高雄市鳳山區五甲三路１０巷７號１樓,120.3278,22.59336,(07)8151566,羅氏家用新冠病毒抗原自我檢測套組,313,2022/05/06 08:58:02,上午0830-1330下午1530-2100， 自2／11-2／29口罩販售周一三四五日，時間:9:00-12:00售完為止
5907010267,禾康藥局,高雄市鳳山區瑞竹路１６號１樓,120.3662,22.62462,(07)7997139,羅氏家用新冠病毒抗原自我檢測套組,56,2022/05/06 08:58:02,營業時間AM9-12，PM3-10，星期日公休
5907010409,好郝藥局,高雄市鳳山區武松里經武路１７８號１樓,120.3642,22.63619,(07)7468840,羅氏家用新冠病毒抗原自我檢測套組,78,2022/05/06 08:58:02,營業日15:00開始販售快篩，售完為止
5907010427,好郝藥局鳳林店,高雄市鳳山區誠智里鳳林路２９０號,120.3779,22.62216,(07)7869188,羅氏家用新冠病毒抗原自我檢測套組,78,2022/05/06 08:58:02,健保快篩周一到周日下午三點開始現場販售，售完為止
5907010730,鳳山啄木鳥藥局,高雄市鳳山區善美里保泰路３３６號１樓,120.3348,22.60287,(07)7162314,羅氏家用新冠病毒抗原自我檢測套組,61,2022/05/06 08:58:02,營業日08:50發號碼牌，發完立即販售，售完為止
5907010927,元元鳳山藥局,高雄市鳳山區一甲里五甲二路３４８之１號１樓,120.3377,22.59955,(07)7529595,羅氏家用新冠病毒抗原自我檢測套組,78,2022/05/06 08:58:02,現場排隊，自備500元不找零!一至五下午3-6點。星期六下午2-5點。星期日公休
5907011004,永豐久億藥局,高雄市鳳山區和興里五甲一路１１號１樓,120.3586,22.62189,(07)7104281,羅氏家用新冠病毒抗原自我檢測套組,9,2022/05/06 08:58:02,無
5907011040,伊甸藥師藥局文化店,高雄市鳳山區文福里文化西路１１號１樓,120.3494,22.63475,(07)7776002,羅氏家用新冠病毒抗原自我檢測套組,78,2022/05/06 08:58:02,實名制快篩販售時間以貨品送達起售完為止。請現場排隊。
5907011273,鳳山服安藥局,高雄市鳳山區忠義里中山西路３８０號１樓,120.3409,22.62906,(07)7406330,羅氏家用新冠病毒抗原自我檢測套組,52,2022/05/06 08:58:02,自3／1日~3／31日，營業日08:00~21:00為販賣口罩時間
5907011291,桂林活力藥師藥局鳳山店,高雄市鳳山區中正里瑞興路４８８號１樓,120.3719,22.63089,(07)7012827,羅氏家用新冠病毒抗原自我檢測套組,156,2022/05/06 08:58:02,早上9點發放號碼牌，發完號碼牌即售完
5907011497,久億藥局,高雄市鳳山區新泰里海洋一路１２１號１樓,120.3441,22.61007,(07)7663095,羅氏家用新冠病毒抗原自我檢測套組,73,2022/05/06 08:58:02,快篩販售時間 早上9點至售完為止
5907020021,柏康藥局,高雄市岡山區壽天路２２號,120.2938,22.79663,(07)6241688,羅氏家用新冠病毒抗原自我檢測套組,12,2022/05/06 08:58:02,無
5907030090,睛好活力藥局,高雄市旗山區湄洲里中山路１２７號,120.482,22.88873,(07)6625119,羅氏家用新冠病毒抗原自我檢測套組,74,2022/05/06 08:58:02,無
5907040023,大佳藥局,高雄市美濃區獅山里中華路５９－７號,120.5704,22.87774,(07)6852988,羅氏家用新冠病毒抗原自我檢測套組,57,2022/05/06 08:58:02,營業日 09:00 - 20:30 為快篩試劑販售時間。
5907060043,永成專業藥師藥局,高雄市大寮區中興里鳳林四路６２號,120.3878,22.6152,(07)7816221,羅氏家用新冠病毒抗原自我檢測套組,39,2022/05/06 08:58:02,星期一至五.銷售時間早上09:30開始.星期六.日為早上10:00開始
5907060098,佳和健保藥局,高雄市大寮區鳳林三路５１２號,120.3954,22.60616,(07)7821500,羅氏家用新冠病毒抗原自我檢測套組,4,2022/05/06 08:58:02,自2／11日~2／29日，營業日8:30~12:00、15:00-21:00為販賣口罩時間，售完為止。
5907060221,淑德健保藥局,高雄市大寮區內坑里淑德新村１號３樓,120.3707,22.58833,(07)7923556,羅氏家用新冠病毒抗原自我檢測套組,47,2022/05/06 08:58:02,無
5907060267,加嘉藥局,高雄市大寮區山頂里內厝路１９１號１樓,120.3901,22.60793,(07)7860683,羅氏家用新冠病毒抗原自我檢測套組,2,2022/05/06 08:58:02,無
5907080125,仁武丁丁藥局,高雄市仁武區仁和里鳳仁路２１之８號,120.3558,22.6802,(07)3721896,羅氏家用新冠病毒抗原自我檢測套組,78,2022/05/06 08:58:02,自5月1日~5月31日，營業日9:00起為販賣快篩時間，售完為止。
5907090023,金元發藥局,高雄市大社區中山路１９９號,120.3471,22.73215,(07)3542200,羅氏家用新冠病毒抗原自我檢測套組,1,2022/05/06 08:58:02,快篩實名制：08:30~21:30售完為止
5907090032,上鼎藥師健保藥局,高雄市大社區中山路４２３號,120.3526,22.73146,(07)3531053,羅氏家用新冠病毒抗原自我檢測套組,55,2022/05/06 08:58:02,每日9:30開放民眾購買快篩，售完為止。
5907150024,安麗兒藥局路竹店,高雄市路竹區大社路５１號１樓,120.262,22.8632,(07)6071699,羅氏家用新冠病毒抗原自我檢測套組,143,2022/05/06 08:58:02,快篩實名制，週一至週六，早上8：30 開始，售完為止（週日無販售）
5907150097,金德昌藥師藥局,高雄市路竹區大社路９０之６號,120.263,22.86382,(07)6978143,羅氏家用新冠病毒抗原自我檢測套組,75,2022/05/06 08:58:02,快篩販售時間:14:30~16:00或售完為止
5907150202,永昌藥局,高雄市路竹區延平路８１號,120.2579,22.85786,(07)6964321,羅氏家用新冠病毒抗原自我檢測套組,78,2022/05/06 08:58:02,周一至周六上午10:00~12:30；下午15:30-18:00開始依序販售快篩試劑，售完為止。星期日休息。
5907160093,保生藥局,高雄市湖內區葉厝里保生路３４０．３４２號,120.2195,22.90733,(07)6990800,羅氏家用新冠病毒抗原自我檢測套組,1,2022/05/06 08:58:02,快篩實名制，每天16:00開始販售，售完為止。
5907240014,博林健保藥局,高雄市內門區觀亭里中正路１６０巷５１號,120.4539,22.9232,(07)6671883,羅氏家用新冠病毒抗原自我檢測套組,37,2022/05/06 08:58:02,自2／11日~2／29日，營業日07:40~18:00為販賣口罩時間，售完為止
5907290103,康喜藥局,高雄市鼓山區華榮路６０７號,120.2923,22.67088,(07)5550060,羅氏家用新冠病毒抗原自我檢測套組,69,2022/05/06 08:58:02,營業時間星期一~六9:00~21:00  快篩9:00開始
5907290265,新美館藥局,高雄市鼓山區中華一路９７２號,120.2919,22.65513,(07)5522006,羅氏家用新冠病毒抗原自我檢測套組,30,2022/05/06 08:58:02,5／6快篩早上8:30領取號碼牌後販賣，請從後花園排隊，謝謝
5907300168,金元藥局,高雄市左營區重愛路２２０號,120.3156,22.68562,(07)3458378,羅氏家用新冠病毒抗原自我檢測套組,2,2022/05/06 08:58:02,快篩試劑郵差配送，約10點至11點左右會送到藥局，即開始販售，星期四，六營業時間至中午12點
5907300177,人尚大藥局,高雄市左營區榮總路１０９號１樓,120.3217,22.67927,(07)3100000,羅氏家用新冠病毒抗原自我檢測套組,3,2022/05/06 08:58:02,星期一到星期六 早上7:40開始銷售，星期日早上8:40，售完為止
5907300319,士凱藥局,高雄市左營區孟子路１７８號,120.3126,22.67387,(07)3430257,羅氏家用新冠病毒抗原自我檢測套組,78,2022/05/06 08:58:02,快篩實名制，每天14:30開始販售，售完為止。
5907300346,正心藥師藥局,高雄市左營區左營大路４７３之２號,120.295,22.68946,(07)5880386,羅氏家用新冠病毒抗原自我檢測套組,59,2022/05/06 08:58:02,快篩試劑 9:00開賣，售完為止! 12:00-14:00 休息! W6 和 W7 不販售快篩!
5907300408,安闔藥局,高雄市左營區榮總路２３號１樓,120.3217,22.67851,(07)3596913,羅氏家用新冠病毒抗原自我檢測套組,26,2022/05/06 08:58:02,實名制快篩販售時間 : 早上8 : 30至售完為止
5907300417,森森藥師藥局,高雄市左營區緯六路２１５號１樓,120.2874,22.69707,(07)5853600,羅氏家用新冠病毒抗原自我檢測套組,30,2022/05/06 08:58:02,（W1~W5） 8~19點；（W6） 8:30~12點；快篩售完為止
5907300613,新高橋藥局河堤店,高雄市左營區裕誠路１４４號１樓及地下１樓,120.3095,22.66423,(07)5582806,羅氏家用新冠病毒抗原自我檢測套組,78,2022/05/06 08:58:02,下午1:30開始販售口罩至下午5:30
5907300659,維康藥局高榮店,高雄市左營區榮總路１６３號、１６５號,120.3216,22.6809,(07)3494540,羅氏家用新冠病毒抗原自我檢測套組,77,2022/05/06 08:58:02,平常日0900-1700為快篩販賣時間賣完為止！假日1000-1800
5907300677,佳寧峰藥局,高雄市左營區部後街２號,120.2886,22.6834,(07)5886408,羅氏家用新冠病毒抗原自我檢測套組,57,2022/05/06 08:58:02,快篩試劑販賣時段:上午8:30起至售完為止
5907300766,悠仁藥局,高雄市左營區自由三路１７０號,120.3113,22.67165,(07)3457979,羅氏家用新冠病毒抗原自我檢測套組,77,2022/05/06 08:58:02,今日快篩0900開始販售。如提前一天配送，則為早上0900販售。不便之處，敬請見諒
5907300908,明自丁丁藥局,高雄市左營區自由二路１５２號１樓,120.3089,22.66223,(07)5568902,羅氏家用新冠病毒抗原自我檢測套組,77,2022/05/06 08:58:02,無
5907300953,翔生藥局,高雄市左營區左營大路５１４號,120.2953,22.68921,(07)5827329,羅氏家用新冠病毒抗原自我檢測套組,50,2022/05/06 08:58:02,快篩實名制早上9點開賣
5907301021,杏一左營自由藥局,高雄市左營區自由二路３９７號,120.3084,22.66541,(07)5509511,羅氏家用新冠病毒抗原自我檢測套組,78,2022/05/06 08:58:02,周一-周六販賣時間:15點；週日無提供快篩實聯制服務
5907301094,杏一高榮二店藥局,高雄市左營區榮總路１７７號１樓,120.3213,22.6811,(07)3463348,羅氏家用新冠病毒抗原自我檢測套組,78,2022/05/06 08:58:02,一~五09:25開始發號碼牌／週六14:25開始發號碼牌
5907310137,青田藥局,高雄市楠梓區監理南街６８號,120.3188,22.72897,(07)3648257,羅氏家用新冠病毒抗原自我檢測套組,12,2022/05/06 08:58:02,銷售時間才販賣，別在看庫存了 ／ 周一至周五上午10:30-11:00 下午14:30-15:00 晚上19:00-20:00
5907310173,安健藥局,高雄市楠梓區鳳楠路２５０號,120.3296,22.72617,(07)3520167,羅氏家用新冠病毒抗原自我檢測套組,8,2022/05/06 08:58:02,2／06起營業日早上8點開始販賣，周六日早上8:30 .售完為止
5907310280,久和藥局,高雄市楠梓區德民路１００６－５號,120.2863,22.71906,(07)3659555,羅氏家用新冠病毒抗原自我檢測套組,45,2022/05/06 08:58:02,9:00開始販售實名制快篩 國定假日.周日休息.
5907310351,惠民楠梓藥局,高雄市楠梓區建楠路２１７號,120.3248,22.72689,(07)3521896,羅氏家用新冠病毒抗原自我檢測套組,78,2022/05/06 08:58:02,上面數量顯示78盒，是系統錯誤，快篩已經賣完了，麥擱卡啊!!平常二點開始發，發完為止；記得備防疫包，增強免疫力
5907310379,德昌藥局,高雄市楠梓區德賢路２１５號,120.3053,22.72632,(07)3619998,羅氏家用新冠病毒抗原自我檢測套組,74,2022/05/06 08:58:02,實名制快篩販售時間：周一至週日，14:30至16:00，售完為止。
5907320259,明誠藥局,高雄市三民區明誠一路１７２號,120.3273,22.65994,(07)3108636,羅氏家用新冠病毒抗原自我檢測套組,13,2022/05/06 08:58:02,星期一到星期六早上9點售快篩.星期日下午3點售快篩
5907320633,勁康健保藥局,高雄市三民區義華路４０２號１樓,120.3331,22.64371,(07)3966716,羅氏家用新冠病毒抗原自我檢測套組,1,2022/05/06 08:58:02,如為當日配量快篩實名制配貨到即可販售，若前一日就到貨，則早上10點開始
5907320651,未來照護藥局,高雄市三民區鼎瑞街１０８號１樓,120.3154,22.66606,(07)3105356,羅氏家用新冠病毒抗原自我檢測套組,3,2022/05/06 08:58:02,實名制快篩發放規則: 周一至周六AM10:00發號碼牌，下午14:00~21:30為領取快篩時間  每 周日為公休日
5907320704,建工台安藥局,高雄市三民區建工路４９９號之１,120.3224,22.64884,(07)3807521,羅氏家用新冠病毒抗原自我檢測套組,65,2022/05/06 08:58:02,實名制口罩每日9:00開始販售，售完為止。
5907320768,心樂保健藥局,高雄市三民區光裕路７８號１樓,120.3331,22.63789,(07)3855377,羅氏家用新冠病毒抗原自我檢測套組,16,2022/05/06 08:58:02,星期一到星期四上午8:30-12:00（快篩售完為止）. 星期五下午14:00-17:00，18:00-20:30（售完為止）
5907320777,桉家藥師藥局,高雄市三民區明誠一路３９３號,120.3228,22.65998,(07)3929732,羅氏家用新冠病毒抗原自我檢測套組,30,2022/05/06 08:58:02,無
5907320866,意朋建興藥局,高雄市三民區建興路２２５號１樓,120.3251,22.64418,(07)3929507,羅氏家用新冠病毒抗原自我檢測套組,78,2022/05/06 08:58:02,口罩領取時間:W1~W日（AM1100~換完為止）
5907320946,熊安心藥局,高雄市三民區陽明路４０８號,120.3429,22.64609,(07)3815212,羅氏家用新冠病毒抗原自我檢測套組,125,2022/05/06 08:58:02,週一 ~ 週六快篩分兩梯次販售，14:00有63份，19:00有15份
5907321069,桂林活力藥局九如店,高雄市三民區懷安街１１２號１樓,120.3176,22.64095,(07)3981009,羅氏家用新冠病毒抗原自我檢測套組,78,2022/05/06 08:58:02,每天15:30發號碼牌，於18:00前兌換完畢，逾期棄權，剩餘則繼續發放
5907321078,振源藥局,高雄市三民區熱河一街３５５號１樓,120.3061,22.64365,(07)3112541,羅氏家用新冠病毒抗原自我檢測套組,11,2022/05/06 08:58:02,4／30起15:00開始販售快篩，六日皆有營業
5907330031,健美藥局,高雄市新興區復興一路４０之４號,120.3084,22.62985,(07)2291108,羅氏家用新冠病毒抗原自我檢測套組,16,2022/05/06 08:58:02,111／5／3近期因供貨時間不穩定.先取消上午8:40販售快篩.實際以收到貨時間開始販賣
5907330228,林森合豐藥局,高雄市新興區林森一路３７號１樓,120.305,22.62388,(07)2823313,羅氏家用新冠病毒抗原自我檢測套組,78,2022/05/06 08:58:02,無
5907350177,佳康藥局,高雄市苓雅區建國一路３３４號,120.3247,22.63293,(07)2266685,羅氏家用新冠病毒抗原自我檢測套組,78,2022/05/06 08:58:02,快篩代售時間:一至四8:30-21:00、五六8:30-16:30
5907350195,健順藥局,高雄市苓雅區自強三路１４０號,120.2986,22.61724,(07)2695832,羅氏家用新冠病毒抗原自我檢測套組,27,2022/05/06 08:58:02,自2／6起，營業日0830~22:00為口罩販售時間，售完為止
5907350220,仁愛藥師藥局,高雄市苓雅區中正一路２３０號,120.3296,22.62921,(07)7222300,羅氏家用新冠病毒抗原自我檢測套組,60,2022/05/06 08:58:02,快篩販售一到五10:30開始，紅字假日12:30開始
5907350328,安杏藥局,高雄市苓雅區四維二路９４－１７號,120.3197,22.62273,(07)7511739,羅氏家用新冠病毒抗原自我檢測套組,69,2022/05/06 08:58:02,快篩試劑代售時間自早上9:00點服務
5907350480,健森藥局,高雄市苓雅區林森二路１３８號１、２樓,120.3066,22.62054,(07)3365169,羅氏家用新冠病毒抗原自我檢測套組,73,2022/05/06 08:58:02,早上9點領牌 下午3~5點領口罩
5907350533,健群藥局,高雄市苓雅區安業路４０號,120.3231,22.62731,(07)7150097,羅氏家用新冠病毒抗原自我檢測套組,118,2022/05/06 08:58:02,無
5907350560,成功合豐藥局,高雄市苓雅區成功一路１７０號１樓,120.2972,22.61595,(07)2695657,羅氏家用新冠病毒抗原自我檢測套組,76,2022/05/06 08:58:02,早上9點開始賣口罩~晚上9點   售完為止
5907350597,武廟台安藥局,高雄市苓雅區武廟路１３３－１號,120.3266,22.63106,(07)7228893,羅氏家用新冠病毒抗原自我檢測套組,141,2022/05/06 08:58:02,實名制快篩販售時間：（一）~（六） 9:00~17:00
5907350659,北京藥局林泉店,高雄市苓雅區林泉里３鄰林泉街３５號１樓,120.3192,22.62323,(07)7263030,羅氏家用新冠病毒抗原自我檢測套組,322,2022/05/06 08:58:02,無
5907360324,有承中西藥局,高雄市前鎮區德昌路２５７號１樓,120.3155,22.5849,(07)8120880,羅氏家用新冠病毒抗原自我檢測套組,22,2022/05/06 08:58:02,配合政府實名制快篩， 販售時間依政府配送時間滾動式調整
5907360360,親親藥局,高雄市前鎮區天山路１０巷６號,120.3151,22.60991,(07)3391078,羅氏家用新冠病毒抗原自我檢測套組,30,2022/05/06 08:58:02,周日休假，停售快篩!!!5／5快篩已售完
5907360440,隆德藥局,高雄市前鎮區前鎮街１７０號１樓,120.3073,22.59003,(07)8216030,羅氏家用新冠病毒抗原自我檢測套組,35,2022/05/06 08:58:02,每天早上八點營業.快篩劑要0930後才開賣
5907360566,祥安健保藥局,高雄市前鎮區復興三路３９３號１樓,120.3116,22.61373,(07)3340393,羅氏家用新冠病毒抗原自我檢測套組,78,2022/05/06 08:58:02,無
5907360600,桂林活力藥師藥局草衙店,高雄市前鎮區草衙二路３６０號,120.323,22.57801,(07)8131819,羅氏家用新冠病毒抗原自我檢測套組,2,2022/05/06 08:58:02,9:00發放實名制快篩號碼牌.售完為止
5907370053,瑞康藥師藥局,高雄市旗津區中洲三路５９７號,120.2724,22.60775,(07)5718985,羅氏家用新冠病毒抗原自我檢測套組,61,2022/05/06 08:58:02,藥局販售口罩時間，依藥局門口公告時間為主（售完為止）
5907380175,新朋友藥師藥局小港店,高雄市小港區漢民路２５４號,120.3531,22.56653,(07)8065361,羅氏家用新冠病毒抗原自我檢測套組,71,2022/05/06 08:58:02,每週六公休
5907380184,桂林活力藥師藥局孔鳳店,高雄市小港區孔鳳路５６１號１樓,120.3586,22.58393,(07)7912331,羅氏家用新冠病毒抗原自我檢測套組,78,2022/05/06 08:58:02,無
5907380291,富康活力藥局小港店,高雄市小港區二苓路２０４號１樓,120.3488,22.56552,(07)8020333,羅氏家用新冠病毒抗原自我檢測套組,30,2022/05/06 08:58:02,實名制快篩販售時間: 星期一至五早上8點，星期六日早上9點，售完為止。
5907380317,朋盛藥局,高雄市小港區大鵬路１４２號,120.3586,22.56906,(07)8017288,羅氏家用新冠病毒抗原自我檢測套組,70,2022/05/06 08:58:02,健保快篩販售時間為星期一至星期六早上8點半
5907380353,桂林活力藥師藥局漢民店,高雄市小港區漢民路６９１－１及６９１－２號１樓,120.3614,22.56762,(07)8010636,羅氏家用新冠病毒抗原自我檢測套組,9,2022/05/06 08:58:02,無
5911011325,永好藥局,基隆市中正區北寧路３１５號１樓,121.7951,25.13981,(02)24697639,羅氏家用新冠病毒抗原自我檢測套組,78,2022/05/06 08:58:02,快篩星期一*三*五是單號 二*四雙號 下午14:30販售 星期六星期日休息
5911011469,維元社區藥局,基隆市中正區新豐街４４８號,121.7859,25.13568,(02)24601388,羅氏家用新冠病毒抗原自我檢測套組,41,2022/05/06 08:58:02,無
5911011585,雙鶴藥局,基隆市中正區義一路３５號１樓,121.7456,25.13309,(02)24263193,羅氏家用新冠病毒抗原自我檢測套組,6,2022/05/06 08:58:02,中午14:00開始販售
5911011601,義一啄木鳥藥局,基隆市中正區義一路１１１號１、２樓,121.7471,25.13536,(02)24271456,羅氏家用新冠病毒抗原自我檢測套組,39,2022/05/06 08:58:02,國定假日無提供調劑業務，早上10:00到晚上09:50，每天10:30開始發快篩
5911021438,正心藥局,基隆市七堵區南興路１０號１樓,121.7149,25.09755,(02)24563378,羅氏家用新冠病毒抗原自我檢測套組,78,2022/05/06 08:58:02,星期一~六下午13:30發號碼牌，14:00開始販賣，星期日上午9:00發號碼牌，9:30開始販賣，12:00停止領取
5911031158,柏林藥局,基隆市暖暖區暖暖街２４６巷１６７號１樓,121.7357,25.10036,(02)24592277,羅氏家用新冠病毒抗原自我檢測套組,32,2022/05/06 08:58:02,無
5911031318,安安藥局,基隆市暖暖區源遠路１６８號,121.7492,25.09815,(02)24585577,羅氏家用新冠病毒抗原自我檢測套組,15,2022/05/06 08:58:02,每週六公休，星期日~星期五早上8:30販售實名制快篩
5911041510,聯安藥局,基隆市仁愛區仁二路２５１號２樓,121.7428,25.1296,(02)24288809,羅氏家用新冠病毒抗原自我檢測套組,56,2022/05/06 08:58:02,安東耳鼻喉科二樓循環站正對面 快篩販售時間9:00-11:50，14:30-20:00 假日9:00-11:00 售完為止
5911041958,百福仁愛專業藥局,基隆市仁愛區仁四路５０號１樓,121.7413,25.12829,(02)24266699,羅氏家用新冠病毒抗原自我檢測套組,40,2022/05/06 08:58:02,4／30起，早上8:00販售快篩
5911051481,仁登藥局,基隆市中山區復興路１２２號,121.7262,25.14453,(02)24375789,羅氏家用新冠病毒抗原自我檢測套組,25,2022/05/06 08:58:02,無
5911051507,百福安一藥局,基隆市中山區安一路８１號,121.7358,25.1314,(02)24258068,羅氏家用新冠病毒抗原自我檢測套組,3,2022/05/06 08:58:02,快篩每日早上8點販售，不發號碼牌，現場排隊
5911060088,宏仁藥局,基隆市安樂區安樂路２段１３０號,121.724,25.12159,(02)24321739,羅氏家用新冠病毒抗原自我檢測套組,78,2022/05/06 08:58:02,快篩 一到六 早上9點開始
5911061281,羅森堡藥局,基隆市安樂區安和一街２巷２２號,121.7246,25.12235,(02)24319869,羅氏家用新冠病毒抗原自我檢測套組,49,2022/05/06 08:58:02,8:40開賣，今日5／5已售完
5911070011,信安藥局,基隆市信義區信二路９９號,121.7548,25.12912,(02)24238551,羅氏家用新冠病毒抗原自我檢測套組,1,2022/05/06 08:58:02,快篩實名制-早上9點開始販售-售完為止-
5912010046,中美藥局,新竹市東區南大里西大路１０２巷３號１樓,120.9708,24.79647,(03)5283828,羅氏家用新冠病毒抗原自我檢測套組,51,2022/05/06 08:58:02,快篩販賣時段:早上8:00現場排隊至售完為止。 週一至週六休息時段12:00-14:00  晚上18:00-19:00  週日整天店休
5912010331,大家藥局,新竹市東區南門里武昌街６號１樓,120.9685,24.8004,(035)234035,羅氏家用新冠病毒抗原自我檢測套組,67,2022/05/06 08:58:02,快篩販賣時段: 上午8:30現場排隊至售完為止。
5912010528,華安中西藥局,新竹市東區振興里南大路６４８號一樓,120.9627,24.79286,(03)5610088,羅氏家用新冠病毒抗原自我檢測套組,77,2022/05/06 08:58:02,5／6（五）早上9:00販售快篩試劑.     5／7（六） 早上9:00販售快篩試劑
5912010724,倫洋藥局,新竹市東區建中路３８號１樓,120.9948,24.80075,(03)5749482,羅氏家用新冠病毒抗原自我檢測套組,42,2022/05/06 08:58:02,實際販售時間：早上9:00起至售完為止
5912011865,長青藥師藥局,新竹市東區民生路１４５號,120.9765,24.81063,(03)5439673,羅氏家用新冠病毒抗原自我檢測套組,78,2022/05/06 08:58:02,快篩實名制上午9；00 開始發放 ，週日不發放
5912012059,幼安藥局,新竹市東區三民里民族路１２８號,120.9775,24.80799,(03)5316337,羅氏家用新冠病毒抗原自我檢測套組,1,2022/05/06 08:58:02,快篩販賣時間 : 早上0715 點開始至晚上點售完為止
5912012120,仁美藥局,新竹市東區振興里振興路５２號,120.9625,24.79493,(03)5625398,羅氏家用新冠病毒抗原自我檢測套組,78,2022/05/06 08:58:02,快篩試劑，晚上六點開始飯售（周日店休）
5912012139,康博中西藥局,新竹市東區明湖里明湖路四四六之四號,120.9724,24.77008,(03)5191010,羅氏家用新冠病毒抗原自我檢測套組,39,2022/05/06 08:58:02,口罩販售時間:星期一~ 五:上午8:40，星期六:上午9:00，星期日:上午8:40
5912012746,安康藥局,新竹市東區民族路１１２號,120.9771,24.8077,(03)5437048,羅氏家用新冠病毒抗原自我檢測套組,2,2022/05/06 08:58:02,快篩試劑代售時段 : 早上8點到賣完為止送貨時間早上9點到下午2點
5912012773,博弘藥局,新竹市東區南大路３８７號,120.9684,24.79662,(03)5619470,羅氏家用新冠病毒抗原自我檢測套組,8,2022/05/06 08:58:02,快篩試劑販賣時間；上午8:00起至售完為止
5912012988,杏康健保特約藥局,新竹市東區光復路一段５２５巷２３號１樓,121.0135,24.78384,(03)5772966,羅氏家用新冠病毒抗原自我檢測套組,72,2022/05/06 08:58:02,週一至五09:00-21:00 （週六公休） 週日09:00-18:00
5912013207,明湖健保藥局,新竹市東區明湖路３９８號,120.9675,24.78555,(03)5191788,羅氏家用新冠病毒抗原自我檢測套組,76,2022/05/06 08:58:02,快篩來貨時間不一，請隨時注意FB發佈的動態消息
5912013458,佑全新竹自由藥局,新竹市東區自由路１０７號１、２樓,120.9798,24.81395,(03)5428497,羅氏家用新冠病毒抗原自我檢測套組,76,2022/05/06 08:58:02,實名制快篩依指揮中心公告每日販售時間以當日到貨時間為主，無固定時間。門市營業時間0900-2100
5912013690,佑全新竹食品藥局,新竹市東區食品路１７０號,120.9764,24.79735,(03)5627307,羅氏家用新冠病毒抗原自我檢測套組,48,2022/05/06 08:58:02,實名制快篩下午2點開賣1點40分發號碼牌實際庫存依物流到貨時間滾動式調整
5912042066,佑健藥局,新竹市北區經國路二段５３１號１樓,120.9556,24.80447,(03)5230356,羅氏家用新冠病毒抗原自我檢測套組,74,2022/05/06 08:58:02,快篩販賣時段:早上9:30現場排隊至售完為止
5912042404,豐盛藥局,新竹市北區光華二街３５號,120.9747,24.81816,(03)5335651,羅氏家用新冠病毒抗原自我檢測套組,142,2022/05/06 08:58:02,實名制快篩:早上9點開始發號碼牌，13-22點領取快篩
5912042637,中福藥局,新竹市北區中福路８３號,120.9327,24.8408,(03)5366996,羅氏家用新冠病毒抗原自我檢測套組,78,2022/05/06 08:58:02,快篩販售時間：上午09:00
5912042922,四維丁丁藥局,新竹市北區四維路１９－２號１樓,120.9626,24.79843,(03)5251371,羅氏家用新冠病毒抗原自我檢測套組,78,2022/05/06 08:58:02,無
5912051421,牛埔丁丁藥局,新竹市香山區牛埔東路２４７號１樓,120.9442,24.79613,(03)5384612,羅氏家用新冠病毒抗原自我檢測套組,78,2022/05/06 08:58:02,無
5917010126,永大藥局,臺中市中區錦上里民族路１２２號,120.6786,24.14054,(04)22210180,羅氏家用新冠病毒抗原自我檢測套組,81,2022/05/06 08:58:02,09:00開始代售快篩，人多會發號碼牌
5917011945,正三吉藥局,臺中市中區臺灣大道一段９５號,120.6831,24.13911,(04)22207700,羅氏家用新冠病毒抗原自我檢測套組,79,2022/05/06 08:58:02,快篩販售時間 14:00~17:00
5917020060,來安藥局,臺中市東區十甲東路４８８號１樓,120.7073,24.13824,(04)22116977,羅氏家用新冠病毒抗原自我檢測套組,36,2022/05/06 08:58:02,發快篩時間早上8點
5917020122,周藥師藥局,臺中市東區合作里力行路５５號１樓,120.6956,24.15085,(04)23606800,羅氏家用新冠病毒抗原自我檢測套組,47,2022/05/06 08:58:02,營業時間早上8:30-12:30 下午2:30-晚上9:00 ｛8:30賣快篩；週日不賣快篩｝
5917030066,立安藥局,臺中市西區土庫里忠明南路３４８號,120.6576,24.14276,(04)23719125,羅氏家用新冠病毒抗原自我檢測套組,31,2022/05/06 08:58:02,每天09:00開始依排隊先後序開始發放號碼牌並配售口罩，售完為止。
5917030128,太信藥局,臺中市西區三民路一段９５－１號１樓,120.6698,24.13322,(04)23718318,羅氏家用新冠病毒抗原自我檢測套組,34,2022/05/06 08:58:02,健保卡快篩請0900自備500元／份
5917030520,林西藥局,臺中市西區向上路一段４６－１號,120.6661,24.14688,(04)23014023,羅氏家用新冠病毒抗原自我檢測套組,70,2022/05/06 08:58:02,每日早上9點開始依序當場領口罩，售完為止。
5917030646,華隆藥局,臺中市西區樂群街６之２號,120.6735,24.14025,(04)22243785,羅氏家用新冠病毒抗原自我檢測套組,69,2022/05/06 08:58:02,上午10:00開始販售快篩試劑，售完為止
5917030726,元泉藥局,臺中市西區公益里中美街２５７號,120.6601,24.14874,(04)23015503,羅氏家用新冠病毒抗原自我檢測套組,53,2022/05/06 08:58:02,固定週一至週六早上8:30開始販售口罩.售完為止
5917030842,向上中西藥局,臺中市西區向上路一段３５９號１樓,120.6561,24.1465,(04)24756688,羅氏家用新冠病毒抗原自我檢測套組,12,2022/05/06 08:58:02,周一~周六早上8:30開賣實名制快篩
5917030860,振聲藥局,臺中市西區公正里向上路１段４４７號１樓,120.6541,24.14654,(04)24721100,羅氏家用新冠病毒抗原自我檢測套組,76,2022/05/06 08:58:02,週一至週六早上9:00開始販售口罩，售完為止
5917030995,麗新健保大藥局,臺中市西區向上路一段１６２號,120.6612,24.1469,(04)23017100,羅氏家用新冠病毒抗原自我檢測套組,77,2022/05/06 08:58:02,週一至週日下午15:00至售完為止
5917032293,祥鶴大藥局,臺中市西區美村路一段六七三號一樓,120.6618,24.13561,(04)23710969,羅氏家用新冠病毒抗原自我檢測套組,19,2022/05/06 08:58:02,固定周一至周日早上８：００售快篩至售完
5917032739,婕康藥妝藥局,臺中市西區民生路１５９號１樓,120.671,24.14272,(04)22298777,羅氏家用新冠病毒抗原自我檢測套組,40,2022/05/06 08:58:02,每日下午3-5點 當場販售口罩
5917032908,佑恩藥師藥局,臺中市西區精誠路６７號１樓,120.6553,24.15224,(04)23100058,羅氏家用新冠病毒抗原自我檢測套組,148,2022/05/06 08:58:02,實名制快篩周一到周六，早上9:00，周日下午2:10開始販賣
5917040099,義興配藥局,臺中市南區西川里忠明南路６２８號,120.6571,24.13072,(04)23751551,羅氏家用新冠病毒抗原自我檢測套組,57,2022/05/06 08:58:02,週一至週日上午9點販賣防疫快篩試劑
5917040106,侑民藥局,臺中市南區興大路３９６巷４９號１樓,120.6712,24.11564,(04)22860146,羅氏家用新冠病毒抗原自我檢測套組,47,2022/05/06 08:58:02,週一至週日上午9點販賣防疫快篩試劑
5917040124,慧寧藥局,臺中市南區德義里忠孝路２號,120.6754,24.12662,(04)22851858,羅氏家用新冠病毒抗原自我檢測套組,78,2022/05/06 08:58:02,配合實名制快篩，星期一至星期六每天上午九時開始販售。
5917040151,和益中西藥局,臺中市南區江川里五權南路２２４號,120.6702,24.12456,(04)22614237,羅氏家用新冠病毒抗原自我檢測套組,3,2022/05/06 08:58:02,無
5917050433,松鶴藥局,臺中市北區文莊里篤行路２２４號,120.6738,24.15187,(04)22028790,羅氏家用新冠病毒抗原自我檢測套組,14,2022/05/06 08:58:02,口罩每日上午8:30開始販售，現場排隊售完為止。（全年無休）
5917050577,東生藥局,臺中市北區永興街１１２－１號１樓,120.6825,24.16152,(04)22358880,羅氏家用新冠病毒抗原自我檢測套組,47,2022/05/06 08:58:02,周一到周六上午8:30到晚上10:00開始販售口罩，周日公休
5917050586,仁柏藥局,臺中市北區賴明里山西街二段６２號,120.6758,24.16874,(04)22924462,羅氏家用新冠病毒抗原自我檢測套組,66,2022/05/06 08:58:02,實名制每日上午9:00開始現場排隊販售
5917051010,匯平藥局,臺中市北區北平路二段８２號,120.6746,24.17138,(04)22975556,羅氏家用新冠病毒抗原自我檢測套組,19,2022/05/06 08:58:02,上午10時開始發號碼牌，中午12時開始領口罩
5917052713,展弘藥局,臺中市北區漢口路４段３８０號,120.6841,24.16684,(04)22307388,羅氏家用新冠病毒抗原自我檢測套組,7,2022/05/06 08:58:02,實名制快篩每天8:30開始售完為止，星期日配合快篩配送而定
5917053550,嘉樂藥局,臺中市北區西屯路一段３５１－７號,120.6658,24.15956,(04)23263967,羅氏家用新冠病毒抗原自我檢測套組,58,2022/05/06 08:58:02,星期一~五8.30~12.30，14.00~21.30，星期六8.30-12.30
5917060064,揚善藥局,臺中市西屯區中清路二段１３８６巷７６號,120.6587,24.19602,(04)24251242,羅氏家用新冠病毒抗原自我檢測套組,78,2022/05/06 08:58:02,周一到周六上午 9:00-22:30發售，售完為止
5917060322,瑞康藥局,臺中市西屯區長安路二段２號１樓,120.6612,24.1724,(04)22914046,羅氏家用新冠病毒抗原自我檢測套組,73,2022/05/06 08:58:02,營業時間8:30~21:30 （家用快篩，酒精及防疫口罩）
5917060644,大東藥局,臺中市西屯區西墩里黎明路三段５７號,120.6369,24.1726,(04)27020418,羅氏家用新冠病毒抗原自我檢測套組,76,2022/05/06 08:58:02,5／6快篩於上午9:00開賣，請排隊購買。
5917062353,典安大藥局,臺中市西屯區西屯路３段１５９－６０號,120.6177,24.18807,(04)24616571,羅氏家用新冠病毒抗原自我檢測套組,78,2022/05/06 08:58:02,每天10:00發放快篩
5917062406,健康藥局,臺中市西屯區何南里大墩１９街２６號１樓,120.6568,24.15693,(04)23190305,羅氏家用新冠病毒抗原自我檢測套組,63,2022/05/06 08:58:02,原則上W1-W6 10:00開始販售快篩（視排隊狀況提前），星期日休息
5917062531,久揚大藥局,臺中市西屯區工業區一路９８之１６號,120.6138,24.17453,(04)23580738,羅氏家用新冠病毒抗原自我檢測套組,2,2022/05/06 08:58:02,未發號碼牌，星期一至六早上9:00開始販賣口罩，星期日不一定
5917062559,德康藥局,臺中市西屯區福和里中工三路１５６號,120.6181,24.17737,(04)23583373,羅氏家用新冠病毒抗原自我檢測套組,124,2022/05/06 08:58:02,每天早上9:00開始，不發號碼牌，現場排隊領口罩
5917063676,百惠藥師藥局,臺中市西屯區漢口路二段２４７號,120.6649,24.16696,(04)23169852,羅氏家用新冠病毒抗原自我檢測套組,123,2022/05/06 08:58:02,實名制快篩購買時間:星期一至五:早上9-11  ， 星期六早上10-12 ，星期日店休.
5917063725,永旭大藥局,臺中市西屯區逢甲路９２號１樓,120.6439,24.17883,(04)27087952,羅氏家用新冠病毒抗原自我檢測套組,1,2022/05/06 08:58:02,5／6起實名快篩，星期一到五早上10點開始，星期六日中午12點開始排隊販售。
5917070248,聯發藥局,臺中市南屯區溝墘里大墩路８５０號,120.6496,24.15551,(04)23262738,羅氏家用新冠病毒抗原自我檢測套組,78,2022/05/06 08:58:02,週一至周六早上十點開賣，以現場數量為主，售完為止。販售時間忙碌，恕無法接聽電話，請見諒。
5917070346,吉田藥局,臺中市南屯區大同里大墩六街１５４號,120.6506,24.14276,(04)24756816,羅氏家用新冠病毒抗原自我檢測套組,24,2022/05/06 08:58:02,近日到貨時間不定.到貨後.依一進一出.排隊先後序販售口罩，售完為止。
5917070515,裕登藥局,臺中市南屯區大墩二街９１號１Ｆ,120.6515,24.13873,(04)24715280,羅氏家用新冠病毒抗原自我檢測套組,75,2022/05/06 08:58:02,固定周一到周日早上9:00開始販賣防疫口罩。
5917071781,吉運藥局,臺中市南屯區南屯里黎明路１段１１３５號,120.6382,24.14047,(04)23834755,羅氏家用新冠病毒抗原自我檢測套組,3,2022/05/06 08:58:02,固定周一到周六，早上8:00賣實名制快篩。不發號碼牌
5917071996,乾生大藥局,臺中市南屯區大業路９５號,120.6524,24.15336,(04)23281277,羅氏家用新冠病毒抗原自我檢測套組,78,2022/05/06 08:58:02,09:00
5917080262,寶麒藥局,臺中市北屯區旅順路２段１５０號,120.6895,24.174,(04)22433918,羅氏家用新冠病毒抗原自我檢測套組,78,2022/05/06 08:58:02,周一~周日每天下午1:00開始販售實名制快篩試劑，售完為止。
5917080593,崇安藥局,臺中市北屯區四民里昌平路二段５４－３號１樓,120.6831,24.19198,(04)24221929,羅氏家用新冠病毒抗原自我檢測套組,4,2022/05/06 08:58:02,實名制快篩周一至周日08:15發號碼牌
5917080744,早安藥局,臺中市北屯區崇德二路一段１９９號１樓,120.693,24.17641,(04)22439411,羅氏家用新冠病毒抗原自我檢測套組,46,2022/05/06 08:58:02,5月起周一至周六開始販售快篩試劑，當日到貨就開賣。周日休息
5917080762,順泰大藥局,臺中市北屯區北屯村北屯路１１５號,120.6939,24.165,(04)22341477,羅氏家用新冠病毒抗原自我檢測套組,64,2022/05/06 08:58:02,周三及周日公休，其餘時間每日上午9:00開賣，不需發號碼牌
5917080780,吉英藥局,臺中市北屯區平順里昌平路一段４３４號１樓,120.6905,24.1763,(04)22448289,羅氏家用新冠病毒抗原自我檢測套組,36,2022/05/06 08:58:02,快篩實名制販賣
5917081170,順天大藥局,臺中市北屯區中清路二段２３２號１樓,120.6694,24.17767,(04)22918847,羅氏家用新冠病毒抗原自我檢測套組,55,2022/05/06 08:58:02,每日上午九點開始販售到售完為止.（週日正常營業）.
5917082364,慈慧藥師藥局,臺中市北屯區平田里昌平路１段１７８號１Ｆ,120.6887,24.17108,(04)22389846,羅氏家用新冠病毒抗原自我檢測套組,71,2022/05/06 08:58:02,星期一到星期六早上9點開始販賣快篩試劑全天後供應售完為止星期日早上9點開始
5917083076,瑞生藥局,臺中市北屯區大連路３段１２６號１樓,120.6948,24.17444,(04)22416759,羅氏家用新冠病毒抗原自我檢測套組,1,2022/05/06 08:58:02,每天早上8:30~晚上10:00，星期日休息（快篩販售時間:下午3:30）
5917083272,吉富康藥局,臺中市北屯區大連路三段９９號１樓,120.6935,24.17494,(04)22473057,羅氏家用新冠病毒抗原自我檢測套組,155,2022/05/06 08:58:02,營業時間早上9點至晚上9點，快篩早上9點開賣，中午12:30至14:00午休及清消，周日公休，
5917083316,春元藥局,臺中市北屯區東山路１段２８７號,120.7189,24.17593,(04)24361008,羅氏家用新冠病毒抗原自我檢測套組,19,2022/05/06 08:58:02,有關快篩販售：貨到開始賣
5917083334,瑞東大藥局,臺中市北屯區東山路一段２４６之３號,120.7179,24.17542,(04)24373799,羅氏家用新冠病毒抗原自我檢測套組,156,2022/05/06 08:58:02,5／5 快篩 9:30開始發放，售完為止
5921010223,王藥局,臺南市東區小東里小東路１９０－１號,120.2276,22.99976,(06)2378697,羅氏家用新冠病毒抗原自我檢測套組,78,2022/05/06 08:58:02,週一 至 週日，下午 2:00 ~ 晚上9:00 （ 需健保卡 ）
5921010232,大家藥局,臺南市東區大同路二段１７５號,120.214,22.97682,(06)2153777,羅氏家用新冠病毒抗原自我檢測套組,15,2022/05/06 08:58:02,快篩實名制:星期一到星期日早上8:30開始營業  以當日配送到達時間開始販售
5921010429,乙田藥局,臺南市東區東明里怡東路３０號,120.2278,22.99109,(06)2359303,羅氏家用新冠病毒抗原自我檢測套組,2,2022/05/06 08:58:02,無
5921010689,億安大藥局,臺南市東區大福里大同路２段２６５號,120.2145,22.97486,(06)2159881,羅氏家用新冠病毒抗原自我檢測套組,3,2022/05/06 08:58:02,防疫快篩週一至週六；現場制不發號碼牌
5921012049,小太陽藥局,臺南市東區東光里東平路１３號,120.2336,22.9947,(06)2099858,羅氏家用新冠病毒抗原自我檢測套組,73,2022/05/06 08:58:02,藥局營業時間為星期一至星期六10:00~21:30，星期天休息  實名制快篩試劑10:00開始販售，售完為止
5921012094,王瑞敏藥師藥局,臺南市東區崇德路７３９號,120.2277,22.96801,(06)2896888,羅氏家用新冠病毒抗原自我檢測套組,22,2022/05/06 08:58:02,快篩送達時間不定（一般是早上）送達即開始販售至售完
5921012361,崇仁藥局,臺南市東區龍山里崇學路２３１號,120.2244,22.98125,(06)2894115,羅氏家用新冠病毒抗原自我檢測套組,41,2022/05/06 08:58:02,週一到週六，早上8:30開賣（視現場狀況稍做調整），售完為止；中午11:30-15:30休息
5921012852,羽杏藥局,臺南市東區崇學路２５９號,120.2248,22.98171,(06)2893330,羅氏家用新冠病毒抗原自我檢測套組,102,2022/05/06 08:58:02,週一至週六09:00起依序販售快篩，售完為止
5921030092,三芳藥局,臺南市中西區元安里大勇街５號,120.1954,22.98933,(06)2203084,羅氏家用新冠病毒抗原自我檢測套組,61,2022/05/06 08:58:02,週一至週五09:00~12:00  14:30~17:00執業
5921030127,平安藥局,臺南市中西區永華路一段２３６號,120.1909,22.98852,(06)2292789,羅氏家用新冠病毒抗原自我檢測套組,68,2022/05/06 08:58:02,上午10:00到晚上23:00
5921032185,西門藥局,臺南市中西區西門路２段２０９號,120.199,22.9949,(06)2211222,羅氏家用新冠病毒抗原自我檢測套組,41,2022/05/06 08:58:02,星期一-五09:30-售完
5921040169,信心藥局,臺南市北區延平里公園路５４６號,120.2101,23.00693,(06)2822209,羅氏家用新冠病毒抗原自我檢測套組,61,2022/05/06 08:58:02,今快篩已售完9:00-20:00 . 週六9:00-12:00.  周日休息
5921040221,好鄰居藥局,臺南市北區西華里公園路１２８號２樓７室,120.2076,22.99889,(06)2219015,羅氏家用新冠病毒抗原自我檢測套組,79,2022/05/06 08:58:02,固定星期一至星期六8:30-21:15販賣口罩，星期天休息
5921040294,澄清堂藥局,臺南市北區勝利路４９５號,120.2185,23.00648,(06)2377224,羅氏家用新冠病毒抗原自我檢測套組,44,2022/05/06 08:58:02,星期一至星期六早上09:00開始賣~賣完
5921040392,宏吉藥局,臺南市北區大港里大興街２２４號,120.1879,23.01085,(06)2589692,羅氏家用新冠病毒抗原自我檢測套組,33,2022/05/06 08:58:02,代售實名制快篩試劑時間：5／4~5／5 試劑貨到開始販售。5／6起上午08：30開始至售完為止。每星期日停售一天
5921040481,眾安藥局,臺南市北區文元里文賢路１０３４號,120.1938,23.0153,(06)2588339,羅氏家用新冠病毒抗原自我檢測套組,78,2022/05/06 08:58:02,星期一~六，上午10點下午9點.（星期日休假）快篩劑販售上午10點起
5921040749,玖大藥局,臺南市北區勝利路３８３號,120.2187,23.00397,(06)2752048,羅氏家用新冠病毒抗原自我檢測套組,156,2022/05/06 08:58:02,快篩販售時間:星期一~五早上10:00-12:00
5921042252,佳愛藥局,臺南市北區西門路四段３４１巷２號,120.2097,23.01532,(06)2516697,羅氏家用新冠病毒抗原自我檢測套組,45,2022/05/06 08:58:02,平日08:30-12:00 16:00-20:00 週六0830-12:00 國定假日公休
5921050076,千代藥局,臺南市中西區民生路一段６０號１樓,120.2034,22.99337,(06)2256895,羅氏家用新冠病毒抗原自我檢測套組,78,2022/05/06 08:58:02,快篩試劑實名制:星期1~6下午一點至三點販售（星期日當日貨到開始販售）
5921050138,金德藥局,臺南市中西區府前路１段３３號,120.2108,22.98881,(06)2149082,羅氏家用新冠病毒抗原自我檢測套組,67,2022/05/06 08:58:02,星期一-日08:00-23:00
5921050174,春天藥局,臺南市中西區民族路２段２７４號,120.2008,22.99758,(06)2221562,羅氏家用新冠病毒抗原自我檢測套組,43,2022/05/06 08:58:02,上午9:30開始，售完為止，周日停售
5921051582,丞功藥局,臺南市中西區成功路３１號,120.2095,22.99747,(06)2287641,羅氏家用新冠病毒抗原自我檢測套組,3,2022/05/06 08:58:02,星期一-六08:00-售完
5921060116,守利藥局,臺南市安南區卅南里安和路４段６１６號,120.2189,23.06309,(06)3559347,羅氏家用新冠病毒抗原自我檢測套組,67,2022/05/06 08:58:02,春節營業時間請電洽或依現場公告
5921060198,平光藥局,臺南市安南區安中路１段８２２號,120.1947,23.0437,(06)2459641,羅氏家用新冠病毒抗原自我檢測套組,78,2022/05/06 08:58:02,快篩 早上 10:30 開店起 販售 周日不賣快篩
5921060321,慈安藥局,臺南市安南區大安街５３號,120.1919,23.03148,(06)2551117,羅氏家用新冠病毒抗原自我檢測套組,78,2022/05/06 08:58:02,下午2:00
5921060358,長青大藥局,臺南市安南區安和路一段９３號,120.2149,23.0278,(06)2812896,羅氏家用新冠病毒抗原自我檢測套組,76,2022/05/06 08:58:02,快篩到貨時間不定，收到後開始販賣，請先電話2812896詢問是否到貨，現場購買，無法電話預留，當日配額售完為止。
5921061604,泰赫中西藥局,臺南市安南區安中路４段７９號,120.1722,23.04956,(06)2562317,羅氏家用新冠病毒抗原自我檢測套組,1,2022/05/06 08:58:02,到貨就賣賣完為止
5921061668,新資生藥師藥局,臺南市安南區城北路５２號１樓,120.1309,23.06296,(06)2571153,羅氏家用新冠病毒抗原自我檢測套組,47,2022/05/06 08:58:02,星期一~星期六早上10-12發售
5921061757,宏恩藥局,臺南市安南區長溪路１段５２號,120.2118,23.03457,(06)2474513,羅氏家用新冠病毒抗原自我檢測套組,28,2022/05/06 08:58:02,即日起，快篩試劑平日早上8:30開賣，周日不營業，一人藥局，請勿再撥電話詢問，行車注意安全，謝謝
5921071226,康活藥局,臺南市安平區健康三街１８６號,120.1686,22.98883,(06)2936483,羅氏家用新冠病毒抗原自我檢測套組,6,2022/05/06 08:58:02,快篩晚上18:00開賣.
5921080010,羽田藥局,臺南市中西區府前路一段２１４號,120.205,22.98913,(06)2214066,羅氏家用新冠病毒抗原自我檢測套組,38,2022/05/06 08:58:02,週一至週六09:00起依序販售防疫口罩，售完為止
5922010361,壽生堂藥局,嘉義市東區府路里延平街２８０號,120.4502,23.47683,(05)2225058,羅氏家用新冠病毒抗原自我檢測套組,42,2022/05/06 08:58:02,周一至周日上午09:00起，至20:00或售鑿為止。
5922010736,全民藥局,嘉義市東區新店里林森東路２８９ 號,120.4665,23.49007,(05)2777900,羅氏家用新冠病毒抗原自我檢測套組,7,2022/05/06 08:58:02,實名制快篩試劑：週一至週六，早上 8：20開始販售。週日店休。
5922012552,德和藥局,嘉義市東區新生路７０３號１樓,120.4553,23.49526,(05)2789940,羅氏家用新冠病毒抗原自我檢測套組,5,2022/05/06 08:58:02,快篩試劑 星期1-6 早上8點開始販賣
5922012712,誠泰藥師藥局,嘉義市東區安寮里興業東路５６號１樓,120.4555,23.46932,(05)2168905,羅氏家用新冠病毒抗原自我檢測套組,20,2022/05/06 08:58:02,快篩實名制早上8點開始販售
5922012721,仁藥集藥局,嘉義市東區太平里新生路５３９號,120.4582,23.49167,(05)2755533,羅氏家用新冠病毒抗原自我檢測套組,73,2022/05/06 08:58:02,8:30-11:00收健保卡，14:00發快篩
5922012874,德風藥局,嘉義市東區仁義里台林街１０８－４號１樓,120.4547,23.49514,(05)2716233,羅氏家用新冠病毒抗原自我檢測套組,27,2022/05/06 08:58:02,當日收到試劑即開賣 售完為止
5922012972,百佑藥局,嘉義市東區公明路８２號１樓,120.4602,23.48088,(05)2757387,羅氏家用新冠病毒抗原自我檢測套組,26,2022/05/06 08:58:02,固定周一至周六08:30開始*貨運*來才發放號碼牌並依序販售，售完為止
5922013059,杏光藥局,嘉義市東區保健街１４７號附４,120.4492,23.50036,(05)2745642,羅氏家用新冠病毒抗原自我檢測套組,2,2022/05/06 08:58:02,週一至週五 下午1:00~5:00 （六日及國定假日停售）
5922013148,後庄弘安藥局,嘉義市東區吳鳳南路２９８號１樓,120.4587,23.4566,(05)2305678,羅氏家用新冠病毒抗原自我檢測套組,20,2022/05/06 08:58:02,無
5922013175,森活中西藥局,嘉義市東區吳鳳北路２０８號一樓,120.4533,23.47931,(05)2288518,羅氏家用新冠病毒抗原自我檢測套組,4,2022/05/06 08:58:02,8:30開始發放號碼牌，12:00~14:00領取快篩
5922020063,弘安藥局,嘉義市西區文化路２７７號,120.4486,23.48383,(05)2259000,羅氏家用新冠病毒抗原自我檢測套組,8,2022/05/06 08:58:02,營業時間 08:00-22:00 週一~週日販售快篩時間08:00-售罄；請自備零錢（面額500、1000不找零）
5922020125,照安藥局,嘉義市西區福全里博愛路２段３６１號,120.435,23.47573,(05)2332883,羅氏家用新冠病毒抗原自我檢測套組,78,2022/05/06 08:58:02,口罩代售時間於08：00開始販售；現場。
5922020358,泰春藥局,嘉義市西區學圃里民生北路６６號,120.4468,23.47543,(05)2224118,羅氏家用新冠病毒抗原自我檢測套組,32,2022/05/06 08:58:02,快篩試劑販售時間：早上9點至晚上9點
5922020376,勝華藥局,嘉義市西區垂楊路６２３號,120.4375,23.4726,(05)2856642,羅氏家用新冠病毒抗原自我檢測套組,2,2022/05/06 08:58:02,週一至週六早上 8:00開始販售口罩.週日休息.
5922020509,全德藥局,嘉義市西區福民里興業西路２８９號,120.4392,23.46776,(05)2854263,羅氏家用新冠病毒抗原自我檢測套組,66,2022/05/06 08:58:02,營業時間請電話洽詢  販售：19 :30~20:30
5922020518,永安藥局,嘉義市西區西平里信義路４９之１號,120.4344,23.47431,(05)2358368,羅氏家用新冠病毒抗原自我檢測套組,17,2022/05/06 08:58:02,口罩：星期一至星期日9點販售，售完為止，現場排隊
5922020581,杏安藥局,嘉義市西區書院里民族路７８６號,120.4409,23.47535,(05)2271727,羅氏家用新冠病毒抗原自我檢測套組,65,2022/05/06 08:58:02,無
5922020661,大正藥局,嘉義市西區書院里民族路７０２號,120.4435,23.47554,(05)2285812,羅氏家用新冠病毒抗原自我檢測套組,6,2022/05/06 08:58:02,早上8:00開始販售~售完為止 !
5922020670,興嘉藥局,嘉義市西區興業西路３７０號,120.4373,23.46793,(05)2841812,羅氏家用新冠病毒抗原自我檢測套組,30,2022/05/06 08:58:02,固定週一至週日8:15開放領取口罩，至售完為止
5922020689,齊悅藥局,嘉義市西區西平里玉山路１４５號１樓,120.4274,23.47221,(05)2843514,羅氏家用新冠病毒抗原自我檢測套組,1,2022/05/06 08:58:02,星期一至星期六，星期日休息，早上九點開賣售完為止
5922020769,安麗藥師藥局,嘉義市西區車店里廣州街２０６號,120.4302,23.46519,(05)2352395,羅氏家用新冠病毒抗原自我檢測套組,74,2022/05/06 08:58:02,快篩販售時間上午9點~11點，六.日休息。
5922020812,海鴻藥師藥局,嘉義市西區民生南路５５２號,120.4433,23.45878,(05)2837758,羅氏家用新冠病毒抗原自我檢測套組,27,2022/05/06 08:58:02,固定每日上午8 : 00 直接排隊發放
5922020938,仁愛弘安藥局,嘉義市西區仁愛路３９３號１樓,120.442,23.47654,(05)2239000,羅氏家用新冠病毒抗原自我檢測套組,25,2022/05/06 08:58:02,收到快篩即開賣，賣完為止
5922020974,嚴昔志藥局,嘉義市西區新民路７８５號１樓,120.4396,23.4706,(05)2853991,羅氏家用新冠病毒抗原自我檢測套組,1,2022/05/06 08:58:02,無
5922028596,一安藥局,嘉義市西區福民里興業西路３１１號,120.4387,23.4677,(05)2859275,羅氏家用新冠病毒抗原自我檢測套組,3,2022/05/06 08:58:02,周一至周日早上9點至晚上10點半依發放號碼排依序售完
5922028783,勝成藥局,嘉義市西區南京路１２６巷１９號,120.4406,23.45687,(05)2360247,羅氏家用新冠病毒抗原自我檢測套組,53,2022/05/06 08:58:02,4月28日起9:30至12:00販賣快篩試劑，請於現場排隊，售完為止
5922028925,健安藥局,嘉義市西區民族路６２６號,120.4452,23.4757,(05)2281219,羅氏家用新冠病毒抗原自我檢測套組,62,2022/05/06 08:58:02,口罩:星期一至星期六9點-12點，15點-21點
592202A054,萬泰藥師藥局,嘉義市西區民族路４９４號,120.449,23.47605,(05)2168605,羅氏家用新冠病毒抗原自我檢測套組,35,2022/05/06 08:58:02,快篩實名制8:00開始販售
592202A349,力健藥局,嘉義市西區文化路５９１號,120.4443,23.49355,(05)2323217,羅氏家用新冠病毒抗原自我檢測套組,19,2022/05/06 08:58:02,營業時間為早上8:00至中午13:00，下午2:30至晚上9:30，口罩發放從早上8:30至售完為止
592202A358,國豐藥局,嘉義市西區北興街２４５－２號１樓,120.4386,23.4854,(05)2318473,羅氏家用新冠病毒抗原自我檢測套組,78,2022/05/06 08:58:02,快篩販賣時間:上午10:00開始販賣
592202A465,廣元藥局,嘉義市西區民安里中正路６９７號,120.4421,23.47842,(05)2252733,羅氏家用新冠病毒抗原自我檢測套組,22,2022/05/06 08:58:02,5／6（五）起，實名制篩早上8:30開賣~售完為止!
5931010217,皇安藥局,新北市板橋區中山路２段２４１號,121.4772,25.01757,(02)29524089,羅氏家用新冠病毒抗原自我檢測套組,78,2022/05/06 08:58:02,快篩星期一三五單號，星期二四號雙號
5931010315,優良藥局,新北市板橋區莊敬路９３號,121.4727,25.02628,(02)22550251,羅氏家用新冠病毒抗原自我檢測套組,107,2022/05/06 08:58:02,無
5931010342,宏達大藥局,新北市板橋區莒光路１７號,121.47,25.02478,(02)22572345,羅氏家用新冠病毒抗原自我檢測套組,156,2022/05/06 08:58:02,快篩 晚上20:00開始販售! 不要打電話來 問題這麼多就到現場 也不給你問
5931010397,正成藥師藥局,新北市板橋區三民路２段１５４巷７號,121.4787,25.01515,(02)29512760,羅氏家用新冠病毒抗原自我檢測套組,156,2022/05/06 08:58:02,無
5931010646,人民藥局,新北市板橋區仁愛路５９號,121.4604,24.99965,(02)89533956,羅氏家用新冠病毒抗原自我檢測套組,75,2022/05/06 08:58:02,1.依政府規定當日配送，當日販售。2.因每日郵局配送時間不一定，詳看現場公告。.
5931011009,祥聖藥局,新北市板橋區溪崑二街１１２巷３５弄１號,121.4253,24.98921,(02)26835677,羅氏家用新冠病毒抗原自我檢測套組,78,2022/05/06 08:58:02,下午1:30 販售（視快篩劑送到時間，而滾動式調整販售時間）。星期日休息。
5931011223,民侑藥局,新北市板橋區大觀路２段３７巷３１０號,121.45,25.00221,(02)22755938,羅氏家用新冠病毒抗原自我檢測套組,78,2022/05/06 08:58:02,快篩號碼牌發放時間為早上9點。12點前須拿號碼牌完成購買。
5931011250,錦龍藥局,新北市板橋區長安街１３８巷１弄１１４號,121.4743,25.0103,(02)29522290,羅氏家用新冠病毒抗原自我檢測套組,21,2022/05/06 08:58:02,週一至周日早上8:30~開始發售， 售完為止。
5931011438,萬壽藥局,新北市板橋區四川路１段２５１號,121.4599,25.00256,(02)29617476,羅氏家用新冠病毒抗原自我檢測套組,76,2022/05/06 08:58:02,快篩販售時間:星期一~星期六早上9:00~晚上10:00 星期日視物流到貨時間為準
5931011474,新欣藥局,新北市板橋區金門街１２８號,121.4328,24.99117,(02)26828061,羅氏家用新冠病毒抗原自我檢測套組,77,2022/05/06 08:58:02,實名制快篩每日上午9:00開始販售售完為止 星期日公休
5931011545,眾安大藥局,新北市板橋區長安街３３１巷７８號,121.4724,25.01305,(02)29550742,羅氏家用新冠病毒抗原自我檢測套組,78,2022/05/06 08:58:02,快篩販賣時間為週一至週六早上九點起.賣完為止
5931011938,正吉藥局,新北市板橋區莊敬路２４１號（１樓）,121.473,25.02154,(02)22595183,羅氏家用新冠病毒抗原自我檢測套組,58,2022/05/06 08:58:02,快篩早上9點開始，有配送就有，沒配送就沒有
5931011947,長弘藥局,新北市板橋區龍泉街１１０號,121.4568,25.02454,(02)22558789,羅氏家用新冠病毒抗原自我檢測套組,36,2022/05/06 08:58:02,無
5931012042,喬治藥局,新北市板橋區國慶路１５５號１樓,121.4616,24.99617,(02)29630787,羅氏家用新冠病毒抗原自我檢測套組,78,2022/05/06 08:58:02,網路數量不準。13:00開賣，如排隊人數過半，將提早開始販售。星期日公休無販售
5931012051,全曜藥局,新北市板橋區民權路２６０巷６２號,121.4603,25.01495,(02)29682681,羅氏家用新冠病毒抗原自我檢測套組,2,2022/05/06 08:58:02,實名制快篩下午七點發放，依現場數量為準（星期六.星期日休）
5931013361,長欣藥師藥局,新北市板橋區中山路２段５０５巷３６號,121.4821,25.02246,(02)29585308,羅氏家用新冠病毒抗原自我檢測套組,67,2022/05/06 08:58:02,無
5931013441,擎天藥局,新北市板橋區重慶路２３５號１樓,121.4632,25.0009,(02)89525981,羅氏家用新冠病毒抗原自我檢測套組,34,2022/05/06 08:58:02,每日到貨即開賣
5931013781,佳和藥局,新北市板橋區文化路１段３８７巷５號１樓,121.4667,25.02193,(02)22589598,羅氏家用新冠病毒抗原自我檢測套組,42,2022/05/06 08:58:02,快篩週一 至五均分早上8:30 和下午3:00販售- 週六早上售完為止. 週日休
5931014822,常仁藥局,新北市板橋區中正路１巷４號,121.4556,25.01197,(02)29674999,羅氏家用新冠病毒抗原自我檢測套組,63,2022/05/06 08:58:02,無
5931015687,正康健保藥局,新北市板橋區大觀路２段６５號１樓,121.4467,25.00246,(02)22756681,羅氏家用新冠病毒抗原自我檢測套組,78,2022/05/06 08:58:02,下午13:30依現場順序開始販售快篩，快篩配送絮亂庫存不準!!
5931015721,新進發大藥局,新北市板橋區大同街２４號１樓,121.4787,25.0275,(02)22593926,羅氏家用新冠病毒抗原自我檢測套組,71,2022/05/06 08:58:02,快篩上午10點開門即賣，排隊不發號碼
5931015874,家碩藥局,新北市板橋區金門街３００號,121.4289,24.98539,(02)26755715,羅氏家用新冠病毒抗原自我檢測套組,78,2022/05/06 08:58:02,快篩9點發號碼牌和收健保卡.中午12點至下午六點憑號碼牌領快篩和健保卡.
5931016237,幸福健保藥局,新北市板橋區四維路１０６號１樓,121.4657,25.02457,(02)22530009,羅氏家用新冠病毒抗原自我檢測套組,1,2022/05/06 08:58:02,無
5931016273,湯明藥局,新北市板橋區中山路２段３１９號１樓,121.479,25.01866,(02)29571980,羅氏家用新冠病毒抗原自我檢測套組,59,2022/05/06 08:58:02,無
5931016504,仁泰藥局,新北市板橋區四川路２段３３號１樓,121.4543,24.99537,(02)89672133,羅氏家用新冠病毒抗原自我檢測套組,60,2022/05/06 08:58:02,無
5931016611,民川藥局,新北市板橋區四川路１段９７號１樓,121.4598,25.00544,(02)29520090,羅氏家用新冠病毒抗原自我檢測套組,72,2022/05/06 08:58:02,星期一~星期六（快篩上午9:00販售38份下午3:00販售40份）
5931016719,王林藥局,新北市板橋區忠孝路２４巷１５號（１樓）,121.4602,25.00135,(02)29636775,羅氏家用新冠病毒抗原自我檢測套組,66,2022/05/06 08:58:02,表列調劑時間才有販售快篩試劑，週六及國定假日只有早上  ， 下午及晚上休息
5931016808,正安健保藥局,新北市板橋區民族路２２４號（１樓）,121.4687,25.00733,(02)29526813,羅氏家用新冠病毒抗原自我檢測套組,78,2022/05/06 08:58:02,17時依現場順序開始販售.週六12點.電腦配送庫存不準..以現場數量為準
5931016915,微笑藥局,新北市板橋區中正路２１１號,121.4561,25.0175,(02)29655811,羅氏家用新冠病毒抗原自我檢測套組,78,2022/05/06 08:58:02,無
5931017261,正康新埔藥局,新北市板橋區介壽街４號（１樓）,121.467,25.02025,(02)82595882,羅氏家用新冠病毒抗原自我檢測套組,78,2022/05/06 08:58:02,下午2:30依現場順序開始販售快篩。週日無快篩!
5931017396,美康四維藥局,新北市板橋區四維路１２２號１樓,121.4654,25.02499,(02)22506616,羅氏家用新冠病毒抗原自我檢測套組,78,2022/05/06 08:58:02,每天提供78份快篩 星期一.三.五單號 二.四.六雙號 星期日不限
5931017556,光鹽藥局,新北市板橋區中山路２段８４之２號（２樓）,121.4748,25.0161,(02)29552167,羅氏家用新冠病毒抗原自我檢測套組,29,2022/05/06 08:58:02,無
5931017636,福澤藥局,新北市板橋區南雅南路１段８５號（１樓）,121.4556,25.00543,(02)29690013,羅氏家用新冠病毒抗原自我檢測套組,78,2022/05/06 08:58:02,口罩代售9:00-23:00
5931017654,葆康藥局,新北市板橋區四川路２段２４５巷３號（１樓）,121.4507,24.99346,(02)89678373,羅氏家用新冠病毒抗原自我檢測套組,78,2022/05/06 08:58:02,下午四點開始販售實名制快篩，不用抽號碼牌，直接排隊購買。
5931017681,浣熊藥局,新北市板橋區中正路３０１號（１樓）,121.4552,25.01954,(02)29650355,羅氏家用新冠病毒抗原自我檢測套組,1,2022/05/06 08:58:02,無
5931017869,躍獅國慶藥局,新北市板橋區國慶路１７９號（１樓）,121.4626,24.99636,(02)29641548,羅氏家用新冠病毒抗原自我檢測套組,156,2022/05/06 08:58:02,快篩實名制，每天14:00開始販售，售完為止
5931017903,吉發藥局,新北市板橋區文化路１段１８８巷５弄１５號（１樓）,121.4674,25.01986,(02)22577381,羅氏家用新冠病毒抗原自我檢測套組,63,2022/05/06 08:58:02,無
5931017976,豐禾藥局,新北市板橋區中山路１段２７９號１樓,121.4696,25.0142,(02)89516666,羅氏家用新冠病毒抗原自我檢測套組,63,2022/05/06 08:58:02,快篩試劑販售時間為上午9:00~10:30，下午3:00~4:30。若上午售完，下午即停止販售。
5931018106,力安藥局,新北市板橋區莒光路１９６巷８號（１樓）,121.4738,25.02255,(02)22503349,羅氏家用新冠病毒抗原自我檢測套組,121,2022/05/06 08:58:02,快篩實名制，早上9點依現場順序開始販售快篩，售完為止。
5931020400,新迪化中西藥局,新北市三重區三陽路２７號１樓,121.4855,25.05893,(02)29884755,羅氏家用新冠病毒抗原自我檢測套組,78,2022/05/06 08:58:02,快篩實名制中午12點開始販售，發號碼牌
5931020428,久泰藥局,新北市三重區仁愛街３６號,121.4964,25.07193,(02)29735880,羅氏家用新冠病毒抗原自我檢測套組,51,2022/05/06 08:58:02,無
5931020464,合眾藥局,新北市三重區文化北路１０２巷３９號,121.4972,25.06597,(02)29897379,羅氏家用新冠病毒抗原自我檢測套組,16,2022/05/06 08:58:02,實名制快篩，販售時間：請搜尋「合眾藥局臉書粉絲專頁」!!
5931020562,力健藥局,新北市三重區自強路３段３８號,121.4868,25.07266,(02)29856255,羅氏家用新冠病毒抗原自我檢測套組,74,2022/05/06 08:58:02,無
5931020599,德林藥局,新北市三重區中正北路５７２號,121.4705,25.07205,(02)29832019,羅氏家用新冠病毒抗原自我檢測套組,78,2022/05/06 08:58:02,無
5931021167,禮隆藥局,新北市三重區自強路４段６４號,121.4901,25.07853,(02)29894735,羅氏家用新冠病毒抗原自我檢測套組,48,2022/05/06 08:58:02,快篩試劑早上九點開始發號碼牌，發完為止
5931021532,龍門藥局,新北市三重區龍門路１８９號,121.4996,25.07322,(02)29756141,羅氏家用新冠病毒抗原自我檢測套組,145,2022/05/06 08:58:02,實名制快篩販售時間~星期一至星期六下午3點
5931023018,重德藥局,新北市三重區正義北路２４６號２樓,121.496,25.06827,(02)89816164,羅氏家用新冠病毒抗原自我檢測套組,42,2022/05/06 08:58:02,無
5931023447,安泰藥局,新北市三重區正義北路３００－３號２樓,121.4953,25.06978,(02)89815379,羅氏家用新冠病毒抗原自我檢測套組,78,2022/05/06 08:58:02,5／2只有早上8:30--12:00營業下午.及晚上休息
5931023527,德慈藥局,新北市三重區重新路３段１６號１樓,121.4951,25.06138,(02)29736693,羅氏家用新冠病毒抗原自我檢測套組,69,2022/05/06 08:58:02,快篩試劑販售時間自每日13:00開始
5931024097,義榮藥局,新北市三重區三和路２段１４２號１樓,121.4995,25.06825,(02)29727598,羅氏家用新冠病毒抗原自我檢測套組,119,2022/05/06 08:58:02,快篩早上09:10發放10:00發完結束 每周日公休停止發放
5931024168,合康健保藥局,新北市三重區三和路４段３８４號１樓,121.4824,25.0789,(02)22869999,羅氏家用新冠病毒抗原自我檢測套組,91,2022/05/06 08:58:02,快篩試劑販售時間每日早上0845
5931024515,陳藥局,新北市三重區三民街７７號,121.4858,25.06293,(02)29848601,羅氏家用新冠病毒抗原自我檢測套組,76,2022/05/06 08:58:02,實名制快篩每日78人份販售時間: 周一到五 晚上7:30~9:00，週六 下午4:00~5:30現場購買沒有發號碼牌，星期天公休
5931024588,陽光藥師藥局,新北市三重區三和路２段１８２號１樓,121.4987,25.06886,(02)29788120,羅氏家用新冠病毒抗原自我檢測套組,136,2022/05/06 08:58:02,無
5931024873,捷元健保藥局,新北市三重區三賢街１８５號１樓,121.4863,25.08731,(02)82877107,羅氏家用新冠病毒抗原自我檢測套組,60,2022/05/06 08:58:02,快篩9:00開賣 每周日公休不販售
5931024908,力行德榮藥局,新北市三重區力行路２段１７０號１樓,121.483,25.07699,(02)22867170,羅氏家用新冠病毒抗原自我檢測套組,4,2022/05/06 08:58:02,星期一到星期五早上八點半.星期六.十二點十分.星期日以現場告為主
5931024962,建祥三和藥局,新北市三重區三和路２段１６０號１樓,121.4992,25.06853,(02)29703379,羅氏家用新冠病毒抗原自我檢測套組,78,2022/05/06 08:58:02,實名制快篩10:00發放號碼牌
5931025174,小林健保藥局,新北市三重區文化北路６１－１號１樓,121.4987,25.0663,(02)29763895,羅氏家用新冠病毒抗原自我檢測套組,3,2022/05/06 08:58:02,快篩販售時間公告於「小林健保藥局」粉絲專頁
5931025398,昌誠藥局,新北市三重區三和路４段１６１號１樓,121.4835,25.0785,(02)22876338,羅氏家用新冠病毒抗原自我檢測套組,56,2022/05/06 08:58:02,5／2 （休診）
5931025549,吉康健保藥局,新北市三重區三民街２７９號１樓,121.4791,25.06821,(02)89810122,羅氏家用新冠病毒抗原自我檢測套組,65,2022/05/06 08:58:02,5／3（二） 已到貨，請憑號碼牌取貨
5931025656,煜安健保藥局,新北市三重區光明路２３號１樓,121.4912,25.05856,(02)29768128,羅氏家用新冠病毒抗原自我檢測套組,51,2022/05/06 08:58:02,國定假日執行調劑業務
5931025692,杏一三重集成藥局,新北市三重區集成路４３號１樓,121.4893,25.05271,(02)29743410,羅氏家用新冠病毒抗原自我檢測套組,177,2022/05/06 08:58:02,5／5 暫停販售  5／6下午三點開始發放號碼牌
5931025781,芯慈藥局,新北市三重區永安北路２段１０５號１樓,121.4831,25.08392,(02)28570670,羅氏家用新冠病毒抗原自我檢測套組,6,2022/05/06 08:58:02,國定假日有提供藥劑服務
5931030013,皇誼藥局,新北市永和區文化路３３號,121.5147,25.01499,(02)29278732,羅氏家用新冠病毒抗原自我檢測套組,76,2022/05/06 08:58:02,無
5931032099,德和便利藥局,新北市永和區得和路１９４號１樓,121.5201,24.99963,(02)89431417,羅氏家用新冠病毒抗原自我檢測套組,78,2022/05/06 08:58:02,營業時間為9：00~22：00（下午1點~3點休息）5／5實名制快篩完售， 5／6早上9:00販售
5931032811,華特健康藥局,新北市永和區永貞路３６２號１樓,121.5102,25.00667,(02)29264391,羅氏家用新冠病毒抗原自我檢測套組,16,2022/05/06 08:58:02,快篩販賣時間13:00-15:00
5931033103,皇家藥師藥局,新北市永和區中正路７２０號１樓,121.5158,25.01017,(02)89216867,羅氏家用新冠病毒抗原自我檢測套組,74,2022/05/06 08:58:02,無
5931033185,偉凱藥局,新北市永和區永元路６號１樓,121.522,25.00007,(02)29242595,羅氏家用新冠病毒抗原自我檢測套組,19,2022/05/06 08:58:02,無
5931033345,御生藥局,新北市永和區中山路１段２７９號１樓,121.5071,25.00706,(02)29235658,羅氏家用新冠病毒抗原自我檢測套組,77,2022/05/06 08:58:02,販賣快篩試劑時間  週一~週五  早上九點
5931033461,常安中西藥局,新北市永和區保平路２６號１樓,121.5122,25.00749,(02)29283530,羅氏家用新冠病毒抗原自我檢測套組,2,2022/05/06 08:58:02,每日下午三點開始實名制快篩
5931033523,永奕藥局,新北市永和區永平路２８６之１號１樓,121.5077,25.01208,(02)22327709,羅氏家用新冠病毒抗原自我檢測套組,18,2022/05/06 08:58:02,無
5931033603,安安藥局,新北市永和區竹林路２０３號１樓,121.5209,25.00911,(02)89263651,羅氏家用新冠病毒抗原自我檢測套組,37,2022/05/06 08:58:02,實名制快篩每日上午10點現場排隊過卡.不發號碼牌；營業時間9:30-21:30
5931033621,永正健康人生藥局,新北市永和區中正路１９１、１９３號１樓、１９７號２樓,121.5171,24.99931,(02)29467351,羅氏家用新冠病毒抗原自我檢測套組,78,2022/05/06 08:58:02,實名制快篩9點開賣
5931034039,叁品藥局,新北市永和區秀朗路２段１１８號１樓,121.5244,25.00152,(02)29208800,羅氏家用新冠病毒抗原自我檢測套組,30,2022/05/06 08:58:02,實名制快篩 下午一點發放號碼牌
5931034084,柏愛藥局,新北市永和區竹林路５７號１樓,121.5183,25.01386,(02)89285609,羅氏家用新冠病毒抗原自我檢測套組,78,2022/05/06 08:58:02,實名制快篩每日0930開賣.國定假日營業時間0900-1700
5931034093,順儷中正藥局,新北市永和區中正路１１號１樓,121.514,24.99578,(02)86685058,羅氏家用新冠病毒抗原自我檢測套組,78,2022/05/06 08:58:02,國定假日仍執行調劑業務
5931034128,富康活力永和藥局,新北市永和區中和路４２９號１樓,121.5094,25.00093,(02)29263191,羅氏家用新冠病毒抗原自我檢測套組,116,2022/05/06 08:58:02,無
5931034146,亮點藥局,新北市永和區竹林路７１號１樓,121.5186,25.01355,(02)89253895,羅氏家用新冠病毒抗原自我檢測套組,95,2022/05/06 08:58:02,快篩發放時段 下午16:30-18:00
5931034208,正銨藥局,新北市永和區得和路２４７－１號（１樓）,121.5206,25.00009,(02)29288100,羅氏家用新冠病毒抗原自我檢測套組,59,2022/05/06 08:58:02,星期1~6下午1:45發號碼牌.星期日休息
5931040215,華新藥局,新北市中和區華新街７３號,121.5082,24.98392,(02)29448345,羅氏家用新冠病毒抗原自我檢測套組,78,2022/05/06 08:58:02,無
5931040224,欣祥藥局,新北市中和區民德路７４－１號,121.4687,25.00163,(02)29646442,羅氏家用新冠病毒抗原自我檢測套組,72,2022/05/06 08:58:02,每日早上9點30分，販售快篩。若有異動以現場公告為主 .
5931040242,天立藥局,新北市中和區莒光路１２２號,121.4724,25.00173,(02)29578831,羅氏家用新冠病毒抗原自我檢測套組,3,2022/05/06 08:58:02,於下午15:00憑健保卡（一人一卡）購買實名制快篩。
5931040617,田邊藥局,新北市中和區泰和街４３號１樓,121.4991,24.99942,(02)22407725,羅氏家用新冠病毒抗原自我檢測套組,78,2022/05/06 08:58:02,W1~W6 下午1點發售快篩 （5／1 晚上7點開始發售快篩）
5931040662,仙正藥局,新北市中和區福美路３０９號,121.4969,25.00472,(02)22494081,羅氏家用新冠病毒抗原自我檢測套組,78,2022/05/06 08:58:02,無
5931042282,慈光藥局,新北市中和區南山路１１７號,121.5021,24.99737,(02)22407700,羅氏家用新冠病毒抗原自我檢測套組,68,2022/05/06 08:58:02,實名制快篩早上9:00販賣
5931042326,璟福藥局,新北市中和區安平路７６號１樓,121.511,24.99652,(02)29408669,羅氏家用新冠病毒抗原自我檢測套組,33,2022/05/06 08:58:02,無
5931042648,恩溢藥局,新北市中和區復興路７９號１樓.２樓,121.5035,24.9902,(02)22452450,羅氏家用新冠病毒抗原自我檢測套組,3,2022/05/06 08:58:02,無
5931042853,正陽藥師藥局,新北市中和區連城路３５４號１樓,121.4822,24.99557,(02)82287336,羅氏家用新冠病毒抗原自我檢測套組,78,2022/05/06 08:58:02,早上9:00開始販售實名制，售完為止
5931043109,育新藥局,新北市中和區中安街４０巷６號,121.5127,25.00305,(02)29283479,羅氏家用新冠病毒抗原自我檢測套組,58,2022/05/06 08:58:02,週一、二、三、五、六早上八點開始販售，售完為止（四、日無販賣）
5931043234,康荃優生保健藥局,新北市中和區福祥路６６號１樓,121.4994,25.00494,(02)22486532,羅氏家用新冠病毒抗原自我檢測套組,3,2022/05/06 08:58:02,無
5931043369,泰泰健保藥局,新北市中和區德光路９７號,121.4685,25.00329,(02)89642049,羅氏家用新冠病毒抗原自我檢測套組,64,2022/05/06 08:58:02,無
5931043529,新雙和藥師藥局,新北市中和區中正路２８１－８號１樓,121.4943,24.99374,(02)22404276,羅氏家用新冠病毒抗原自我檢測套組,42,2022/05/06 08:58:02,無
5931043565,一安藥妝藥局,新北市中和區中和路９號１.２樓,121.4998,25.00221,(02)22483778,羅氏家用新冠病毒抗原自我檢測套組,11,2022/05/06 08:58:02,下午3點開始發號碼牌販售快篩
5931043627,銓家藥局,新北市中和區員山路３１９號１-２樓,121.4812,25.0006,(02)22257728,羅氏家用新冠病毒抗原自我檢測套組,63,2022/05/06 08:58:02,實名制快篩 下午3點販售 前15分鐘發號碼牌
5931043798,永成藥局,新北市中和區景平路１５６號１樓,121.5176,24.99222,(02)29407619,羅氏家用新冠病毒抗原自我檢測套組,78,2022/05/06 08:58:02,實名制快篩，下午三點領取號碼並開始販售（每日78份）
5931043921,良安藥局,新北市中和區連城路４７７巷１號１樓,121.4833,24.99555,(02)22225798,羅氏家用新冠病毒抗原自我檢測套組,42,2022/05/06 08:58:02,週六日不開店，實名制快篩，晚上9:00開始販售
5931044044,宥元藥局,新北市中和區德光路６２號１樓,121.4696,25.00398,(02)89535473,羅氏家用新冠病毒抗原自我檢測套組,45,2022/05/06 08:58:02,週一至周六10:30-22:00發放口罩
5931044133,康富力藥局,新北市中和區仁愛街３２號１樓,121.5109,24.98843,(02)29429896,羅氏家用新冠病毒抗原自我檢測套組,78,2022/05/06 08:58:02,快篩代售時間：周一至周五9:30、週六14:00
5931044277,維康藥局雙和店,新北市中和區圓通路２５２號１樓,121.4938,24.9913,(02)22431962,羅氏家用新冠病毒抗原自我檢測套組,40,2022/05/06 08:58:02,星期天不發放防疫口罩!
5931044580,躍獅天晴藥局,新北市中和區和平街９號１樓,121.5095,24.99025,(02)29491931,羅氏家用新冠病毒抗原自我檢測套組,156,2022/05/06 08:58:02,無
5931044660,吉佑藥局,新北市中和區大勇街３４號１樓,121.5174,24.99345,(02)89416539,羅氏家用新冠病毒抗原自我檢測套組,78,2022/05/06 08:58:02,無
5931044768,民樂健保藥局,新北市中和區員山路２２６巷３弄５號１樓,121.4817,25.00103,(02)22228999,羅氏家用新冠病毒抗原自我檢測套組,52,2022/05/06 08:58:02,13:30-16:00
5931044786,坤暉藥局,新北市中和區中山路３段９４號２樓,121.4774,25.00583,(02)82217939,羅氏家用新冠病毒抗原自我檢測套組,41,2022/05/06 08:58:02,口罩發售時間早上9:00到11:00
5931044820,禾心藥局,新北市中和區秀朗路３段６４號１樓,121.5242,24.99482,(02)86688922,羅氏家用新冠病毒抗原自我檢測套組,2,2022/05/06 08:58:02,實名制快篩開門及販售，售完為止
5931044884,壹品藥局,新北市中和區福祥路５５號１樓,121.4992,25.00474,(02)22481818,羅氏家用新冠病毒抗原自我檢測套組,69,2022/05/06 08:58:02,實名制快篩下午1點發放號碼牌
5931044973,佳禾藥局,新北市中和區自立路３２號１樓,121.5226,24.9928,(02)29428989,羅氏家用新冠病毒抗原自我檢測套組,66,2022/05/06 08:58:02,快篩資訊 每天早上9點發號碼牌同時開始販售
5931044982,萊恩藥局,新北市中和區景安路２０９號１樓,121.5046,24.99192,(02)29468395,羅氏家用新冠病毒抗原自我檢測套組,49,2022/05/06 08:58:02,每週星期一到星期六（星期天依店內公告），早上9點發號碼牌押健保卡，12點後領取快篩
5931044991,曜群藥局,新北市中和區景安路２５號１樓,121.5079,24.99893,(02)89432206,羅氏家用新冠病毒抗原自我檢測套組,3,2022/05/06 08:58:02,週一至周六早上8:30販售實名制快篩
5931045210,廣來藥師藥局,新北市中和區員山路３９３號１樓,121.4811,25.00293,(02)32340393,羅氏家用新冠病毒抗原自我檢測套組,78,2022/05/06 08:58:02,星期一到星期日，上午11點到中午12點為止。
5931045416,信毅藥局,新北市中和區捷運路５６號１樓,121.5081,24.99078,(02)29423663,羅氏家用新冠病毒抗原自我檢測套組,1,2022/05/06 08:58:02,無
5931045425,千樂台安藥局,新北市中和區安樂路１０１之２號１、２樓及１０１之３號１、２樓,121.5134,24.99526,(02)29406029,羅氏家用新冠病毒抗原自我檢測套組,107,2022/05/06 08:58:02,無
5931050444,活元藥局,新北市新店區民族路４９號１樓,121.5403,24.97854,(02)29125526,羅氏家用新冠病毒抗原自我檢測套組,78,2022/05/06 08:58:02,快篩代售時間平日早上10:00開始   星期日休息
5931051790,家得福藥局,新北市新店區安康路２段１２３號１樓,121.5125,24.96129,(02)22118346,羅氏家用新冠病毒抗原自我檢測套組,78,2022/05/06 08:58:02,無
5931052288,躍獅正新藥局,新北市新店區中正路５７之１號１樓,121.5443,24.96989,(02)89145930,羅氏家用新冠病毒抗原自我檢測套組,82,2022/05/06 08:58:02,星期一至六13:00-20:00為領取口罩時間，20:00後將不發放
5931052368,正安藥局,新北市新店區明德路５０號１樓,121.5418,24.97854,(02)29115809,羅氏家用新冠病毒抗原自我檢測套組,1,2022/05/06 08:58:02,快篩早上8:30開賣，不發號碼牌，不找零
5931052608,佑成藥局,新北市新店區民權路１０１號１樓,121.537,24.98281,(02)86673537,羅氏家用新冠病毒抗原自我檢測套組,78,2022/05/06 08:58:02,下午四點發快篩
5931052644,杏運草藥局,新北市新店區北新路１段１９號１樓,121.5378,24.95902,(02)89115998,羅氏家用新冠病毒抗原自我檢測套組,10,2022/05/06 08:58:02,【快篩：週一至週六，早上8點半現場排隊】本月星期天公休
5931052715,陽光健康藥局,新北市新店區安民街２１４號,121.5174,24.9722,(02)22123919,羅氏家用新冠病毒抗原自我檢測套組,78,2022/05/06 08:58:02,實名制快篩於早上9點開始販售  以現場排隊為主
5931052984,北一藥師藥局,新北市新店區北新路２段１６０號１樓、２樓,121.5431,24.97563,(02)89115686,羅氏家用新冠病毒抗原自我檢測套組,11,2022/05/06 08:58:02,14:30發完號碼牌即發口罩，勿持號碼牌離開，叫號未到視同放棄
5931053070,美康中正藥局,新北市新店區中正路２１５號１、２樓,121.5397,24.97284,(02)29112669,羅氏家用新冠病毒抗原自我檢測套組,78,2022/05/06 08:58:02,無號牌.自主排隊.自主管理.快篩 1430-2200 唷~
5931053123,大吉藥局,新北市新店區中正路３０號１樓,121.5452,24.96977,(02)29110151,羅氏家用新冠病毒抗原自我檢測套組,77,2022/05/06 08:58:02,實名制快篩，早上0905開賣，現場排隊販售，賣完為止。六日【無】販售
5931053169,貳品藥局,新北市新店區新和街７５號１樓,121.5205,24.98612,(02)89418890,羅氏家用新冠病毒抗原自我檢測套組,78,2022/05/06 08:58:02,實名制快篩下午一點半依排隊順序發售
5931053267,富康活力惠國藥局,新北市新店區中正路７８號１樓,121.5439,24.97036,(02)29100066,羅氏家用新冠病毒抗原自我檢測套組,39,2022/05/06 08:58:02,實名制快篩，若當日有貨販售，於8:00準時開賣，請攜帶健保卡／居留證，謝謝您。
5931053276,富康活力新店藥局,新北市新店區中正路２２１號（１樓）,121.5396,24.97293,(02)29101111,羅氏家用新冠病毒抗原自我檢測套組,47,2022/05/06 08:58:02,無
5931060217,富國藥局,新北市新莊區富國路３１號,121.4189,25.02645,(02)29039334,羅氏家用新冠病毒抗原自我檢測套組,78,2022/05/06 08:58:02,即日期實名制快篩早上9:00販售，現場排隊，不發號碼牌
5931060262,明生藥局,新北市新莊區福樂街１３號,121.4578,25.04504,(02)29913260,羅氏家用新冠病毒抗原自我檢測套組,57,2022/05/06 08:58:02,無
5931060431,武田藥局,新北市新莊區化成路２１２號,121.4657,25.0465,(02)29944029,羅氏家用新冠病毒抗原自我檢測套組,1,2022/05/06 08:58:02,無
5931060628,錄新藥局,新北市新莊區後港一路７６巷１０弄１號,121.427,25.02604,(02)22051849,羅氏家用新冠病毒抗原自我檢測套組,233,2022/05/06 08:58:02,無
5931060682,勝安藥局,新北市新莊區中正路３３４巷２３號１樓,121.4456,25.03585,(02)29963394,羅氏家用新冠病毒抗原自我檢測套組,69,2022/05/06 08:58:02,無
5931060815,祐全大藥局,新北市新莊區建安街８８號,121.4262,25.02423,(02)22026008,羅氏家用新冠病毒抗原自我檢測套組,96,2022/05/06 08:58:02,快篩代售時間:10:00；現場排隊售完為止.週日不營業
5931060824,禮安藥師藥局,新北市新莊區自立街１０９號１樓,121.4555,25.0455,(02)29942891,羅氏家用新冠病毒抗原自我檢測套組,1,2022/05/06 08:58:02,無
5931067403,建嘉藥局,新北市新莊區中誠街４２號１樓,121.4513,25.04812,(02)29925261,羅氏家用新冠病毒抗原自我檢測套組,78,2022/05/06 08:58:02,無
5931067412,幸寧藥局,新北市新莊區福壽街８４巷１２號１樓,121.4588,25.04985,(02)29971150,羅氏家用新冠病毒抗原自我檢測套組,14,2022/05/06 08:58:02,快篩上午8點半開賣
5931067985,蘋果藥局,新北市新莊區八德街１０５號,121.4242,25.02112,(02)22053933,羅氏家用新冠病毒抗原自我檢測套組,7,2022/05/06 08:58:02,口罩代售時間自10:00開始過卡販售.
5931068722,庭安藥局,新北市新莊區民有里西盛街１７２號１樓,121.4281,25.01901,(02)22080528,羅氏家用新冠病毒抗原自我檢測套組,78,2022/05/06 08:58:02,早上9:30開始販售實名制快篩.賣完為止週日公休
5931069201,招安藥師藥局,新北市新莊區西盛街３３８號１樓,121.428,25.01436,(02)22085138,羅氏家用新冠病毒抗原自我檢測套組,9,2022/05/06 08:58:02,5／1 5／2 並無快篩試劑到貨 請勿來電或來店購買
5931069603,中信藥師藥局,新北市新莊區中信街８０號１樓,121.448,25.05311,(02)29969811,羅氏家用新冠病毒抗原自我檢測套組,80,2022/05/06 08:58:02,AM 07:30 開始
5931069774,真安綜合大藥局,新北市新莊區四維路２０５號１樓,121.4219,25.02037,(02)22026188,羅氏家用新冠病毒抗原自我檢測套組,45,2022/05/06 08:58:02,無
5931069792,宏泰藥局,新北市新莊區自信街３７號１樓,121.4543,25.04863,(02)29964649,羅氏家用新冠病毒抗原自我檢測套組,79,2022/05/06 08:58:02,無
593106A379,輔大美康藥局,新北市新莊區中正路５１０號之１，１樓,121.4341,25.03294,(02)29013056,羅氏家用新冠病毒抗原自我檢測套組,78,2022/05/06 08:58:02,實名制快篩9:20發號碼牌／9:30過卡+收費
593106A637,薇妮藥妝藥局,新北市新莊區民安路９９號１樓,121.4245,25.02524,(02)82010817,羅氏家用新冠病毒抗原自我檢測套組,54,2022/05/06 08:58:02,無
593106A646,薇妮雙鳳藥局,新北市新莊區雙鳳路２１號１樓,121.4167,25.02677,(02)29076993,羅氏家用新冠病毒抗原自我檢測套組,78,2022/05/06 08:58:02,無
