醫事機構代碼,醫事機構名稱,醫事機構地址,經度,緯度,醫事機構電話,廠牌項目,快篩試劑截至目前結餘存貨數量,來源資料時間,備註
2340170016,嘉義縣大埔鄉衛生所,嘉義縣大埔鄉大埔村５３－１號,120.5928,23.29397,(05)2521214,羅氏家用新冠病毒抗原自我檢測套組,78,2022/05/08 08:29:02,無
2340180012,嘉義縣阿里山鄉衛生所,嘉義縣阿里山鄉樂野村３鄰９７－２號,120.7019,23.4666,(05)2561573,羅氏家用新冠病毒抗原自我檢測套組,86,2022/05/08 08:29:02,無
2343210017,屏東縣佳冬鄉衛生所,屏東縣佳冬鄉六根村佳和路８７－１號,120.5496,22.41426,(08)8662018,羅氏家用新冠病毒抗原自我檢測套組,25,2022/05/08 08:29:02,無
2343240015,屏東縣滿州鄉衛生所,屏東縣滿州鄉滿州村中山路３１號,120.8381,22.01898,(08)8801279,羅氏家用新冠病毒抗原自我檢測套組,77,2022/05/08 08:29:02,無
2343250011,屏東縣枋山鄉衛生所,屏東縣枋山鄉枋山村枋山路９８號,120.6527,22.26464,(08)8761150,羅氏家用新冠病毒抗原自我檢測套組,7,2022/05/08 08:29:02,快篩試劑販售時間8點至10點，售完為止
2343270013,屏東縣霧台鄉衛生所,屏東縣霧台鄉霧台村神山巷６８號,120.7261,22.74989,(08)7902232,羅氏家用新冠病毒抗原自我檢測套組,47,2022/05/08 08:29:02,5／6 20份販售於禮納里公共服務中心一樓（下午2~4點）
2343280019,屏東縣瑪家鄉衛生所,屏東縣瑪家鄉北葉村風景巷８６號,120.6496,22.70801,(08)7991164,羅氏家用新冠病毒抗原自我檢測套組,5,2022/05/08 08:29:02,口罩販售時間:星期一至星期五8:30-12:00 13:00-16:30
2343290015,屏東縣泰武鄉衛生所,屏東縣泰武鄉佳平村１７９號,120.6327,22.59212,(08)7832059,羅氏家用新冠病毒抗原自我檢測套組,56,2022/05/08 08:29:02,4／2-4／5門診照常
2343300016,屏東縣來義鄉衛生所,屏東縣來義鄉古樓村中正路９０號,120.632,22.52584,(08)7850103,羅氏家用新冠病毒抗原自我檢測套組,16,2022/05/08 08:29:02,無
2343330014,屏東縣牡丹鄉衛生所,屏東縣牡丹鄉石門村１９號,120.7469,22.10105,(08)8831013,羅氏家用新冠病毒抗原自我檢測套組,73,2022/05/08 08:29:02,無
2344011036,澎湖縣馬公市第三衛生所,澎湖縣馬公市西文里１１８之２號,119.5836,23.56813,(06)9211723,羅氏家用新冠病毒抗原自我檢測套組,73,2022/05/08 08:29:02,本所快篩試劑只提供離島衛生室（虎井、桶盤）販售，時間週一至週五08:30-17:00售完為止，星期六、日國定假日09:00-12:00。
2344030022,澎湖縣白沙鄉鳥嶼衛生所,澎湖縣白沙鄉鳥嶼村漁港新村３號,119.6599,23.66008,(06)9916092,羅氏家用新冠病毒抗原自我檢測套組,131,2022/05/08 08:29:02,非上班時間提供急診服務
2344030031,澎湖縣白沙鄉吉貝衛生所,澎湖縣白沙鄉吉貝村８－１３號,119.6138,23.74056,(06)9911430,羅氏家用新冠病毒抗原自我檢測套組,139,2022/05/08 08:29:02,無
2344050015,澎湖縣望安鄉衛生所,澎湖縣望安鄉西安村３６－７號,119.4972,23.36161,(06)9991036,羅氏家用新冠病毒抗原自我檢測套組,91,2022/05/08 08:29:02,夜間急診。口罩、快篩試劑販售時間為:每日08:00-12:00、13:30-17:30售完為止，如有餘數為離島未售出（東嶼坪、花嶼）。
2344050024,澎湖縣望安鄉將軍衛生所,澎湖縣望安鄉將軍村１２鄰將軍澳１之３號,119.5216,23.3615,(06)9902066,羅氏家用新冠病毒抗原自我檢測套組,158,2022/05/08 08:29:02,24小時急診
2344060011,澎湖縣七美鄉衛生所,澎湖縣七美鄉中和村埔內５４號,119.431,23.2041,(06)9971005,羅氏家用新冠病毒抗原自我檢測套組,40,2022/05/08 08:29:02,無
2345080017,衛生福利部花蓮醫院豐濱原住民分院,花蓮縣豐濱鄉豐濱村光豐路４１號,121.5215,23.60195,(03)8358141,羅氏家用新冠病毒抗原自我檢測套組,78,2022/05/08 08:29:02,*本院口罩每天販售，時間自上午8點至晚上9點  *本院週一至週五上下午皆有門診，星期六隔週提供門診，及24小時急診。
5901011975,萬泰藥局,臺北市松山區敦化北路２２２巷３８號,121.5471,25.05994,(02)27135891,羅氏家用新冠病毒抗原自我檢測套組,15,2022/05/08 08:29:02,每日早上9.00販售快篩試劑
5901012409,家音藥局,臺北市松山區民生東路５段７３號,121.5585,25.05871,(02)37652080,羅氏家用新冠病毒抗原自我檢測套組,10,2022/05/08 08:29:02,實名制快篩販售時段公告，請追蹤美康健保藥局 家音店 FB粉絲頁，謝謝~
5901012749,躍獅松和藥局,臺北市松山區八德路四段６６６－１號,121.5761,25.04979,(02)27492569,羅氏家用新冠病毒抗原自我檢測套組,78,2022/05/08 08:29:02,實名制快篩販售時段，每日下午4點販售，售完為止
5901012767,晨新藥局,臺北市松山區八德路４段９１巷１－１號,121.5608,25.04894,(02)27422951,羅氏家用新冠病毒抗原自我檢測套組,66,2022/05/08 08:29:02,本店星期一不販售快篩，其餘時間為下午2點至5點。若有修正依店內公告為主。
5901013362,啄木鳥藥局,臺北市松山區八德路４段２０９號、２１１號（１、２層）,121.564,25.04894,(02)27422413,羅氏家用新冠病毒抗原自我檢測套組,1,2022/05/08 08:29:02,每日早上10點開始販售實名制快篩
5901013620,躍獅敦北藥局,臺北市松山區民生東路４段８０巷５號１樓,121.5531,25.05713,(02)27155691,羅氏家用新冠病毒抗原自我檢測套組,109,2022/05/08 08:29:02,實名制快篩販售時間PM14:30 本店會預留28份供及人大廈住戶購買 剩餘數量供現場民眾排隊購買（14:30開始販購）
5901020616,龍護大藥局,臺北市大安區大安路１段２２４巷７號１Ｆ,121.5454,25.03401,(02)23250686,羅氏家用新冠病毒抗原自我檢測套組,68,2022/05/08 08:29:02,無
5901024178,誠心藥局,臺北市大安區忠孝東路３段１９９－１號,121.5389,25.04188,(02)27527520,羅氏家用新冠病毒抗原自我檢測套組,71,2022/05/08 08:29:02,全年無休 0830-2230
5901024310,躍獅新生藥局,臺北市大安區和平東路２段２０號,121.5362,25.02566,(02)23623367,羅氏家用新冠病毒抗原自我檢測套組,78,2022/05/08 08:29:02,快篩發放時間0900-1200。每日78份。星期日不販售
5901024490,明星大藥局,臺北市大安區光復南路４３０之１號,121.5574,25.03618,(02)27023747,羅氏家用新冠病毒抗原自我檢測套組,2,2022/05/08 08:29:02,無
5901024954,佑全大安敦南藥局,臺北市大安區敦化南路２段６３巷４６號,121.5512,25.03089,(02)23257579,羅氏家用新冠病毒抗原自我檢測套組,78,2022/05/08 08:29:02,早上10點發放號碼牌，同時開始販賣實名制快篩
5901025004,早安藥局,臺北市大安區建國南路２段１５１巷４２號１樓,121.5396,25.02865,(02)27002209,羅氏家用新冠病毒抗原自我檢測套組,50,2022/05/08 08:29:02,快篩早上9點發號碼牌留卡下午2點領取
5901090154,柯藥局,臺北市大同區重慶北路３段３３５巷６號,121.5144,25.07452,(02)25948515,羅氏家用新冠病毒抗原自我檢測套組,93,2022/05/08 08:29:02,库存已零如何歸零
5901091884,躍獅雙蓮藥局,臺北市大同區涼州街４號,121.5147,25.06078,(02)25537551,羅氏家用新冠病毒抗原自我檢測套組,108,2022/05/08 08:29:02,實名制快篩：平日週一～五 下午３點開賣 （六、日停售）
5901092087,躍獅文昌藥局,臺北市大同區民生西路１０８號（實際營業：一層）,121.5197,25.0574,(02)25586189,羅氏家用新冠病毒抗原自我檢測套組,72,2022/05/08 08:29:02,無
5901100155,大信藥局,臺北市中山區林森北路１５９巷６號,121.5255,25.0517,(02)25719080,羅氏家用新冠病毒抗原自我檢測套組,1,2022/05/08 08:29:02,無
5901100628,貢玄藥局,臺北市中山區錦州街２０７號,121.532,25.06039,(02)25637847,羅氏家用新冠病毒抗原自我檢測套組,60,2022/05/08 08:29:02,早上10點~11點領口罩
5901101536,展佑藥局,臺北市中山區長春路１４６－１號,121.5317,25.05473,(02)25232803,羅氏家用新冠病毒抗原自我檢測套組,5,2022/05/08 08:29:02,快篩試劑上午11:30開賣，因郵差當日才配送，請勿事先排隊，週日休息!
5901102631,金生藥局,臺北市中山區長安東路２段１６７－１號,121.5407,25.04843,(02)87729808,羅氏家用新冠病毒抗原自我檢測套組,24,2022/05/08 08:29:02,販售實名制快篩時間為週一~週六早上09:00開始（售完為止）
5901103110,大直健康藥局,臺北市中山區北安路５９１號,121.5486,25.08194,(02)25323310,羅氏家用新冠病毒抗原自我檢測套組,111,2022/05/08 08:29:02,發號碼牌時間:09:00   販售時間:12:00-17:00
5901103334,大直小太陽藥局,臺北市中山區北安路６０７之１號,121.5488,25.08241,(02)85093208,羅氏家用新冠病毒抗原自我檢測套組,24,2022/05/08 08:29:02,無
5901103352,美康正康藥局,臺北市中山區北安路６１６之１號、６１８號２樓之１,121.549,25.08243,(02)25323077,羅氏家用新冠病毒抗原自我檢測套組,9,2022/05/08 08:29:02,5月實名制快篩:14:30~售完
5901103558,佳頤中西藥局,臺北市中山區長春路１４７之１號,121.5323,25.05495,(02)25641479,羅氏家用新冠病毒抗原自我檢測套組,87,2022/05/08 08:29:02,實名制快篩販售時間為下午1點起，售完為止，其他販售細節以店內公告為主
5901103727,盛康藥局,臺北市中山區吉林路３９９號１樓,121.5305,25.06587,(02)25969580,羅氏家用新冠病毒抗原自我檢測套組,3,2022/05/08 08:29:02,國定假日仍執行調劑業務
5901103772,興耀生活藥局,臺北市中山區林森北路４０５號（１樓）,121.5257,25.05943,(02)25818210,羅氏家用新冠病毒抗原自我檢測套組,29,2022/05/08 08:29:02,國定假日仍執行調劑業務
5901103781,龍江台安藥局,臺北市中山區龍江路２４７號（１樓）,121.5408,25.05862,(02)25091007,羅氏家用新冠病毒抗原自我檢測套組,78,2022/05/08 08:29:02,實名制快篩下午2:00開始拿號碼牌
5901110311,永安藥局,臺北市內湖區文德路２１０巷３０弄４８號,121.5852,25.07723,(02)26586658,羅氏家用新冠病毒抗原自我檢測套組,78,2022/05/08 08:29:02,口罩販售時間早上10點開始發號碼牌  同時販售
5901113018,桔子藥局,臺北市內湖區內湖路２段３３３號,121.5917,25.08319,(02)27930052,羅氏家用新冠病毒抗原自我檢測套組,78,2022/05/08 08:29:02,早0900-1200，午1400-1700，晚1900-2100
5901113296,喜越藥局,臺北市內湖區內湖路１段２８５巷５９弄７號,121.5673,25.08377,(02)26271955,羅氏家用新冠病毒抗原自我檢測套組,43,2022/05/08 08:29:02,無
5901113401,躍獅麗湖藥局,臺北市內湖區內湖路１段４０１之１號,121.5706,25.08188,(02)26276160,羅氏家用新冠病毒抗原自我檢測套組,77,2022/05/08 08:29:02,實名制快篩 9點發號碼牌 12點後憑號碼牌購買
5901113590,維安藥局,臺北市內湖區成功路３段１７４巷２３號,121.5906,25.08143,(02)27944520,羅氏家用新冠病毒抗原自我檢測套組,2,2022/05/08 08:29:02,快篩每周一至六0930開賣，10點結束，視人數發號，每日固定78位，多的78為隔日庫存
5901113652,加一藥師藥局,臺北市內湖區星雲街２４號１樓,121.5908,25.07804,(02)87912653,羅氏家用新冠病毒抗原自我檢測套組,167,2022/05/08 08:29:02,無
5901113732,富康活力誠功藥局,臺北市內湖區成功路４段３０巷２０號１樓,121.5916,25.08235,(02)27960222,羅氏家用新冠病毒抗原自我檢測套組,1,2022/05/08 08:29:02,正常供應的話都是每日16:00開始販售快篩，建議來現場加入**LINE社群**，可以獲得最新第一手資訊
5901121583,健園藥局,臺北市南港區研究院路１段１９號１樓,121.6166,25.05401,(02)27851567,羅氏家用新冠病毒抗原自我檢測套組,110,2022/05/08 08:29:02,早上8點開賣 （政府有配送的狀況下） 沒發放號碼牌售完為止
5901121841,泓安藥局,臺北市南港區興華路７５號,121.6061,25.05517,(02)27861083,羅氏家用新冠病毒抗原自我檢測套組,78,2022/05/08 08:29:02,星期一至星期日早上10:00開賣快篩試劑
5901121850,健涵藥局,臺北市南港區舊莊街１段１４７號,121.6205,25.03985,(02)27837285,羅氏家用新冠病毒抗原自我檢測套組,79,2022/05/08 08:29:02,發快篩時間：每日下午一點
5901121985,勝安藥局,臺北市南港區舊莊街１段１６５號,121.6211,25.03949,(02)27828450,羅氏家用新冠病毒抗原自我檢測套組,36,2022/05/08 08:29:02,實名制快篩晚上21:00提供，倘提早額滿且經現場排隊者全體同意，則即時銷售 5／8正常
5901122062,躍獅忠孝藥局,臺北市南港區成福路１６號,121.586,25.04561,(02)27862829,羅氏家用新冠病毒抗原自我檢測套組,2,2022/05/08 08:29:02,無
5901122080,成福大藥局,臺北市南港區成福路８號,121.5859,25.04578,(02)27859221,羅氏家用新冠病毒抗原自我檢測套組,78,2022/05/08 08:29:02,無
5901150146,坤成泰藥局,臺北市士林區大南路４１２號,121.5162,25.08996,(02)28813903,羅氏家用新冠病毒抗原自我檢測套組,75,2022/05/08 08:29:02,實名制快篩販賣時間 早上9.30    賣完為止
5901150253,文祥藥局,臺北市士林區光華路２６巷２弄２號,121.542,25.13749,(02)28623487,羅氏家用新冠病毒抗原自我檢測套組,72,2022/05/08 08:29:02,無
5901152471,得安藥局,臺北市士林區文林路１４０號,121.5267,25.08878,(02)28836336,羅氏家用新冠病毒抗原自我檢測套組,78,2022/05/08 08:29:02,星期三五六下午3:30---10:00   星期二 四日下午5:00--10:00
5901152686,三光藥局,臺北市士林區延平北路５段３２０號１樓,121.5096,25.08628,(02)28123786,羅氏家用新冠病毒抗原自我檢測套組,78,2022/05/08 08:29:02,無
5901153825,太和堂中西藥局,臺北市士林區大東路７４號（實際使用：１樓）,121.5257,25.09037,(02)28814122,羅氏家用新冠病毒抗原自我檢測套組,1,2022/05/08 08:29:02,上午8:30現場領號碼牌。週日公休
5901153905,躍獅芝山藥局,臺北市士林區福華路１５４號（實際使用：１樓）,121.5227,25.10357,(02)28365822,羅氏家用新冠病毒抗原自我檢測套組,12,2022/05/08 08:29:02,無
5901154028,向宇藥局,臺北市士林區德行東路２１７號１樓,121.5328,25.10935,(02)88661101,羅氏家用新冠病毒抗原自我檢測套組,71,2022/05/08 08:29:02,無
5901154055,天母盛康藥局,臺北市士林區天母東路８巷８４號１樓,121.5304,25.11483,(02)28720208,羅氏家用新冠病毒抗原自我檢測套組,67,2022/05/08 08:29:02,實名制快篩每日14:00開始，賣完為止。
5901154073,中山盛康藥局,臺北市士林區中山北路７段１６２號１樓,121.5327,25.12416,(02)28771887,羅氏家用新冠病毒抗原自我檢測套組,78,2022/05/08 08:29:02,實名制快篩早上9:00-12:00發放號碼牌
5901160053,天蓮藥局,臺北市北投區石牌路１段１６６巷１１５號,121.5155,25.11192,(02)28211824,羅氏家用新冠病毒抗原自我檢測套組,10,2022/05/08 08:29:02,週日人員不足會上午8:00點販售快篩
5901162806,大家藥局,臺北市北投區光明路１８２號,121.5033,25.13566,(02)28959000,羅氏家用新冠病毒抗原自我檢測套組,55,2022/05/08 08:29:02,快篩早上9點開賣 售完為止 沒有號碼牌 現場排隊
5901163563,躍獅光明藥局,臺北市北投區光明路５１號、５３號（實際使用：１樓）,121.4998,25.13286,(02)28915993,羅氏家用新冠病毒抗原自我檢測套組,1,2022/05/08 08:29:02,今日快篩已全數販售完畢，請不要再打電話詢問，謝謝
5901170648,立信藥局,臺北市信義區松山路４０３號,121.578,25.04144,(02)27687754,羅氏家用新冠病毒抗原自我檢測套組,2,2022/05/08 08:29:02,快篩試劑販賣時間:晚上七點至九點
5901172651,康杏藥局,臺北市信義區福德街３０６號１樓,121.5874,25.03931,(02)27591510,羅氏家用新冠病毒抗原自我檢測套組,5,2022/05/08 08:29:02,無
5901172933,喜樂藥局,臺北市信義區松德路１２５號,121.5753,25.03752,(02)27275797,羅氏家用新冠病毒抗原自我檢測套組,69,2022/05/08 08:29:02,周一至周六9AM-12PM販售實名制快篩.周日9am-10am販售
5901172964,榮泰藥局,臺北市信義區光復南路４１９巷１９號,121.5582,25.03659,(02)77296777,羅氏家用新冠病毒抗原自我檢測套組,7,2022/05/08 08:29:02,早上9:00開始發放實名制快篩號碼牌
5901173372,新永春藥局,臺北市信義區忠孝東路５段４２３巷１號,121.5753,25.04126,(02)27667385,羅氏家用新冠病毒抗原自我檢測套組,63,2022/05/08 08:29:02,快篩販售時間:每日13:00開始，售完為止
5901173390,馨馨藥局,臺北市信義區虎林街８２巷１９號,121.5764,25.04336,(02)27491208,羅氏家用新冠病毒抗原自我檢測套組,50,2022/05/08 08:29:02,無
5901173818,博亞藥局,臺北市信義區莊敬路４６２號,121.5677,25.02672,(02)27580506,羅氏家用新冠病毒抗原自我檢測套組,78,2022/05/08 08:29:02,平日早上8:30、晚上8:00；假日早上8:30，發放號碼牌，持號碼牌購買!
5901173872,柏愛藥局,臺北市信義區基隆路２段１３１之９號,121.5567,25.02788,(02)27325472,羅氏家用新冠病毒抗原自我檢測套組,1,2022/05/08 08:29:02,國定假日營業時間為09:30-17:30；實名制快篩09:30開賣
5901180037,崇信藥局,臺北市中正區齊東街８８號,121.5272,25.04162,(02)23417557,羅氏家用新冠病毒抗原自我檢測套組,68,2022/05/08 08:29:02,上午8.30開始代售快篩 .售完為止.
5901180215,上海聯合藥局,臺北市中正區衡陽路３２號１樓,121.5126,25.04221,(02)23117744,羅氏家用新冠病毒抗原自我檢測套組,1,2022/05/08 08:29:02,無
5901183645,大愛生活藥局,臺北市中正區汀州路２段２３２號,121.5243,25.02189,(02)23661155,羅氏家用新冠病毒抗原自我檢測套組,109,2022/05/08 08:29:02,下午14:30開始發放快篩（不發號碼牌直接買）~~不要太早開始排隊啊啊啊啊
5901184080,活力健康藥妝藥局,臺北市中正區中華路２段３１５巷１號,121.5062,25.02795,(02)23392625,羅氏家用新冠病毒抗原自我檢測套組,2,2022/05/08 08:29:02,快篩14:00-15:00， 建議提早排隊
5901184106,信康藥局,臺北市中正區南昌路１段１４３號,121.5186,25.02953,(02)23961979,羅氏家用新冠病毒抗原自我檢測套組,3,2022/05/08 08:29:02,14:00開始販售實名制快篩
5901184535,桐心藥局,臺北市中正區金華街１８之６號１樓,121.5202,25.03175,(02)23581663,羅氏家用新冠病毒抗原自我檢測套組,4,2022/05/08 08:29:02,無
5901184606,躍獅南寧藥局,臺北市中正區南昌路１段８１號,121.5178,25.03057,(02)23967072,羅氏家用新冠病毒抗原自我檢測套組,78,2022/05/08 08:29:02,上午10點售實名制快篩
5901184633,躍獅東門藥局,臺北市中正區金山南路１段１０８之１號（１樓）,121.5273,25.03538,(02)23920339,羅氏家用新冠病毒抗原自我檢測套組,32,2022/05/08 08:29:02,5／8起早上9點開始販售，不提早發放號碼牌
5901184713,建祥武昌藥局,臺北市中正區武昌街１段２９號１樓,121.5121,25.04416,(02)23314038,羅氏家用新冠病毒抗原自我檢測套組,78,2022/05/08 08:29:02,無
5901190079,建和藥局,臺北市萬華區青年路１６８巷４４號,121.5016,25.01987,(02)23010838,羅氏家用新冠病毒抗原自我檢測套組,60,2022/05/08 08:29:02,春節期間看診時段請電洽
5901193301,富安藥局,臺北市萬華區萬大路４２６號,121.4981,25.02096,(02)23377878,羅氏家用新冠病毒抗原自我檢測套組,37,2022/05/08 08:29:02,快篩實名制：一人一卡，現場排隊，售完為止。【5／3早上暫停販售，販售時間待更新！】
5901200534,日信專業藥局,臺北市文山區木柵路２段１３９號１樓,121.5625,24.98906,(02)86618322,羅氏家用新冠病毒抗原自我檢測套組,53,2022/05/08 08:29:02,周一~周六早上8:30開始販售實名制快篩
5901201568,康宜庭生活藥局,臺北市文山區興隆路４段６４號,121.5613,24.98514,(02)29385363,羅氏家用新冠病毒抗原自我檢測套組,6,2022/05/08 08:29:02,實名快篩14:00開賣 現場排隊
5901202752,躍獅奕新藥局,臺北市文山區木新路２段２７５號,121.566,24.98292,(02)22340378,羅氏家用新冠病毒抗原自我檢測套組,53,2022/05/08 08:29:02,週一至週六下午1:30售實名制快篩，週日停售
5901203204,躍獅新芳藥局,臺北市文山區興隆路３段１６號（實際營業地址：１樓）,121.5549,25.00062,(02)29308172,羅氏家用新冠病毒抗原自我檢測套組,78,2022/05/08 08:29:02,早上九點開始販售實名制快篩，售完為止
5902011308,昇安藥局,高雄市鹽埕區瀨南街２２５號１樓,120.284,22.62797,(07)5216438,羅氏家用新冠病毒抗原自我檢測套組,78,2022/05/08 08:29:02,快篩試劑早上8:4 0開始發號碼牌
5902021233,崧柏藥局,高雄市鼓山區華榮路５４３號,120.2937,22.66969,(07)5542027,羅氏家用新冠病毒抗原自我檢測套組,78,2022/05/08 08:29:02,藥局販售快篩試劑時間每天8點40發號碼牌，9點開始。每天78份
5902022794,定國藥局,高雄市鼓山區九如四路１１３５號,120.2791,22.65936,(07)5815858,羅氏家用新冠病毒抗原自我檢測套組,58,2022/05/08 08:29:02,無
5902030063,紅心藥局,高雄市左營區崇德路２５５號,120.3041,22.67535,(07)3416697,羅氏家用新冠病毒抗原自我檢測套組,48,2022/05/08 08:29:02,早上8點30賣快篩到完
5902030090,宏仁藥局,高雄市左營區左營大路３９０號,120.2932,22.68702,(07)5817895,羅氏家用新冠病毒抗原自我檢測套組,49,2022/05/08 08:29:02,口罩代售時間自早上10:00開始，售完為止。
5902030269,立文藥局,高雄市左營區立文路５４號,120.3058,22.66458,(07)5572899,羅氏家用新冠病毒抗原自我檢測套組,21,2022/05/08 08:29:02,0
5902040050,富翔藥局,高雄市楠梓區常德路３０７號,120.337,22.73691,(07)3516365,羅氏家用新冠病毒抗原自我檢測套組,11,2022/05/08 08:29:02,晚上18:00 販售快篩實名制，星期日早上8:00 販售快篩實名制，售完為止。
5902050378,安成藥局,高雄市三民區察哈爾二街６３號,120.301,22.64766,(07)3229295,羅氏家用新冠病毒抗原自我檢測套組,55,2022/05/08 08:29:02,AM8:30開始販售快篩實名制
5902051268,上正藥師藥局,高雄市三民區憲政路２５５號,120.3185,22.63647,(07)2223355,羅氏家用新冠病毒抗原自我檢測套組,70,2022/05/08 08:29:02,周一至周五下午2點販售實名制快篩試劑，周末六日早上8點半至10點販售實名制快篩試劑
5902051786,億生藥局,高雄市三民區南台路２００號,120.2982,22.63706,(07)2873436,羅氏家用新冠病毒抗原自我檢測套組,64,2022/05/08 08:29:02,「藥局販售口罩時間，依藥局門口公告時間為主（售完為止）」
5902054858,勝發藥局,高雄市三民區金鼎路３５０號,120.3197,22.66521,(07)3474780,羅氏家用新冠病毒抗原自我檢測套組,31,2022/05/08 08:29:02,營業日08:00為販賣快篩試劑時間.售完為止
5902057368,崧民藥師藥局,高雄市三民區金鼎路２２８號,120.3238,22.66483,(07)3102496,羅氏家用新冠病毒抗原自我檢測套組,52,2022/05/08 08:29:02,服務時間9:00-22:30自05／01日~5月31日
5902057519,伍陸藥局,高雄市三民區正興路９４號,120.3208,22.64597,(07)3890676,羅氏家用新冠病毒抗原自我檢測套組,53,2022/05/08 08:29:02,快篩發放時間早上08:30開始 售完為止
5902080474,弘宗藥局,高雄市苓雅區武智街２號,120.3356,22.62303,(07)7211088,羅氏家用新冠病毒抗原自我檢測套組,36,2022/05/08 08:29:02,家用實名制快篩試劑，早上8時開始販售。
5902081328,東信藥局,高雄市苓雅區三多一路１８９號,120.3313,22.62258,(07)7613309,羅氏家用新冠病毒抗原自我檢測套組,43,2022/05/08 08:29:02,早上8:30開始發送號碼牌販售口罩，售完為止，假日正常販售
5902085228,永森藥局,高雄市苓雅區建國一路２９０號,120.3262,22.63308,(07)7163087,羅氏家用新冠病毒抗原自我檢測套組,23,2022/05/08 08:29:02,快篩代售時間:營業時間
5902085344,意祥藥局,高雄市苓雅區武廟路１４２之１號,120.3276,22.63125,(07)7224835,羅氏家用新冠病毒抗原自我檢測套組,5,2022/05/08 08:29:02,藥局販售口罩時間，依藥局門口公告時間為主（售完為止）
5902090121,意文藥局,高雄市前鎮區瑞華里武營路１８３號,120.3374,22.60991,(07)7226570,羅氏家用新冠病毒抗原自我檢測套組,21,2022/05/08 08:29:02,每天8點營業 立即販賣
5902092410,旺盛藥局,高雄市前鎮區永豐路１０８號,120.3337,22.6065,(07)7512899,羅氏家用新冠病毒抗原自我檢測套組,42,2022/05/08 08:29:02,過年期間 111／01／31下午至111／02／03  休診
5902092956,慈濟健保藥局,高雄市前鎮區鎮州路２１１號,120.3082,22.58819,(07)8159788,羅氏家用新冠病毒抗原自我檢測套組,64,2022/05/08 08:29:02,每天早上8點開始賣.售完為止藥局販售口罩時間，依藥局門口公告時間為主（售完為止）
5902100042,千佑藥局,高雄市旗津區復興里中洲三路５１３號,120.2736,22.60608,(07)5712619,羅氏家用新冠病毒抗原自我檢測套組,68,2022/05/08 08:29:02,5月1日-5月31日早上0831至1030為販賣快篩時間
5902110066,文祺藥局,高雄市小港區正苓里平治街１１２號,120.3543,22.56743,(07)8014066,羅氏家用新冠病毒抗原自我檢測套組,66,2022/05/08 08:29:02,自2／11日~2／29日，6:00發號碼牌，14:00為販賣口罩時間.售完為止
5902110422,臨生藥局,高雄市小港區鳳鳴路１４６－４號,120.3588,22.51445,(07)8711290,羅氏家用新冠病毒抗原自我檢測套組,50,2022/05/08 08:29:02,上午9時開始販售快篩劑售完為止。
5903010289,心美日藥局,臺中市豐原區中山路３５９號１樓,120.7149,24.24929,(04)25260703,羅氏家用新冠病毒抗原自我檢測套組,1,2022/05/08 08:29:02,早上8:00販售（如貨運延遲則改為14:00）
5903020052,東勢福倫藥局,臺中市東勢區豐勢路４３８號,120.829,24.25586,(04)25876118,羅氏家用新冠病毒抗原自我檢測套組,72,2022/05/08 08:29:02,＜快篩＞ 5／7，5／8，5／9 早上08:30開賣.
5903020089,新明通藥局,臺中市東勢區豐勢路２３２號１樓,120.8302,24.25113,(04)25873969,羅氏家用新冠病毒抗原自我檢測套組,63,2022/05/08 08:29:02,5月9-14日  早上8:30  若有異動於門口公告
5903030067,甲尚藥局,臺中市大甲區順天路１２９號１樓,120.622,24.3446,(04)26760885,羅氏家用新冠病毒抗原自我檢測套組,104,2022/05/08 08:29:02,實名制 快篩 早0800 開賣 （依經驗 約莫 0830 前完售）
5903030156,盈盈藥局,臺中市大甲區文武路１８號,120.626,24.34582,(04)26804212,羅氏家用新冠病毒抗原自我檢測套組,49,2022/05/08 08:29:02,早上０８：２０開始銷售，售完為止
5903030165,民和藥局,臺中市大甲區德興路６８號,120.6233,24.35089,(04)26871212,羅氏家用新冠病毒抗原自我檢測套組,13,2022/05/08 08:29:02,早上8點開始販售實名制快篩。（依經驗通常8:30以前就會售完，請省下電話費）。週日公休
5903050069,進騰藥局,臺中市沙鹿區鎮南路２段２３４號,120.5689,24.22394,(04)26314418,羅氏家用新冠病毒抗原自我檢測套組,39,2022/05/08 08:29:02,營業時間8:00-22:00，每日中午12點開始販售家用快篩
5903070105,后里藥局,臺中市后里區文明路１３３號１樓,120.7164,24.30682,(04)25590119,羅氏家用新冠病毒抗原自我檢測套組,48,2022/05/08 08:29:02,請勿排隊群聚 注意身體健康
5903070169,佑全后里甲后藥局,臺中市后里區甲后路一段７２８號１、２樓,120.7193,24.30951,(04)25583116,羅氏家用新冠病毒抗原自我檢測套組,27,2022/05/08 08:29:02,實名制快篩每日14:00販售。13:50發放號碼牌。
5903100046,躍獅佑仁藥局,臺中市大雅區雅環路２段２８７號,120.6488,24.22919,(04)25608256,羅氏家用新冠病毒抗原自我檢測套組,78,2022/05/08 08:29:02,家用快篩販售-星期一~星期五 晚上7點（19:00）開始.時間更新異動請參閱粉專
5903150019,統元藥局,臺中市烏日區中華路５８３號,120.6342,24.10755,(04)23377588,羅氏家用新冠病毒抗原自我檢測套組,1,2022/05/08 08:29:02,快篩販售時間:早上9:00至12:00或（售完即止）.
5903160088,必安藥局,臺中市大肚區沙田路二段６３４號,120.5455,24.15084,(04)26992116,羅氏家用新冠病毒抗原自我檢測套組,79,2022/05/08 08:29:02,**限購1份**早上8點販售**每天固定78份，非156**
5903190335,育賢德侑藥局,臺中市太平區育賢路１０７號、１０９號,120.7219,24.15768,(04)23920696,羅氏家用新冠病毒抗原自我檢測套組,78,2022/05/08 08:29:02,實名制快篩販售時間：星期一~星期日 早上8:30點開賣（售完為止）
5903190728,太平瑞昌藥局,臺中市太平區新興路２８號１樓,120.7124,24.15916,(04)23956319,羅氏家用新冠病毒抗原自我檢測套組,1,2022/05/08 08:29:02,無
5903200096,仁化藥局,臺中市大里區仁化路５４０號,120.7012,24.09623,(04)24915902,羅氏家用新冠病毒抗原自我檢測套組,78,2022/05/08 08:29:02,W1-W5  下午1800發放.現場排隊    W6 休息  W日中午12:30
5903200229,信元藥局,臺中市大里區益民路２段３７２號１樓,120.684,24.11545,(04)24876051,羅氏家用新冠病毒抗原自我檢測套組,54,2022/05/08 08:29:02,下午5點發號碼牌並依序販賣
5903200667,永欣東榮藥局,臺中市大里區東榮路３７０號１樓,120.6836,24.11032,(04)24810599,羅氏家用新冠病毒抗原自我檢測套組,35,2022/05/08 08:29:02,快篩發放無特定時間.收到貨即發放.營業時間早上08:30至晚上10:00
5903200694,大里福倫藥局,臺中市大里區中興路二段１８３－２號１樓,120.6896,24.10679,(04)24850218,羅氏家用新冠病毒抗原自我檢測套組,15,2022/05/08 08:29:02,2022／05／08快篩販售時間：早上8點開始販售
5903220114,鄧博士藥局,臺中市中區中山路３２５號１樓,120.6756,24.14434,(04)22256851,羅氏家用新冠病毒抗原自我檢測套組,4,2022/05/08 08:29:02,24小時營業。
5903220196,日安藥局,臺中市中區臺灣大道一段３３０號１樓,120.6801,24.1422,(04)22234246,羅氏家用新冠病毒抗原自我檢測套組,1,2022/05/08 08:29:02,週一至週六 下午2:30開始販售快篩   週日 早上9:30開始販售
5903230209,東京藥師藥局,臺中市東區復興路五段１４９號１樓,120.6893,24.14543,(04)22132278,羅氏家用新冠病毒抗原自我檢測套組,48,2022/05/08 08:29:02,無
5903270614,至善德侑藥局,臺中市西屯區至善路６０號,120.6395,24.17141,(04)24518729,羅氏家用新冠病毒抗原自我檢測套組,2,2022/05/08 08:29:02,實名制快篩下午14:00開始發號碼牌.14:15開始販售
5903270847,分子藥局,臺中市西屯區惠來路二段２３６－１號,120.6421,24.16318,(04)22513080,羅氏家用新冠病毒抗原自我檢測套組,42,2022/05/08 08:29:02,發放時間週一至週日早上10點起售完為止
5903270963,源興大藥局,臺中市西屯區西屯路二段１２號,120.6622,24.16387,(04)23143045,羅氏家用新冠病毒抗原自我檢測套組,1,2022/05/08 08:29:02,口罩販售時間：每日下午2點至售完為止。
5903271139,百吉藥局,臺中市西屯區青海路一段７１號１樓,120.6547,24.1644,(04)23135698,羅氏家用新冠病毒抗原自我檢測套組,38,2022/05/08 08:29:02,周六休息
5903280334,長益藥局,臺中市南屯區忠勇路９９號,120.6155,24.14971,(04)23899383,羅氏家用新冠病毒抗原自我檢測套組,2,2022/05/08 08:29:02,週一至週六下午13點開始開始販售口罩（當場排隊，不發號碼牌售完為止）
5903290661,康博中西健保藥局,臺中市北屯區后庄一街７號１樓,120.6644,24.1865,(04)24252468,羅氏家用新冠病毒抗原自我檢測套組,1,2022/05/08 08:29:02,快篩下午01:00發售53份；晚上06:00銷售25份.週六.日及假日下午06:30開始依配送滾動調整
5903291079,富丘藥局,臺中市北屯區興安路二段７７號１樓,120.6947,24.17686,(04)22477301,羅氏家用新冠病毒抗原自我檢測套組,78,2022/05/08 08:29:02,實名制快篩試劑早上08:30販售
5903291104,惠登藥局,臺中市北屯區豐樂路３２之９號１樓,120.6897,24.19282,(04)24225682,羅氏家用新冠病毒抗原自我檢測套組,49,2022/05/08 08:29:02,今日快篩量已完售
5903291202,好心情藥局,臺中市北屯區昌平路一段１７之３號,120.6941,24.16607,(04)22335663,羅氏家用新冠病毒抗原自我檢測套組,1,2022/05/08 08:29:02,快篩販售時間 14:30 ~售完為止 ， 12:30~13:30 請勿來電，謝謝配合
5905010296,躍獅新營藥局,臺南市新營區民生路１６８號１樓,120.3073,23.31112,(06)6564325,羅氏家用新冠病毒抗原自我檢測套組,3,2022/05/08 08:29:02,下午4點開始發放實名制快篩 （週日不發放）
5905090061,安安藥局柳營店,臺南市柳營區福安一街５０號１樓,120.3126,23.27711,(06)6220585,羅氏家用新冠病毒抗原自我檢測套組,72,2022/05/08 08:29:02,無
5905130042,人大聯合藥局,臺南市六甲區中山路８號１樓,120.3513,23.23087,(06)6987822,羅氏家用新冠病毒抗原自我檢測套組,1,2022/05/08 08:29:02,快篩販售時間：星期一-日07:30-售完
5905140039,安安藥局隆田店,臺南市官田區中山路一段１５號１樓,120.3186,23.1927,(06)5795705,羅氏家用新冠病毒抗原自我檢測套組,2,2022/05/08 08:29:02,全日口罩販賣
5905180051,晉昇藥師藥局,臺南市將軍區西甲里４鄰西華６７之２１號１樓,120.1563,23.19908,(06)7943667,羅氏家用新冠病毒抗原自我檢測套組,7,2022/05/08 08:29:02,無
5905270041,仁德市安藥師藥局,臺南市仁德區中正西路２５號,120.2244,22.91814,(06)2661933,羅氏家用新冠病毒抗原自我檢測套組,1,2022/05/08 08:29:02,快篩販賣：5／7.5／8.星期六.日~早上9點開始販售
5905280092,元康保健藥局,臺南市歸仁區中山路二段２２９號,120.2888,22.96721,(06)2309055,羅氏家用新冠病毒抗原自我檢測套組,51,2022/05/08 08:29:02,快篩販售時間星期一至五下午1點開始至售完.5／6（六）不販售.5／7（日）早上9點半販售（不分單雙）
5905310264,仁安藥師藥局,臺南市永康區崑山里大仁街６１號,120.2566,23.00183,(06)2056055,羅氏家用新冠病毒抗原自我檢測套組,78,2022/05/08 08:29:02,快篩實名制中午12點開始販售  藥局營業時間早上8點半到晚上9點
5905310540,裕安藥局,臺南市永康區中華二路３８５號,120.2315,23.0083,(06)3133251,羅氏家用新冠病毒抗原自我檢測套組,17,2022/05/08 08:29:02,早8:30-1200／午15:00-18:00／晚18:30-21:00。周日午14:00-17:00
5905320466,佑全中華藥局,臺南市東區中華東路三段２１５號,120.2253,22.97603,(06)2906386,羅氏家用新冠病毒抗原自我檢測套組,1,2022/05/08 08:29:02,星期一-六08:00-21:00
5905330159,勝一藥局,臺南市南區省躬里灣裡路９０號１樓,120.1807,22.93114,(06)2626168,羅氏家用新冠病毒抗原自我檢測套組,78,2022/05/08 08:29:02,快篩實名制時間:下午2點~售完
5905340253,永華台安藥局,臺南市中西區永華路一段１８４、１８４－１號１、２、３樓,120.1919,22.98831,(06)2225531,羅氏家用新冠病毒抗原自我檢測套組,50,2022/05/08 08:29:02,10:00販售快篩試劑（若有收到配送）
5905340262,瑞城藥局,臺南市中西區赤嵌里忠義路二段１７６號１樓,120.2043,22.99649,(06)2215810,羅氏家用新冠病毒抗原自我檢測套組,2,2022/05/08 08:29:02,週四公休 週一二三五六日09:30販售快篩 FB公告最新販售訊息 歡迎追蹤 居隔常備藥販售中
5905350535,開元台安藥局,臺南市北區開元路２８８號１樓,120.2226,23.00852,(06)2083172,羅氏家用新冠病毒抗原自我檢測套組,6,2022/05/08 08:29:02,06-2083172限定下午3點到3點半賣快篩
5905370073,宜康藥局同安店,臺南市安南區同安路２３５號１樓,120.1921,23.0425,(06)2470720,羅氏家用新冠病毒抗原自我檢測套組,38,2022/05/08 08:29:02,星期一~星期日08:10~23:00
5905380239,怡家藥局,臺南市安平區國平里華平路１４６─５號１樓,120.174,22.98438,(06)2970519,羅氏家用新冠病毒抗原自我檢測套組,16,2022/05/08 08:29:02,5／8週日加開0800快篩發售週一及六早0900到1100，週二、四、五晚1800到2000售完為止
5905380417,好心情藥局,臺南市安平區平通路５８６號１樓,120.1701,22.99393,(06)2995885,羅氏家用新冠病毒抗原自我檢測套組,78,2022/05/08 08:29:02,快篩實名制早上9:00開始發號碼牌，9:45開始執行販售。
5907010098,建明藥局,高雄市鳳山區海洋一路１２２號,120.3449,22.60985,(07)7668550,羅氏家用新冠病毒抗原自我檢測套組,46,2022/05/08 08:29:02,實名制快篩試劑9:30開始販售，售完為止
5907011004,永豐久億藥局,高雄市鳳山區和興里五甲一路１１號１樓,120.3586,22.62189,(07)7104281,羅氏家用新冠病毒抗原自我檢測套組,11,2022/05/08 08:29:02,無
5907011111,壹然藥局,高雄市鳳山區中正里瑞興路４６２號１樓,120.3713,22.63084,(07)7014966,羅氏家用新冠病毒抗原自我檢測套組,66,2022/05/08 08:29:02,早上8:25發號碼牌（不可離開隊伍）8:30開始販賣；請撥打7014966詢問
5907011200,和成藥局,高雄市鳳山區南成里和成路６５號１樓,120.3379,22.58986,(07)7961566,羅氏家用新冠病毒抗原自我檢測套組,9,2022/05/08 08:29:02,自2／11日~2／29日，營業日08:00~10:00為販賣口罩時間
5907011371,大樹五甲藥局,高雄市鳳山區福祥里五甲三路２４號１－２樓．２６號１－２樓,120.3278,22.59317,(07)8224926,羅氏家用新冠病毒抗原自我檢測套組,1,2022/05/08 08:29:02,快篩實名制，每天16:00開始販售，售完為止。
5907020021,柏康藥局,高雄市岡山區壽天路２２號,120.2938,22.79663,(07)6241688,羅氏家用新冠病毒抗原自我檢測套組,4,2022/05/08 08:29:02,無
5907060098,佳和健保藥局,高雄市大寮區鳳林三路５１２號,120.3954,22.60616,(07)7821500,羅氏家用新冠病毒抗原自我檢測套組,67,2022/05/08 08:29:02,自2／11日~2／29日，營業日8:30~12:00、15:00-21:00為販賣口罩時間，售完為止。
5907060258,杏合藥局,高雄市大寮區後庄里民族路２７０號１樓,120.3917,22.63746,(07)7023620,羅氏家用新冠病毒抗原自我檢測套組,15,2022/05/08 08:29:02,實名制快篩：週一~週五8:00，週六日9:00開始販售。5／8（日）提前於8:00開始
5907060267,加嘉藥局,高雄市大寮區山頂里內厝路１９１號１樓,120.3901,22.60793,(07)7860683,羅氏家用新冠病毒抗原自我檢測套組,73,2022/05/08 08:29:02,無
5907080125,仁武丁丁藥局,高雄市仁武區仁和里鳳仁路２１之８號,120.3558,22.6802,(07)3721896,羅氏家用新冠病毒抗原自我檢測套組,78,2022/05/08 08:29:02,自5月1日~5月31日，營業日9:00起為販賣快篩時間，售完為止。
5907080303,群邦藥局,高雄市仁武區八德東路１８０號１樓,120.3422,22.68538,(07)3745985,羅氏家用新冠病毒抗原自我檢測套組,78,2022/05/08 08:29:02,每日下午2:00開始販售公費快篩（售完為止），星期日藥局早上8:30-9:30賣公費快篩
5907090023,金元發藥局,高雄市大社區中山路１９９號,120.3471,22.73215,(07)3542200,羅氏家用新冠病毒抗原自我檢測套組,77,2022/05/08 08:29:02,快篩實名制：08:30~21:30售完為止
5907160093,保生藥局,高雄市湖內區葉厝里保生路３４０．３４２號,120.2195,22.90733,(07)6990800,羅氏家用新冠病毒抗原自我檢測套組,1,2022/05/08 08:29:02,快篩實名制，每天16:00開始販售，售完為止。
5907300168,金元藥局,高雄市左營區重愛路２２０號,120.3156,22.68562,(07)3458378,羅氏家用新冠病毒抗原自我檢測套組,15,2022/05/08 08:29:02,快篩試劑郵差配送，約10點至11點左右會送到藥局，即開始販售，星期四，六營業時間至中午12點
5907300177,人尚大藥局,高雄市左營區榮總路１０９號１樓,120.3217,22.67927,(07)3100000,羅氏家用新冠病毒抗原自我檢測套組,67,2022/05/08 08:29:02,星期一到星期六 早上7:40開始銷售，星期日早上8:40，售完為止
5907300659,維康藥局高榮店,高雄市左營區榮總路１６３號、１６５號,120.3216,22.6809,(07)3494540,羅氏家用新冠病毒抗原自我檢測套組,78,2022/05/08 08:29:02,平常日0900-1700為快篩販賣時間賣完為止！假日1000-1800
5907320704,建工台安藥局,高雄市三民區建工路４９９號之１,120.3224,22.64884,(07)3807521,羅氏家用新冠病毒抗原自我檢測套組,74,2022/05/08 08:29:02,實名制快篩每日9:00開始販售，售完為止。
5907321078,振源藥局,高雄市三民區熱河一街３５５號１樓,120.3061,22.64365,(07)3112541,羅氏家用新冠病毒抗原自我檢測套組,11,2022/05/08 08:29:02,4／30起15:00開始販售快篩，六日皆有營業
5907330031,健美藥局,高雄市新興區復興一路４０之４號,120.3084,22.62985,(07)2291108,羅氏家用新冠病毒抗原自我檢測套組,68,2022/05/08 08:29:02,111／5／3近期因供貨時間不穩定.先取消上午8:40販售快篩.實際以收到貨時間開始販賣
5907350195,健順藥局,高雄市苓雅區自強三路１４０號,120.2986,22.61724,(07)2695832,羅氏家用新冠病毒抗原自我檢測套組,78,2022/05/08 08:29:02,自2／6起，營業日0830~22:00為口罩販售時間，售完為止
5907350597,武廟台安藥局,高雄市苓雅區武廟路１３３－１號,120.3266,22.63106,(07)7228893,羅氏家用新冠病毒抗原自我檢測套組,67,2022/05/08 08:29:02,實名制快篩販售時間：（一）~（六） 9:00~17:00
5907360146,好芳鄰藥局,高雄市前鎮區光華二路２５７號,120.3179,22.61398,(07)3318657,羅氏家用新冠病毒抗原自我檢測套組,5,2022/05/08 08:29:02,4／28日起.上午08:20~11:00 為販賣快篩時間.售完為止（其餘時間不販賣）
5907360226,順康健保藥局,高雄市前鎮區一心二路６７號,120.3099,22.61142,(07)5364438,羅氏家用新冠病毒抗原自我檢測套組,8,2022/05/08 08:29:02,家用快篩販賣時間，每天早上9點開始，售完為止。
5907360324,有承中西藥局,高雄市前鎮區德昌路２５７號１樓,120.3155,22.5849,(07)8120880,羅氏家用新冠病毒抗原自我檢測套組,32,2022/05/08 08:29:02,配合政府實名制快篩， 早上08:00發放號碼牌
5907360459,聯合藥局,高雄市前鎮區一心一路２８１號１樓,120.3141,22.60955,(07)3391535,羅氏家用新冠病毒抗原自我檢測套組,1,2022/05/08 08:29:02,中午12:00開賣快篩
5907360520,大樹瑞福藥局,高雄市前鎮區瑞隆路１７０號１樓、２樓,120.3357,22.60598,(07)7271170,羅氏家用新冠病毒抗原自我檢測套組,78,2022/05/08 08:29:02,快篩實名制，每天16:00開始販售，售完為止。
5907360600,桂林活力藥師藥局草衙店,高雄市前鎮區草衙二路３６０號,120.323,22.57801,(07)8131819,羅氏家用新冠病毒抗原自我檢測套組,2,2022/05/08 08:29:02,9:00發放實名制快篩號碼牌.售完為止
5907370053,瑞康藥師藥局,高雄市旗津區中洲三路５９７號,120.2724,22.60775,(07)5718985,羅氏家用新冠病毒抗原自我檢測套組,74,2022/05/08 08:29:02,藥局販售口罩時間，依藥局門口公告時間為主（售完為止）
5907380184,桂林活力藥師藥局孔鳳店,高雄市小港區孔鳳路５６１號１樓,120.3586,22.58393,(07)7912331,羅氏家用新冠病毒抗原自我檢測套組,78,2022/05/08 08:29:02,無
5911011227,和平大藥局,基隆市中正區中正路７５０號,121.7696,25.1519,(02)24628151,羅氏家用新冠病毒抗原自我檢測套組,41,2022/05/08 08:29:02,無
5911011334,海大藥局,基隆市中正區新豐街２５５號１樓,121.7879,25.13621,(02)24699222,羅氏家用新冠病毒抗原自我檢測套組,78,2022/05/08 08:29:02,平日：8：30~12：00，15：00~21：30；星期日：~12：00
5911011469,維元社區藥局,基隆市中正區新豐街４４８號,121.7859,25.13568,(02)24601388,羅氏家用新冠病毒抗原自我檢測套組,24,2022/05/08 08:29:02,無
5911011496,源昌藥局,基隆市中正區北寧路384號1樓,121.7963,25.13946,(02)24691686,羅氏家用新冠病毒抗原自我檢測套組,35,2022/05/08 08:29:02,無
5911011521,禎宸藥局,基隆市中正區中正路１７５號１樓,121.7605,25.14233,(02)24620366,羅氏家用新冠病毒抗原自我檢測套組,79,2022/05/08 08:29:02,無
5911031318,安安藥局,基隆市暖暖區源遠路１６８號,121.7492,25.09815,(02)24585577,羅氏家用新冠病毒抗原自我檢測套組,78,2022/05/08 08:29:02,每週六公休，星期日~星期五早上8:30販售實名制快篩
5911031327,百福暖暖專業藥局,基隆市暖暖區暖暖街１８９號１樓,121.7357,25.09904,(02)24596999,羅氏家用新冠病毒抗原自我檢測套組,2,2022/05/08 08:29:02,無
5911041510,聯安藥局,基隆市仁愛區仁二路２５１號２樓,121.7428,25.1296,(02)24288809,羅氏家用新冠病毒抗原自我檢測套組,47,2022/05/08 08:29:02,安東耳鼻喉科二樓循環站正對面 快篩販售時間更改8:20-11:50， 假日8:20-11:00 售完為止
5911041958,百福仁愛專業藥局,基隆市仁愛區仁四路５０號１樓,121.7413,25.12829,(02)24266699,羅氏家用新冠病毒抗原自我檢測套組,1,2022/05/08 08:29:02,4／30起，早上8:00販售快篩
5911050153,隆泰藥局,基隆市中山區西定路１２號,121.7355,25.13184,(02)24225889,羅氏家用新冠病毒抗原自我檢測套組,8,2022/05/08 08:29:02,無
5911051392,寶慷藥局,基隆市中山區復興路１９１號１樓,121.7263,25.14611,(02)24362338,羅氏家用新冠病毒抗原自我檢測套組,78,2022/05/08 08:29:02,08:30開始販賣快篩
5911051481,仁登藥局,基隆市中山區復興路１２２號,121.7262,25.14453,(02)24375789,羅氏家用新冠病毒抗原自我檢測套組,76,2022/05/08 08:29:02,無
5911070011,信安藥局,基隆市信義區信二路９９號,121.7548,25.12912,(02)24238551,羅氏家用新冠病毒抗原自我檢測套組,78,2022/05/08 08:29:02,快篩實名制-早上9點開始販售-售完為止-
5911071607,家安藥師藥局,基隆市信義區信二路２５７、２５９號１樓,121.7478,25.1301,(02)24223917,羅氏家用新冠病毒抗原自我檢測套組,63,2022/05/08 08:29:02,星期一 ~ 星期六14:00開始銷售。
5912010046,中美藥局,新竹市東區南大里西大路１０２巷３號１樓,120.9708,24.79647,(03)5283828,羅氏家用新冠病毒抗原自我檢測套組,9,2022/05/08 08:29:02,快篩販賣時段:早上8:00現場排隊至售完為止。 週一至週六休息時段12:00-14:00  晚上18:00-19:00  週日整天店休
5912010331,大家藥局,新竹市東區南門里武昌街６號１樓,120.9685,24.8004,(035)234035,羅氏家用新冠病毒抗原自我檢測套組,62,2022/05/08 08:29:02,快篩販賣時段: 上午8:30現場排隊至售完為止。
5912010528,華安中西藥局,新竹市東區振興里南大路６４８號一樓,120.9627,24.79286,(03)5610088,羅氏家用新冠病毒抗原自我檢測套組,78,2022/05/08 08:29:02,. 5／8（日） 早上9:00販售快篩試劑.  快篩試劑實名制販售時間 早上 9:00
5912012666,國豐大藥局,新竹市東區光復路一段３６２－１８號,121.0168,24.78422,(03)5779960,羅氏家用新冠病毒抗原自我檢測套組,66,2022/05/08 08:29:02,快篩W1-W5 12:00 開始 W6 8:30 開始
5912012773,博弘藥局,新竹市東區南大路３８７號,120.9684,24.79662,(03)5619470,羅氏家用新冠病毒抗原自我檢測套組,3,2022/05/08 08:29:02,快篩試劑販賣時間；上午8:00起至售完為止
5912012988,杏康健保特約藥局,新竹市東區光復路一段５２５巷２３號１樓,121.0135,24.78384,(03)5772966,羅氏家用新冠病毒抗原自我檢測套組,93,2022/05/08 08:29:02,週一至五09:00-21:00 （週六公休） 週日09:00-18:00
5912013216,宏禎藥局,新竹市東區建新路４０號１樓,120.9971,24.79818,(03)5750238,羅氏家用新冠病毒抗原自我檢測套組,4,2022/05/08 08:29:02,販賣時段:平日及假日每日早上08:00開始販售.售完為止
5912013654,七二八藥局,新竹市東區明湖路１２４５號１樓,120.979,24.76774,(03)5200530,羅氏家用新冠病毒抗原自我檢測套組,1,2022/05/08 08:29:02,5／8政府快篩，12:30開始販售。
5912013690,佑全新竹食品藥局,新竹市東區食品路１７０號,120.9764,24.79735,(03)5627307,羅氏家用新冠病毒抗原自我檢測套組,17,2022/05/08 08:29:02,實名制快篩下午2點開賣1點40分發號碼牌實際庫存依物流到貨時間滾動式調整
5912040106,永富大藥局,新竹市北區中山里北門街１８號,120.9661,24.80539,(035)234856,羅氏家用新冠病毒抗原自我檢測套組,16,2022/05/08 08:29:02,口罩販售時間：08:30；除夕晚上休息；其餘國定假日均正常營業
5912042637,中福藥局,新竹市北區中福路８３號,120.9327,24.8408,(03)5366996,羅氏家用新冠病毒抗原自我檢測套組,78,2022/05/08 08:29:02,快篩販售時間：上午09:00
5912042664,永沛藥局,新竹市北區湳雅街２０９號,120.9741,24.82093,(03)5328563,羅氏家用新冠病毒抗原自我檢測套組,77,2022/05/08 08:29:02,快篩  05／08周日08:30開賣  周一~周六 15:00開賣 現場排隊 請別再打電話來問  PS:請自帶一張500鈔票，不收其他面額
5912042959,躍獅光華藥局,新竹市北區光華東街３６－１號１樓,120.9743,24.81586,(03)5331281,羅氏家用新冠病毒抗原自我檢測套組,4,2022/05/08 08:29:02,實際販售時間:AM08:30
5917010126,永大藥局,臺中市中區錦上里民族路１２２號,120.6786,24.14054,(04)22210180,羅氏家用新冠病毒抗原自我檢測套組,13,2022/05/08 08:29:02,09:00開始代售快篩，人多會發號碼牌。5／8上午8點開始販售
5917011945,正三吉藥局,臺中市中區臺灣大道一段９５號,120.6831,24.13911,(04)22207700,羅氏家用新冠病毒抗原自我檢測套組,78,2022/05/08 08:29:02,快篩販售時間 14:00~17:00
5917020104,七星中西藥局,臺中市東區東信里十甲東路４０６巷１號１樓,120.7061,24.13603,(04)22123014,羅氏家用新冠病毒抗原自我檢測套組,2,2022/05/08 08:29:02,無
5917020337,福生藥局,臺中市東區福仁街138號,120.6898,24.1444,(04)22119106,羅氏家用新冠病毒抗原自我檢測套組,41,2022/05/08 08:29:02,星期一~六.下午1:30開始販售實名制快篩.售完為止 星期日8:15~9:30
5917030128,太信藥局,臺中市西區三民路一段９５－１號１樓,120.6698,24.13322,(04)23718318,羅氏家用新冠病毒抗原自我檢測套組,21,2022/05/08 08:29:02,健保卡快篩請0900自備500元／份
5917030226,九和大藥局向上店,臺中市西區向上路一段１９２號１樓,120.6605,24.14684,(04)23020148,羅氏家用新冠病毒抗原自我檢測套組,17,2022/05/08 08:29:02,周一~六08:00開始。周日08:00~中午12:00，下午休息。
5917030646,華隆藥局,臺中市西區樂群街６之２號,120.6735,24.14025,(04)22243785,羅氏家用新冠病毒抗原自我檢測套組,71,2022/05/08 08:29:02,上午10:00開始販售快篩試劑，售完為止
5917032293,祥鶴大藥局,臺中市西區美村路一段六七三號一樓,120.6618,24.13561,(04)23710969,羅氏家用新冠病毒抗原自我檢測套組,21,2022/05/08 08:29:02,固定周一至周日早上８：００售快篩至售完
5917032462,名亨藥局,臺中市西區五權路２９號１樓,120.6696,24.14423,(04)22201089,羅氏家用新冠病毒抗原自我檢測套組,65,2022/05/08 08:29:02,每日上午8:20至12，下午3至6時販售.周 日  休 息. 周 六    下 午 休 息 .
5917032908,佑恩藥師藥局,臺中市西區精誠路６７號１樓,120.6553,24.15224,(04)23100058,羅氏家用新冠病毒抗原自我檢測套組,39,2022/05/08 08:29:02,實名制快篩周一到周六，早上9:00，周日下午2:10開始販賣
5917040106,侑民藥局,臺中市南區興大路３９６巷４９號１樓,120.6712,24.11564,(04)22860146,羅氏家用新冠病毒抗原自我檢測套組,78,2022/05/08 08:29:02,週一至週日上午9點販賣防疫快篩試劑
5917050424,中心藥局,臺中市北區五權路２７９號１樓,120.6777,24.15169,(04)22012985,羅氏家用新冠病毒抗原自我檢測套組,26,2022/05/08 08:29:02,口罩每日上午8:00發放號碼牌，依序販售。全年無休。
5917050433,松鶴藥局,臺中市北區文莊里篤行路２２４號,120.6738,24.15187,(04)22028790,羅氏家用新冠病毒抗原自我檢測套組,33,2022/05/08 08:29:02,口罩每日上午8:30開始販售，現場排隊售完為止。（全年無休）
5917053514,學士藥局,臺中市北區學士路１３號之１樓,120.6823,24.15372,(04)22015008,羅氏家用新冠病毒抗原自我檢測套組,78,2022/05/08 08:29:02,固定周一到周日，早上09:50開始發放號碼牌及販賣快篩
5917060204,宏光藥局,臺中市西屯區何安里西屯路二段９５之２３號,120.656,24.16535,(04)23137278,羅氏家用新冠病毒抗原自我檢測套組,9,2022/05/08 08:29:02,星期一至六早上8:10分開始販賣快篩試劑（免號碼牌，依序隨到隨售，售完為止。）星期日試劑有到貨貨就賣
5917060322,瑞康藥局,臺中市西屯區長安路二段２號１樓,120.6612,24.1724,(04)22914046,羅氏家用新冠病毒抗原自我檢測套組,75,2022/05/08 08:29:02,營業時間8:30~21:30 （家用快篩，酒精及防疫口罩）
5917062353,典安大藥局,臺中市西屯區西屯路３段１５９－６０號,120.6177,24.18807,(04)24616571,羅氏家用新冠病毒抗原自我檢測套組,132,2022/05/08 08:29:02,每天10:00發放快篩
5917062559,德康藥局,臺中市西屯區福和里中工三路１５６號,120.6181,24.17737,(04)23583373,羅氏家用新冠病毒抗原自我檢測套組,2,2022/05/08 08:29:02,每天早上9:00開始，不發號碼牌，現場排隊領口罩
5917063725,永旭大藥局,臺中市西屯區逢甲路９２號１樓,120.6439,24.17883,(04)27087952,羅氏家用新冠病毒抗原自我檢測套組,1,2022/05/08 08:29:02,5／6起實名快篩，星期一到五早上10點開始，星期六日中午12點開始排隊販售。
5917070417,康元藥局,臺中市南屯區黎明路２段２８１號１樓,120.6355,24.14863,(04)22548622,羅氏家用新冠病毒抗原自我檢測套組,8,2022/05/08 08:29:02,星期一~星期六早上九點發放號碼牌  星期日早上9:50現場排隊不發號碼牌
5917072724,百芳大藥局,臺中市南屯區向上路二段４２１號,120.6377,24.1469,(04)23818307,羅氏家用新冠病毒抗原自我檢測套組,1,2022/05/08 08:29:02,晚上7:00開始販賣快篩，不發號碼牌。
5917080593,崇安藥局,臺中市北屯區四民里昌平路二段５４－３號１樓,120.6831,24.19198,(04)24221929,羅氏家用新冠病毒抗原自我檢測套組,41,2022/05/08 08:29:02,實名制快篩周一至周日08:15發號碼牌
5917080771,大生大藥局,臺中市北屯區三光里北屯路３３７號,120.6974,24.1703,(04)22337059,羅氏家用新冠病毒抗原自我檢測套組,62,2022/05/08 08:29:02,快篩試劑-周一至周日每天早上8:30開始販售，無發放號碼牌，每天即時現場販售服務，售完為止。（週日正常販售服務）
5917080780,吉英藥局,臺中市北屯區平順里昌平路一段４３４號１樓,120.6905,24.1763,(04)22448289,羅氏家用新冠病毒抗原自我檢測套組,78,2022/05/08 08:29:02,快篩實名制販賣
5917083334,瑞東大藥局,臺中市北屯區東山路一段２４６之３號,120.7179,24.17542,(04)24373799,羅氏家用新冠病毒抗原自我檢測套組,78,2022/05/08 08:29:02,5／6 快篩 已售完
5921010232,大家藥局,臺南市東區大同路二段１７５號,120.214,22.97682,(06)2153777,羅氏家用新冠病毒抗原自我檢測套組,78,2022/05/08 08:29:02,快篩實名制:星期一到星期日早上8:30開始營業  以當日配送到達時間開始販售
5921020096,豐陽藥局,臺南市南區文南里文南路１１５號,120.1898,22.98481,(06)2610628,羅氏家用新冠病毒抗原自我檢測套組,19,2022/05/08 08:29:02,週一至週日08:00 開始營業及販售防疫快篩試劑，售完為止.
5921020194,鹽埕藥局,臺南市南區白雪里鹽埕路６８號,120.1869,22.96696,(06)2651961,羅氏家用新冠病毒抗原自我檢測套組,8,2022/05/08 08:29:02,下午6點販售 星期六 日上午8點販售
5921020256,久芳藥局,臺南市南區喜樹路３４０巷１６６號,120.1761,22.94113,(06)2625209,羅氏家用新冠病毒抗原自我檢測套組,3,2022/05/08 08:29:02,防疫口罩發放上午八點至下午八點
5921020425,日大中西藥局,臺南市南區永興一街３２號,120.1927,22.9659,(06)2612817,羅氏家用新冠病毒抗原自我檢測套組,20,2022/05/08 08:29:02,每日08:00~21:30
5921021708,為仁藥師藥局,臺南市南區大同路二段１０６號,120.2123,22.98022,(06)2139376,羅氏家用新冠病毒抗原自我檢測套組,5,2022/05/08 08:29:02,實名制快篩試劑每日上午8:05販售
5921030118,雅里藥局,臺南市中西區民族路三段２８５號,120.1924,22.9999,(06)2200881,羅氏家用新冠病毒抗原自我檢測套組,57,2022/05/08 08:29:02,實名制快篩販售:周一至周日 上午08:30~售完  請加LINE諮詢@neo1819x
5921040221,好鄰居藥局,臺南市北區西華里公園路１２８號２樓７室,120.2076,22.99889,(06)2219015,羅氏家用新冠病毒抗原自我檢測套組,80,2022/05/08 08:29:02,固定星期一至星期六8:30開始販賣快篩，星期天早上9:00開始販賣快篩
5921060385,樂成藥局,臺南市安南區安和路一段１５９巷８３號,120.2115,23.03032,(06)2568576,羅氏家用新冠病毒抗原自我檢測套組,5,2022/05/08 08:29:02,無
5922010361,壽生堂藥局,嘉義市東區府路里延平街２８０號,120.4502,23.47683,(05)2225058,羅氏家用新冠病毒抗原自我檢測套組,55,2022/05/08 08:29:02,周一至周日上午09:00起，至20:00或售鑿為止。
5922012285,聖安藥局,嘉義市東區仁武里民權路３６５號１樓,120.4506,23.48235,(05)2222941,羅氏家用新冠病毒抗原自我檢測套組,135,2022/05/08 08:29:02,每日8:30開始發放，每週四休息.
5922012712,誠泰藥師藥局,嘉義市東區安寮里興業東路５６號１樓,120.4555,23.46932,(05)2168905,羅氏家用新冠病毒抗原自我檢測套組,24,2022/05/08 08:29:02,快篩實名制早上8點開始販售
5922013148,後庄弘安藥局,嘉義市東區吳鳳南路２９８號１樓,120.4587,23.4566,(05)2305678,羅氏家用新冠病毒抗原自我檢測套組,25,2022/05/08 08:29:02,無
5922013175,森活中西藥局,嘉義市東區吳鳳北路２０８號一樓,120.4533,23.47931,(05)2288518,羅氏家用新冠病毒抗原自我檢測套組,1,2022/05/08 08:29:02,8:30開始發放號碼牌，12:00~14:00領取快篩
5922020063,弘安藥局,嘉義市西區文化路２７７號,120.4486,23.48383,(05)2259000,羅氏家用新冠病毒抗原自我檢測套組,7,2022/05/08 08:29:02,營業時間 08:00-22:00 週一~週日販售快篩時間08:00-售罄；請自備零錢（面額500、1000不找零）
5922020125,照安藥局,嘉義市西區福全里博愛路２段３６１號,120.435,23.47573,(05)2332883,羅氏家用新冠病毒抗原自我檢測套組,54,2022/05/08 08:29:02,口罩代售時間於08：00開始販售；現場。
5922020358,泰春藥局,嘉義市西區學圃里民生北路６６號,120.4468,23.47543,(05)2224118,羅氏家用新冠病毒抗原自我檢測套組,17,2022/05/08 08:29:02,快篩試劑販售時間：早上9點至晚上9點
5922020456,啄木鳥藥局,嘉義市西區國華里文化路２５３號,120.4488,23.48298,(05)2226497,羅氏家用新冠病毒抗原自我檢測套組,34,2022/05/08 08:29:02,實名制快篩8:15開始販售.售完為止
5922020518,永安藥局,嘉義市西區西平里信義路４９之１號,120.4344,23.47431,(05)2358368,羅氏家用新冠病毒抗原自我檢測套組,55,2022/05/08 08:29:02,口罩：星期一至星期日9點販售，售完為止，現場排隊
5922020670,興嘉藥局,嘉義市西區興業西路３７０號,120.4373,23.46793,(05)2841812,羅氏家用新冠病毒抗原自我檢測套組,26,2022/05/08 08:29:02,固定週一至週日8:15開放領取口罩，至售完為止
5922020858,大統藥局,嘉義市西區慶安里北興街１３６號,120.4421,23.48389,(05)2330230,羅氏家用新冠病毒抗原自我檢測套組,74,2022/05/08 08:29:02,5月7日預約登記已滿.有預約的民眾請於上午9:00點後領取
5922020992,昭安藥局,嘉義市西區民生南路４７９號１樓,120.4437,23.45821,(05)2842240,羅氏家用新冠病毒抗原自我檢測套組,48,2022/05/08 08:29:02,無
5922028783,勝成藥局,嘉義市西區南京路１２６巷１９號,120.4406,23.45687,(05)2360247,羅氏家用新冠病毒抗原自我檢測套組,75,2022/05/08 08:29:02,4月28日起9:30至12:00販賣快篩試劑，請於現場排隊，售完為止
592202A054,萬泰藥師藥局,嘉義市西區民族路４９４號,120.449,23.47605,(05)2168605,羅氏家用新冠病毒抗原自我檢測套組,8,2022/05/08 08:29:02,快篩實名制8:00開始販售
592202A296,秉原藥局,嘉義市西區書院里民族路７００號,120.4435,23.47554,(05)2285811,羅氏家用新冠病毒抗原自我檢測套組,21,2022/05/08 08:29:02,早上8:00開始販售~售完為止!
592202A349,力健藥局,嘉義市西區文化路５９１號,120.4443,23.49355,(05)2323217,羅氏家用新冠病毒抗原自我檢測套組,45,2022/05/08 08:29:02,營業時間為早上8:00至中午13:00，下午2:30至晚上9:30，口罩發放從早上8:30至售完為止
592202A465,廣元藥局,嘉義市西區民安里中正路６９７號,120.4421,23.47842,(05)2252733,羅氏家用新冠病毒抗原自我檢測套組,74,2022/05/08 08:29:02,5／6（五）起，實名制快篩早上8:30開賣~售完為止!
5931010217,皇安藥局,新北市板橋區中山路２段２４１號,121.4772,25.01757,(02)29524089,羅氏家用新冠病毒抗原自我檢測套組,78,2022/05/08 08:29:02,快篩星期一三五單號，星期二四號雙號
5931010646,人民藥局,新北市板橋區仁愛路５９號,121.4604,24.99965,(02)89533956,羅氏家用新冠病毒抗原自我檢測套組,75,2022/05/08 08:29:02,1.依政府規定當日配送，當日販售。2.因每日郵局配送時間不一定，詳看現場公告。.
5931011250,錦龍藥局,新北市板橋區長安街１３８巷１弄１１４號,121.4743,25.0103,(02)29522290,羅氏家用新冠病毒抗原自我檢測套組,155,2022/05/08 08:29:02,週一至周日早上8:30~開始發售， 售完為止。
5931011330,戴安藥局,新北市板橋區溪北路５４號,121.4276,24.98982,(02)26818663,羅氏家用新冠病毒抗原自我檢測套組,24,2022/05/08 08:29:02,無
5931012060,溪北藥局,新北市板橋區溪北路７８號１樓,121.4281,24.98953,(02)26866528,羅氏家用新冠病毒抗原自我檢測套組,27,2022/05/08 08:29:02,無
5931013361,長欣藥師藥局,新北市板橋區中山路２段５０５巷３６號,121.4821,25.02246,(02)29585308,羅氏家用新冠病毒抗原自我檢測套組,1,2022/05/08 08:29:02,無
5931015721,新進發大藥局,新北市板橋區大同街２４號１樓,121.4787,25.0275,(02)22593926,羅氏家用新冠病毒抗原自我檢測套組,44,2022/05/08 08:29:02,快篩上午10點開門即賣，排隊不發號碼
5931017001,聯康藥局,新北市板橋區南雅南路２段１３６號（１樓）,121.4518,24.99656,(02)89674888,羅氏家用新冠病毒抗原自我檢測套組,78,2022/05/08 08:29:02,快篩上午9:30開始發放
5931017869,躍獅國慶藥局,新北市板橋區國慶路１７９號（１樓）,121.4626,24.99636,(02)29641548,羅氏家用新冠病毒抗原自我檢測套組,156,2022/05/08 08:29:02,快篩實名制，每天14:00開始販售，售完為止
5931017903,吉發藥局,新北市板橋區文化路１段１８８巷５弄１５號（１樓）,121.4674,25.01986,(02)22577381,羅氏家用新冠病毒抗原自我檢測套組,78,2022/05/08 08:29:02,無
5931017994,後埔藥局,新北市板橋區華興街９號（１樓）,121.459,25.00457,(02)89510306,羅氏家用新冠病毒抗原自我檢測套組,1,2022/05/08 08:29:02,5／7 下午2點發放號碼牌*確保作業流暢請自備500元*每天 78 份晚上10 點以前領取完畢（過卡時間差異剩餘數量僅供參考）
5931018106,力安藥局,新北市板橋區莒光路１９６巷８號（１樓）,121.4738,25.02255,(02)22503349,羅氏家用新冠病毒抗原自我檢測套組,13,2022/05/08 08:29:02,快篩實名制，早上9點依現場順序開始販售快篩，售完為止。
5931020400,新迪化中西藥局,新北市三重區三陽路２７號１樓,121.4855,25.05893,(02)29884755,羅氏家用新冠病毒抗原自我檢測套組,78,2022/05/08 08:29:02,快篩實名制中午12點開始販售，發號碼牌
5931020688,厚德藥局,新北市三重區大智街１７５號１樓,121.4898,25.07265,(02)29717277,羅氏家用新冠病毒抗原自我檢測套組,78,2022/05/08 08:29:02,防疫口罩於早上0830發放，售完為止
5931020991,久洲藥局,新北市三重區長元街５１－９號,121.5009,25.06616,(02)29783515,羅氏家用新冠病毒抗原自我檢測套組,73,2022/05/08 08:29:02,快篩八點半發號碼牌12點至1點領快篩
5931021416,國星藥局,新北市三重區溪尾街１０９號,121.4898,25.07867,(02)29859203,羅氏家用新冠病毒抗原自我檢測套組,3,2022/05/08 08:29:02,無
5931023018,重德藥局,新北市三重區正義北路２４６號２樓,121.496,25.06827,(02)89816164,羅氏家用新冠病毒抗原自我檢測套組,62,2022/05/08 08:29:02,無
5931024168,合康健保藥局,新北市三重區三和路４段３８４號１樓,121.4824,25.0789,(02)22869999,羅氏家用新冠病毒抗原自我檢測套組,78,2022/05/08 08:29:02,快篩試劑販售時間每日早上0845
5931024588,陽光藥師藥局,新北市三重區三和路２段１８２號１樓,121.4987,25.06886,(02)29788120,羅氏家用新冠病毒抗原自我檢測套組,71,2022/05/08 08:29:02,無
5931024962,建祥三和藥局,新北市三重區三和路２段１６０號１樓,121.4992,25.06853,(02)29703379,羅氏家用新冠病毒抗原自我檢測套組,78,2022/05/08 08:29:02,實名制快篩10:00發放號碼牌
5931025567,閎安藥局,新北市三重區重新路２段８５號１樓、２樓,121.4962,25.06181,(02)29881968,羅氏家用新冠病毒抗原自我檢測套組,4,2022/05/08 08:29:02,每日皆執行調劑業務，快篩代售時間每日下午三點發號碼牌並領取
5931025638,華安生活藥局,新北市三重區重新路２段１２６號１樓,121.4963,25.0616,(02)29756534,羅氏家用新冠病毒抗原自我檢測套組,21,2022/05/08 08:29:02,國定例假日執行調劑業務
5931025656,煜安健保藥局,新北市三重區光明路２３號１樓,121.4912,25.05856,(02)29768128,羅氏家用新冠病毒抗原自我檢測套組,55,2022/05/08 08:29:02,國定假日執行調劑業務
5931025692,杏一三重集成藥局,新北市三重區集成路４３號１樓,121.4893,25.05271,(02)29743410,羅氏家用新冠病毒抗原自我檢測套組,38,2022/05/08 08:29:02,5／5 暫停販售  5／6下午三點開始發放號碼牌
5931025790,銀河藥局,新北市三重區五華街２４７號１樓,121.4892,25.08623,(02)28578688,羅氏家用新冠病毒抗原自我檢測套組,5,2022/05/08 08:29:02,實名制快篩販售時間：周一至週五下午三點，周六上午十點，星期日不販售
5931025807,永福藥局,新北市三重區永福街３號１樓,121.4827,25.07837,(02)22861161,羅氏家用新冠病毒抗原自我檢測套組,76,2022/05/08 08:29:02,15:00排隊拿號碼牌買快篩
5931025898,新宜安中西藥局,新北市三重區三陽路３０號１樓,121.4854,25.05867,(02)29883693,羅氏家用新冠病毒抗原自我檢測套組,78,2022/05/08 08:29:02,【實名制快篩試劑】依每日物流到貨狀況，請加LINE ID：「@692qferj」或FB：新宜安中西藥局公告告知。
5931026028,宏欣藥局,新北市三重區仁愛街５１７號２樓,121.4878,25.08227,(02)29811234,羅氏家用新冠病毒抗原自我檢測套組,77,2022/05/08 08:29:02,一~五16:00，日09:30，六不發
5931033461,常安中西藥局,新北市永和區保平路２６號１樓,121.5122,25.00749,(02)29283530,羅氏家用新冠病毒抗原自我檢測套組,2,2022/05/08 08:29:02,每日下午三點開始實名制快篩
5931033621,永正健康人生藥局,新北市永和區中正路１９１、１９３號１樓、１９７號２樓,121.5171,24.99931,(02)29467351,羅氏家用新冠病毒抗原自我檢測套組,78,2022/05/08 08:29:02,實名制快篩9點開賣
5931033989,悠活藥局,新北市永和區得和路３３０號１樓,121.5233,24.99947,(02)31516288,羅氏家用新冠病毒抗原自我檢測套組,28,2022/05/08 08:29:02,營業時間:週一~週日:8:00-22:00
5931034039,叁品藥局,新北市永和區秀朗路２段１１８號１樓,121.5244,25.00152,(02)29208800,羅氏家用新冠病毒抗原自我檢測套組,77,2022/05/08 08:29:02,實名制快篩 下午一點發放號碼牌
5931034084,柏愛藥局,新北市永和區竹林路５７號１樓,121.5183,25.01386,(02)89285609,羅氏家用新冠病毒抗原自我檢測套組,77,2022/05/08 08:29:02,實名制快篩每日0930開賣.國定假日營業時間0900-1700
5931034128,富康活力永和藥局,新北市永和區中和路４２９號１樓,121.5094,25.00093,(02)29263191,羅氏家用新冠病毒抗原自我檢測套組,156,2022/05/08 08:29:02,無
5931034137,永杏中西藥局,新北市永和區竹林路１１８號１樓,121.5198,25.01141,(02)89210338,羅氏家用新冠病毒抗原自我檢測套組,1,2022/05/08 08:29:02,實名制快篩下午一點開賣，請留意FB官方訊息
5931034146,亮點藥局,新北市永和區竹林路７１號１樓,121.5186,25.01355,(02)89253895,羅氏家用新冠病毒抗原自我檢測套組,66,2022/05/08 08:29:02,快篩發放時段 下午16:30-18:00
5931040055,瑞發藥局,新北市中和區民享街５６－１號,121.474,25.00236,(02)22235319,羅氏家用新冠病毒抗原自我檢測套組,13,2022/05/08 08:29:02,口罩代售時間自08:00；號碼牌發放時間自08:00
5931042326,璟福藥局,新北市中和區安平路７６號１樓,121.511,24.99652,(02)29408669,羅氏家用新冠病毒抗原自我檢測套組,35,2022/05/08 08:29:02,無
5931042648,恩溢藥局,新北市中和區復興路７９號１樓.２樓,121.5035,24.9902,(02)22452450,羅氏家用新冠病毒抗原自我檢測套組,2,2022/05/08 08:29:02,無
5931042899,家家藥局,新北市中和區民德路４３號,121.469,25.00219,(02)29587512,羅氏家用新冠病毒抗原自我檢測套組,78,2022/05/08 08:29:02,實名制快篩早上09:00販售，若人數眾多會發號碼牌，有拿到者可現場領取。
5931044044,宥元藥局,新北市中和區德光路６２號１樓,121.4696,25.00398,(02)89535473,羅氏家用新冠病毒抗原自我檢測套組,7,2022/05/08 08:29:02,週一至周六10:30-22:00發放口罩
5931044133,康富力藥局,新北市中和區仁愛街３２號１樓,121.5109,24.98843,(02)29429896,羅氏家用新冠病毒抗原自我檢測套組,78,2022/05/08 08:29:02,快篩代售時間：周一至周五9:30、週六14:00
5931044393,躍獅康銓藥局,新北市中和區莒光路１４６號１樓,121.4725,25.00088,(02)29646452,羅氏家用新冠病毒抗原自我檢測套組,25,2022/05/08 08:29:02,實名制快篩 每日上午09:10開始販售，週日店休
5931044580,躍獅天晴藥局,新北市中和區和平街９號１樓,121.5095,24.99025,(02)29491931,羅氏家用新冠病毒抗原自我檢測套組,78,2022/05/08 08:29:02,無
5931044660,吉佑藥局,新北市中和區大勇街３４號１樓,121.5174,24.99345,(02)89416539,羅氏家用新冠病毒抗原自我檢測套組,57,2022/05/08 08:29:02,無
5931044884,壹品藥局,新北市中和區福祥路５５號１樓,121.4992,25.00474,(02)22481818,羅氏家用新冠病毒抗原自我檢測套組,74,2022/05/08 08:29:02,實名制快篩下午1點發放號碼牌
5931044973,佳禾藥局,新北市中和區自立路３２號１樓,121.5226,24.9928,(02)29428989,羅氏家用新冠病毒抗原自我檢測套組,61,2022/05/08 08:29:02,快篩資訊 每天早上9點發號碼牌同時開始販售
5931044982,萊恩藥局,新北市中和區景安路２０９號１樓,121.5046,24.99192,(02)29468395,羅氏家用新冠病毒抗原自我檢測套組,83,2022/05/08 08:29:02,每週星期一到星期六（星期天依店內公告），早上9點發號碼牌押健保卡，12點後領取快篩
5931045112,景安藥局,新北市中和區景德街１４１號１樓及景平路１１１巷６０弄５６號,121.5175,24.99156,(02)86688215,羅氏家用新冠病毒抗原自我檢測套組,62,2022/05/08 08:29:02,實名制快篩每日販售時段08:10~21:00，請持健保卡現場排隊依序購買，售完為止。
5931045210,廣來藥師藥局,新北市中和區員山路３９３號１樓,121.4811,25.00293,(02)32340393,羅氏家用新冠病毒抗原自我檢測套組,78,2022/05/08 08:29:02,代為販售實名制快篩，販售時間：每天上午11點到中午12點為止。
5931045292,福欣藥局,新北市中和區中和路１４８號１樓,121.504,24.99961,(02)22485500,羅氏家用新冠病毒抗原自我檢測套組,79,2022/05/08 08:29:02,無
5931045354,榮記大藥局,新北市中和區員山路４８２號１樓,121.4799,25.00683,(02)22239546,羅氏家用新冠病毒抗原自我檢測套組,78,2022/05/08 08:29:02,實名制快篩試劑:周一到周五上午8點開賣，周六上午8:30開賣
5931045372,伍品藥局,新北市中和區莊敬路３５號１樓,121.5007,25.00503,(02)82456789,羅氏家用新冠病毒抗原自我檢測套組,67,2022/05/08 08:29:02,實名制快篩下午14:00點發號碼牌，請自備500元紙鈔　－　15:00後取回健保卡 感謝！（週日）停止販售快篩！
5931045461,富康活力遠東藥局,新北市中和區建八路１０之１號１樓,121.4865,24.99805,(02)82262299,羅氏家用新冠病毒抗原自我檢測套組,156,2022/05/08 08:29:02,因屬園區大樓，販售時間請依LINE社群公告
5931050417,世明藥局,新北市新店區北新路３段１２０號１樓,121.5417,24.98174,(02)29122139,羅氏家用新冠病毒抗原自我檢測套組,1,2022/05/08 08:29:02,快篩實名制販售時間：下午13:00~14:00
5931052288,躍獅正新藥局,新北市新店區中正路５７之１號１樓,121.5443,24.96989,(02)89145930,羅氏家用新冠病毒抗原自我檢測套組,83,2022/05/08 08:29:02,星期一至六9:00為領取快篩號碼牌，20:00以前帶號碼牌來取快篩
5931052715,陽光健康藥局,新北市新店區安民街２１４號,121.5174,24.9722,(02)22123919,羅氏家用新冠病毒抗原自我檢測套組,78,2022/05/08 08:29:02,實名制快篩於早上9點開始販售  以現場排隊為主
5931053070,美康中正藥局,新北市新店區中正路２１５號１、２樓,121.5397,24.97284,(02)29112669,羅氏家用新冠病毒抗原自我檢測套組,78,2022/05/08 08:29:02,無號牌.自主排隊.自主管理.快篩 1430-2200 唷~
5931053169,貳品藥局,新北市新店區新和街７５號１樓,121.5205,24.98612,(02)89418890,羅氏家用新冠病毒抗原自我檢測套組,78,2022/05/08 08:29:02,實名制快篩下午一點半依排隊順序發售
5931053178,長照藥局,新北市新店區如意街１６號１樓,121.4944,24.94838,(02)22153325,羅氏家用新冠病毒抗原自我檢測套組,78,2022/05/08 08:29:02,請注意5／8快篩上午10:00開賣 現場自主排隊不發號碼牌（請勿再來電詢問了）
5931053267,富康活力惠國藥局,新北市新店區中正路７８號１樓,121.5439,24.97036,(02)29100066,羅氏家用新冠病毒抗原自我檢測套組,38,2022/05/08 08:29:02,實名制快篩，若當日有貨販售，於8:00準時開賣，請攜帶健保卡／居留證，謝謝您。
5931053347,健詮藥局,新北市新店區建國路１１９號１樓,121.5398,24.97777,(02)29116312,羅氏家用新冠病毒抗原自我檢測套組,2,2022/05/08 08:29:02,11點發號碼牌，12點半-3點過卡買快篩。最新消息會公佈在臉書「健詮藥局」
5931053383,大豐藥局,新北市新店區北新路３段５３號之１（１樓）,121.5417,24.9807,(02)89113196,羅氏家用新冠病毒抗原自我檢測套組,1,2022/05/08 08:29:02,每日下午2點發號碼牌同步販售實名制快篩試劑 請自備500元
5931060431,武田藥局,新北市新莊區化成路２１２號,121.4657,25.0465,(02)29944029,羅氏家用新冠病毒抗原自我檢測套組,28,2022/05/08 08:29:02,無
5931060628,錄新藥局,新北市新莊區後港一路７６巷１０弄１號,121.427,25.02604,(02)22051849,羅氏家用新冠病毒抗原自我檢測套組,156,2022/05/08 08:29:02,無
5931067403,建嘉藥局,新北市新莊區中誠街４２號１樓,121.4513,25.04812,(02)29925261,羅氏家用新冠病毒抗原自我檢測套組,52,2022/05/08 08:29:02,無
5931068508,凱盛藥局,新北市新莊區光榮里西盛街１９９號,121.4282,25.01706,(02)22024914,羅氏家用新冠病毒抗原自我檢測套組,77,2022/05/08 08:29:02,無
5931069201,招安藥師藥局,新北市新莊區西盛街３３８號１樓,121.428,25.01436,(02)22085138,羅氏家用新冠病毒抗原自我檢測套組,16,2022/05/08 08:29:02,5／1 5／2 並無快篩試劑到貨 請勿來電或來店購買
5931069603,中信藥師藥局,新北市新莊區中信街８０號１樓,121.448,25.05311,(02)29969811,羅氏家用新冠病毒抗原自我檢測套組,63,2022/05/08 08:29:02,AM 07:30 開始
593106A093,環球藥局,新北市新莊區中港路４３６號１、２樓,121.452,25.05105,(02)29901934,羅氏家用新冠病毒抗原自我檢測套組,15,2022/05/08 08:29:02,營業時間8-23，全年無休  **實名制快篩，每日下午3點發放號碼牌**
593106A584,記安大藥局,新北市新莊區天祥街４６號１樓,121.4169,25.02893,(02)22095331,羅氏家用新冠病毒抗原自我檢測套組,2,2022/05/08 08:29:02,無
593106A637,薇妮藥妝藥局,新北市新莊區民安路９９號１樓,121.4245,25.02524,(02)82010817,羅氏家用新冠病毒抗原自我檢測套組,4,2022/05/08 08:29:02,無
593106A646,薇妮雙鳳藥局,新北市新莊區雙鳳路２１號１樓,121.4167,25.02677,(02)29076993,羅氏家用新冠病毒抗原自我檢測套組,78,2022/05/08 08:29:02,實名制快篩每日早上9:00現場排隊購買，無發號碼牌
593106A897,陽光豐年藥局,新北市新莊區豐年街１４號１樓,121.4463,25.03287,(02)22060665,羅氏家用新冠病毒抗原自我檢測套組,81,2022/05/08 08:29:02,無
593106A995,美德心藥局,新北市新莊區中平路３６７號１樓,121.4446,25.05226,(02)29989025,羅氏家用新冠病毒抗原自我檢測套組,67,2022/05/08 08:29:02,快篩實名制，每天14:30發號碼牌，持號碼牌依現場順序排隊購買，售完為止。（如物流配送不及，則另行公告）
593106B036,家嘉藥局,新北市新莊區自立街１０３號（１樓）,121.4553,25.04549,(02)89926488,羅氏家用新冠病毒抗原自我檢測套組,1,2022/05/08 08:29:02,今天號碼牌都已發放完畢
593106B296,廣元藥局,新北市新莊區雙鳳路２號（１樓）,121.4175,25.02688,(02)29044988,羅氏家用新冠病毒抗原自我檢測套組,109,2022/05/08 08:29:02,快篩實名制5／8開始每日17:00販售
5931070062,鴻真藥局,新北市樹林區保安街１段２０巷６號,121.4277,24.99363,(02)26828977,羅氏家用新冠病毒抗原自我檢測套組,75,2022/05/08 08:29:02,無
5931070080,耀鴻藥局,新北市樹林區中山路３段７６號,121.3936,24.97239,(02)26808989,羅氏家用新冠病毒抗原自我檢測套組,86,2022/05/08 08:29:02,每天都有發放口罩
5931071523,蔚海藥局,新北市樹林區鎮前街１７號１樓,121.4259,24.99263,(02)86754203,羅氏家用新冠病毒抗原自我檢測套組,78,2022/05/08 08:29:02,固定每日早上8點45分發放快篩， 發完為止
5931071881,盛立藥局,新北市樹林區大雅路２８５號１樓,121.3795,24.94735,(02)35018218,羅氏家用新冠病毒抗原自我檢測套組,78,2022/05/08 08:29:02,政府快篩平日下午1:50發號碼牌，下午2:00準時販售，假日視政府配量（販售時間相同）
5931071916,立欣藥局,新北市樹林區三福街１６６號,121.4047,25.01619,(02)26764728,羅氏家用新冠病毒抗原自我檢測套組,77,2022/05/08 08:29:02,口罩代售時間 每日下午14:30 號碼牌發放時間14:20 現場排隊
5931072253,活水藥局,新北市樹林區鎮前街２１號１樓,121.4259,24.99255,(02)26818928,羅氏家用新冠病毒抗原自我檢測套組,74,2022/05/08 08:29:02,無
5931072299,小蜜蜂中西健保藥局,新北市樹林區東榮街１１８號１樓,121.4154,24.9823,(02)86853677,羅氏家用新冠病毒抗原自我檢測套組,125,2022/05/08 08:29:02,快篩試劑發售時間：基本為早上八點   PS：如政府配送不及，發售時間會現場另行公告。
5931081234,文瑞藥局,新北市鶯歌區尖山路２９６號,121.3406,24.94437,(02)26780589,羅氏家用新冠病毒抗原自我檢測套組,14,2022/05/08 08:29:02,快篩下午14:00開始販售  假日販售時間前一天公告
5931081547,信義健保藥局,新北市鶯歌區信義街６３號１樓,121.3534,24.95571,(02)86775563,羅氏家用新冠病毒抗原自我檢測套組,39,2022/05/08 08:29:02,發放時間以現場公告為主
5931081556,易加藥局,新北市鶯歌區尖山路１３７巷４號,121.3469,24.94851,(02)26705686,羅氏家用新冠病毒抗原自我檢測套組,78,2022/05/08 08:29:02,快篩週一至週六早上8:55發號碼牌，9:00開始販售，週日早上9:00-10:00販售
5931090279,勝全藥局,新北市三峽區大同路２７之１號１樓,121.3769,24.92836,(02)26736186,羅氏家用新冠病毒抗原自我檢測套組,1,2022/05/08 08:29:02,每日8:00-22:00營業，星期日11:00-17:00休息；快篩早上8點開始過卡賣完為止
5931091712,誠祐藥局,新北市三峽區光明路２２號１樓,121.3734,24.93084,(02)26746211,羅氏家用新冠病毒抗原自我檢測套組,48,2022/05/08 08:29:02,無
5931091865,大新藥局,新北市三峽區大義路２５９號１樓,121.3774,24.94638,(02)86713204,羅氏家用新冠病毒抗原自我檢測套組,3,2022/05/08 08:29:02,實名制快篩下午2:50開始發號碼牌 3:00販售
5931091892,三峽藥局,新北市三峽區介壽路１段２７號１樓,121.3757,24.93321,(02)26738868,羅氏家用新冠病毒抗原自我檢測套組,1,2022/05/08 08:29:02,快篩實名制，每天16:00開始販售，售完為止。
5931092068,益銘藥師藥局,新北市三峽區大德路１８１號１樓,121.3753,24.94573,(02)26723662,羅氏家用新冠病毒抗原自我檢測套組,1,2022/05/08 08:29:02,無
5931092219,北大藥局,新北市三峽區大義路９號１樓,121.3788,24.94372,(02)26738535,羅氏家用新冠病毒抗原自我檢測套組,48,2022/05/08 08:29:02,快篩發放依政府實際到貨時間為主會公告在臉書粉專
5931101937,文川藥局,新北市淡水區中山北路１段９３號１樓,121.4423,25.17631,(02)86319033,羅氏家用新冠病毒抗原自我檢測套組,69,2022/05/08 08:29:02,星期一-六下午14:50開始販售快篩試劑:星期日早上8:30開始販售
5931102078,躍獅竹圍藥局,新北市淡水區民生路４６號,121.4617,25.13781,(02)28090565,羅氏家用新冠病毒抗原自我檢測套組,15,2022/05/08 08:29:02,晚上7點販售快篩
5931102103,四季寶健保藥局,新北市淡水區新市一路３段１１７－１號（含夾層）,121.4468,25.18314,(02)26283199,羅氏家用新冠病毒抗原自我檢測套組,1,2022/05/08 08:29:02,無
5931102372,日揚藥局,新北市淡水區民族路３０巷５號,121.4612,25.13623,(02)26242059,羅氏家用新冠病毒抗原自我檢測套組,52,2022/05/08 08:29:02,5／7（六）下午1:00快篩實名制。5／8（日）公休無代售快篩實名制。
5931112136,汐芷藥局,新北市汐止區福德一路２５５號,121.6335,25.06447,(02)26924087,羅氏家用新冠病毒抗原自我檢測套組,76,2022/05/08 08:29:02,每日8:30現場發放....疫情期間勿恐慌.自費快篩請親臨親洽
5931112270,汐心藥局,新北市汐止區福德一路１５０號,121.6366,25.06687,(02)86932859,羅氏家用新冠病毒抗原自我檢測套組,66,2022/05/08 08:29:02,無
5931112314,杏光藥局,新北市汐止區建成路５９巷１９號１樓,121.6617,25.07287,(02)26411340,羅氏家用新冠病毒抗原自我檢測套組,78,2022/05/08 08:29:02,快篩每日早上十點販售  不發號碼牌
5931112369,汐止立欣藥局,新北市汐止區汐萬路二段２４９號１樓,121.6464,25.08835,(02)26464546,羅氏家用新冠病毒抗原自我檢測套組,12,2022/05/08 08:29:02,每日早上8:00販售實名制快篩。週日亦有販售。請先確認好購買資格（單、雙號及是否重複購買）。
5931113106,穎又安中西藥局,新北市汐止區樟樹一路１３５巷１３號１樓,121.6416,25.06546,(02)26412348,羅氏家用新冠病毒抗原自我檢測套組,62,2022/05/08 08:29:02,實名制快篩如有配送，早上九點開始賣，現場排隊，不發號碼牌
5931113133,祐欣藥局,新北市汐止區中興路２４０號１樓,121.6296,25.06805,(02)26950778,羅氏家用新冠病毒抗原自我檢測套組,78,2022/05/08 08:29:02,實名制快篩-每日早上9點開始發放號碼牌，發完78張號碼即=售完!! 請不要看帳面庫存!!
5931120156,瑞聯藥局,新北市瑞芳區明燈路３段１１號,121.8086,25.10743,(02)24975852,羅氏家用新冠病毒抗原自我檢測套組,75,2022/05/08 08:29:02,無
5931121411,長興堂藥局,新北市瑞芳區明燈路３段６９號１樓,121.8055,25.10824,(02)24972050,羅氏家用新冠病毒抗原自我檢測套組,74,2022/05/08 08:29:02,無
5931130358,盛安大藥局,新北市土城區中央路１段２５８號,121.4442,24.98436,(02)22668525,羅氏家用新冠病毒抗原自我檢測套組,96,2022/05/08 08:29:02,無
5931132272,富柏大藥局,新北市土城區水源街２２號１樓,121.4412,24.97535,(02)82626815,羅氏家用新冠病毒抗原自我檢測套組,10,2022/05/08 08:29:02,無
5931132307,廣昇健保藥師藥局,新北市土城區明德路１段５３號,121.4653,24.98476,(02)22638300,羅氏家用新冠病毒抗原自我檢測套組,1,2022/05/08 08:29:02,無
5931132389,凱一藥局,新北市土城區裕民路９２巷２１弄８號１樓,121.4501,24.98629,(02)22707679,羅氏家用新冠病毒抗原自我檢測套組,78,2022/05/08 08:29:02,服務時間10:00~21:00，每週二休息。實名制快篩皆於營業日的10:00開賣。
5931132405,小倉藥局,新北市土城區青雲路１９０號１樓,121.4591,24.98221,(02)22744257,羅氏家用新冠病毒抗原自我檢測套組,36,2022/05/08 08:29:02,快篩發放早上八點領號碼牌，一人卡限一張號碼牌，隨即憑號碼牌購買快篩，賣完為止。
5931132610,久安藥局,新北市土城區廣明街７０號１樓,121.455,24.9938,(02)89671097,羅氏家用新冠病毒抗原自我檢測套組,85,2022/05/08 08:29:02,每日依現場排隊於9:30開始販售，售完為止。5／1號勞動節 無販售
5931133037,國安健保藥局,新北市土城區延和路１０９號１樓,121.4678,24.99033,(02)22614933,羅氏家用新冠病毒抗原自我檢測套組,23,2022/05/08 08:29:02,無
5931133564,城恩藥局,新北市土城區學成路３４號１樓,121.4527,24.9873,(02)22735808,羅氏家用新冠病毒抗原自我檢測套組,1,2022/05/08 08:29:02,無
5931140238,謚安中西藥局,新北市蘆洲區永平街６號,121.4596,25.09055,(02)22836375,羅氏家用新冠病毒抗原自我檢測套組,78,2022/05/08 08:29:02,無
5931142018,福您安中西藥局,新北市蘆洲區長安街２４６巷６號１樓,121.458,25.08615,(02)82858322,羅氏家用新冠病毒抗原自我檢測套組,78,2022/05/08 08:29:02,無
5931143275,集賢藥局,新北市蘆洲區信義路２２２巷６１號１、２樓,121.4813,25.08535,(02)22882400,羅氏家用新冠病毒抗原自我檢測套組,78,2022/05/08 08:29:02,快篩實名制，每天16:00開始販售，售完為止。
5931150065,成泰藥局,新北市五股區成泰路１段１４３號,121.4354,25.07308,(02)22924305,羅氏家用新冠病毒抗原自我檢測套組,1,2022/05/08 08:29:02,無
5931151302,宏安藥局,新北市五股區成泰路２段１３６號,121.4382,25.08369,(02)22915932,羅氏家用新冠病毒抗原自我檢測套組,79,2022/05/08 08:29:02,口罩販售時間:每日08:15~23:00售完為止 星期日如果前一日還有庫存，當日照常販售
5931161433,仁安藥局,新北市泰山區明志路３段１７４號１樓,121.4242,25.03906,(02)29015586,羅氏家用新冠病毒抗原自我檢測套組,3,2022/05/08 08:29:02,無
5931161602,全成藥局,新北市泰山區明志路１段８３號１樓,121.4336,25.06434,(02)29093039,羅氏家用新冠病毒抗原自我檢測套組,71,2022/05/08 08:29:02,實聯制快篩: 早上8:30開始販售
5931161620,華特藥局,新北市泰山區明志路１段２６０號１樓,121.4321,25.06052,(02)29095662,羅氏家用新冠病毒抗原自我檢測套組,108,2022/05/08 08:29:02,5／7（六）-5／8（日）人力調度停止販售快篩 大家辛苦了 多多關心身邊的家人 加油 我們星期一再繼續奮鬥!!
5931170165,龍點藥局,新北市林口區民族路６７號１樓,121.3655,25.07532,(02)26080636,羅氏家用新冠病毒抗原自我檢測套組,78,2022/05/08 08:29:02,（代售實名制快篩時間: 星期二至星期日:9:00， 星期一:15:00）
5931171644,蛋寶寶藥局,新北市林口區民有街１５８號１樓,121.3725,25.07595,(02)26097371,羅氏家用新冠病毒抗原自我檢測套組,78,2022/05/08 08:29:02,5／21起 周六不販售快篩
5931181195,健康小站藥局,新北市深坑區埔新里北深路２段７５號,121.6184,25.00373,(02)26629568,羅氏家用新冠病毒抗原自我檢測套組,78,2022/05/08 08:29:02,販售時間
5931250042,信芳藥局,新北市雙溪區中華路５０號,121.866,25.03761,(02)24931301,羅氏家用新冠病毒抗原自我檢測套組,22,2022/05/08 08:29:02,無
5931270026,仁又堂藥局,新北市金山區信義路１７號,121.6373,25.22091,(02)24982468,羅氏家用新冠病毒抗原自我檢測套組,5,2022/05/08 08:29:02,無
5931270044,金宏仁藥局,新北市金山區中山路１９０巷２號,121.6382,25.22174,(02)24982402,羅氏家用新冠病毒抗原自我檢測套組,70,2022/05/08 08:29:02,無
5932010019,家佳藥局,桃園市桃園區瑞慶里莊一街８０號,121.2937,25.02199,(03)3175618,羅氏家用新冠病毒抗原自我檢測套組,74,2022/05/08 08:29:02,藥局不看診，周休二日
5932010337,明欣藥局,桃園市桃園區南平路２０６之３號,121.3013,25.01948,(03)3165639,羅氏家用新冠病毒抗原自我檢測套組,78,2022/05/08 08:29:02,實名快篩0840開始，一日就是78份（其中10份診所藥局防疫），不發號碼牌，請自行算人數.
5932012813,桃園大興藥局,桃園市桃園區大興西路二段７６巷３號,121.2984,25.01183,(03)3013222,羅氏家用新冠病毒抗原自我檢測套組,18,2022/05/08 08:29:02,快篩實名制，每天16:00開始販售，售完為止。
5932013392,桃園中正藥局,桃園市桃園區中正路３７３號,121.3079,24.99955,(03)3381600,羅氏家用新冠病毒抗原自我檢測套組,13,2022/05/08 08:29:02,快篩實名制，每天16:00開始販售，售完為止。
5932013687,桃園春日藥局,桃園市桃園區春日路８７８號,121.3096,25.01561,(03)3580101,羅氏家用新冠病毒抗原自我檢測套組,2,2022/05/08 08:29:02,快篩實名制，每天16:00開始販售，售完為止。
5932014077,新資生民安大藥局,桃園市桃園區民安路９８號１樓,121.2997,24.99691,(03)3310098,羅氏家用新冠病毒抗原自我檢測套組,29,2022/05/08 08:29:02,每日14:00開賣.售完為止.臉書粉專會公告最新訊息.可關注
5932014148,躍獅興業藥局,桃園市桃園區大業路２段１５號１樓,121.3112,25.01628,(03)3163569,羅氏家用新冠病毒抗原自我檢測套組,78,2022/05/08 08:29:02,快篩下午一點販售，現場排隊
5932014166,華康中西藥局,桃園市桃園區中埔六街３號１號,121.2964,25.01549,(03)3166920,羅氏家用新冠病毒抗原自我檢測套組,78,2022/05/08 08:29:02,營業時間:週一~周六:9:00-21:30。週日10:00-18:30 （5／7快篩已售完）（5／8實名快篩早上10:20領號碼牌）
5932014184,浤安藥局,桃園市桃園區慈德街１號１樓,121.3019,25.00685,(03)3577665,羅氏家用新冠病毒抗原自我檢測套組,78,2022/05/08 08:29:02,14:00開始發放實名制快篩
5932018539,新永安藥師藥局,桃園市桃園區永安路４６６號,121.2994,25.00081,(03)3471180,羅氏家用新冠病毒抗原自我檢測套組,58,2022/05/08 08:29:02,快篩實名制星期一~星期日早上8:30開賣，賣完為止，謝謝!
593201A640,大心藥局,桃園市桃園區中平路１４１號,121.2934,24.98627,(03)2209842,羅氏家用新冠病毒抗原自我檢測套組,78,2022/05/08 08:29:02,9:00發號碼牌，號碼牌當天有效，9:30開始販售，11:00前結束販售，以號碼牌為準請勿遺失
5932020324,回生藥局,桃園市中壢區福州二街４０８號,121.232,24.9676,(03)4616483,羅氏家用新冠病毒抗原自我檢測套組,78,2022/05/08 08:29:02,口罩販賣時段：早上9點，以藥局當日公告為主
5932020360,日進藥局,桃園市中壢區中山東路二段１５６號,121.2394,24.95276,(03)4569132,羅氏家用新冠病毒抗原自我檢測套組,30,2022/05/08 08:29:02,政府實名制快篩販售時間:每日早上08:00~售完為止！
5932021036,廣怡藥局,桃園市中壢區華勛街２５６號,121.2603,24.94865,(03)4366885,羅氏家用新冠病毒抗原自我檢測套組,34,2022/05/08 08:29:02,口罩販賣時段：開賣時間周一~周六13:30~17:30 、  周日8:30~11:30
5932021269,優良藥局,桃園市中壢區長春路２０號,121.2499,24.97907,(03)4612336,羅氏家用新冠病毒抗原自我檢測套組,1,2022/05/08 08:29:02,快篩販售時間10:00
5932021689,立康專業藥局,桃園市中壢區莊敬路８６５號,121.2543,24.96376,(03)4553121,羅氏家用新冠病毒抗原自我檢測套組,78,2022/05/08 08:29:02,快篩實名制販售時間週一到週五下午14:00販售 週六週日早上10:00販售 現場排隊
5932021830,億源藥局,桃園市中壢區林森路１７６號,121.2268,24.94399,(03)4595111,羅氏家用新冠病毒抗原自我檢測套組,63,2022/05/08 08:29:02,8:30-21:00／口罩販賣時段：08:30開始，售完為止
5932022257,星康生活藥局,桃園市中壢區中美路二段94號,121.2218,24.96005,(03)4252869,羅氏家用新冠病毒抗原自我檢測套組,2,2022/05/08 08:29:02,5／7-5／9 實名制快篩14:00販售  5／10之後另行公佈販賣時間
5932022524,家佳聯合藥局,桃園市中壢區中光路１４號,121.2256,24.95717,(03)4273960,羅氏家用新冠病毒抗原自我檢測套組,27,2022/05/08 08:29:02,實名制快篩:12：00販賣，售完為止
5932022631,中壢中正藥局,桃園市中壢區中正路３６３、３６５號,121.2163,24.95532,(03)4014100,羅氏家用新冠病毒抗原自我檢測套組,78,2022/05/08 08:29:02,快篩實名制，每天16:00開始販售，售完為止。
5932023012,鴻安中西藥局,桃園市中壢區新中北路二段１９１號１樓,121.2625,24.95597,(03)4520615,羅氏家用新冠病毒抗原自我檢測套組,71,2022/05/08 08:29:02,快篩1030-1130。週一到周日都有。
5932023512,大順藥局,桃園市中壢區興仁路三段５６號,121.2642,24.95469,(03)4654675,羅氏家用新冠病毒抗原自我檢測套組,2,2022/05/08 08:29:02,5／7起 快篩實名制，早上八點販售，售完為止。
5932023656,思琁藥師藥局,桃園市中壢區中北路二段４３０號,121.2331,24.95448,(03)4162189,羅氏家用新冠病毒抗原自我檢測套組,1,2022/05/08 08:29:02,週一~週五早上10:30發快篩..週六公休..週日看到貨狀況再另行公告
5932023665,生源藥局,桃園市中壢區中光路７１號,121.2275,24.95668,(03)4221606,羅氏家用新冠病毒抗原自我檢測套組,78,2022/05/08 08:29:02,快篩販賣時段：08:30～10:30
5932023889,華勛藥局,桃園市中壢區華勛街１１２、１１４號,121.2597,24.95065,(03)4161881,羅氏家用新冠病毒抗原自我檢測套組,1,2022/05/08 08:29:02,快篩實名制，每天16:00開始販售，售完為止。
5932024260,新資生福州大藥局,桃園市中壢區福州二街４０９號,121.232,24.96789,(03)3606180,羅氏家用新冠病毒抗原自我檢測套組,21,2022/05/08 08:29:02,營業時間：星期六 日 上午0900至下午1000
5932029676,中日大藥局,桃園市中壢區中北路二段７８號,121.225,24.95063,(03)4285068,羅氏家用新冠病毒抗原自我檢測套組,78,2022/05/08 08:29:02,快篩11點前到貨，11點開始販售；11點後到貨，到貨開始販售
593202A360,福德藥局,桃園市中壢區福德路３０號,121.2589,24.97388,(03)4511208,羅氏家用新冠病毒抗原自我檢測套組,7,2022/05/08 08:29:02,口罩販賣時段：8:00~
593202A833,君安藥局,桃園市中壢區中北路二段３９０號,121.2318,24.95388,(03)4685484,羅氏家用新冠病毒抗原自我檢測套組,48,2022/05/08 08:29:02,快篩試劑販售，週一至週五晚上7點，週六週日早上9點，視現場狀況而定，提前60分鐘發號碼牌，發完為止隨即販售
593202B054,幸福藥局,桃園市中壢區中光路３號,121.2255,24.95742,(03)4223092,羅氏家用新冠病毒抗原自我檢測套組,35,2022/05/08 08:29:02,口罩販賣時段：六日一三8:30~售完為止 ／二五14:30~售完為止／四10:00~售完為止
593202B483,千葉大藥局,桃園市中壢區新生路三Ｏ七號,121.223,24.96434,(03)4251886,羅氏家用新冠病毒抗原自我檢測套組,90,2022/05/08 08:29:02,快篩販賣時段：滾動式配送.滾動式販售.（正常時間配送 於早上8點販售）
5932031890,福生藥局,桃園市大溪區民權東路１０３號１樓,121.2919,24.88209,(03)3873533,羅氏家用新冠病毒抗原自我檢測套組,21,2022/05/08 08:29:02,早上八點開始發放快篩試劑
5932031907,福澤大溪藥局,桃園市大溪區復興路１０５號１樓,121.2911,24.87917,(03)3884886,羅氏家用新冠病毒抗原自我檢測套組,78,2022/05/08 08:29:02,家用快篩販賣時段15:30至售完為止
5932040246,龍泰藥局,桃園市楊梅區民族路五段１４７巷２號,121.1736,24.9586,(03)4901525,羅氏家用新冠病毒抗原自我檢測套組,6,2022/05/08 08:29:02,快篩販售時間:早上7:30領號碼牌下午2點至4點領快篩（當日有效） 六日中午10點至12點領快篩
5932042124,佑健藥師藥局,桃園市楊梅區中山北路二段一Ｏ八號一樓,121.1699,24.90855,(03)4315478,羅氏家用新冠病毒抗原自我檢測套組,29,2022/05/08 08:29:02,快篩販賣時段上午9點開始現場排隊， 售完為止
5932042339,德美藥局,桃園市楊梅區中正路８號,121.0829,24.93497,(03)2821668,羅氏家用新冠病毒抗原自我檢測套組,7,2022/05/08 08:29:02,口罩販售時間：售完為止
5932043309,資生楊梅大藥局,桃園市楊梅區楊新路１００號,121.1449,24.91341,(03)2889590,羅氏家用新冠病毒抗原自我檢測套組,6,2022/05/08 08:29:02,每日快篩代售時間14:00-21:00
5932043425,躍獅祥筠藥局,桃園市楊梅區萬大路１３５號,121.1786,24.90987,(03)4817458,羅氏家用新冠病毒抗原自我檢測套組,1,2022/05/08 08:29:02,5／6快篩試劑18:00發放（我不知道幾點排隊喔）
5932050215,九德藥局,桃園市蘆竹區中山路６９號,121.3003,25.05242,(03)3116868,羅氏家用新冠病毒抗原自我檢測套組,47,2022/05/08 08:29:02,口罩販賣時段：中午12點
5932052979,南崁藥局,桃園市蘆竹區中正路２５１、２５３、２５５號,121.2921,25.04695,(03)3522022,羅氏家用新冠病毒抗原自我檢測套組,157,2022/05/08 08:29:02,快篩實名制，每天16:00開始販售，售完為止。
5932053010,辰安藥局,桃園市蘆竹區上興路２１６號１樓,121.2601,25.01896,(03)3136631,羅氏家用新冠病毒抗原自我檢測套組,5,2022/05/08 08:29:02,5／7號碼牌已發完；08:00AM 發號碼牌；系統進貨已含隔日庫存*本藥局實名制快篩規則統一公告臉書
5932060088,銘方大藥局,桃園市大園區大園里中華路３２號,121.1982,25.06647,(03)3865077,羅氏家用新冠病毒抗原自我檢測套組,56,2022/05/08 08:29:02,快篩試劑販賣時段 : 早上 8:30 起至售完為止
5932070253,高田藥師藥局,桃園市龜山區山鶯路７６號,121.3237,24.99004,(03)3336363,羅氏家用新冠病毒抗原自我檢測套組,4,2022/05/08 08:29:02,口罩販賣時段：早上11:00-早上11:30
5932076862,和信藥局,桃園市龜山區南祥路５８號１樓,121.2979,25.04629,(03)2124028,羅氏家用新冠病毒抗原自我檢測套組,2,2022/05/08 08:29:02,快篩販賣時段：每日中午12點，5／8（日）母親節公休一日。
5932077298,家和藥局,桃園市龜山區建國東路９７號,121.3252,24.98754,(03)3196416,羅氏家用新冠病毒抗原自我檢測套組,3,2022/05/08 08:29:02,快篩販賣時段：週一至週日15:00-17:00
5932077305,全興藥局,桃園市龜山區光峰路１５３號１樓,121.3427,25.0026,(03)3597901,羅氏家用新冠病毒抗原自我檢測套組,2,2022/05/08 08:29:02,上午8:30開始販售實名制快篩試劑，禮拜日公休。
5932077510,左外野藥局,桃園市龜山區文光街６號１樓,121.3802,25.05471,(03)3271503,羅氏家用新冠病毒抗原自我檢測套組,75,2022/05/08 08:29:02,快篩販售:晚上19:30至20:30（週五公休）*不發號碼牌 請直接排隊購買
5932077574,樂樂聯合藥局,桃園市龜山區萬壽路１段１０９號１、２樓,121.4091,25.01886,(02)82000560,羅氏家用新冠病毒抗原自我檢測套組,78,2022/05/08 08:29:02,實名制快篩於每日9點開始發放號碼牌，發完為止。 中午12點至14點半為藥局休息時間
5932077618,大山藥局,桃園市龜山區中興路１段１８、２２、２４號１樓,121.3379,24.99376,(03)3191057,羅氏家用新冠病毒抗原自我檢測套組,60,2022/05/08 08:29:02,無
5932080035,慶昇藥局,桃園市八德區桃鶯路一Ｏ二號,121.3279,24.97006,(03)3648037,羅氏家用新冠病毒抗原自我檢測套組,68,2022/05/08 08:29:02,口罩販賣時段：9:00~12:00
5932084435,康健藥局,桃園市八德區介壽路ㄧ段８６３號,121.2999,24.96109,(03)3617226,羅氏家用新冠病毒抗原自我檢測套組,73,2022/05/08 08:29:02,無
5932084622,成大藥局,桃園市八德區廣福路１４１號,121.2958,24.95941,(03)3661575,羅氏家用新冠病毒抗原自我檢測套組,36,2022/05/08 08:29:02,政府快篩販賣時段:星期一至星期日早上八點至售完
5932084739,元冠大藥局,桃園市八德區豐德路１７號,121.295,24.92466,(03)3657868,羅氏家用新冠病毒抗原自我檢測套組,88,2022/05/08 08:29:02,無
5932084757,康是美藥局廣福店,桃園市八德區廣福路３０號,121.2981,24.95894,(03)3610841,羅氏家用新冠病毒抗原自我檢測套組,30,2022/05/08 08:29:02,無
5932084793,美康健保藥局,桃園市八德區桃鶯路９１號１、２樓,121.328,24.97036,(03)3613624,羅氏家用新冠病毒抗原自我檢測套組,4,2022/05/08 08:29:02,無
5932084800,瑞豐藥局,桃園市八德區興豐路５７７號１樓,121.2935,24.93075,(03)3681456,羅氏家用新冠病毒抗原自我檢測套組,1,2022/05/08 08:29:02,快篩實名制，每天16:00開始販售，售完為止。
5932100390,現代藥局,桃園市平鎮區育達路９６、９８號１樓,121.207,24.95155,(03)4922716,羅氏家用新冠病毒抗原自我檢測套組,14,2022/05/08 08:29:02,早上八點發號票後立即購買
5932100925,譽達藥局,桃園市平鎮區育達路２４０號１樓,121.2072,24.95155,(03)4922990,羅氏家用新冠病毒抗原自我檢測套組,42,2022/05/08 08:29:02,快篩星期一到六下午三點開始，現場領取，口罩地圖不準，以現場門口公告為主（星期日無販售）
5932101137,平鎮延平藥局,桃園市平鎮區延平路二段４３０巷７９—１６號,121.206,24.94458,(03)4918187,羅氏家用新冠病毒抗原自我檢測套組,166,2022/05/08 08:29:02,周一~周六，下午1點~3點販售公費快篩，12:58發放號碼牌，每日30份，請自備500元，不找零
5932101191,譽達文化藥局,桃園市平鎮區文化街８巷２號１樓,121.2027,24.95667,(03)4919660,羅氏家用新冠病毒抗原自我檢測套組,1,2022/05/08 08:29:02,星期一至星期六.早上10點發放（無預先發放號碼牌）-現場排隊購買.需自備零錢不找零
5932108305,晨安藥局,桃園市平鎮區振興西路99號,121.214,24.94629,(03)4925202,羅氏家用新冠病毒抗原自我檢測套組,28,2022/05/08 08:29:02,販售時段:早上8:00..... 22:00販賣
5932108574,天健示範藥局,桃園市平鎮區文化街２５２號,121.2032,24.95127,(03)4937169,羅氏家用新冠病毒抗原自我檢測套組,37,2022/05/08 08:29:02,快篩實名制每天8點販售，今日公休
593210A078,康健複合式連鎖藥局,桃園市平鎮區金陵路三段９１號,121.2276,24.92882,(03)4684601,羅氏家用新冠病毒抗原自我檢測套組,1,2022/05/08 08:29:02,實名制快篩試劑13:00開始，不發號碼牌，現場排隊售完為止，一人一卡，自備500元，恕不找零，不收銅板，謝謝配合
593210A103,瑞瑄社區大藥局,桃園市平鎮區中豐路南勢二段１６２號,121.2104,24.91523,(03)4396205,羅氏家用新冠病毒抗原自我檢測套組,3,2022/05/08 08:29:02,無
5932120016,吉利藥師藥局,桃園市觀音區富源里新富路１７０５號,121.1326,24.99095,(03)4901701,羅氏家用新冠病毒抗原自我檢測套組,1,2022/05/08 08:29:02,口罩販賣時段：週一至週六早上7:30起，售完為止
5932120098,金永生藥局,桃園市觀音區觀音里甘泉街７號,121.0814,25.03696,(03)4732072,羅氏家用新冠病毒抗原自我檢測套組,4,2022/05/08 08:29:02,全年無休，口罩販賣時段：週一至週日14:00起17:00
5932120105,新惠安藥局,桃園市觀音區崙坪里忠愛路一段３３號,121.1672,24.99356,(03)4981650,羅氏家用新冠病毒抗原自我檢測套組,5,2022/05/08 08:29:02,口罩販賣時段：07:30至售完為止）
5932120141,東尼藥局,桃園市觀音區觀音里中正路２２０號,121.0812,25.03472,(03)4734567,羅氏家用新冠病毒抗原自我檢測套組,58,2022/05/08 08:29:02,週一至週日早上7點開始發號碼牌，早上8點鐘至晚上8點鐘可以領取快篩
5932124390,合春藥局,桃園市觀音區新生路４６號,121.1359,25.01399,(03)4982300,羅氏家用新冠病毒抗原自我檢測套組,26,2022/05/08 08:29:02,每日早上8點開始販售
5933031652,合康藥局,新竹縣竹東鎮興農街１１號,121.0861,24.73988,(03)5103818,羅氏家用新冠病毒抗原自我檢測套組,13,2022/05/08 08:29:02,實名制快篩時段：下午17:00~22:30
5933031741,國豐大藥局,新竹縣竹東鎮長春路三段６號,121.0847,24.73678,(03)5960360,羅氏家用新冠病毒抗原自我檢測套組,47,2022/05/08 08:29:02,無
5933031750,仁愛藥局,新竹縣竹東鎮商華街３３號,121.0882,24.73729,(03)5953458,羅氏家用新冠病毒抗原自我檢測套組,24,2022/05/08 08:29:02,星期日不定期營業。口罩販賣時段：星期一至六10:00-12:00
5933050317,林保郎藥師藥局,新竹縣竹北市光明一路３９２號,121.0124,24.83101,(03)5586879,羅氏家用新冠病毒抗原自我檢測套組,45,2022/05/08 08:29:02,營業時間正常，口罩早上8點到晚上8點，口罩照常發放
5933051958,良美藥局,新竹縣竹北市博愛街174號,121.0058,24.83243,(03)5520460,羅氏家用新冠病毒抗原自我檢測套組,15,2022/05/08 08:29:02,無
5933052777,竹仁藥師藥局,新竹縣竹北市仁和街６號１樓,121.0124,24.83696,(03)5528947,羅氏家用新冠病毒抗原自我檢測套組,3,2022/05/08 08:29:02,快篩試劑／販售時間／以每日公告為主:星期一~星期日9:30~售完
5933052875,健樹藥局,新竹縣竹北市莊敬三路３９號１樓,121.0249,24.82242,(03)5505262,羅氏家用新冠病毒抗原自我檢測套組,78,2022/05/08 08:29:02,如期收到快篩時，每日早上10點開始販售，可追蹤啄木鳥耳鼻喉科臉書公告
5933053023,禾坊藥局,新竹縣竹北市科大一路８５號,121.0095,24.82142,(03)5588797,羅氏家用新冠病毒抗原自我檢測套組,1,2022/05/08 08:29:02,快篩販賣時段：每日09:00，營業時間9:00~22:00，除週六9:00~18:00
5933081447,彰懷藥局,新竹縣新豐鄉新興路75號1樓,120.9926,24.86639,(03)5572995,羅氏家用新冠病毒抗原自我檢測套組,7,2022/05/08 08:29:02,周一至星期日，每日早上八點開始販售，售完為止
5933081536,昌昌藥局,新竹縣新豐鄉新市路１９３號,120.9846,24.90465,(03)5598077,羅氏家用新冠病毒抗原自我檢測套組,74,2022/05/08 08:29:02,5／8（日）號碼牌已發放完畢。5／9（一）上午8:00開始發放號碼牌。
5933091112,暘光藥局,新竹縣芎林鄉文山路385號,121.0803,24.77533,(03)5121001,羅氏家用新冠病毒抗原自我檢測套組,12,2022/05/08 08:29:02,快篩相關訊息請搜尋臉書FB【暘光藥局】
5934010077,華大藥局,宜蘭縣宜蘭市新民路６４號,121.7568,24.75682,(03)9356412,羅氏家用新冠病毒抗原自我檢測套組,77,2022/05/08 08:29:02,上午8點30分賣出
5934011403,中興藥局,宜蘭縣宜蘭市中山路３段２０９號,121.7533,24.76081,(03)9369769,羅氏家用新冠病毒抗原自我檢測套組,72,2022/05/08 08:29:02,早上9點販售實名制快篩.
5934012286,健康藥局,宜蘭縣宜蘭市光復路１４９號１樓、２樓,121.7524,24.75577,(03)9315088,羅氏家用新冠病毒抗原自我檢測套組,35,2022/05/08 08:29:02,下午14:30開始販售快篩試劑，星期日8:00開始販售
5934020073,長生藥局,宜蘭縣羅東鎮復興路１段１號,121.7713,24.682,(03)9553222,羅氏家用新冠病毒抗原自我檢測套組,69,2022/05/08 08:29:02,5／7（六）下午2:00  實名制快篩貨到開賣    （快篩試劑販售時間為週一到週日；星期日早上08:30 開始販售）
5934021418,民生健保藥局,宜蘭縣羅東鎮中正南路５３號１樓,121.7716,24.66927,(03)9562354,羅氏家用新冠病毒抗原自我檢測套組,9,2022/05/08 08:29:02,快篩早上8:30點開賣
5934021481,怡林藥局,宜蘭縣羅東鎮興東南路１７４號,121.7675,24.67243,(03)9541926,羅氏家用新冠病毒抗原自我檢測套組,32,2022/05/08 08:29:02,快篩試劑每天早上8點開賣.不發號碼牌現刷現買.售完為止.
5934021632,上華藥局,宜蘭縣羅東鎮復興路２段１５９號,121.7652,24.68876,(03)9557655,羅氏家用新冠病毒抗原自我檢測套組,2,2022/05/08 08:29:02,上午8；00開始販售實名制快篩.售完為止.
5934021927,元氣藥局,宜蘭縣羅東鎮中正南路１９７之２號,121.7701,24.67258,(03)9541075,羅氏家用新冠病毒抗原自我檢測套組,2,2022/05/08 08:29:02,快篩試劑，每日7:40開賣，一天78份，售完為止
5934022148,培英藥局,宜蘭縣羅東鎮純精路２段１１３號１樓,121.7633,24.67703,(03)9558211,羅氏家用新冠病毒抗原自我檢測套組,61,2022/05/08 08:29:02,快篩販售時間 08:30開始
5934030015,南陽藥局,宜蘭縣蘇澳鎮中山路１段１２０號,121.8496,24.59608,(03)9965076,羅氏家用新冠病毒抗原自我檢測套組,14,2022/05/08 08:29:02,快篩販售時間：到貨就賣，售完為止
5935011523,天恩藥局,苗栗縣苗栗市中正路49號,120.8246,24.5688,(037)277285,羅氏家用新冠病毒抗原自我檢測套組,11,2022/05/08 08:29:02,快篩實名制，不發號碼牌，5／9起每日下午14:30販售，週日預約制。
5935011738,佳禾藥局,苗栗縣苗栗市青苗里建台街7號,120.821,24.55742,(037)373041,羅氏家用新冠病毒抗原自我檢測套組,18,2022/05/08 08:29:02,快篩試劑7：30發號碼牌8：00開始販賣，販賣時段：營業時間至售完為止
5935011925,廷安藥局,苗栗縣苗栗市府前路133號,120.8186,24.5606,(037)356839,羅氏家用新冠病毒抗原自我檢測套組,69,2022/05/08 08:29:02,口罩販賣時段：0900-售完  星期日休息
5935030153,維康藥局,苗栗縣通霄鎮信義路１０４號,120.6803,24.48809,(037)750000,羅氏家用新冠病毒抗原自我檢測套組,75,2022/05/08 08:29:02,早上8:30開始販售，售完為止，臉書也會更新最新資訊
5935030171,立安藥局,苗栗縣通霄鎮信義路１０７號,120.6804,24.48877,(037)760100,羅氏家用新冠病毒抗原自我檢測套組,1,2022/05/08 08:29:02,快篩實名制 週一到週六下午15:00開始販售  售完為止
5935030180,通霄藥局,苗栗縣通霄鎮中山路１３１號,120.678,24.48903,(037)755155,羅氏家用新冠病毒抗原自我檢測套組,2,2022/05/08 08:29:02,快篩實名制，每天16:00開始販售，售完為止。
5935040266,鴻仁大藥局,苗栗縣竹南鎮竹南里博愛街１８１號,120.8741,24.68686,(037)462396,羅氏家用新冠病毒抗原自我檢測套組,2,2022/05/08 08:29:02,無
5935040328,明志藥局,苗栗縣竹南鎮照南里博愛街４號,120.8797,24.68677,(037)472341,羅氏家用新冠病毒抗原自我檢測套組,1,2022/05/08 08:29:02,快篩賣時間:早上6:30~22:00。週六，周日照常。
5935051947,森品藥局,苗栗縣頭份市建國路２段１５０、１５２、１５６號,120.9032,24.69653,(037)672378,羅氏家用新冠病毒抗原自我檢測套組,3,2022/05/08 08:29:02,營業時間：9:00-22:30
5935061434,千江大藥局,苗栗縣後龍鎮忠孝路５９號,120.7908,24.61298,(037)037728208,羅氏家用新冠病毒抗原自我檢測套組,49,2022/05/08 08:29:02,無
5935071172,健安藥局,苗栗縣卓蘭鎮上新里上新七之１１號,120.8297,24.30834,(04)25899617,羅氏家用新冠病毒抗原自我檢測套組,1,2022/05/08 08:29:02,每日 15:00開賣快篩試劑
5935071216,萊恩藥局,苗栗縣卓蘭鎮上新里上新7之1號,120.83,24.30719,(04)25899369,羅氏家用新冠病毒抗原自我檢測套組,31,2022/05/08 08:29:02,快篩販賣時段：開門就賣-售完
5935090015,永信藥局,苗栗縣公館鄉館中村榮光街１６號,120.8271,24.50226,(037)223597,羅氏家用新冠病毒抗原自我檢測套組,78,2022/05/08 08:29:02,每日下午3點開始販售快篩
5935131075,安康藥局,苗栗縣三義鄉廣盛中正路１１４號,120.7698,24.41377,(037)875958,羅氏家用新冠病毒抗原自我檢測套組,43,2022/05/08 08:29:02,早上8:20開始銷售，售完為止。臉書也會發布最新資訊
5936010039,裕安藥局,臺中市豐原區南陽路南陽市場１１號,120.7239,24.24718,(04)25223494,羅氏家用新冠病毒抗原自我檢測套組,1,2022/05/08 08:29:02,無
5936010379,瑞輝藥局,臺中市豐原區西勢里西安街５６號,120.7136,24.24937,(04)25262821,羅氏家用新冠病毒抗原自我檢測套組,26,2022/05/08 08:29:02,每日早上8:00開賣
5936010628,協安大藥局,臺中市豐原區府前街６３號,120.7184,24.24957,(04)25200808,羅氏家用新冠病毒抗原自我檢測套組,4,2022/05/08 08:29:02,實名制快篩販售時間為每日下午兩點。
5936012097,林芳泉藥局,臺中市豐原區中正路二二八號,120.7173,24.25196,(04)25222308,羅氏家用新冠病毒抗原自我檢測套組,45,2022/05/08 08:29:02,每日 9:30 排隊方式販售。
5936012337,恆安大藥局,臺中市豐原區忠孝街４６號,120.7166,24.25276,(04)25226700,羅氏家用新冠病毒抗原自我檢測套組,9,2022/05/08 08:29:02,星期日下午及晚上店休
5936020017,郭藥局,臺中市東勢區南平里豐勢路３９４號,120.8294,24.25489,(04)25883382,羅氏家用新冠病毒抗原自我檢測套組,2,2022/05/08 08:29:02,週一至週日均於上午8:00發放號碼牌及收健保卡，上午9:30開始販賣
5936040135,德厚藥局,臺中市清水區慷榔里慷榔２街５０號,121.4874,25.07275,(04)26560733,羅氏家用新冠病毒抗原自我檢測套組,78,2022/05/08 08:29:02,實名制快篩試劑於週一至週日10:00開始發送號碼牌，請勿離開現場，售完為止。
5936090126,頭張藥局,臺中市潭子區頭張路一段１０８號,120.6998,24.1945,(04)25334510,羅氏家用新冠病毒抗原自我檢測套組,9,2022/05/08 08:29:02,口罩代售中:開放從早上8點到晚上11點前
5936100118,保昇藥局,臺中市大雅區月祥路９１２號,120.6292,24.24076,(04)25662495,羅氏家用新冠病毒抗原自我檢測套組,2,2022/05/08 08:29:02,即日起週一到週六下午四點，週日早上8點現場販售，售完為止
5936103066,大雅福倫藥局,臺中市大雅區學府路３５８號１樓,120.6485,24.22636,(04)25694218,羅氏家用新冠病毒抗原自我檢測套組,16,2022/05/08 08:29:02,實名制快篩因配送當天無法確定到貨時間，開賣時間另行公告於門口或FB粉絲頁，（每人可幫家人領一卡）
5936160105,建昌藥局,臺中市大肚區蔗廓里遊園路二段１６８號,120.5807,24.17265,(04)26910357,羅氏家用新冠病毒抗原自我檢測套組,3,2022/05/08 08:29:02,星期一~星期六早上08:30販售實名制快篩，星期日視政府配送狀況決定販售
5936171439,健康生活藥局,臺中市龍井區新興路９６之２５號,120.5848,24.18202,(04)26523949,羅氏家用新冠病毒抗原自我檢測套組,12,2022/05/08 08:29:02,防疫快篩時段08:00-12：00，14：00-21：30，星期五公休
5936171457,德康藥局,臺中市龍井區新興路１３７號,120.5829,24.1822,(04)26320137,羅氏家用新冠病毒抗原自我檢測套組,44,2022/05/08 08:29:02,週一~週六早上9點15分開始販售-現場排隊~全年無休 慢簽領藥.母嬰用品.營養保健.嬰幼兒奶粉尿布
5936190078,愛心藥局,臺中市太平區光華里中山路二段４１２－７號,120.7253,24.15023,(04)23929396,羅氏家用新冠病毒抗原自我檢測套組,55,2022/05/08 08:29:02,0830-1330...1530-2000營業配售口罩及家用快篩..
5936190336,仁和藥局,臺中市太平區新仁路一段１６０號,120.7034,24.11124,(04)22783239,羅氏家用新冠病毒抗原自我檢測套組,3,2022/05/08 08:29:02,口罩販賣時間詳情，請見藥局粉絲團專頁
5936192376,興隆藥局,臺中市太平區興隆路１段２５０號１樓,120.7305,24.11236,(04)22774633,羅氏家用新冠病毒抗原自我檢測套組,68,2022/05/08 08:29:02,口罩周一至周日早上8:30開始販售，售完為止。（周日不休息）
593620B138,聯生中西健保藥局,臺中市大里區現岱路１５８巷１１號,120.6919,24.10295,(04)24834058,羅氏家用新冠病毒抗原自我檢測套組,43,2022/05/08 08:29:02,早上八點半領號碼牌下午四點到六點領口罩W6W日早七點
593620B316,華信藥局,臺中市大里區益民路２段１２號１樓,120.6889,24.10649,(04)24872992,羅氏家用新冠病毒抗原自我檢測套組,78,2022/05/08 08:29:02,上午8:40開賣，賣完為止
5937010613,榮源藥局,彰化縣彰化市忠權里辭修路１２８巷９號,120.5374,24.08608,(04)7229432,羅氏家用新冠病毒抗原自我檢測套組,78,2022/05/08 08:29:02,快篩實名制每日早上8:00開賣
5937010999,全杏藥局,彰化縣彰化市茄苳路一段２９９號,120.5455,24.09625,(04)7363366,羅氏家用新冠病毒抗原自我檢測套組,9,2022/05/08 08:29:02,星期一至五早上7點半，星期六早上8點，星期日早上8點至10點
5937011021,龍美藥局,彰化縣彰化市中山路三段２２８號,120.5589,24.08606,(04)7249816,羅氏家用新冠病毒抗原自我檢測套組,56,2022/05/08 08:29:02,固定周一至周六09:00-12:00開始依號碼牌順序販售  週日有開店才販售剩餘請見店外告示
5937012180,大新藥局,彰化縣彰化市福山里彰南路一段４３３號,120.5763,24.0858,(04)7383535,羅氏家用新冠病毒抗原自我檢測套組,52,2022/05/08 08:29:02,快篩代售時間早上08：30（固定周一到周五），現場排隊，售完為止
5937013570,彰化藥局,彰化縣彰化市永安街２７８、２８０號,120.5438,24.08977,(04)7287877,羅氏家用新冠病毒抗原自我檢測套組,78,2022/05/08 08:29:02,快篩實名制，每天16:00開始販售，售完為止。
5937013623,彰化福倫藥局,彰化縣彰化市中正路２段２２４號,120.5369,24.07728,(04)7233018,羅氏家用新冠病毒抗原自我檢測套組,44,2022/05/08 08:29:02,5／6（五）起am8:20開始販售快篩，有異動另公布
5937013687,丁丁藥局彰鹿店,彰化縣彰化市彰鹿路１５０號,120.5146,24.05913,(04)7531110,羅氏家用新冠病毒抗原自我檢測套組,65,2022/05/08 08:29:02,無
5937013749,中央啄木鳥藥局,彰化縣彰化市中央路２０６號,120.5285,24.06637,(04)7639581,羅氏家用新冠病毒抗原自我檢測套組,1,2022/05/08 08:29:02,13:30開始販售，若未收到配送，則以收到時間開始
5937021885,康好藥局鹿港店,彰化縣鹿港鎮民權路１３４號,120.4359,24.05718,(04)7772877,羅氏家用新冠病毒抗原自我檢測套組,45,2022/05/08 08:29:02,5／7  5／8  上午8:00開始販售，售完為止 047772877
5937021894,淳安藥局,彰化縣鹿港鎮民族路５３號,120.4367,24.05603,(04)7783989,羅氏家用新冠病毒抗原自我檢測套組,68,2022/05/08 08:29:02,無
5937031470,弘佳藥局,彰化縣和美鎮仁愛里道周路５５６號,120.4929,24.1102,(04)7576611,羅氏家用新冠病毒抗原自我檢測套組,2,2022/05/08 08:29:02,快篩有賣.
5937041476,丁丁藥局北斗店,彰化縣北斗鎮斗苑路二段３０號,120.5165,23.87406,(04)8873032,羅氏家用新冠病毒抗原自我檢測套組,35,2022/05/08 08:29:02,111／03／15起，退出販售實名制口罩。111／04／28起，販售實名制快篩試劑，早上8點開始，現場排隊，售完為止~
5937050279,廣信藥局,彰化縣員林市三信里中山路二段２０１號,120.5711,23.96517,(04)8337085,羅氏家用新冠病毒抗原自我檢測套組,31,2022/05/08 08:29:02,早上10點開始販賣快篩試劑
5937050313,東禾藥局,彰化縣員林市仁美里和平東街６２－１號,120.5754,23.9623,(04)8350030,羅氏家用新冠病毒抗原自我檢測套組,58,2022/05/08 08:29:02,每天早上八點半開始販售，售完為止
5937051730,青田藥局,彰化縣員林市林森路一二七號,120.5778,23.95633,(04)8347776,羅氏家用新冠病毒抗原自我檢測套組,48,2022/05/08 08:29:02,物流配送時間不確定～每日的販售時間將另行公布
5937051847,天一藥局,彰化縣員林市光明里中正路４４１號,120.5724,23.95817,(04)8384875,羅氏家用新冠病毒抗原自我檢測套組,22,2022/05/08 08:29:02,固定周一到周六，早上14:30開始販賣防疫口罩（現場排隊）。
5937051963,東山永安藥局,彰化縣員林市南東里山腳路４段３１號,120.5988,23.96424,(04)8311471,羅氏家用新冠病毒抗原自我檢測套組,63,2022/05/08 08:29:02,快篩試劑販賣，上午8點30分開賣.
5937052120,家展藥局,彰化縣員林市三民街３５－１號,120.5731,23.95849,(04)8367768,羅氏家用新冠病毒抗原自我檢測套組,34,2022/05/08 08:29:02,無
5937052424,員林啄木鳥藥局,彰化縣員林市新生路１２１、１２３號,120.5686,23.95904,(04)8339483,羅氏家用新冠病毒抗原自我檢測套組,72,2022/05/08 08:29:02,無
5937052451,統信藥局,彰化縣員林市正興街３７２號,120.5722,23.95997,(04)8367089,羅氏家用新冠病毒抗原自我檢測套組,13,2022/05/08 08:29:02,無
5937052479,莒光藥局,彰化縣員林市莒光路３１６號１樓,120.5669,23.95942,(04)8361388,羅氏家用新冠病毒抗原自我檢測套組,1,2022/05/08 08:29:02,快篩實名制，每天16:00開始販售，售完為止。
5937061665,安安藥局,彰化縣溪湖鎮彰水路三段３６３號,120.48,23.96137,(04)8850525,羅氏家用新冠病毒抗原自我檢測套組,20,2022/05/08 08:29:02,上午8點到12點.下午2點半到6點.晚上7點到9點.星期五全休.日晚上休
5937070164,安鑠藥局,彰化縣田中鎮中潭里和平路７６０號,120.5879,23.8685,(04)8748728,羅氏家用新冠病毒抗原自我檢測套組,49,2022/05/08 08:29:02,每日早上9點至11點發放號碼牌並開始販售貨（全年無休）
5937071447,大安藥局,彰化縣田中鎮新福路５７號,120.586,23.86264,(04)8752201,羅氏家用新冠病毒抗原自我檢測套組,8,2022/05/08 08:29:02,早上8點販售至晚間9點。中午12:00~14:30休息。
5937081434,二林福倫藥局,彰化縣二林鎮豐田里斗苑路４段６６９、６７１號,120.372,23.89925,(04)8956818,羅氏家用新冠病毒抗原自我檢測套組,79,2022/05/08 08:29:02,早上0830開始，賣完為止
5937081587,嘉信藥局,彰化縣二林鎮中山路１４０號,120.3667,23.8998,(04)8954029,羅氏家用新冠病毒抗原自我檢測套組,77,2022/05/08 08:29:02,每天早上9點開始，賣完為止
5937101271,信義藥局,彰化縣伸港鄉新港村信義路７１號,120.4859,24.14681,(04)7982232,羅氏家用新冠病毒抗原自我檢測套組,1,2022/05/08 08:29:02,快篩實名制，每天16:00開始販售，售完為止。
5937131180,春天藥局,彰化縣花壇鄉中山路２段３０號,120.5394,24.02642,(04)7874458,羅氏家用新冠病毒抗原自我檢測套組,52,2022/05/08 08:29:02,每天早上8:30開始販售
5937140027,金宏恩藥局,彰化縣芬園鄉社口村彰南路４段１０８巷１２號,120.6289,24.01385,(049)2522391,羅氏家用新冠病毒抗原自我檢測套組,75,2022/05/08 08:29:02,每日早上07:00發放號碼牌，8:00開始販賣口罩（全年無休）
5937141104,啟安大藥局,彰化縣芬園鄉芬草路２段２３０號,120.6305,24.01382,(049)2522858,羅氏家用新冠病毒抗原自我檢測套組,58,2022/05/08 08:29:02,5／6（五）5／7（六）5／8（日）上午8點30分販賣實名制快篩
5937151155,福井藥局,彰化縣大村鄉中正西路３９８號,120.5455,23.99402,(04)8525328,羅氏家用新冠病毒抗原自我檢測套組,28,2022/05/08 08:29:02,無
5937161133,石埤藥局,彰化縣埔鹽鄉石埤村番金路８０之１６號,120.4225,23.98887,(04)8655146,羅氏家用新冠病毒抗原自我檢測套組,50,2022/05/08 08:29:02,週一至週日早上08:00開始販賣快篩.售完為止。
5937170098,普生藥師藥局,彰化縣埔心鄉東門村中正路１段１４號,120.5501,23.95193,(04)8294449,羅氏家用新冠病毒抗原自我檢測套組,8,2022/05/08 08:29:02,週一至週日早上9:00開始販售＜中午12:00-15:00休息＞ 六日中午休息至18:00＜早上晚上營業＞
5937190063,新保和藥局,彰化縣社頭鄉社頭村員集路２段２２４號,120.5878,23.89874,(04)8732330,羅氏家用新冠病毒抗原自我檢測套組,1,2022/05/08 08:29:02,本星期日有販售快篩..早上8點起
5937191159,好生藥局,彰化縣社頭鄉社斗路一段２６１號,120.5866,23.89714,(04)8739508,羅氏家用新冠病毒抗原自我檢測套組,78,2022/05/08 08:29:02,每日固定9:00開始發放口罩販售號碼牌
5937230053,彰芳藥局,彰化縣芳苑鄉和平村芳漢路王功段３９１號,120.3382,23.96268,(04)8932321,羅氏家用新冠病毒抗原自我檢測套組,78,2022/05/08 08:29:02,每日上午9點至12點 下午2點半至5點半開始販售 若配送延遲則延至送達整理後即開賣 星期日下午休息
5937261236,溪州貓頭鷹藥局,彰化縣溪州鄉中山路三段臨２９１號、２９３號,120.4933,23.85328,(04)8890101,羅氏家用新冠病毒抗原自我檢測套組,78,2022/05/08 08:29:02,無
5938011810,南投丁丁藥局,南投縣南投市三和里三和二路１０號,120.69,23.90461,(049)2245977,羅氏家用新冠病毒抗原自我檢測套組,24,2022/05/08 08:29:02,健保快篩早上8點開賣
5938020079,仁和藥局,南投縣埔里鎮薰化里中山路三段９７號,120.9631,23.96619,(049)2985470,羅氏家用新冠病毒抗原自我檢測套組,66,2022/05/08 08:29:02,固定周一至周日上午10.00快篩開賣，售完為止
5938020257,德林藥局,南投縣埔里鎮大城路２０６號,120.9517,23.97306,(049)2915293,羅氏家用新冠病毒抗原自我檢測套組,1,2022/05/08 08:29:02,每日10點開始販售快篩試劑，直至當日應售數量完畢或店休為止。
5938021745,欣欣藥局,南投縣埔里鎮中正路３８５號,120.9678,23.96446,(049)2421931,羅氏家用新冠病毒抗原自我檢測套組,53,2022/05/08 08:29:02,早上8:30開始販賣實名制快篩，週二11：00開始販售
5938030191,建林藥局,南投縣草屯鎮復興路７３４號,120.6677,23.97507,(049)2336449,羅氏家用新冠病毒抗原自我檢測套組,1,2022/05/08 08:29:02,07:30開始現場販售，售完為止
5938032300,康好藥局,南投縣草屯鎮太平路一段２２５號,120.6813,23.96097,(049)2358838,羅氏家用新冠病毒抗原自我檢測套組,67,2022/05/08 08:29:02,週一至週六13:00-18:00賣口罩，週日沒販售口罩
5938032453,福安藥局,南投縣草屯鎮碧山路９３號,120.6846,23.97777,(049)2333349,羅氏家用新冠病毒抗原自我檢測套組,51,2022/05/08 08:29:02,【★ 福 安 藥 局 ★】快篩試劑以早上 0800 點現場數量為準
5938040437,宏明堂藥局,南投縣竹山鎮竹山里橫街８８號,120.6831,23.75616,(049)2642202,羅氏家用新冠病毒抗原自我檢測套組,11,2022/05/08 08:29:02,早上7:30開始營業至晚上9:00。（全年無休）
5938041756,集山啄木鳥藥局,南投縣竹山鎮集山路３段４０５號,120.696,23.76179,(049)2659287,羅氏家用新冠病毒抗原自我檢測套組,69,2022/05/08 08:29:02,口罩代售時間無限制
5938041845,博愛藥局,南投縣竹山鎮雲林路３５號,120.6836,23.75612,(049)2642748,羅氏家用新冠病毒抗原自我檢測套組,60,2022/05/08 08:29:02,0830AM開始販售，售完為止
5938050120,家禾藥局,南投縣集集鎮民生路２３７號,120.779,23.82647,(049)2760565,羅氏家用新冠病毒抗原自我檢測套組,8,2022/05/08 08:29:02,快篩代售：w1~w5 下午2：00（當場發放號碼牌，而後當場代售）
5938060180,召安藥局,南投縣名間鄉彰南路３０之１號,120.7034,23.83741,(049)2737976,羅氏家用新冠病毒抗原自我檢測套組,78,2022/05/08 08:29:02,實名制快篩週日~週五早上8:40開賣 . 週六店休停賣
5938110032,人人藥局,南投縣水里鄉中央村中正路７８號,120.854,23.81568,(049)2770166,羅氏家用新冠病毒抗原自我檢測套組,6,2022/05/08 08:29:02,星期一~日快篩試劑販賣時間早上09:00 ，現場排隊，售完為止
5938110078,立特藥局,南投縣水里鄉中央村中正路６８號,120.8543,23.81587,(049)2775837,羅氏家用新冠病毒抗原自我檢測套組,50,2022/05/08 08:29:02,每天早上8點現場排隊持健保卡領號碼牌，下午3點至晚上9點半持號碼牌領快篩劑.5／7（六）休息.5／8（日）正常販售
5939011850,明真西藥局,雲林縣斗六市自由路１號,120.5447,23.70513,(05)5321605,羅氏家用新冠病毒抗原自我檢測套組,62,2022/05/08 08:29:02,口罩販售:早上0800-1200中午1200-1400休息下午1400到2100賣完為止
5939012133,鎮東藥局,雲林縣斗六市中華路４６０號,120.5516,23.70846,(05)5332449,羅氏家用新冠病毒抗原自我檢測套組,78,2022/05/08 08:29:02,星期二. 五 下午及晚上休息  星期六全天休息 （國定假日 星期日 9:00開始 晚上7:30 休息 ）
5939012179,保健藥局,雲林縣斗六市梅林路２８３號,120.5996,23.70252,(05)5576037,羅氏家用新冠病毒抗原自我檢測套組,40,2022/05/08 08:29:02,1~5，六日休，8點賣（如果有到貨）
5939012188,上海啄木鳥藥局,雲林縣斗六市上海路２３４號,120.5417,23.71444,(05)5374296,羅氏家用新冠病毒抗原自我檢測套組,54,2022/05/08 08:29:02,實名制快篩販售時間早上8:30
5939012302,北友藥局,雲林縣斗六市上海路２４２號,120.5419,23.71457,(05)5349507,羅氏家用新冠病毒抗原自我檢測套組,62,2022/05/08 08:29:02,快篩試劑早上8點半開始販售  若未收到配送則例外
5939012320,瑞安藥局,雲林縣斗六市中正路１５號,120.5446,23.71021,(05)5373085,羅氏家用新冠病毒抗原自我檢測套組,1,2022/05/08 08:29:02,5／6~9快篩發放時間：早上8點
5939012455,禾民藥局,雲林縣斗六市中山路２１３、２１５號,120.5391,23.70427,(05)5342486,羅氏家用新冠病毒抗原自我檢測套組,37,2022/05/08 08:29:02,快篩試劑 每天早上8:30開賣 售完為止 若未收到配送則例外
5939012571,上好藥局,雲林縣斗六市永安路７２號,120.5478,23.70901,(05)5331780,羅氏家用新冠病毒抗原自我檢測套組,60,2022/05/08 08:29:02,快篩試劑  目前為上午8：30販售  售完為止
5939020171,仁安堂藥局,雲林縣斗南鎮南昌里文元街４３號,120.4778,23.67535,(05)5952020,羅氏家用新冠病毒抗原自我檢測套組,25,2022/05/08 08:29:02,服務時間 : 周一至周六AM8:00-PM10:00 ／ 周日AM8:00-PM6:00
5939021445,杏元藥局,雲林縣斗南鎮東仁里１３鄰中山路６號,120.4805,23.67356,(05)5963998,羅氏家用新冠病毒抗原自我檢測套組,10,2022/05/08 08:29:02,每日早上10點開始，售完為止，現場排隊
5939021552,民安藥局,雲林縣斗南鎮中山路８９號,120.4789,23.67575,(05)5972076,羅氏家用新冠病毒抗原自我檢測套組,51,2022/05/08 08:29:02,快篩試劑早上7點至8點排隊領號碼牌，下午兩點過後領取試劑及健保卡。
5939031576,良方藥局,雲林縣虎尾鎮中山路５７號,120.4344,23.70764,(05)6312106,羅氏家用新冠病毒抗原自我檢測套組,78,2022/05/08 08:29:02,周日休息.5／9（一）上午8點開賣78份，另下午2點半開賣78份.現場排隊!!
5939031996,端發藥局,雲林縣虎尾鎮林森路一段３２９號,120.4368,23.71237,(05)6314168,羅氏家用新冠病毒抗原自我檢測套組,64,2022/05/08 08:29:02,販賣快篩時間:每日14:30-售完為止請提早排隊
5939032626,林藥師藥局,雲林縣虎尾鎮中正路２０７號,120.432,23.70698,(05)6334135,羅氏家用新冠病毒抗原自我檢測套組,33,2022/05/08 08:29:02,販賣口罩時間:星期一至星期六上午8:30--下午8:30 星期日上午9:00-20:00
5939041465,仁祥藥局,雲林縣西螺鎮中和里中山路４６號,120.4628,23.80013,(05)5882111,羅氏家用新冠病毒抗原自我檢測套組,5,2022/05/08 08:29:02,口罩販售時間自早上8點起至售完為止
5939051238,天愛藥局,雲林縣土庫鎮中山路８０號,120.3903,23.6749,(05)6629923,羅氏家用新冠病毒抗原自我檢測套組,84,2022/05/08 08:29:02,無
5939051247,祐安藥局,雲林縣土庫鎮馬光路３９－１號,120.3578,23.70522,(05)6655938,羅氏家用新冠病毒抗原自我檢測套組,78,2022/05/08 08:29:02,實名制快篩試劑每日到貨時間不固定，依到貨時間滾動式販售（售完為止）
5939060111,慶輝藥局,雲林縣北港鎮華勝里大同路２３２號,120.3012,23.57199,(05)7835078,羅氏家用新冠病毒抗原自我檢測套組,54,2022/05/08 08:29:02,依健保卡購買實名制快篩試劑。服務時間AM8:30至PM8:30，周日無休。《每天78盒賣完為止》
5939060120,民生藥局,雲林縣北港鎮民生路７０號,120.3027,23.56495,(05)7822476,羅氏家用新冠病毒抗原自我檢測套組,18,2022/05/08 08:29:02,上午8:30-晚上9:30，週末請先電話洽詢
5939061583,大元藥局,雲林縣北港鎮民樂路７２號,120.2972,23.57494,(05)7833636,羅氏家用新冠病毒抗原自我檢測套組,69,2022/05/08 08:29:02,販賣口罩時間:如營業時間
5939061789,樂芯藥局,雲林縣北港鎮文化路１６６號,120.3038,23.57334,(05)7820005,羅氏家用新冠病毒抗原自我檢測套組,14,2022/05/08 08:29:02,周一至周日早上8:00 開始販賣
5939071276,慈生藥局,雲林縣古坑鄉麻園村平和２２號,120.5203,23.6351,(05)5828222,羅氏家用新冠病毒抗原自我檢測套組,41,2022/05/08 08:29:02,週三.四.六.日下午3-5點販售實名制快篩
5939071285,振明藥局,雲林縣古坑鄉中山路１７０號,120.5619,23.64612,(05)5821229,羅氏家用新冠病毒抗原自我檢測套組,75,2022/05/08 08:29:02,無
5939071329,光明藥局,雲林縣古坑鄉東和村文化路１３９－９號,120.5675,23.68493,(05)5263736,羅氏家用新冠病毒抗原自我檢測套組,29,2022/05/08 08:29:02,快篩試劑販賣時間：11點
5939090146,明泰藥局,雲林縣莿桐鄉莿桐村中山路１０６號,120.5002,23.75753,(05)5842824,羅氏家用新冠病毒抗原自我檢測套組,54,2022/05/08 08:29:02,販賣口罩時間08:30至完售
5939091278,大美社區藥局,雲林縣莿桐鄉大美村２３－１號,120.5134,23.73695,(05)5848579,羅氏家用新冠病毒抗原自我檢測套組,78,2022/05/08 08:29:02,早上九點營業即開始販售 ； 周日早上九點至十二點有發售
5939121137,莊藥局,雲林縣崙背鄉民權路１８０號,120.3531,23.76169,(05)6960510,羅氏家用新冠病毒抗原自我檢測套組,12,2022/05/08 08:29:02,口罩:1200-1400
5939121164,立洲藥局,雲林縣崙背鄉正義路２９１、２９３號,120.355,23.76155,(05)6969331,羅氏家用新冠病毒抗原自我檢測套組,78,2022/05/08 08:29:02,快篩待售時間自9:00至售完為止
5939151135,三民藥局,雲林縣褒忠鄉三民路１５號,120.3109,23.69352,(05)6975515,羅氏家用新冠病毒抗原自我檢測套組,21,2022/05/08 08:29:02,快篩試劑販賣時間:09:00至售完
5939170023,永昇藥局,雲林縣元長鄉下寮村東庄路３５號,120.3311,23.61548,(05)7861838,羅氏家用新冠病毒抗原自我檢測套組,18,2022/05/08 08:29:02,販賣口罩時間：0800開賣，賣完為止
5939171093,和平藥局,雲林縣元長鄉下寮村東興路３３號,120.334,23.61849,(05)7862551,羅氏家用新冠病毒抗原自我檢測套組,15,2022/05/08 08:29:02,販賣口罩時間：0800開賣，賣完為止
5939181133,陽明藥局,雲林縣四湖鄉中正路４２２號,120.2251,23.63476,(05)7876519,羅氏家用新冠病毒抗原自我檢測套組,37,2022/05/08 08:29:02,0800---販售結束
5939190025,呂藥師藥局,雲林縣口湖鄉梧南村文光路１２號,120.1901,23.54536,(05)7907472,羅氏家用新冠病毒抗原自我檢測套組,26,2022/05/08 08:29:02,不固定營業時間，請先電話洽詢
5939191326,順生藥局,雲林縣口湖鄉口湖村口湖路３２４號,120.1811,23.58524,(05)7895799,羅氏家用新冠病毒抗原自我檢測套組,78,2022/05/08 08:29:02,早上10點開放購買快篩試劑 賣完為止（星期六休息）
5939201283,義生藥局,雲林縣水林鄉水林路１９７號,120.2445,23.57217,(05)7853701,羅氏家用新冠病毒抗原自我檢測套組,49,2022/05/08 08:29:02,販賣口罩時間:如營業時間
5939201336,全仁藥局,雲林縣水林鄉水林路１３０號,120.2425,23.572,(05)7852721,羅氏家用新冠病毒抗原自我檢測套組,10,2022/05/08 08:29:02,快篩實名制星期一到星期日上午8點開賣（視快篩到貨時間開賣）
5939201354,玉璽藥局,雲林縣水林鄉水南村水林路１１５號之１,120.2466,23.57223,(05)7856019,羅氏家用新冠病毒抗原自我檢測套組,78,2022/05/08 08:29:02,實名制快篩早上8:30 開賣，售完為止
5940011295,正仁藥局,嘉義縣朴子市竹圍里南通路三段５５９號,120.2427,23.45932,(05)3798978,羅氏家用新冠病毒抗原自我檢測套組,30,2022/05/08 08:29:02,上午八點30分開始販售快篩試劑
5940011302,開元藥局,嘉義縣朴子市開元路１５４號,120.2446,23.46725,(05)3700014,羅氏家用新冠病毒抗原自我檢測套組,68,2022/05/08 08:29:02,週一至週五08:30~售完為止，週六、週日到貨即賣~售完為止。
5940011544,弘安藥局,嘉義縣朴子市新進路３１號,120.2415,23.46202,(05)3707000,羅氏家用新冠病毒抗原自我檢測套組,19,2022/05/08 08:29:02,8:00-22；00
5940030058,萬有藥局,嘉義縣大林鎮平林里民權路３６號,120.4599,23.60009,(05)2654246,羅氏家用新冠病毒抗原自我檢測套組,60,2022/05/08 08:29:02,周一～周六 08:00-21:30週日 08:00-12:00
5940040045,七星藥局,嘉義縣民雄鄉東榮村中樂路１６號,120.4313,23.55643,(05)2261977,羅氏家用新冠病毒抗原自我檢測套組,9,2022/05/08 08:29:02,周一~周日 08:00-售罄
5940040170,健安藥局,嘉義縣民雄鄉興南村頭橋４５號,120.439,23.52336,(05)2211797,羅氏家用新冠病毒抗原自我檢測套組,3,2022/05/08 08:29:02,營業:上午9點至下午9點.週日休-下午6點售快篩
5940040321,上安藥局,嘉義縣民雄鄉西安路４６－２３號,120.4259,23.55737,(05)2261216,羅氏家用新冠病毒抗原自我檢測套組,49,2022/05/08 08:29:02,上午0830開賣-售罄為止
5940040349,正道藥局,嘉義縣民雄鄉中樂村復興路３８號,120.4304,23.55706,(05)2268345,羅氏家用新冠病毒抗原自我檢測套組,65,2022/05/08 08:29:02,周一~周六 15:00-售罄周日 視人力彈性發放08:30-12:00
5940041435,嘉方藥局,嘉義縣民雄鄉中樂村昇平路５８號,120.4303,23.55781,(05)2066747,羅氏家用新冠病毒抗原自我檢測套組,14,2022/05/08 08:29:02,早上08:00開始販賣，賣完為止，周六晚休、周日午晚休
5940041480,安生藥局,嘉義縣民雄鄉昇平路１２號,120.43,23.55676,(05)2262053,羅氏家用新冠病毒抗原自我檢測套組,53,2022/05/08 08:29:02,周一~周日 08:30-售罄
5940041515,福樂藥局,嘉義縣民雄鄉福樂村建國路三段２５６號,120.4391,23.52621,(05)2130802,羅氏家用新冠病毒抗原自我檢測套組,19,2022/05/08 08:29:02,周一~周五08:00-12:00 16:00-20:00周六 08:00-12:00
5940041597,民雄弘安藥局,嘉義縣民雄鄉建國路一段４５號,120.4336,23.5556,(05)2060200,羅氏家用新冠病毒抗原自我檢測套組,8,2022/05/08 08:29:02,無
5940041622,大順藥局,嘉義縣民雄鄉福樂村埤角１３９號,120.44,23.52429,(05)2201138,羅氏家用新冠病毒抗原自我檢測套組,1,2022/05/08 08:29:02,快篩領取:星期一至日下午2點，售完為止
5940041668,民雄照安藥局,嘉義縣民雄鄉中樂路２１號１樓,120.431,23.55621,(05)2060368,羅氏家用新冠病毒抗原自我檢測套組,21,2022/05/08 08:29:02,周一至周日8:00開始販售口罩，現場排隊，售完為止
5940041677,大方藥局,嘉義縣民雄鄉中樂村民族路４０－２號,120.4294,23.55555,(05)2268560,羅氏家用新冠病毒抗原自我檢測套組,5,2022/05/08 08:29:02,實名制快篩試劑配送到貨即販售~售完為止
5940041828,民雄丁丁藥局,嘉義縣民雄鄉文化路３－７號,120.4282,23.55087,(05)2260990,羅氏家用新冠病毒抗原自我檢測套組,17,2022/05/08 08:29:02,無
5940051100,滋元藥局,嘉義縣溪口鄉中正路１０９之３號,120.3966,23.60433,(05)2696287,羅氏家用新冠病毒抗原自我檢測套組,7,2022/05/08 08:29:02,周一 ～ 周六（0800~1930）、周日（0800~1200）
5940051119,宇安藥局,嘉義縣溪口鄉坪頂村溪民路３１號,120.4003,23.60387,(05)2697736,羅氏家用新冠病毒抗原自我檢測套組,9,2022/05/08 08:29:02,8:00-12:00，14:00-19:00，六日，8:00-12:00， 販售快篩
5940051164,濟安藥局,嘉義縣溪口鄉民生街５４號,120.3985,23.60407,(05)2696078,羅氏家用新冠病毒抗原自我檢測套組,1,2022/05/08 08:29:02,無
5940060056,黃莉雅藥局,嘉義縣新港鄉宮前村新民路１６號,120.3468,23.55654,(05)3747329,羅氏家用新冠病毒抗原自我檢測套組,24,2022/05/08 08:29:02,無
5940090045,捷生藥局,嘉義縣義竹鄉六桂村１５２之３號,120.2454,23.33736,(05)3418593,羅氏家用新冠病毒抗原自我檢測套組,12,2022/05/08 08:29:02,無
5940111549,嘉康中西藥局,嘉義縣太保市南新里中山路一段２９５之２號,120.3789,23.49836,(05)2376200,羅氏家用新冠病毒抗原自我檢測套組,20,2022/05/08 08:29:02,星期一到星期日08:00販售實名制快篩（如果有收到貨...）~售罄
5940121205,楊藥局,嘉義縣水上鄉忠和村６８之５號,120.4379,23.42084,(05)2890687,羅氏家用新冠病毒抗原自我檢測套組,11,2022/05/08 08:29:02,快篩實名制販售時間更改為每日早上八點，依現場排隊。
5940121303,宏益藥局,嘉義縣水上鄉正義路５１號,120.3995,23.43025,(05)2601714,羅氏家用新冠病毒抗原自我檢測套組,31,2022/05/08 08:29:02,快篩販售時間: 禮拜一~禮拜日上午8:00~12:00   下午15:00~18:00  晚上18:30~20:30    售完為止
5940121349,照安藥局,嘉義縣水上鄉水頭村中興路４０８號,120.4003,23.4311,(05)2687897,羅氏家用新冠病毒抗原自我檢測套組,5,2022/05/08 08:29:02,領快篩時間:早上8:00~售馨
5940131283,一心藥局,嘉義縣中埔鄉富收村頂中下街３１、３１－１號１樓,120.4885,23.45077,(05)2303553,羅氏家用新冠病毒抗原自我檢測套組,60,2022/05/08 08:29:02,無
5940141305,東義藥局,嘉義縣竹崎鄉獅埜村東義２０－１８號,120.4898,23.51273,(05)2110957,羅氏家用新冠病毒抗原自我檢測套組,5,2022/05/08 08:29:02,無
5941010381,美兆藥局,臺南市新營區中正路５３之４號,120.3163,23.31654,(06)6371188,羅氏家用新冠病毒抗原自我檢測套組,6,2022/05/08 08:29:02,口罩販售時間：物流當日配送時間不定 ，收到貨會即時在美兆藥局FB公告!
5941030043,源大醫藥局,臺南市白河區永安里中正路５５號,120.4136,23.34965,(06)6831128,羅氏家用新冠病毒抗原自我檢測套組,2,2022/05/08 08:29:02,口罩販售時間：星期一~星期日 早上8：00開始至售完
5941030114,協宏藥局,臺南市白河區竹門里９８之３號,120.4466,23.37697,(06)6852961,羅氏家用新冠病毒抗原自我檢測套組,1,2022/05/08 08:29:02,快篩  08 : 30-20:00
5941041297,台灣藥局,臺南市麻豆區信義路１１之１３號,120.2505,23.18212,(06)5726126,羅氏家用新冠病毒抗原自我檢測套組,14,2022/05/08 08:29:02,星期一~星期五 下午1點販售         星期六～星期日 早上8點販售
5941051499,雅倫藥局,臺南市佳里區建南街１６５號１樓,120.1767,23.15936,(06)7229488,羅氏家用新冠病毒抗原自我檢測套組,61,2022/05/08 08:29:02,禮拜一~六 8:00–售完
5941131161,竹軒大藥局,臺南市六甲區甲南里民生街１５８號,120.3533,23.23001,(06)6982258,羅氏家用新冠病毒抗原自我檢測套組,77,2022/05/08 08:29:02,週日一至周日，上午10開始販售
5941161070,厚真藥局,臺南市西港區營西里２鄰後營１７號,120.2166,23.14097,(06)7962628,羅氏家用新冠病毒抗原自我檢測套組,57,2022/05/08 08:29:02,快篩試劑彈性販售時間8:30前後先發號碼牌，限量供應敬請體諒
5941181054,年豐藥局,臺南市將軍區忠嘉里忠興４２－１０號１樓,120.158,23.20163,(06)7946247,羅氏家用新冠病毒抗原自我檢測套組,33,2022/05/08 08:29:02,星期一、四、五、六08:00~09:00 星期二~三08:30~09:30買快篩時間
5941190017,憲宗藥局,臺南市北門區東壁里７０４號,120.1408,23.28727,(06)7864225,羅氏家用新冠病毒抗原自我檢測套組,5,2022/05/08 08:29:02,快篩試劑販售時間自早上07：30起，售完為止！【週日也有營業！！！】（為不耽誤大家時間，請準備「剛好」的金額）
5941270109,振裕藥局,臺南市仁德區二行里二行一路１６５號,120.2251,22.91949,(06)2661478,羅氏家用新冠病毒抗原自我檢測套組,76,2022/05/08 08:29:02,快篩販售時間14:30~16:30
5941270136,滋生藥局,臺南市仁德區仁義里中山路３６２號,120.2575,22.97109,(06)2705057,羅氏家用新冠病毒抗原自我檢測套組,36,2022/05/08 08:29:02,快篩試劑7:30開始販售。
5941270163,太子藥局,臺南市仁德區太子里太子路３３８號,120.2577,22.99146,(06)2729906,羅氏家用新冠病毒抗原自我檢測套組,6,2022/05/08 08:29:02,5／7快篩已售完.
5941270216,聖豐藥局,臺南市仁德區中洲里中洲路７８８號,120.2502,22.90866,(06)2663588,羅氏家用新冠病毒抗原自我檢測套組,13,2022/05/08 08:29:02,快篩試劑販售時間：平日依郵差送貨時間而定，週六日8:30開始
5941280043,道仁藥局,臺南市歸仁區許厝里中山路一段４７８號,120.2973,22.96654,(06)2301967,羅氏家用新冠病毒抗原自我檢測套組,37,2022/05/08 08:29:02,08:00開始.12:00-13:30午休.售完為止
5941291215,明義藥師藥局,臺南市關廟區山西里武聖路２６號１樓,120.3266,22.96169,(06)5959290,羅氏家用新冠病毒抗原自我檢測套組,15,2022/05/08 08:29:02,於中午12:00~13:00及18:00~代售實名制防疫家用快篩試劑服務!
5941310484,慈惠藥師保健藥局,臺南市永康區國光七街７１號,120.26,23.00943,(06)2718968,羅氏家用新冠病毒抗原自我檢測套組,78,2022/05/08 08:29:02,快篩實名制，預計早上9:00開始販賣
5941312755,佑健康藥師藥局,臺南市永康區文化路２０２之３號,120.2559,23.0154,(06)2316257,羅氏家用新冠病毒抗原自我檢測套組,13,2022/05/08 08:29:02,快篩販售時間：星期一~星期六08:30~售完
5942011480,頂好藥師藥局,高雄市鳳山區光華東路１５號,120.3565,22.61923,(07)7430834,羅氏家用新冠病毒抗原自我檢測套組,63,2022/05/08 08:29:02,自2／11日~2／29日，營業日10:00~21:00為販賣口罩時間，售完為止
5942011524,中華藥局,高雄市鳳山區中山路１４２號,120.3572,22.62448,(07)7472853,羅氏家用新冠病毒抗原自我檢測套組,35,2022/05/08 08:29:02,現場有患者領藥優先處理，快篩則視貨運到貨開始販售（當日送當日賣）
5942011800,福德中西藥局,高雄市鳳山區鳳北路３６之１號,120.3671,22.64001,(07)7465530,羅氏家用新冠病毒抗原自我檢測套組,32,2022/05/08 08:29:02,每日上午8點開始販售實名制居家快篩，售完為止
5942011819,鳳山丁丁藥局,高雄市鳳山區協和里自由路１５１號１樓,120.3517,22.62565,(07)7101080,羅氏家用新冠病毒抗原自我檢測套組,1,2022/05/08 08:29:02,自5／01日~12／31日，營業日09:00發號碼牌~22:00為販賣實名制快篩劑時間，售完為止，
5942013331,泰安藥局,高雄市鳳山區仁愛路６－１號,120.3731,22.6226,(07)7037838,羅氏家用新冠病毒抗原自我檢測套組,3,2022/05/08 08:29:02,自4月起，中午時間（12：30~2：30）不販售實名制口罩。
5942013411,長喜藥局,高雄市鳳山區大明路７６號,120.342,22.60811,(07)7671007,羅氏家用新冠病毒抗原自我檢測套組,35,2022/05/08 08:29:02,固定周一至周六09:00-22:00  周日14:00-17:00購買快篩
5942013699,新怡安藥局,高雄市鳳山區海洋里新富路５１２號,120.3474,22.61403,(07)7633565,羅氏家用新冠病毒抗原自我檢測套組,1,2022/05/08 08:29:02,快篩如果送貨正常一般都早上九點販售  如果供貨時間異常就下午兩點
5942020185,鴻興大藥局,高雄市岡山區中華路１３６號,120.2882,22.79476,(07)6259903,羅氏家用新冠病毒抗原自我檢測套組,33,2022/05/08 08:29:02,有營業  就有賣快篩。
5942030092,天明藥局,高雄市旗山區大同路至誠巷１５號,120.4818,22.88361,(07)6621311,羅氏家用新冠病毒抗原自我檢測套組,17,2022/05/08 08:29:02,營業日8:00~發號碼牌 8:30領至下午9:00為販賣口罩時間，售完為止8:00
5942031393,天天美藥局,高雄市旗山區中山路９２號,120.4822,22.88761,(07)6622565,羅氏家用新冠病毒抗原自我檢測套組,4,2022/05/08 08:29:02,早上8點營業開始販售，售完截止
5942071413,中興藥局,高雄市大樹區檨腳里中興西路４９之１號,120.4313,22.69087,(07)6523222,羅氏家用新冠病毒抗原自我檢測套組,48,2022/05/08 08:29:02,實名制快篩早上8點開始賣.星期日8.30分開始賣
5942080010,仁信藥局,高雄市仁武區仁武里中正路１４６號,120.3506,22.70215,(07)3716115,羅氏家用新冠病毒抗原自我檢測套組,7,2022/05/08 08:29:02,營業日8:00開始
5942190039,立達藥局,高雄市彌陀區中正西路２５９－２號,120.2453,22.785,(07)6179277,羅氏家用新冠病毒抗原自我檢測套組,99,2022/05/08 08:29:02,5／8（日） 上午11:00開賣，不分單雙，一人一卡。
5942190128,柏青藥師藥局,高雄市彌陀區中正路彌靖里中正路１９７號,120.2477,22.78481,(07)6107542,羅氏家用新冠病毒抗原自我檢測套組,2,2022/05/08 08:29:02,自2／11日~2／29日，營業日8:00開始取號碼牌，下午8:00前為販賣口罩時間，售完為止
5942200030,順成藥局,高雄市梓官區梓官路城隍巷３１號,120.2681,22.75929,(07)6172407,羅氏家用新冠病毒抗原自我檢測套組,72,2022/05/08 08:29:02,週一至週五快篩銷售時間★下午4點，六、日★早上8點30
5943010101,正欣藥局,屏東縣屏東市前進里清進巷１０７號,120.4644,22.64938,(08)7524138,羅氏家用新冠病毒抗原自我檢測套組,75,2022/05/08 08:29:02,自3／01日~3／31日，營業日09:00~21:30銷售，發完為止
5943010254,大和藥局,屏東縣屏東市太平里中正路１６７－１號,120.4905,22.67788,(08)7328052,羅氏家用新冠病毒抗原自我檢測套組,5,2022/05/08 08:29:02,自2／11日~2／29日，營業日08:00~21:30為販賣口罩時間，售完為止
5943010683,弘盛藥局,屏東縣屏東市海豐街２９－１號,120.5103,22.70085,(08)7367470,羅氏家用新冠病毒抗原自我檢測套組,12,2022/05/08 08:29:02,營業日9:00am~9:00pm，  為販賣口罩時間，售完為止
5943012570,和信藥局,屏東縣屏東市棒球路８９號,120.4807,22.65578,(08)7515918,羅氏家用新冠病毒抗原自我檢測套組,2,2022/05/08 08:29:02,5／8（日）早上8點  5／9（一）早上8點  開始 銷售快篩請排隊購買不發號碼牌 營業時間8-12 15-18 19-21
5943013068,陽生藥局,屏東縣屏東市逢甲路２６號,120.4884,22.67102,(08)7322413,羅氏家用新冠病毒抗原自我檢測套組,20,2022/05/08 08:29:02,實名制快篩上午8:00販賣，售完為止
5943013951,大林藥師藥局,屏東縣屏東市平和里仁愛路５９號１樓,120.4924,22.67133,(08)7320680,羅氏家用新冠病毒抗原自我檢測套組,1,2022/05/08 08:29:02,平日14:00~21:00為販賣快篩時間，售完為止
5943014074,大林崇蘭藥局,屏東縣屏東市大同北路９８號,120.4749,22.68145,(08)7323738,羅氏家用新冠病毒抗原自我檢測套組,8,2022/05/08 08:29:02,平日下午兩點開賣快篩，5／8（日）不販售公費快篩，如有不便敬請見諒
5943014298,萬年啄木鳥藥局,屏東縣屏東市建南路１８２號１樓,120.482,22.66275,(08)7516458,羅氏家用新冠病毒抗原自我檢測套組,78,2022/05/08 08:29:02,無
5943014332,千甲台安藥局,屏東縣屏東市武廟里逢甲路９２號,120.4867,22.67045,(08)7330663,羅氏家用新冠病毒抗原自我檢測套組,67,2022/05/08 08:29:02,因政府物流不穩定 每日塊篩販售時間公告於LINE社群https:／／reurl.cc／M0b5VX
5943020090,晉源藥師藥局,屏東縣潮州鎮新興路６５之１號,120.5364,22.54281,(08)7886819,羅氏家用新冠病毒抗原自我檢測套組,31,2022/05/08 08:29:02,快篩販售時間:營業日:8:30開始，售完為止.
5943021515,鈺康藥局,屏東縣潮州鎮四維路２１３號,120.5473,22.55472,(08)7800921,羅氏家用新冠病毒抗原自我檢測套組,74,2022/05/08 08:29:02,自3／2日~3／31日，周一至周五營業日8:30~為販賣口罩時間，售完為止，周六09:30~為販賣口罩時間，售完為止
5943030103,保生藥局,屏東縣東港鎮中山路５６號,120.4505,22.46674,(08)8322818,羅氏家用新冠病毒抗原自我檢測套組,76,2022/05/08 08:29:02,上午8:10開始發號碼牌，發完等同售完.
5943031851,大眾藥局,屏東縣東港鎮朝隆路７６號,120.4463,22.46862,(08)8354752,羅氏家用新冠病毒抗原自我檢測套組,78,2022/05/08 08:29:02,實名制快篩下午三點開始販售
5943041348,恆春啄木鳥藥局,屏東縣恆春鎮恒南路２８號,120.7476,21.99145,(08)8883990,羅氏家用新冠病毒抗原自我檢測套組,78,2022/05/08 08:29:02,自2／11日~2／29日，營業日8:30~21:00，為販賣口罩時間，若11:00過後仍有剩餘口罩則16:00-18:00繼續販賣，賣完為止
5943050105,萬丹藥局,屏東縣萬丹鄉萬安村和平西路５號,120.4894,22.58786,(08)7762889,羅氏家用新冠病毒抗原自我檢測套組,50,2022/05/08 08:29:02,早上八點半開始販售快篩
5943051175,黃藥師藥局,屏東縣萬丹鄉社中村社皮路三段４２８．４３０號,120.4723,22.62141,(08)7075529,羅氏家用新冠病毒抗原自我檢測套組,25,2022/05/08 08:29:02,08:00~22:00快篩銷售
5943061153,宏大健保藥局繁華店,屏東縣長治鄉繁隆村中山路３０號,120.5761,22.70336,(08)7620695,羅氏家用新冠病毒抗原自我檢測套組,42,2022/05/08 08:29:02,實名制快篩以到貨開始販售，售完為止。 5／8當天快篩試劑8點半開始販售（販售時間依到貨時間滾動式調整）
5943110062,永昌藥局,屏東縣高樹鄉產業路１６３號,120.6133,22.78963,(08)7956087,羅氏家用新冠病毒抗原自我檢測套組,78,2022/05/08 08:29:02,販賣快篩時間下午1:30開始
5943131436,東東藥局,屏東縣內埔鄉內田村廣濟路４９號,120.5653,22.61005,(08)7780183,羅氏家用新冠病毒抗原自我檢測套組,78,2022/05/08 08:29:02,05／08早上10:00開始販售，05／09起改為早上08:30開始，不發號碼牌
5943170095,長安中西藥局,屏東縣新園鄉中洲村南興路１９４號,120.4586,22.48776,(08)8336986,羅氏家用新冠病毒抗原自我檢測套組,32,2022/05/08 08:29:02,自2／11~2／29日，販賣口罩時間9:00起，售完為止。
5943221051,明德藥局,屏東縣琉球鄉本福村中山路１５１號,120.3818,22.35203,(08)8611278,羅氏家用新冠病毒抗原自我檢測套組,78,2022/05/08 08:29:02,8:30 發放號碼牌  10:00-12:00 販賣實名制快篩
5944010043,新見安藥局,澎湖縣馬公市光明里光復路９５號,119.5703,23.57152,(06)9277346,羅氏家用新冠病毒抗原自我檢測套組,68,2022/05/08 08:29:02,販賣口罩時間:早上7:30-12:30，下午2:30-6:00，晚上7:00-9:30。
5945011795,晉嘉藥局,花蓮縣花蓮市明禮路７１－９號１樓,121.6082,23.98242,(03)8347329,羅氏家用新冠病毒抗原自我檢測套組,1,2022/05/08 08:29:02,販售快篩時間，星期一到星期日，早上09:30開始，售完為止
5945012970,東大藥局,花蓮縣花蓮市富吉路４號,121.599,23.99447,(03)8463231,羅氏家用新冠病毒抗原自我檢測套組,1,2022/05/08 08:29:02,實名制快篩販賣時間：早上10；00至售完為止
5945013048,幸福花蓮藥局,花蓮縣花蓮市中正路１７９號,121.5987,23.97165,(03)8361412,羅氏家用新冠病毒抗原自我檢測套組,32,2022/05/08 08:29:02,快篩販售時間週一至週六下午2點開始.售完為止.周日彈性販售.
5945021040,人和藥局,花蓮縣鳳林鎮中正路２００號,121.45,23.74899,(03)8762712,羅氏家用新冠病毒抗原自我檢測套組,5,2022/05/08 08:29:02,無
5945031297,莊藥局,花蓮縣玉里鎮中城里２７鄰成功街９５號,121.314,23.33083,(03)8882328,羅氏家用新冠病毒抗原自我檢測套組,66,2022/05/08 08:29:02,口罩販售時間8:00-9:00
5945051388,荃安藥局,花蓮縣吉安鄉建國路二段２７７－１號,121.5743,23.99297,(03)8579317,羅氏家用新冠病毒抗原自我檢測套組,58,2022/05/08 08:29:02,口罩每日早上九點開賣
5945051646,花蓮建國藥局,花蓮縣吉安鄉建國路１段１３７－１號,121.5915,23.98574,(03)8461699,羅氏家用新冠病毒抗原自我檢測套組,4,2022/05/08 08:29:02,快篩實名制，每天16:00開始販售，售完為止。
5945061106,志成藥局,花蓮縣壽豐鄉志學村中正路３７號,121.5307,23.90699,(03)8661303,羅氏家用新冠病毒抗原自我檢測套組,78,2022/05/08 08:29:02,上午９：００開胎販售快篩試劑， 每人限購買二份試劑（含代購）。.5／7有販售試劑
5945061204,益昌藥局,花蓮縣壽豐鄉壽豐村中山路５段１１３號,121.5091,23.8693,(03)8653718,羅氏家用新冠病毒抗原自我檢測套組,47,2022/05/08 08:29:02,營業時間:早上W1~W6  8:30~12:00  下午W1~W5  2:00~6:00
5946012072,聯美藥局,臺東縣臺東市仁五街７５巷７－１號,121.1423,22.76822,(089)237199,羅氏家用新冠病毒抗原自我檢測套組,5,2022/05/08 08:29:02,星期一至星期日.早上8點販售快篩，販售完為止。
5946012312,仁愛藥局,臺東縣臺東市光明路４０號,121.1539,22.75747,(089)350360,羅氏家用新冠病毒抗原自我檢測套組,2,2022/05/08 08:29:02,快篩實名制代售時間為8:00
5990010524,康總藥局,金門縣金城鎮西門里莒光路１５６號,118.3163,24.43355,(082)316053,羅氏家用新冠病毒抗原自我檢測套組,48,2022/05/08 08:29:02,快篩試劑販售時段：每日早上08:30分開始販售，售完為止。
5990010533,金志忠藥局,金門縣金城鎮東門里莒光路１１號,118.3183,24.43167,(082)325813,羅氏家用新冠病毒抗原自我檢測套組,31,2022/05/08 08:29:02,快篩實名制（分單雙號購買，星期天不分） 8:00開始販賣，售完為止。
5990010695,百泰藥局,金門縣金城鎮西海路１段１號,118.2864,24.41566,(082)312832,羅氏家用新冠病毒抗原自我檢測套組,78,2022/05/08 08:29:02,快篩實名制，每天16:00開始販售，售完為止。
5990030062,大山藥局,金門縣金湖鎮新市里中正路２號、２－２號,118.4167,24.44036,(082)333290,羅氏家用新冠病毒抗原自我檢測套組,14,2022/05/08 08:29:02,早上10點開始販售實名制快篩
