醫事機構代碼,醫事機構名稱,醫事機構地址,經度,緯度,醫事機構電話,廠牌項目,快篩試劑截至目前結餘存貨數量,來源資料時間,備註
2331260016,新北市貢寮區衛生所,新北市貢寮區朝陽街７０巷１０號、新北市貢寮區仁愛路１２８號,121.9095,25.02258,(02)24901431,羅氏家用新冠病毒抗原自我檢測套組,78,2022/05/07 16:38:02,快篩試劑販售時間為周一至周五早上9點開始販售，每日販售一箱，數量有限售完為止。
2333140017,新竹縣五峰鄉衛生所,新竹縣五峰鄉大隘村六鄰９９號,121.1194,24.63184,(03)5851005,羅氏家用新冠病毒抗原自我檢測套組,13,2022/05/07 16:38:02,無
2335110017,苗栗縣南庄鄉衛生所,苗栗縣南庄鄉東村大同路１７號,121,24.59733,(037)822024,羅氏家用新冠病毒抗原自我檢測套組,78,2022/05/07 16:38:02,口罩販賣時段:週一至週五上午8:00~下午5:00
2340170016,嘉義縣大埔鄉衛生所,嘉義縣大埔鄉大埔村５３－１號,120.5928,23.29397,(05)2521214,羅氏家用新冠病毒抗原自我檢測套組,78,2022/05/07 16:38:02,無
2340180012,嘉義縣阿里山鄉衛生所,嘉義縣阿里山鄉樂野村３鄰９７－２號,120.7019,23.4666,(05)2561573,羅氏家用新冠病毒抗原自我檢測套組,8,2022/05/07 16:38:02,無
2341240017,臺南市楠西區衛生所,臺南市楠西區楠西里中正路２２６號,120.4859,23.17477,(06)5751006,羅氏家用新冠病毒抗原自我檢測套組,1,2022/05/07 16:38:02,家用快篩試劑販售時間為星期一至五早上10:30-12:00
2341260019,臺南市左鎮區衛生所,臺南市左鎮區中正里１７２之１５號,120.4099,23.05631,(06)5731114,羅氏家用新冠病毒抗原自我檢測套組,18,2022/05/07 16:38:02,無
2342130010,高雄市田寮區衛生所,高雄市田寮區南安里崗北路３２號,120.3594,22.87301,(07)6361504,羅氏家用新冠病毒抗原自我檢測套組,77,2022/05/07 16:38:02,巡迴醫療:每星期一、四下午及每月第一個有上班的星期三下午巡迴醫療
2342250017,高雄市茂林區衛生所,高雄市茂林區茂林里茂林巷８－４號,120.6641,22.88641,(07)6801046,羅氏家用新冠病毒抗原自我檢測套組,60,2022/05/07 16:38:02,夜間急診，請先撥電話07-6801046
2342260013,高雄市桃源區衛生所,高雄市桃源區桃源里南進巷１８８－１號,120.7642,23.15845,(07)6861126,羅氏家用新冠病毒抗原自我檢測套組,152,2022/05/07 16:38:02,IDS提供24小時服務
2342270019,高雄市那瑪夏區衛生所,高雄市那瑪夏區瑪雅里６鄰平和巷２５２號,120.7024,23.24708,(07)6701142,羅氏家用新冠病毒抗原自我檢測套組,162,2022/05/07 16:38:02,春節期間正常門診
2344011036,澎湖縣馬公市第三衛生所,澎湖縣馬公市西文里１１８之２號,119.5836,23.56813,(06)9211723,羅氏家用新冠病毒抗原自我檢測套組,73,2022/05/07 16:38:02,本所快篩試劑只提供離島衛生室（虎井、桶盤）販售，時間週一至週五08:30-17:00售完為止，星期六、日國定假日09:00-12:00。
2344030022,澎湖縣白沙鄉鳥嶼衛生所,澎湖縣白沙鄉鳥嶼村漁港新村３號,119.6599,23.66008,(06)9916092,羅氏家用新冠病毒抗原自我檢測套組,74,2022/05/07 16:38:02,非上班時間提供急診服務
2344030031,澎湖縣白沙鄉吉貝衛生所,澎湖縣白沙鄉吉貝村８－１３號,119.6138,23.74056,(06)9911430,羅氏家用新冠病毒抗原自我檢測套組,149,2022/05/07 16:38:02,無
2344050015,澎湖縣望安鄉衛生所,澎湖縣望安鄉西安村３６－７號,119.4972,23.36161,(06)9991036,羅氏家用新冠病毒抗原自我檢測套組,114,2022/05/07 16:38:02,夜間急診。口罩、快篩試劑販售時間為:每日08:00-12:00、13:30-17:30售完為止，如有餘數為離島未售出（東嶼坪、花嶼）。
2344050024,澎湖縣望安鄉將軍衛生所,澎湖縣望安鄉將軍村１２鄰將軍澳１之３號,119.5216,23.3615,(06)9902066,羅氏家用新冠病毒抗原自我檢測套組,187,2022/05/07 16:38:02,24小時急診
2344060011,澎湖縣七美鄉衛生所,澎湖縣七美鄉中和村埔內５４號,119.431,23.2041,(06)9971005,羅氏家用新冠病毒抗原自我檢測套組,40,2022/05/07 16:38:02,無
2345080017,衛生福利部花蓮醫院豐濱原住民分院,花蓮縣豐濱鄉豐濱村光豐路４１號,121.5215,23.60195,(03)8358141,羅氏家用新冠病毒抗原自我檢測套組,78,2022/05/07 16:38:02,*本院口罩每天販售，時間自上午8點至晚上9點  *本院週一至週五上下午皆有門診，星期六隔週提供門診，及24小時急診。
2345100014,花蓮縣富里鄉衛生所,花蓮縣富里鄉富里村中山路２０３號,121.2491,23.17847,(03)8831029,羅氏家用新冠病毒抗原自我檢測套組,156,2022/05/07 16:38:02,*內科:每週二下午東里玉蓮寺巡診 **牙科:每週二至卓溪醫療站***口罩販賣時間8:30起至11:00止
2345110010,花蓮縣秀林鄉衛生所,花蓮縣秀林鄉秀林村１２鄰秀林路８８號,121.6334,24.1269,(03)8612122,羅氏家用新冠病毒抗原自我檢測套組,78,2022/05/07 16:38:02,口罩代售時間上班日上午8:10至12時止（口罩限量故售完為止）
2345120016,花蓮縣萬榮鄉衛生所,花蓮縣萬榮鄉萬榮村１鄰１６號,121.4092,23.71558,(03)8751651,羅氏家用新冠病毒抗原自我檢測套組,104,2022/05/07 16:38:02,快篩試劑代售時間：週一至週五下午2點至下午4點，販售為止。
2345130012,花蓮縣卓溪鄉衛生所,花蓮縣卓溪鄉卓溪村中正路６５號,121.3033,23.33294,(03)8882592,羅氏家用新冠病毒抗原自我檢測套組,156,2022/05/07 16:38:02,快篩試劑代售時間：週一至週五上午8：30-11：00（售完即結束）
2346150018,台東縣金峰鄉衛生所,臺東縣金峰鄉賓茂村１鄰１４號,120.9606,22.53248,(089)772201,羅氏家用新冠病毒抗原自我檢測套組,78,2022/05/07 16:38:02,快篩試劑販售時間為星期一至星期五，早上8:30~12:00；下午1:30~5:00
2346160014,台東縣蘭嶼鄉衛生所,臺東縣蘭嶼鄉紅頭村３６號,121.5546,22.02493,(089)732575,羅氏家用新冠病毒抗原自我檢測套組,78,2022/05/07 16:38:02,販售口罩時間 星期一至星期五 8:00~12:00 13:30~17:30
2390050032,金門縣烈嶼鄉衛生所,金門縣烈嶼鄉西口村西方６－５號,118.2395,24.43519,(082)362078,羅氏家用新冠病毒抗原自我檢測套組,12,2022/05/07 16:38:02,快篩試劑販售時間:周一至周五下午1點至3點
2391020010,連江縣北竿鄉衛生所,連江縣北竿鄉塘岐村２８１－６號,119.9991,26.22617,(083)655592,羅氏家用新冠病毒抗原自我檢測套組,11,2022/05/07 16:38:02,新冠快篩試劑販售於週一至周六每日上午08:30-12:00開放購買。
2391030016,連江縣莒光鄉西莒衛生所,連江縣莒光鄉青帆村１４－１號,119.9331,25.97157,(083)689122,羅氏家用新冠病毒抗原自我檢測套組,306,2022/05/07 16:38:02,防疫口罩星期一至五09:00-17:00、（六）09:00-12:00現場購買
2391030026,連江縣莒光鄉東莒衛生所,連江縣莒光鄉大坪村３０－１號,119.9731,25.96113,(083)689038,羅氏家用新冠病毒抗原自我檢測套組,434,2022/05/07 16:38:02,防疫口罩星期一至星期日上午10:00-12:00收取健保卡，下午3:30至本所領取口罩。
5901012598,婕登藥局,臺北市松山區八德路４段６９９號,121.5766,25.05021,(02)27482893,羅氏家用新冠病毒抗原自我檢測套組,5,2022/05/07 16:38:02,今天快篩已經發送完畢（電腦庫存不準）
5901013095,康采藥局,臺北市松山區南京東路５段２９１巷１７－２號,121.5663,25.05236,(02)27670271,羅氏家用新冠病毒抗原自我檢測套組,17,2022/05/07 16:38:02,（已完售，庫存不準）快篩試劑每日16點販售，週日沒有販售
5901013693,民生盛康藥局,臺北市松山區民生東路５段２０４號１樓,121.5648,25.05826,(02)27460758,羅氏家用新冠病毒抗原自我檢測套組,97,2022/05/07 16:38:02,【每日70分】每日早上9:00發號碼牌，14:00~20:00拿號碼牌回來領取，每人限1張號碼牌，逾時不候
5901023215,大愛健康藥局,臺北市大安區敦化南路２段６３巷６５號,121.552,25.03103,(02)27092156,羅氏家用新冠病毒抗原自我檢測套組,19,2022/05/07 16:38:02,無
5901023313,安和藥局,臺北市大安區安和路１段１０２巷３號,121.5519,25.03433,(02)27092349,羅氏家用新冠病毒抗原自我檢測套組,39,2022/05/07 16:38:02,平日下午三點開始販賣賣完 78份結束
5901024669,百岳藥局,臺北市大安區和平東路２段３１１巷１１號,121.5452,25.02514,(02)27551037,羅氏家用新冠病毒抗原自我檢測套組,78,2022/05/07 16:38:02,快篩試劑販售時間:周一至周五10:30~12:00止
5901024918,康祥藥局,臺北市大安區忠孝東路４段２１６巷２１號,121.5531,25.04025,(02)27817891,羅氏家用新冠病毒抗原自我檢測套組,79,2022/05/07 16:38:02,星期天11:00-19:00
5901100333,明美藥局,臺北市中山區長春路６９號,121.5266,25.05502,(02)25365419,羅氏家用新冠病毒抗原自我檢測套組,4,2022/05/07 16:38:02,口罩周一至周五，16:30-18:30販售
5901101250,美日藥局,臺北市中山區天津街６６號１樓,121.5233,25.05136,(02)25631662,羅氏家用新冠病毒抗原自我檢測套組,1,2022/05/07 16:38:02,實名制快篩於營業日下午4點開始發號碼牌
5901101509,永直藥局,臺北市中山區北安路５９５巷２弄６號,121.5483,25.08192,(02)85098059,羅氏家用新冠病毒抗原自我檢測套組,118,2022/05/07 16:38:02,今日號碼牌（5／7）沒有了，周一至周六早上8點發號碼牌，下午2點到晚上8點販售（拿號碼牌來買）
5901102444,啟美藥師藥局,臺北市中山區錦州街２８２號,121.5352,25.06024,(02)25178032,羅氏家用新冠病毒抗原自我檢測套組,78,2022/05/07 16:38:02,快篩 販售時間 20點開賣到21點，星期六日公休
5901102686,富宥康藥局,臺北市中山區北安路６０８巷５弄２２號,121.5496,25.08263,(02)25325277,羅氏家用新冠病毒抗原自我檢測套組,2,2022/05/07 16:38:02,無
5901102837,正傑健保藥局,臺北市中山區長安東路２段１８１號,121.5426,25.04839,(02)27310181,羅氏家用新冠病毒抗原自我檢測套組,1,2022/05/07 16:38:02,下午四點開始販售
5901103147,娸淇藥局,臺北市中山區伊通街９５號,121.5349,25.05305,(02)25082762,羅氏家用新冠病毒抗原自我檢測套組,40,2022/05/07 16:38:02,口罩販售時間2:30PM（六日無發口罩）4／2-4／5 清明休息
5901103629,十二願藥局,臺北市中山區林森北路３０９號,121.5256,25.05588,(02)25311223,羅氏家用新冠病毒抗原自我檢測套組,62,2022/05/07 16:38:02,快篩晚上8點開始發放.營業時間下午1點至凌晨3點
5901103656,大樹龍江藥局,臺北市中山區龍江路２４２號,121.5406,25.05889,(02)25035666,羅氏家用新冠病毒抗原自我檢測套組,4,2022/05/07 16:38:02,快篩實名制，每天16:00開始販售，售完為止。
5901103745,吉林藥局,臺北市中山區吉林路３７１號（１樓）,121.5305,25.06511,(02)25865990,羅氏家用新冠病毒抗原自我檢測套組,13,2022/05/07 16:38:02,快篩實名制，每天16:00開始販售，售完為止。
5901113018,桔子藥局,臺北市內湖區內湖路２段３３３號,121.5917,25.08319,(02)27930052,羅氏家用新冠病毒抗原自我檢測套組,78,2022/05/07 16:38:02,早0900-1200，午1400-1700，晚1900-2100
5901113250,大內湖藥局,臺北市內湖區成功路３段１６４號１樓,121.5903,25.08035,(02)27956286,羅氏家用新冠病毒抗原自我檢測套組,10,2022/05/07 16:38:02,5／5-5／7下午16:00開始發售，5／8（日）起早上9:30開始發售
5901150548,田倉藥局,臺北市士林區士東路１２４號,121.5302,25.11219,(02)88662188,羅氏家用新冠病毒抗原自我檢測套組,78,2022/05/07 16:38:02,每日19:00（傍晚7點）開始販售.
5901150593,安寧藥局,臺北市士林區劍潭路９１號,121.5199,25.08285,(02)28803319,羅氏家用新冠病毒抗原自我檢測套組,78,2022/05/07 16:38:02,領藥星期1.3.5為 9:00~12:00.及16:00~20:00*星期2.4.6.--上午
5901152453,家赫藥局,臺北市士林區忠義街８０號１樓,121.5317,25.10614,(02)28346453,羅氏家用新冠病毒抗原自我檢測套組,1,2022/05/07 16:38:02,每日下午2:40開始發號碼牌販售實名制快篩
5901153941,士東藥局,臺北市士林區士東路９１巷３號,121.5291,25.11256,(02)28760588,羅氏家用新冠病毒抗原自我檢測套組,4,2022/05/07 16:38:02,快篩實名制，每天16:00開始販售，售完為止。
5901154108,藥本家藥局,臺北市士林區中山北路７段１４巷２６號１樓,121.5328,25.11884,(02)28766682,羅氏家用新冠病毒抗原自我檢測套組,12,2022/05/07 16:38:02,無
5901154135,誠泰中西藥局,臺北市士林區永平街１３號１樓,121.5051,25.08996,(02)88112352,羅氏家用新冠病毒抗原自我檢測套組,78,2022/05/07 16:38:02,周一到周六晚上7:00開始販賣，  周日休息!
5901160428,九福藥局,臺北市北投區公館路２３６號,121.5081,25.12612,(02)28953009,羅氏家用新冠病毒抗原自我檢測套組,2,2022/05/07 16:38:02,★週日店休未營業. 快篩下午1點發號碼牌
5901161890,良興藥局,臺北市北投區中和街２８６號,121.5004,25.14047,(02)28933360,羅氏家用新冠病毒抗原自我檢測套組,54,2022/05/07 16:38:02,18點30分點開始營業
5901163554,良哲藥局,臺北市北投區明德路１５７－４號（實際使用：１樓）,121.5209,25.11129,(02)28285516,羅氏家用新冠病毒抗原自我檢測套組,2,2022/05/07 16:38:02,實名制快篩販售時間：早上 9:00~9:30／下午 2:30~3:00（週六人力不足不販售／週日休息）
5901163563,躍獅光明藥局,臺北市北投區光明路５１號、５３號（實際使用：１樓）,121.4998,25.13286,(02)28915993,羅氏家用新冠病毒抗原自我檢測套組,5,2022/05/07 16:38:02,1.早上9:30發號碼牌2.等快篩到貨才開始賣3.有號碼牌者請在晚上8點前領取，逾期作廢4.今日5／7號碼牌已發放完畢
5901170915,杏仁藥局,臺北市信義區大道路１３５號,121.5834,25.03901,(02)27262541,羅氏家用新冠病毒抗原自我檢測套組,24,2022/05/07 16:38:02,實名制快篩:週一至週五下午3點販售，週六週日無販售
5901173407,康怡健保藥局,臺北市信義區吳興街４６７巷２弄１２號,121.5695,25.02381,(02)27206193,羅氏家用新冠病毒抗原自我檢測套組,2,2022/05/07 16:38:02,快篩早上9點開賣，賣完為止
5901173710,專品光復藥局,臺北市信義區光復南路４６７之１號,121.5577,25.03384,(02)27586682,羅氏家用新冠病毒抗原自我檢測套組,1,2022/05/07 16:38:02,禮拜一到六下午三點販售口罩
5901173738,尚頤中西藥局,臺北市信義區虎林街１４５號,121.5767,25.03959,(02)27253818,羅氏家用新冠病毒抗原自我檢測套組,70,2022/05/07 16:38:02,無
5901174084,市政藥局,臺北市信義區忠孝東路５段１６９號１樓、１７１號１樓,121.5688,25.0412,(02)27560050,羅氏家用新冠病毒抗原自我檢測套組,3,2022/05/07 16:38:02,快篩實名制，每天16:00開始販售，售完為止。
5901184080,活力健康藥妝藥局,臺北市中正區中華路２段３１５巷１號,121.5062,25.02795,(02)23392625,羅氏家用新冠病毒抗原自我檢測套組,9,2022/05/07 16:38:02,快篩14:00-15:00， 建議提早排隊
5901184491,躍獅南門藥局,臺北市中正區中華路２段３９巷１０號,121.5074,25.03484,(02)23141111,羅氏家用新冠病毒抗原自我檢測套組,6,2022/05/07 16:38:02,口罩販售時段：成人早上9點及晚上7點各200個
5901184679,汀州藥局,臺北市中正區汀州路１段１８７、１８９、１９１號（１樓）,121.5112,25.02704,(02)23090705,羅氏家用新冠病毒抗原自我檢測套組,1,2022/05/07 16:38:02,快篩實名制，每天16:00開始販售，售完為止。
5901193150,日森人文藥局,臺北市萬華區和平西路３段１４９號,121.4988,25.03543,(02)23082100,羅氏家用新冠病毒抗原自我檢測套組,2,2022/05/07 16:38:02,快篩依政府每日到貨時間， 會立即公告粉絲頁販售時間規則
5901193221,正盛藥局,臺北市萬華區中華路２段４３４－１號,121.5064,25.02708,(02)23050386,羅氏家用新冠病毒抗原自我檢測套組,67,2022/05/07 16:38:02,1.快篩一~六20點，周日不賣 2.目前排隊人潮多，建議7點左右提前候位 3.詳情請看門口公告或板橋正康總店臉書
5901202627,杏隆藥局,臺北市文山區羅斯福路５段２６１號,121.5395,25.00115,(02)29313151,羅氏家用新冠病毒抗原自我檢測套組,156,2022/05/07 16:38:02,快篩實名制採預約登記，至5／14已登記額滿。
5901203366,大樹木柵藥局,臺北市文山區木柵路３段１０８號、１１０號（１樓、２樓）,121.5676,24.98866,(02)22340110,羅氏家用新冠病毒抗原自我檢測套組,3,2022/05/07 16:38:02,快篩實名制，每天16:00開始販售，售完為止。
5901203446,景華盛康藥局,臺北市文山區景華街６９號１樓,121.545,24.99524,(02)29310188,羅氏家用新冠病毒抗原自我檢測套組,1,2022/05/07 16:38:02,快篩販售時間:下午3點開賣，現場發送號碼牌
5901203482,健康家藥局,臺北市文山區興隆路２段１３３號１樓,121.5481,25.00011,(02)29330858,羅氏家用新冠病毒抗原自我檢測套組,1,2022/05/07 16:38:02,實名制快篩下午一點開始販售，5／1店休
5902050903,皇安藥局,高雄市三民區九如一路４６１號,120.3296,22.63865,(07)3866779,羅氏家用新冠病毒抗原自我檢測套組,5,2022/05/07 16:38:02,營業日0900可先領取號碼牌，上午9:00-12:00及下午3:00~10:.00為販賣快篩時間，售完為止
5902080545,柏松藥局,高雄市苓雅區輔仁路１７５號,120.3332,22.63065,(07)7119786,羅氏家用新冠病毒抗原自我檢測套組,1,2022/05/07 16:38:02,實名制快篩試劑.5／4.起.16:00開賣......售完為止!!
5903010485,大樹圓環藥局,臺中市豐原區圓環東路６１７號１樓,120.7283,24.25084,(04)25122212,羅氏家用新冠病毒抗原自我檢測套組,2,2022/05/07 16:38:02,口罩販售時間：14:00 - 16:00
5903010556,升禾和大藥局,臺中市豐原區育英路２６號１樓,120.7163,24.24346,(04)25293099,羅氏家用新冠病毒抗原自我檢測套組,78,2022/05/07 16:38:02,快篩試劑1800領取.採現場排隊.售完為止
5903050103,北勢進騰藥局,臺中市沙鹿區北勢東路５０９之７號１樓,120.576,24.22526,(04)26330893,羅氏家用新冠病毒抗原自我檢測套組,78,2022/05/07 16:38:02,營業時間12:00-22:00，每日12:00販售實名制快篩
5903090143,佳福藥局,臺中市潭子區中山路１段４３－１號,120.7023,24.19138,(04)25332982,羅氏家用新冠病毒抗原自我檢測套組,78,2022/05/07 16:38:02,每日中午12:00至下午3:00休息，星期六公休，營業日上午8:00快篩試劑開賣
5903150180,九德藥局,臺中市烏日區中山路一段４３８、４４０號１樓,120.6365,24.10748,(04)23385456,羅氏家用新冠病毒抗原自我檢測套組,15,2022/05/07 16:38:02,快篩實名制，每天16:00開始販售，售完為止。
5903190362,太平中山藥局,臺中市太平區中山路４段１１號,120.7139,24.14931,(04)23959200,羅氏家用新冠病毒抗原自我檢測套組,11,2022/05/07 16:38:02,快篩實名制，每天16:00開始販售，售完為止。
5903200229,信元藥局,臺中市大里區益民路２段３７２號１樓,120.684,24.11545,(04)24876051,羅氏家用新冠病毒抗原自我檢測套組,51,2022/05/07 16:38:02,下午5點發號碼牌並依序販賣
5903200701,大益藥局,臺中市大里區益民路二段３３５號１、２樓,120.6837,24.11311,(04)24811551,羅氏家用新冠病毒抗原自我檢測套組,1,2022/05/07 16:38:02,快篩實名制，每天16:00開始販售，售完為止。
5903220196,日安藥局,臺中市中區臺灣大道一段３３０號１樓,120.6801,24.1422,(04)22234246,羅氏家用新冠病毒抗原自我檢測套組,8,2022/05/07 16:38:02,週一至週六 下午2:30開始販售快篩   週日 早上9:30開始販售
5903240385,喆星藥局,臺中市西區精誠路４２２號,120.655,24.14522,(04)24715301,羅氏家用新冠病毒抗原自我檢測套組,1,2022/05/07 16:38:02,快篩試劑下午2點現場排隊領號碼牌，售完為止（周日不販售）
5903240483,名華藥局,臺中市西區中華路一段７號１樓,120.6732,24.14209,(04)22231187,羅氏家用新冠病毒抗原自我檢測套組,9,2022/05/07 16:38:02,實名制快篩，5／7 PM3:00開售
5903250505,心安藥局,臺中市南區國光路２４１號１樓,120.6794,24.12676,(04)22858773,羅氏家用新冠病毒抗原自我檢測套組,6,2022/05/07 16:38:02,每天下午三點排隊開賣，一人一卡，週日公休下次是5／7號.5／6已售完.
5903250578,樂碩藥局,臺中市南區建國南路一段２５９號１樓,120.6583,24.12491,(04)22601288,羅氏家用新冠病毒抗原自我檢測套組,8,2022/05/07 16:38:02,快篩週一到週六15:00、週日16:30開始販售，售完為止
5903250612,杏一南區台中藥局,臺中市南區台中路６６、６８號１樓,120.683,24.1339,(04)22220652,羅氏家用新冠病毒抗原自我檢測套組,9,2022/05/07 16:38:02,每日下午4點開始販售實名制快篩，售完為止。一人一卡一盒
5903260743,黎明安德藥局,臺中市北區中清路１段８５２號１樓,120.6718,24.17295,(04)22956098,羅氏家用新冠病毒抗原自我檢測套組,8,2022/05/07 16:38:02,週四公休、週日下午2點開始營業，一到六下午3點開始販賣快篩，禮拜日下午5點開始販賣快篩，現場排隊。
5903260958,健康達人藥局,臺中市北區北平路２段５６號１樓,120.6735,24.17153,(04)22994866,羅氏家用新冠病毒抗原自我檢測套組,1,2022/05/07 16:38:02,快篩實名制，每天中午2:00開始販售，售完為止。
5903261008,台中大樹藥局,臺中市北區漢口路三段２６１號,120.6726,24.16703,(04)22981113,羅氏家用新冠病毒抗原自我檢測套組,1,2022/05/07 16:38:02,快篩實名制，每天16:00開始販售，售完為止。
5903270310,弘福藥師藥局,臺中市西屯區西屯路３段１６６－２１號１樓,120.6159,24.18918,(04)24611916,羅氏家用新冠病毒抗原自我檢測套組,1,2022/05/07 16:38:02,每日15:00發放號碼牌，發完即開始販售（全年無休）
5903270721,舒健藥局,臺中市西屯區西屯路二段２５５號２樓,120.6459,24.17179,(04)27077858,羅氏家用新冠病毒抗原自我檢測套組,77,2022/05/07 16:38:02,公費快篩試劑於周一至周六晚上7點現場排隊購買，週日公休。
5903270865,尚禾藥局,臺中市西屯區青海路一段６５號,120.6548,24.16438,(04)23147688,羅氏家用新冠病毒抗原自我檢測套組,39,2022/05/07 16:38:02,實名制快篩發放：時段一中午12:30~14:00。時段二20：30~22：30。時段一若未發完，餘量將遞延至時段二發放。周日停售。
5903271031,美十樂中科藥局,臺中市西屯區西屯路三段１６６－６５號１樓,120.6129,24.19035,(04)24610219,羅氏家用新冠病毒抗原自我檢測套組,468,2022/05/07 16:38:02,醫事人員卡片損壞，暫時無法販賣快篩
5903271068,西墩藥局,臺中市西屯區黎明路三段２７５、２７７號１樓,120.6373,24.17812,(04)24510770,羅氏家用新冠病毒抗原自我檢測套組,12,2022/05/07 16:38:02,快篩實名制，每天16:00開始販售，售完為止。
5903271193,何安藥局,臺中市西屯區西屯路二段１０１號Ｂ棟１樓,120.6531,24.16616,(04)23161110,羅氏家用新冠病毒抗原自我檢測套組,25,2022/05/07 16:38:02,快篩實名制，每天16:00開始販售，售完為止。
5903271246,柏醫藥局,臺中市西屯區上安路５６號１樓,120.6412,24.17052,(04)24526391,羅氏家用新冠病毒抗原自我檢測套組,78,2022/05/07 16:38:02,因應到貨時間不定，統一晚上7點開放78組（5／7已到貨 11:37）
5903280245,大墩何藥局,臺中市南屯區大敦南路４３１號１．２樓,120.6476,24.13497,(04)24710655,羅氏家用新冠病毒抗原自我檢測套組,8,2022/05/07 16:38:02,防疫用快篩試劑下午4點開始販售，售完為止
5903280549,仁幼藥局,臺中市南屯區黎明東街２２９號１樓,120.6367,24.1482,(04)23809162,羅氏家用新冠病毒抗原自我檢測套組,2,2022/05/07 16:38:02,每日指揮中心發送量僅78份，販售時間平日早上8:30--9:00，晚上7:00--完售，禮拜六下午3:00--完售
5903280656,熊大心藥局,臺中市南屯區河南路四段３７６號,120.6369,24.15208,(04)22516252,羅氏家用新冠病毒抗原自我檢測套組,2,2022/05/07 16:38:02,app庫存錯誤。周一至周六，15:00-16:00售實名制快篩
5903280745,亨宇藥局,臺中市南屯區東興路二段２９－２號１樓,120.6529,24.13688,(04)24711206,羅氏家用新冠病毒抗原自我檢測套組,16,2022/05/07 16:38:02,無
5903290607,敦化小林健保藥局,臺中市北屯區敦化路１段６６８號,120.6643,24.18593,(04)24261881,羅氏家用新冠病毒抗原自我檢測套組,2,2022/05/07 16:38:02,每日早上8:00領號碼牌，16:30再回藥局領口罩（全年無休）
5903290625,又昌中西健保藥局,臺中市北屯區東山路１段２２３號,120.7152,24.17452,(04)24375716,羅氏家用新冠病毒抗原自我檢測套組,12,2022/05/07 16:38:02,快篩實名制 周一~周五晚上18:30開賣 現場排隊不發號碼牌
5903290661,康博中西健保藥局,臺中市北屯區后庄一街７號１樓,120.6644,24.1865,(04)24252468,羅氏家用新冠病毒抗原自我檢測套組,1,2022/05/07 16:38:02,快篩下午01:00發售53份；晚上06:00銷售25份.週六.日及假日下午06:30開始依配送滾動調整
5903290830,齊方藥局,臺中市北屯區四平路３９號,120.6708,24.17885,(04)22912192,羅氏家用新冠病毒抗原自我檢測套組,21,2022/05/07 16:38:02,5／7（星期六）下午4:00開賣，5／9（星期一）早上9:00開賣
5903291060,大樹北屯藥局,臺中市北屯區松竹路二段４１１號１樓,120.6895,24.18192,(04)22422262,羅氏家用新冠病毒抗原自我檢測套組,14,2022/05/07 16:38:02,快篩實名制，每天16:00開始販售，售完為止。
5903291177,大連何藥局,臺中市北屯區山西路二段２７４號１樓,120.677,24.177,(04)22930895,羅氏家用新冠病毒抗原自我檢測套組,7,2022/05/07 16:38:02,因應配送時間不一，販賣時間改為下午四點。
5905010072,長壽藥局,臺南市新營區中山路２１９號,120.3146,23.30286,(06)6324001,羅氏家用新冠病毒抗原自我檢測套組,25,2022/05/07 16:38:02,口罩販售時間：8:00~售完
5905060198,大樹新化藥局,臺南市新化區中正路５３１號１樓,120.3072,23.03764,(06)5901331,羅氏家用新冠病毒抗原自我檢測套組,1,2022/05/07 16:38:02,快篩實名制，每天16:00開始販售，售完為止。
5905140039,安安藥局隆田店,臺南市官田區中山路一段１５號１樓,120.3186,23.1927,(06)5795705,羅氏家用新冠病毒抗原自我檢測套組,2,2022/05/07 16:38:02,全日口罩販賣
5905270176,大樹仁德藥局,臺南市仁德區中正路二段１１５２號１樓,120.2519,22.97062,(06)2797466,羅氏家用新冠病毒抗原自我檢測套組,8,2022/05/07 16:38:02,快篩實名制，每天16:00開始販售，售完為止。
5905311074,中華長億藥局,臺南市永康區中華路７３４、７３６號１樓,120.2288,23.0167,(06)3022322,羅氏家用新冠病毒抗原自我檢測套組,32,2022/05/07 16:38:02,快篩實名制，每天16:00開始販售，售完為止。
5905320466,佑全中華藥局,臺南市東區中華東路三段２１５號,120.2253,22.97603,(06)2906386,羅氏家用新冠病毒抗原自我檢測套組,1,2022/05/07 16:38:02,星期一-六08:00-21:00
5905320859,裕農藥局,臺南市東區裕農路３０２號１樓,120.2287,22.98652,(06)2092286,羅氏家用新冠病毒抗原自我檢測套組,27,2022/05/07 16:38:02,無
5905320868,大樹東寧藥局,臺南市東區東寧路４３６號１樓,120.2291,22.9895,(06)2360006,羅氏家用新冠病毒抗原自我檢測套組,4,2022/05/07 16:38:02,快篩實名制，每天16:00開始販售，售完為止。
5905380300,新高橋藥局台南永華店,臺南市安平區華平路２７９號１樓,120.1748,22.99031,(06)2992362,羅氏家用新冠病毒抗原自我檢測套組,1,2022/05/07 16:38:02,若有到貨早上九點五十分發放號碼牌十點開始販售
5907010187,人人好藥局,高雄市鳳山區五甲三路１０巷７號１樓,120.3278,22.59336,(07)8151566,羅氏家用新冠病毒抗原自我檢測套組,77,2022/05/07 16:38:02,上午0830-1330下午1530-2100， 自2／11-2／29口罩販售周一三四五日，時間:9:00-12:00售完為止
5907011148,大樹國泰藥局,高雄市鳳山區興仁里五甲一路２９２號,120.3539,22.61698,(07)7407234,羅氏家用新冠病毒抗原自我檢測套組,3,2022/05/07 16:38:02,快篩實名制，每天16:00開始販售，售完為止。
5907011291,桂林活力藥師藥局鳳山店,高雄市鳳山區中正里瑞興路４８８號１樓,120.3719,22.63089,(07)7012827,羅氏家用新冠病毒抗原自我檢測套組,2,2022/05/07 16:38:02,早上9點發放號碼牌，發完號碼牌即售完
5907011371,大樹五甲藥局,高雄市鳳山區福祥里五甲三路２４號１－２樓．２６號１－２樓,120.3278,22.59317,(07)8224926,羅氏家用新冠病毒抗原自我檢測套組,6,2022/05/07 16:38:02,快篩實名制，每天16:00開始販售，售完為止。
5907011406,長青連鎖藥局大士店,高雄市鳳山區五甲一路１３９號１樓,120.3562,22.61968,(07)7104618,羅氏家用新冠病毒抗原自我檢測套組,4,2022/05/07 16:38:02,無
5907020094,大樹岡山藥局,高雄市岡山區岡山路１３６號,120.2967,22.78913,(07)6219477,羅氏家用新冠病毒抗原自我檢測套組,1,2022/05/07 16:38:02,快篩實名制，每天16:00開始販售，售完為止。
5907060230,華思中西藥局,高雄市大寮區永芳里進學路１２２號１樓,120.3933,22.60468,(07)7835567,羅氏家用新冠病毒抗原自我檢測套組,22,2022/05/07 16:38:02,星期一~星期六 下午四點販售實名制快篩到售完為止   星期天店休
5907070030,久堂藥局,高雄市大樹區久堂里久堂路１３６號１樓,120.4178,22.65813,(07)6512800,羅氏家用新冠病毒抗原自我檢測套組,1,2022/05/07 16:38:02,快篩實名制，每天16:00開始販售，售完為止。
5907080232,大樹仁武藥局,高雄市仁武區赤山里仁雄路８０－９號,120.3469,22.67811,(07)3744777,羅氏家用新冠病毒抗原自我檢測套組,25,2022/05/07 16:38:02,快篩實名制，每天16:00開始販售，售完為止。
5907150220,天德藥局路竹店,高雄市路竹區忠孝路２６－２、２６－３號１樓,120.2601,22.86059,(07)6975656,羅氏家用新冠病毒抗原自我檢測套組,7,2022/05/07 16:38:02,下午三點發放快篩
5907160093,保生藥局,高雄市湖內區葉厝里保生路３４０．３４２號,120.2195,22.90733,(07)6990800,羅氏家用新冠病毒抗原自我檢測套組,2,2022/05/07 16:38:02,快篩實名制，每天16:00開始販售，售完為止。
5907290309,鼓山藥局,高雄市鼓山區華榮路１０號,120.2973,22.66156,(07)5520017,羅氏家用新冠病毒抗原自我檢測套組,5,2022/05/07 16:38:02,快篩實名制，每天16:00開始販售，售完為止。
5907300686,左營自由藥局,高雄市左營區自由二路３５０、３５０－１號,120.3091,22.66599,(07)5589991,羅氏家用新冠病毒抗原自我檢測套組,9,2022/05/07 16:38:02,快篩實名制，每天16:00開始販售，售完為止。
5907300944,左營藥局,高雄市左營區華夏路３２５號,120.2972,22.67167,(07)5501017,羅氏家用新冠病毒抗原自我檢測套組,44,2022/05/07 16:38:02,快篩實名制，每天16:00開始販售，售完為止。
5907310262,大樹楠梓藥局,高雄市楠梓區軍校路９０８號,120.2919,22.71246,(07)3632322,羅氏家用新冠病毒抗原自我檢測套組,14,2022/05/07 16:38:02,快篩實名制，每天16:00開始販售，售完為止。
5907321041,鼎安健保藥局,高雄市三民區鼎中路４１８號１樓,120.3199,22.66719,(07)3509939,羅氏家用新冠病毒抗原自我檢測套組,1,2022/05/07 16:38:02,無
5907321069,桂林活力藥局九如店,高雄市三民區懷安街１１２號１樓,120.3176,22.64095,(07)3981009,羅氏家用新冠病毒抗原自我檢測套組,11,2022/05/07 16:38:02,每天15:30發號碼牌，於18:00前兌換完畢，逾期棄權，剩餘則繼續發放
5907321103,自由藥局,高雄市三民區自由一路７８號,120.3089,22.64422,(07)3223113,羅氏家用新冠病毒抗原自我檢測套組,19,2022/05/07 16:38:02,快篩實名制，每天16:00開始販售，售完為止。
5907330200,新興復興藥局,高雄市新興區復興一路７６號１樓,120.3085,22.63312,(07)2352550,羅氏家用新冠病毒抗原自我檢測套組,9,2022/05/07 16:38:02,快篩實名制，每天16:00開始販售，售完為止。
5907360520,大樹瑞福藥局,高雄市前鎮區瑞隆路１７０號１樓、２樓,120.3357,22.60598,(07)7271170,羅氏家用新冠病毒抗原自我檢測套組,13,2022/05/07 16:38:02,快篩實名制，每天16:00開始販售，售完為止。
5907360664,忠純藥局,高雄市前鎮區中華五路１００９號１樓,120.3056,22.60341,(07)3366886,羅氏家用新冠病毒抗原自我檢測套組,1,2022/05/07 16:38:02,快篩實名制，每天16:00開始販售，售完為止。
5907360673,前鎮大樹藥局,高雄市前鎮區瑞隆路４７２號１樓,120.3291,22.60547,(07)7137171,羅氏家用新冠病毒抗原自我檢測套組,1,2022/05/07 16:38:02,快篩實名制，每天16:00開始販售，售完為止。
5907380424,大樹小港藥局,高雄市小港區康莊路７５號１樓,120.3559,22.56853,(07)8068328,羅氏家用新冠病毒抗原自我檢測套組,20,2022/05/07 16:38:02,快篩實名制，每天16:00開始販售，售完為止。
5911011334,海大藥局,基隆市中正區新豐街２５５號１樓,121.7879,25.13621,(02)24699222,羅氏家用新冠病毒抗原自我檢測套組,78,2022/05/07 16:38:02,平日：8：30~12：00，15：00~21：30；星期日：~12：00
5911021438,正心藥局,基隆市七堵區南興路１０號１樓,121.7149,25.09755,(02)24563378,羅氏家用新冠病毒抗原自我檢測套組,79,2022/05/07 16:38:02,每日限量78盒， 星期一~六下午13:30發號碼牌，14:00開始販賣，星期日上午9:00發號碼牌，9:30開始販賣，12:00停止領取
5911050162,錦泰藥局,基隆市中山區中山二路４３號,121.7405,25.13786,(02)24228523,羅氏家用新冠病毒抗原自我檢測套組,78,2022/05/07 16:38:02,快篩販賣時間星期一至五晚上7點，星期六，星期日下午5點
5911051365,大慶大藥局,基隆市中山區中和路１６８巷３弄２０號,121.717,25.14982,(02)24378640,羅氏家用新冠病毒抗原自我檢測套組,38,2022/05/07 16:38:02,實名制快篩每日下午4:30開始販售
5912010215,李藥局,新竹市東區新莊里長春街３７號,121.0143,24.78573,(03)5779177,羅氏家用新冠病毒抗原自我檢測套組,45,2022/05/07 16:38:02,快篩實名制販售時間16:30（依到貨時間調整），周日休息
5912012120,仁美藥局,新竹市東區振興里振興路５２號,120.9625,24.79493,(03)5625398,羅氏家用新冠病毒抗原自我檢測套組,78,2022/05/07 16:38:02,週一~週六晚上六點販售（週日店休）不發號碼牌!請不要問我要幾點排隊，我不是九天玄女!盡量不打電話，感恩!!
5912013681,仁春藥局,新竹市東區慈濟路２５２號１樓,121.0153,24.79245,(03)6686718,羅氏家用新冠病毒抗原自我檢測套組,29,2022/05/07 16:38:02,5／7 實名制快篩 於16:00開始販售
5912042851,佑全新竹光華藥局,新竹市北區湳雅里光華街８６之１號１樓及２樓,120.9701,24.81723,(03)5311313,羅氏家用新冠病毒抗原自我檢測套組,8,2022/05/07 16:38:02,實名制快篩:16點開賣。因快篩配送作業不及，可能會調整開賣時間，請依現場公告為主
5917011945,正三吉藥局,臺中市中區臺灣大道一段９５號,120.6831,24.13911,(04)22207700,羅氏家用新冠病毒抗原自我檢測套組,78,2022/05/07 16:38:02,快篩販售時間 14:00~17:00
5917030146,新永富藥局,臺中市西區吉龍里美村路一段６７０號,120.6615,24.13555,(04)23766127,羅氏家用新冠病毒抗原自我檢測套組,68,2022/05/07 16:38:02,現場排隊 每日晚上 9:00..晚上9:00.晚上9:00 販售.1人只能1卡備500元
5917030280,德星藥局,臺中市西區忠明里美村路一段９６號,120.6615,24.1521,(04)23212293,羅氏家用新冠病毒抗原自我檢測套組,1,2022/05/07 16:38:02,5／7周六快篩14:00開始販售.營業時間10:00~20:00週六13:30~20:00營業，上午休息，週日休息
5917053756,中心旗艦藥局,臺中市北區五權路４０４號,120.6821,24.15288,(04)22068113,羅氏家用新冠病毒抗原自我檢測套組,2,2022/05/07 16:38:02,每日下午2:00開始賣快篩（實名制）.周一至周日都有營業
5917061150,裕和藥局,臺中市西屯區大墩路９５１號１Ｆ,120.652,24.15929,(04)23252629,羅氏家用新冠病毒抗原自我檢測套組,8,2022/05/07 16:38:02,實名制快篩W1-W6 14:00開始販售。
5917063725,永旭大藥局,臺中市西屯區逢甲路９２號１樓,120.6439,24.17883,(04)27087952,羅氏家用新冠病毒抗原自我檢測套組,1,2022/05/07 16:38:02,5／6起實名快篩，星期一到五早上10點開始，星期六日中午12點開始排隊販售。
5917072251,五六藥局,臺中市南屯區南屯路２段２４０號,120.6493,24.13696,(04)24757156,羅氏家用新冠病毒抗原自我檢測套組,12,2022/05/07 16:38:02,快篩週一至週六16 :00；週日20 : 00開始販售， 售完為止. （不發號碼牌）
5917083254,建祐藥局,臺中市北屯區太原路三段２６１號,120.6932,24.16505,(04)22389809,羅氏家用新冠病毒抗原自我檢測套組,16,2022/05/07 16:38:02,今日尚未收到貨；星期日休
5921071226,康活藥局,臺南市安平區健康三街１８６號,120.1686,22.98883,(06)2936483,羅氏家用新冠病毒抗原自我檢測套組,4,2022/05/07 16:38:02,快篩晚上18:00開賣.
5922010754,松柏藥局,嘉義市東區東平里民權路８７號,120.4618,23.48392,(05)2780909,羅氏家用新冠病毒抗原自我檢測套組,28,2022/05/07 16:38:02,防疫口罩及實名制快篩試劑於週一至週六，每日下午4:30開始販售，售完為止。
5922012178,聖心藥局,嘉義市東區大雅路二段５７７號,120.4676,23.47718,(05)2777189,羅氏家用新冠病毒抗原自我檢測套組,9,2022/05/07 16:38:02,每日下午3點領號碼牌
5922012909,昱安藥局,嘉義市東區成仁街１８０號,120.4521,23.48057,(05)2252395,羅氏家用新冠病毒抗原自我檢測套組,31,2022/05/07 16:38:02,購買時段星期（一）至（六）下午4:00-5:00
5922012945,大明藥局,嘉義市東區大雅路二段６８２號,120.4663,23.47719,(05)2760958,羅氏家用新冠病毒抗原自我檢測套組,1,2022/05/07 16:38:02,5／7號碼牌已發完畢（星期一至六：11點發號碼牌12-14點開始販售）
5922013111,富善藥局,嘉義市東區新生路２３４號,120.4609,23.48419,(05)2759559,羅氏家用新冠病毒抗原自我檢測套組,12,2022/05/07 16:38:02,5／13、14休假，實名制快篩早上9:10-12:00下午3:10-5:00
5922013193,民權藥局,嘉義市東區民權路１５５號１樓、１５７號１樓,120.4604,23.48374,(05)2775322,羅氏家用新冠病毒抗原自我檢測套組,2,2022/05/07 16:38:02,快篩實名制，每天16:00開始販售，售完為止。
5922020634,利安藥局,嘉義市西區番社里中山路３４４號１樓,120.4473,23.47984,(05)2225756,羅氏家用新冠病毒抗原自我檢測套組,9,2022/05/07 16:38:02,快篩星期一~六13:30販賣，5／8（日）16:00開賣
5922021006,竹圍藥局,嘉義市西區友愛路２７０、２７２號,120.4339,23.4837,(05)2811233,羅氏家用新冠病毒抗原自我檢測套組,17,2022/05/07 16:38:02,快篩實名制，每天16:00開始販售，售完為止。
5922028881,中興中西藥局,嘉義市西區垂楊路５０１號,120.4422,23.47297,(05)2353096,羅氏家用新冠病毒抗原自我檢測套組,76,2022/05/07 16:38:02,周一至周五10點開始，周末下午5點開始，並依序販售快篩售完為止
5931015687,正康健保藥局,新北市板橋區大觀路２段６５號１樓,121.4467,25.00246,(02)22756681,羅氏家用新冠病毒抗原自我檢測套組,78,2022/05/07 16:38:02,下午13:30依現場順序開始販售快篩，快篩配送絮亂庫存不準!!
5931016808,正安健保藥局,新北市板橋區民族路２２４號（１樓）,121.4687,25.00733,(02)29526813,羅氏家用新冠病毒抗原自我檢測套組,78,2022/05/07 16:38:02,17時依現場順序開始販售.週六12點.電腦配送庫存不準..以現場數量為準
5931017618,新埔健保藥局,新北市板橋區自由路２號１樓,121.4654,25.02222,(02)22558878,羅氏家用新冠病毒抗原自我檢測套組,39,2022/05/07 16:38:02,無
5931017985,松柏藥局,新北市板橋區松柏街９４號（１樓）,121.4767,25.03065,(02)82585223,羅氏家用新冠病毒抗原自我檢測套組,7,2022/05/07 16:38:02,快篩實名制，每天16:00開始販售，售完為止。
5931017994,後埔藥局,新北市板橋區華興街９號（１樓）,121.459,25.00457,(02)89510306,羅氏家用新冠病毒抗原自我檢測套組,6,2022/05/07 16:38:02,5／7 下午2點發放號碼牌*確保作業流暢請自備500元*每天 78 份晚上10 點以前領取完畢（過卡時間差異剩餘數量僅供參考）
5931018053,廣福健保藥局,新北市板橋區三民路１段７６號（１樓）,121.4793,25.02207,(02)29544288,羅氏家用新冠病毒抗原自我檢測套組,2,2022/05/07 16:38:02,實名制快篩每日下午16:00開始販售
5931021372,福昌大藥局,新北市三重區溪尾街２０５號,121.4886,25.08081,(02)29714069,羅氏家用新冠病毒抗原自我檢測套組,40,2022/05/07 16:38:02,口罩販賣時間上午9點至晚上11點
5931024426,甜心健康生活藥局,新北市三重區福祉里集美街４５號１樓,121.488,25.05542,(02)29762223,羅氏家用新冠病毒抗原自我檢測套組,49,2022/05/07 16:38:02,無
5931025398,昌誠藥局,新北市三重區三和路４段１６１號１樓,121.4835,25.0785,(02)22876338,羅氏家用新冠病毒抗原自我檢測套組,5,2022/05/07 16:38:02,5／2 （休診）
5931025610,大樹三重藥局,新北市三重區正義北路６６號１樓,121.4972,25.06415,(02)29713188,羅氏家用新冠病毒抗原自我檢測套組,1,2022/05/07 16:38:02,快篩實名制，每天16:00開始販售，售完為止。
5931025647,幸康藥局,新北市三重區正義北路２０５號２樓,121.4962,25.0684,(02)29816105,羅氏家用新冠病毒抗原自我檢測套組,20,2022/05/07 16:38:02,國定假日，如元旦，端午，中秋不執行調劑業務。政府快篩實名制於週一~週六的14:30開始販售。
5931025987,忠孝德榮藥局,新北市三重區忠孝路２段９７號１樓,121.4842,25.07005,(02)29800297,羅氏家用新冠病毒抗原自我檢測套組,78,2022/05/07 16:38:02,現場排隊不發號碼牌*實名制快篩* 週一至週日晚間19:00開始代售. 週六&周日中午12:00開始營業
5931033032,弘光藥局,新北市永和區竹林路中興里６６巷１９號１樓,121.5201,25.01396,(02)29282000,羅氏家用新冠病毒抗原自我檢測套組,6,2022/05/07 16:38:02,早上9點至晚上10點 口罩代售號碼牌自1400開始發放
5931033103,皇家藥師藥局,新北市永和區中正路７２０號１樓,121.5158,25.01017,(02)89216867,羅氏家用新冠病毒抗原自我檢測套組,78,2022/05/07 16:38:02,無
5931033676,九州藥局,新北市永和區自由街５號１樓,121.515,25.00699,(02)29226879,羅氏家用新冠病毒抗原自我檢測套組,25,2022/05/07 16:38:02,實名制快篩5月7日到貨，現在開始發售
5931033774,台化藥局,新北市永和區勵行街１１９號１樓,121.5175,25.01202,(02)22318585,羅氏家用新冠病毒抗原自我檢測套組,1,2022/05/07 16:38:02,無
5931034146,亮點藥局,新北市永和區竹林路７１號１樓,121.5186,25.01355,(02)89253895,羅氏家用新冠病毒抗原自我檢測套組,100,2022/05/07 16:38:02,快篩發放時段 下午16:30-18:00
5931043565,一安藥妝藥局,新北市中和區中和路９號１.２樓,121.4998,25.00221,(02)22483778,羅氏家用新冠病毒抗原自我檢測套組,2,2022/05/07 16:38:02,下午3點開始發號碼牌販售快篩
5931043636,雙合藥局,新北市中和區中正路２９１號１樓,121.4941,24.99375,(02)22476607,羅氏家用新冠病毒抗原自我檢測套組,2,2022/05/07 16:38:02,無
5931043921,良安藥局,新北市中和區連城路４７７巷１號１樓,121.4833,24.99555,(02)22225798,羅氏家用新冠病毒抗原自我檢測套組,8,2022/05/07 16:38:02,週六日不開店，實名制快篩，晚上9:00開始販售
5931052724,合康大藥局,新北市新店區中正路２６３－２號１樓,121.5384,24.97367,(02)29109888,羅氏家用新冠病毒抗原自我檢測套組,9,2022/05/07 16:38:02,快篩14:00開始（有事先發號碼牌）網上還有數量是拿到號碼牌還沒來領的，拜託別再問了
5931052984,北一藥師藥局,新北市新店區北新路２段１６０號１樓、２樓,121.5431,24.97563,(02)89115686,羅氏家用新冠病毒抗原自我檢測套組,77,2022/05/07 16:38:02,14:30發完號碼牌即發口罩，勿持號碼牌離開，叫號未到視同放棄
5931053203,巧新藥局,新北市新店區北宜路１段８４號１樓,121.5386,24.9556,(02)29183565,羅氏家用新冠病毒抗原自我檢測套組,2,2022/05/07 16:38:02,15:00 依序領取快篩，不發號碼牌，勿打電話詢問
5931060342,十安藥局,新北市新莊區中港路３１６號,121.4524,25.04544,(02)29922859,羅氏家用新冠病毒抗原自我檢測套組,2,2022/05/07 16:38:02,自111／04／01起不再販賣實名制口罩
5931067136,蒲陽藥局,新北市新莊區中港路５１４號,121.4518,25.05187,(02)29930069,羅氏家用新冠病毒抗原自我檢測套組,4,2022/05/07 16:38:02,無
5931067403,建嘉藥局,新北市新莊區中誠街４２號１樓,121.4513,25.04812,(02)29925261,羅氏家用新冠病毒抗原自我檢測套組,78,2022/05/07 16:38:02,無
5931069603,中信藥師藥局,新北市新莊區中信街８０號１樓,121.448,25.05311,(02)29969811,羅氏家用新冠病毒抗原自我檢測套組,78,2022/05/07 16:38:02,AM 07:30 開始
593106A600,全鎵藥局,新北市新莊區建中街２２號１樓,121.4493,25.03766,(02)22761550,羅氏家用新冠病毒抗原自我檢測套組,3,2022/05/07 16:38:02,16:00快篩開賣
593106A977,丹鳳藥局,新北市新莊區中正路７４５、７４７號（１樓）,121.4227,25.0288,(02)29065755,羅氏家用新冠病毒抗原自我檢測套組,3,2022/05/07 16:38:02,快篩實名制，每天16:00開始販售，售完為止。
593106B036,家嘉藥局,新北市新莊區自立街１０３號（１樓）,121.4553,25.04549,(02)89926488,羅氏家用新冠病毒抗原自我檢測套組,13,2022/05/07 16:38:02,今天號碼牌都已發放完畢
593106B205,藥師佛藥局,新北市新莊區中正路８８１之４號１樓,121.4175,25.02544,(02)29016625,羅氏家用新冠病毒抗原自我檢測套組,78,2022/05/07 16:38:02,五點才可以排隊，七點開賣，會預留警察消防人員額度，所以民眾購買額度不會是78盒！
593106B241,善美藥局,新北市新莊區公園路８９號１樓,121.4546,25.04041,(02)29960979,羅氏家用新冠病毒抗原自我檢測套組,2,2022/05/07 16:38:02,無
593106B303,新莊丁丁藥局,新北市新莊區民安西路２３７號１樓,121.4261,25.01398,(02)22022388,羅氏家用新冠病毒抗原自我檢測套組,28,2022/05/07 16:38:02,無
5931072066,琉璃水藥師藥局,新北市樹林區龍興街２１號１樓,121.403,25.01614,(02)26764262,羅氏家用新冠病毒抗原自我檢測套組,78,2022/05/07 16:38:02,無
5931072431,樹林大樹藥局,新北市樹林區育英街５４號１－２樓,121.4213,24.98928,(02)26815488,羅氏家用新冠病毒抗原自我檢測套組,1,2022/05/07 16:38:02,快篩實名制，每天16:00開始販售，售完為止。
5931081378,鶯歌宏達藥局,新北市鶯歌區國慶街１３８號１樓,121.3508,24.95347,(02)26709693,羅氏家用新冠病毒抗原自我檢測套組,1,2022/05/07 16:38:02,下午三點開始販售實名制快篩~不要打電話來問~藥師有其他工作要做
5931081547,信義健保藥局,新北市鶯歌區信義街６３號１樓,121.3534,24.95571,(02)86775563,羅氏家用新冠病毒抗原自我檢測套組,39,2022/05/07 16:38:02,5／6 早9:30 快篩限量40組發放 下午16:30 限量38組發放
5931091696,祥祐藥局,新北市三峽區文化路１２５號１樓,121.3699,24.93598,(02)26738080,羅氏家用新冠病毒抗原自我檢測套組,2,2022/05/07 16:38:02,實名制快篩每日下午2點開始販售
5931091892,三峽藥局,新北市三峽區介壽路１段２７號１樓,121.3757,24.93321,(02)26738868,羅氏家用新冠病毒抗原自我檢測套組,1,2022/05/07 16:38:02,快篩實名制，每天16:00開始販售，售完為止。
5931092200,金美藥局,新北市三峽區大同路２３８號１樓,121.3663,24.92573,(02)86715859,羅氏家用新冠病毒抗原自我檢測套組,23,2022/05/07 16:38:02,無
5931100154,尚運藥局,新北市淡水區學府路５１巷１弄２０號,121.4473,25.16892,(02)26225149,羅氏家用新冠病毒抗原自我檢測套組,183,2022/05/07 16:38:02,無
5931102103,四季寶健保藥局,新北市淡水區新市一路３段１１７－１號（含夾層）,121.4468,25.18314,(02)26283199,羅氏家用新冠病毒抗原自我檢測套組,4,2022/05/07 16:38:02,無
5931102461,淡水藥局,新北市淡水區中山路１２７號（１、２樓）,121.4414,25.17107,(02)86313663,羅氏家用新冠病毒抗原自我檢測套組,1,2022/05/07 16:38:02,快篩實名制，每天16:00開始販售，售完為止。
5931110034,麒豐藥局,新北市汐止區樟樹一路１３５巷２號,121.6421,25.0656,(02)26434737,羅氏家用新冠病毒抗原自我檢測套組,14,2022/05/07 16:38:02,實名制口罩銷售時間9:30~21:00
5931112047,吉安康健保藥師藥局,新北市汐止區宜興街１１號１樓,121.6213,25.0416,(02)26405881,羅氏家用新冠病毒抗原自我檢測套組,11,2022/05/07 16:38:02,營業時間以現場公告為主
5931112083,裕和藥局,新北市汐止區宜興街４號１樓,121.6211,25.04126,(02)26609119,羅氏家用新冠病毒抗原自我檢測套組,6,2022/05/07 16:38:02,晚上9.00領實名制快篩時間
5931112645,健成藥局,新北市汐止區新興路２０號１樓,121.6564,25.06456,(02)26428989,羅氏家用新冠病毒抗原自我檢測套組,14,2022/05/07 16:38:02,無
5931113071,蒲公英藥局,新北市汐止區連興街１２６號（１樓）,121.6538,25.06188,(02)26907770,羅氏家用新冠病毒抗原自我檢測套組,78,2022/05/07 16:38:02,實名制快篩銷售時間:下午17:00-19:00（無發放號碼牌）
5931113160,社后藥局,新北市汐止區康寧街４２４號１樓,121.6307,25.06801,(02)26956321,羅氏家用新冠病毒抗原自我檢測套組,1,2022/05/07 16:38:02,快篩實名制，每天16:00開始販售，售完為止。
5931120049,本平藥局,新北市瑞芳區瑞芳街４５號,121.8076,25.10913,(02)24972167,羅氏家用新冠病毒抗原自我檢測套組,2,2022/05/07 16:38:02,無
5931131579,祥安大藥局,新北市土城區立德路４２－１號,121.4636,24.98727,(02)22629707,羅氏家用新冠病毒抗原自我檢測套組,78,2022/05/07 16:38:02,無
5931132343,誠安藥局,新北市土城區中央路４段３６號１樓,121.4207,24.96088,(02)22677737,羅氏家用新冠病毒抗原自我檢測套組,156,2022/05/07 16:38:02,快篩代售時段：平日晚上8點，售完為止
5931132807,健業藥局,新北市土城區中央路２段２２３－１０號,121.4407,24.97312,(02)22704798,羅氏家用新冠病毒抗原自我檢測套組,78,2022/05/07 16:38:02,無
5931133331,城安大藥局,新北市土城區金城路３段４０號,121.4656,24.98639,(02)22646561,羅氏家用新冠病毒抗原自我檢測套組,72,2022/05/07 16:38:02,快篩代售時間晚上8:30
5931140158,全民藥局,新北市蘆洲區中山一路２０１、２０３號,121.4687,25.07655,(02)22837168,羅氏家用新冠病毒抗原自我檢測套組,1,2022/05/07 16:38:02,無
5931141959,長榮大藥局,新北市蘆洲區長榮路５１號,121.4626,25.08307,(02)82863837,羅氏家用新冠病毒抗原自我檢測套組,1,2022/05/07 16:38:02,實名制快篩販售時間，依配送狀況機動調整。
5931143257,德康藥局,新北市蘆洲區長榮路１３２號１樓,121.4616,25.08454,(02)82851022,羅氏家用新冠病毒抗原自我檢測套組,1,2022/05/07 16:38:02,實名制快篩周一到六14:50發號碼牌 15:00開賣 限現場排隊 一人一卡
5931171886,林口辰安藥局,新北市林口區文化三路１段１９１巷５號１樓,121.3619,25.07016,(02)26099151,羅氏家用新冠病毒抗原自我檢測套組,5,2022/05/07 16:38:02,快篩1600開始販售，現場排隊領取
5931231225,小蘋果藥局,新北市八里區中山路１段２２９號,121.411,25.1576,(02)26108206,羅氏家用新冠病毒抗原自我檢測套組,74,2022/05/07 16:38:02,無
5932011870,永祥大藥局,桃園市桃園區永安路５２８號,121.2986,25.00181,(03)3337161,羅氏家用新冠病毒抗原自我檢測套組,4,2022/05/07 16:38:02,口罩販賣時段：週一至週六早上9點
5932013392,桃園中正藥局,桃園市桃園區中正路３７３號,121.3079,24.99955,(03)3381600,羅氏家用新冠病毒抗原自我檢測套組,13,2022/05/07 16:38:02,快篩實名制，每天16:00開始販售，售完為止。
5932013687,桃園春日藥局,桃園市桃園區春日路８７８號,121.3096,25.01561,(03)3580101,羅氏家用新冠病毒抗原自我檢測套組,10,2022/05/07 16:38:02,快篩實名制，每天16:00開始販售，售完為止。
5932013909,莊敬長青藥師藥局,桃園市桃園區莊敬路一段３２３號１樓,121.2971,25.02393,(03)3587676,羅氏家用新冠病毒抗原自我檢測套組,58,2022/05/07 16:38:02,平日快篩下午2:00販售 下午1:40發號碼牌 星期六下午4:30販售 下午4:10發號碼牌 周日停配快篩
5932014031,大廟藥局,桃園市桃園區中山路１５８號１樓,121.3091,24.99342,(03)3337006,羅氏家用新冠病毒抗原自我檢測套組,22,2022/05/07 16:38:02,無
5932014111,鴻發藥師藥局,桃園市桃園區大有路５４３號,121.3171,25.0149,(03)3582468,羅氏家用新冠病毒抗原自我檢測套組,78,2022/05/07 16:38:02,實聯快篩:早上09:30發放號碼牌，限當日下午2~4點憑牌購買，逾時不候請見諒
5932014424,桃園中山藥局,桃園市桃園區中山路７０７號,121.2914,24.99079,(03)2207168,羅氏家用新冠病毒抗原自我檢測套組,1,2022/05/07 16:38:02,快篩實名制，每天16:00開始販售，售完為止。
5932018593,品一藥局,桃園市桃園區建新街７６號,121.3118,24.98261,(03)3638510,羅氏家用新冠病毒抗原自我檢測套組,2,2022/05/07 16:38:02,快篩販賣時間：週一至週五早上9：30；週六下午1：00（星期天休息），會發號碼牌（今天已發完）
5932021401,懷仁藥師健保藥局,桃園市中壢區中北路９３號１樓,121.238,24.95653,(03)4378466,羅氏家用新冠病毒抗原自我檢測套組,66,2022/05/07 16:38:02,實名制快篩銷售\5月7號更改時間為下午5:00\星期日沒有販售
5932021812,慧中健保藥局,桃園市中壢區成章二街１４１號１樓,121.2568,24.98025,(03)4556129,羅氏家用新冠病毒抗原自我檢測套組,63,2022/05/07 16:38:02,每日4:30開始領號碼牌販售快篩試劑
5932022631,中壢中正藥局,桃園市中壢區中正路３６３、３６５號,121.2163,24.95532,(03)4014100,羅氏家用新冠病毒抗原自我檢測套組,21,2022/05/07 16:38:02,快篩實名制，每天16:00開始販售，售完為止。
5932023281,裕翔藥局,桃園市中壢區榮民路４８號１樓,121.2606,24.96956,(03)4355499,羅氏家用新冠病毒抗原自我檢測套組,78,2022/05/07 16:38:02,快篩下午五點販售
5932023567,內壢成章藥局,桃園市中壢區忠孝路１９８號,121.2553,24.97719,(03)4524123,羅氏家用新冠病毒抗原自我檢測套組,2,2022/05/07 16:38:02,快篩實名制，每天16:00開始販售，售完為止。
5932023656,思琁藥師藥局,桃園市中壢區中北路二段４３０號,121.2331,24.95448,(03)4162189,羅氏家用新冠病毒抗原自我檢測套組,1,2022/05/07 16:38:02,週一~週五早上10:30發快篩..週六公休..週日看到貨狀況再另行公告
5932023889,華勛藥局,桃園市中壢區華勛街１１２、１１４號,121.2597,24.95065,(03)4161881,羅氏家用新冠病毒抗原自我檢測套組,2,2022/05/07 16:38:02,快篩實名制，每天16:00開始販售，售完為止。
5932023996,青瑭藥局,桃園市中壢區民權路４段２７７號１樓,121.2022,25.00625,(03)2875901,羅氏家用新冠病毒抗原自我檢測套組,1,2022/05/07 16:38:02,無
5932024215,幸運星藥師藥局,桃園市中壢區龍東路４４號１樓,121.2502,24.9284,(03)4563356,羅氏家用新冠病毒抗原自我檢測套組,20,2022/05/07 16:38:02,快篩實名制，下午16:00開始，排隊販售領取（無號碼牌）
5932031881,大溪藥局,桃園市大溪區康莊路１６０號,121.2886,24.8808,(03)3873873,羅氏家用新冠病毒抗原自我檢測套組,7,2022/05/07 16:38:02,快篩實名制，每天16:00開始販售，售完為止。
5932040246,龍泰藥局,桃園市楊梅區民族路五段１４７巷２號,121.1736,24.9586,(03)4901525,羅氏家用新冠病毒抗原自我檢測套組,1,2022/05/07 16:38:02,快篩販售時間:早上7:30領號碼牌下午2點至4點領快篩（當日有效） 六日中午10點至12點領快篩
5932043130,宜康美藥局,桃園市楊梅區環東路４５２號,121.1571,24.91005,(03)4883805,羅氏家用新冠病毒抗原自我檢測套組,20,2022/05/07 16:38:02,快篩販賣時段：早上09:30~10:30（20份）下午15:30~16:30（38份）晚上19:30~20:30（20份）
5932043390,元森藥局,桃園市楊梅區瑞溪路２段１２５號１樓,121.1806,24.90875,(03)4311058,羅氏家用新冠病毒抗原自我檢測套組,1,2022/05/07 16:38:02,無
5932051329,恆安藥局,桃園市蘆竹區忠孝西路２４號,121.2924,25.04425,(03)2120206,羅氏家用新冠病毒抗原自我檢測套組,9,2022/05/07 16:38:02,口罩販賣時段：下午16:00  晚上20:00
5932051472,康而美聖安藥師藥局,桃園市蘆竹區南山路一段二之一號,121.2916,25.04879,(03)3228753,羅氏家用新冠病毒抗原自我檢測套組,3,2022/05/07 16:38:02,暫停止販售
5932052979,南崁藥局,桃園市蘆竹區中正路２５１、２５３、２５５號,121.2921,25.04695,(03)3522022,羅氏家用新冠病毒抗原自我檢測套組,157,2022/05/07 16:38:02,快篩實名制，每天16:00開始販售，售完為止。
5932076844,帕米爾藥局,桃園市龜山區萬壽路二段９９１號,121.3369,24.99464,(03)3295522,羅氏家用新冠病毒抗原自我檢測套組,2,2022/05/07 16:38:02,星期一~六:家用快篩試劑販賣時段：14:30~售完。不發號碼牌，請直接排隊購買。
5932077056,桃園龜山藥局,桃園市龜山區萬壽路二段８９６號,121.3394,24.99586,(03)3203312,羅氏家用新冠病毒抗原自我檢測套組,2,2022/05/07 16:38:02,快篩實名制，每天16:00開始販售，售完為止。
5932077270,明昌藥局,桃園市龜山區中興里萬壽路二段１１９１－６號,121.3318,24.99291,(03)3501205,羅氏家用新冠病毒抗原自我檢測套組,2,2022/05/07 16:38:02,無
5932077510,左外野藥局,桃園市龜山區文光街６號１樓,121.3802,25.05471,(03)3271503,羅氏家用新冠病毒抗原自我檢測套組,77,2022/05/07 16:38:02,快篩販售:晚上19:30至20:30（週五公休）*不發號碼牌 請直接排隊購買
5932077574,樂樂聯合藥局,桃園市龜山區萬壽路１段１０９號１、２樓,121.4091,25.01886,(02)82000560,羅氏家用新冠病毒抗原自我檢測套組,4,2022/05/07 16:38:02,實名制快篩於每日9點開始發放號碼牌，發完為止。 中午12點至14點半為藥局休息時間
5932077592,南崁南祥藥局,桃園市龜山區南祥路４６號,121.2975,25.04633,(03)2227733,羅氏家用新冠病毒抗原自我檢測套組,1,2022/05/07 16:38:02,快篩實名制，每天16:00開始販售，售完為止。
5932080455,日鴻藥局,桃園市八德區義勇街１７５號,121.3065,24.96335,(03)3763304,羅氏家用新冠病毒抗原自我檢測套組,7,2022/05/07 16:38:02,口罩販賣時段：早上9:00 發號碼牌下午4:00~6:00領取
5932083303,吉康生活藥局,桃園市八德區義勇街１２０號,121.3045,24.96354,(03)3768577,羅氏家用新冠病毒抗原自我檢測套組,78,2022/05/07 16:38:02,周休二日，周一到周五09.:30發放快篩號碼牌 銷售時間 09:30-11:30
5932083670,保健藥局,桃園市八德區介壽路一段８３３號２樓,121.3,24.96168,(03)3669486,羅氏家用新冠病毒抗原自我檢測套組,200,2022/05/07 16:38:02,無
5932083974,晨鴻藥師藥局,桃園市八德區桃鶯路７號１樓,121.3265,24.97179,(03)3764299,羅氏家用新冠病毒抗原自我檢測套組,23,2022/05/07 16:38:02,快篩為早上8:30跟晚上6:00領取號碼牌，星期六早上一次發78份，快篩地圖數量參考就好，請勿再打電話詢問 謝謝
5932084300,博泰藥局,桃園市八德區介壽路二段９８２號,121.2973,24.93407,(03)3731010,羅氏家用新冠病毒抗原自我檢測套組,8,2022/05/07 16:38:02,快篩實名制，每天16:00開始販售，售完為止。
5932084695,康馥藥局,桃園市八德區金和路５３號１樓,121.2971,24.95494,(03)3749620,羅氏家用新冠病毒抗原自我檢測套組,78,2022/05/07 16:38:02,口罩販賣時段：15:00 ， 週日14:30開始營業；星期六公休。
5932084800,瑞豐藥局,桃園市八德區興豐路５７７號１樓,121.2935,24.93075,(03)3681456,羅氏家用新冠病毒抗原自我檢測套組,1,2022/05/07 16:38:02,快篩實名制，每天16:00開始販售，售完為止。
5932084828,阿爾富山藥局,桃園市八德區桃鶯路４號１樓,121.3261,24.97167,(03)3763350,羅氏家用新冠病毒抗原自我檢測套組,75,2022/05/07 16:38:02,本藥局實名制快篩於每日晚間7點以實際到貨數量發放，唯保留可視現場排隊人數額滿情況.酌情提前發號碼牌並受理購買!
5932084864,阿寶藥局,桃園市八德區東勇一路６號,121.3064,24.96452,(03)3750060,羅氏家用新冠病毒抗原自我檢測套組,47,2022/05/07 16:38:02,實名制快篩詳細公告請參閱阿寶藥局官方臉書
5932100210,福澤中豐藥局,桃園市平鎮區中豐路３４５號,121.2116,24.91034,(03)4283805,羅氏家用新冠病毒抗原自我檢測套組,68,2022/05/07 16:38:02,家用快篩販賣時段15:30至售完為止
5932101226,平鎮中豐藥局,桃園市平鎮區中豐路山頂段１６４號,121.2109,24.90035,(03)4690939,羅氏家用新冠病毒抗原自我檢測套組,1,2022/05/07 16:38:02,快篩實名制，每天16:00開始販售，售完為止。
593210A078,康健複合式連鎖藥局,桃園市平鎮區金陵路三段９１號,121.2276,24.92882,(03)4684601,羅氏家用新冠病毒抗原自我檢測套組,1,2022/05/07 16:38:02,實名制快篩試劑13:00開始，不發號碼牌，現場排隊售完為止，一人一卡，自備500元，恕不找零，不收銅板，謝謝配合
5932111286,新中藥局,桃園市新屋區中山路３２４、３２６號１樓,121.1053,24.97287,(03)4971232,羅氏家用新冠病毒抗原自我檢測套組,4,2022/05/07 16:38:02,快篩實名制，每天16:00開始販售，售完為止。
5932124381,日昇藥局,桃園市觀音區成功路一段７８１號,121.119,25.05221,(03)4834212,羅氏家用新冠病毒抗原自我檢測套組,41,2022/05/07 16:38:02,下午4點及晚上9點各販售39份快篩試劑
5933010064,明德藥局,新竹縣關西鎮中山路１８號,121.1778,24.79152,(03)5874335,羅氏家用新冠病毒抗原自我檢測套組,39,2022/05/07 16:38:02,無
5933011258,安東藥師藥局,新竹縣關西鎮中山路６２號,121.1766,24.79147,(03)5872385,羅氏家用新冠病毒抗原自我檢測套組,78,2022/05/07 16:38:02,口罩販賣時段：星期一至六08:00-21:00、星期日08:00-17:00
5933052660,阿姆斯壯藥局,新竹縣竹北市六家五路一段１２５號,121.0254,24.80966,(03)6589178,羅氏家用新冠病毒抗原自我檢測套組,78,2022/05/07 16:38:02,快篩5／3早上9:00開始販售，5／4起改下午5點。
5933053041,中一藥局,新竹縣竹北市文興路一段２４２號１樓,121.0287,24.81018,(03)6670827,羅氏家用新冠病毒抗原自我檢測套組,7,2022/05/07 16:38:02,更新:快篩販售時間下午16:00
5933053550,六家藥局,新竹縣竹北市六家一路一段１６３號,121.0289,24.80958,(03)6578456,羅氏家用新冠病毒抗原自我檢測套組,1,2022/05/07 16:38:02,快篩實名制，每天16:00開始販售，售完為止。
5933061712,湖山藥局,新竹縣湖口鄉中山路二段１２７號,121.0439,24.90198,(03)5904999,羅氏家用新冠病毒抗原自我檢測套組,8,2022/05/07 16:38:02,快篩實名制，每天16:00開始販售，售完為止。
5934011529,宜生藥局,宜蘭縣宜蘭市新民路１１１號,121.7551,24.75716,(03)9327893,羅氏家用新冠病毒抗原自我檢測套組,22,2022/05/07 16:38:02,周一至周六 上午8點至上午 9點 （或售完為止）5月7日台電停電 休息一日
5935030171,立安藥局,苗栗縣通霄鎮信義路１０７號,120.6804,24.48877,(037)760100,羅氏家用新冠病毒抗原自我檢測套組,1,2022/05/07 16:38:02,快篩實名制 週一到週六下午15:00開始販售  售完為止
5935041914,合康連鎖藥局,苗栗縣竹南鎮博愛街２７０號,120.8725,24.68724,(037)474987,羅氏家用新冠病毒抗原自我檢測套組,78,2022/05/07 16:38:02,販售快篩時間為下午17:00開始販售
5935042091,好心健保藥局,苗栗縣竹南鎮中華路１５７號,120.9236,24.71002,(037)687088,羅氏家用新冠病毒抗原自我檢測套組,1,2022/05/07 16:38:02,快篩販售時間:下午01:00
5935052006,懷恩中西藥局,苗栗縣頭份市建國路１２８號１樓,120.9099,24.69584,(037)683981,羅氏家用新冠病毒抗原自我檢測套組,78,2022/05/07 16:38:02,營業時間:7:00-23:00
5936010039,裕安藥局,臺中市豐原區南陽路南陽市場１１號,120.7239,24.24718,(04)25223494,羅氏家用新冠病毒抗原自我檢測套組,6,2022/05/07 16:38:02,無
5936040021,持田健保藥局,臺中市清水區鰲峰路24號,120.5742,24.26938,(04)26229133,羅氏家用新冠病毒抗原自我檢測套組,81,2022/05/07 16:38:02,週一至週六早上8:30發送快篩號碼牌，請勿離開現場售完為止
5936040135,德厚藥局,臺中市清水區慷榔里慷榔２街５０號,121.4874,25.07275,(04)26560733,羅氏家用新冠病毒抗原自我檢測套組,4,2022/05/07 16:38:02,實名制快篩試劑於週一至週日10:00開始發送號碼牌，請勿離開現場，售完為止。
5936150341,原全成藥局,臺中市烏日區中山路一段３８７號１樓,120.6388,24.10773,(04)23361818,羅氏家用新冠病毒抗原自我檢測套組,3,2022/05/07 16:38:02,每日＜下午４點＞!!＜下午４點＞!!＜下午４點＞!!開始發號碼牌販售，售完為止！！
5936190676,中美藥師藥局,臺中市太平區中山路３段８５號,120.7173,24.14861,(04)22778238,羅氏家用新冠病毒抗原自我檢測套組,1,2022/05/07 16:38:02,無
5936192134,樹德大藥局,臺中市太平區樹德路１０２號１樓,120.7115,24.15386,(04)23981782,羅氏家用新冠病毒抗原自我檢測套組,31,2022/05/07 16:38:02,下午3點開始領號碼牌，分流領取，請勿依賴網站庫存
5936209287,德芳大藥局,臺中市大里區益民路二段３０４號１、２樓,120.684,24.11183,(04)24815932,羅氏家用新冠病毒抗原自我檢測套組,3,2022/05/07 16:38:02,快篩販售時間:下午3點~6點
593620B138,聯生中西健保藥局,臺中市大里區現岱路１５８巷１１號,120.6919,24.10295,(04)24834058,羅氏家用新冠病毒抗原自我檢測套組,62,2022/05/07 16:38:02,早上八點半領號碼牌下午四點到六點領口罩W6W日早七點
5937010140,三立大藥局,彰化縣彰化市中華西路１１１號,120.5321,24.07338,(04)7635422,羅氏家用新冠病毒抗原自我檢測套組,54,2022/05/07 16:38:02,周一至週日下午四點半開始排隊　並依續販售　售完截止..
5937012117,媽咪藥局,彰化縣彰化市彰南路２段１１５號,120.5793,24.08538,(04)7321517,羅氏家用新冠病毒抗原自我檢測套組,1,2022/05/07 16:38:02,實名制快篩:周一至周六下午3:00，週日早上9:00開始販售，售完為止
5937012582,正光藥局中正店,彰化縣彰化市中正路１段２５３號,120.5466,24.08348,(04)7235068,羅氏家用新冠病毒抗原自我檢測套組,31,2022/05/07 16:38:02,領藥來正光，快篩實名13:30開始販售。
5937013196,彰化啄木鳥藥局,彰化縣彰化市茄南里金馬路２段２７號,120.5483,24.09616,(04)7330661,羅氏家用新冠病毒抗原自我檢測套組,1,2022/05/07 16:38:02,無
5937013347,康禾藥局,彰化縣彰化市崙平里建和街５２號,120.5322,24.07063,(04)7624077,羅氏家用新冠病毒抗原自我檢測套組,8,2022/05/07 16:38:02,固定周一至周五下午一點發放快篩試劑，售完為止
5937013570,彰化藥局,彰化縣彰化市永安街２７８、２８０號,120.5438,24.08977,(04)7287877,羅氏家用新冠病毒抗原自我檢測套組,78,2022/05/07 16:38:02,快篩實名制，每天16:00開始販售，售完為止。
5937021330,順安藥局,彰化縣鹿港鎮泰興里復興路１２５號,120.4386,24.05279,(04)7765510,羅氏家用新冠病毒抗原自我檢測套組,78,2022/05/07 16:38:02,販售快篩篩劑時間: 週1.2.4.5.日 早上8:00  ／  週3下午2:00   ／ 週六停止販售  5／4已經完售
5937052451,統信藥局,彰化縣員林市正興街３７２號,120.5722,23.95997,(04)8367089,羅氏家用新冠病毒抗原自我檢測套組,12,2022/05/07 16:38:02,無
5937052479,莒光藥局,彰化縣員林市莒光路３１６號１樓,120.5669,23.95942,(04)8361388,羅氏家用新冠病毒抗原自我檢測套組,1,2022/05/07 16:38:02,快篩實名制，每天16:00開始販售，售完為止。
5937052488,大樹員林藥局,彰化縣員林市大同路二段２０７號,120.5745,23.96891,(04)8331353,羅氏家用新冠病毒抗原自我檢測套組,1,2022/05/07 16:38:02,快篩實名制，每天16:00開始販售，售完為止。
5937061736,平和藥局,彰化縣溪湖鎮彰水路三段２７７、２７９號１樓,120.4801,23.95959,(04)8816880,羅氏家用新冠病毒抗原自我檢測套組,6,2022/05/07 16:38:02,快篩實名制，每天16:00開始販售，售完為止。
5937101271,信義藥局,彰化縣伸港鄉新港村信義路７１號,120.4859,24.14681,(04)7982232,羅氏家用新冠病毒抗原自我檢測套組,1,2022/05/07 16:38:02,快篩實名制，每天16:00開始販售，售完為止。
5937181279,佳恩藥局,彰化縣永靖鄉永西村瑚璉路３０２號,120.547,23.92421,(04)8235753,羅氏家用新冠病毒抗原自我檢測套組,2,2022/05/07 16:38:02,快篩實名制 :電話預約制，當日早上9點開始預約（已額滿）
5937191300,社頭藥局,彰化縣社頭鄉社斗路一段３７３號,120.5846,23.89651,(04)8720030,羅氏家用新冠病毒抗原自我檢測套組,6,2022/05/07 16:38:02,快篩實名制，每天16:00開始販售，售完為止。
5937201061,長春藥局,彰化縣二水鄉文化村光文路１０３號,120.6167,23.81189,(04)8795289,羅氏家用新冠病毒抗原自我檢測套組,4,2022/05/07 16:38:02,早上8:00發放號碼牌，13:00開始販售至17:00止
5938011730,明安大藥局,南投縣南投市復興路４８７、４８９號,120.6769,23.91728,(049)2248922,羅氏家用新冠病毒抗原自我檢測套組,71,2022/05/07 16:38:02,早上9:30開始領快篩號碼牌，14:00後領健保卡
5938032373,和平藥局,南投縣草屯鎮草溪路１０２６號１樓,120.6819,23.97706,(049)2310085,羅氏家用新冠病毒抗原自我檢測套組,2,2022/05/07 16:38:02,快篩發放 現場排隊 勿打電話 時間 週一至週五 晚上6:30-8:30 ， 週六下午3:30-5:00 .周日公休.
5939011850,明真西藥局,雲林縣斗六市自由路１號,120.5447,23.70513,(05)5321605,羅氏家用新冠病毒抗原自我檢測套組,3,2022/05/07 16:38:02,口罩販售:早上0800-1200中午1200-1400休息下午1400到2100賣完為止
5939012526,世明中西藥局,雲林縣斗六市文化路３２４－１號,120.5532,23.71162,(05)5333109,羅氏家用新冠病毒抗原自我檢測套組,1,2022/05/07 16:38:02,口罩販售:於周一到周日營業時間9:00~售完為止，快篩試劑販售:於周一到周六營業時間14:00開賣~售完為止
5939061949,大樹北港藥局,雲林縣北港鎮華勝路９９號,120.2986,23.57559,(05)7830783,羅氏家用新冠病毒抗原自我檢測套組,10,2022/05/07 16:38:02,快篩實名制，每天16:00開始販售，售完為止。
5939071276,慈生藥局,雲林縣古坑鄉麻園村平和２２號,120.5203,23.6351,(05)5828222,羅氏家用新冠病毒抗原自我檢測套組,44,2022/05/07 16:38:02,週三.四.六.日下午3-5點販售實名制快篩
5939171093,和平藥局,雲林縣元長鄉下寮村東興路３３號,120.334,23.61849,(05)7862551,羅氏家用新冠病毒抗原自我檢測套組,15,2022/05/07 16:38:02,販賣口罩時間：0800開賣，賣完為止
5940011302,開元藥局,嘉義縣朴子市開元路１５４號,120.2446,23.46725,(05)3700014,羅氏家用新冠病毒抗原自我檢測套組,2,2022/05/07 16:38:02,週一至週五08:30~售完為止，週六、週日到貨即賣~售完為止。
5940131283,一心藥局,嘉義縣中埔鄉富收村頂中下街３１、３１－１號１樓,120.4885,23.45077,(05)2303553,羅氏家用新冠病毒抗原自我檢測套組,60,2022/05/07 16:38:02,無
5942010349,長英藥局,高雄市鳳山區八德路二段２６７號,120.3519,22.64479,(07)7805002,羅氏家用新冠病毒抗原自我檢測套組,3,2022/05/07 16:38:02,4／29起-營業日15:00~17:00為快篩販賣時間，售完為止。
5943012570,和信藥局,屏東縣屏東市棒球路８９號,120.4807,22.65578,(08)7515918,羅氏家用新冠病毒抗原自我檢測套組,2,2022/05/07 16:38:02,5／7（六）下午4點5／8（日）早上8點  5／9（一）早上8點  開始 銷售快篩請排隊購買不發號碼牌 營業時間8-12 15-18 19-21
5943014092,屏東藥局,屏東縣屏東市自由路６３１號,120.4824,22.683,(08)7323331,羅氏家用新冠病毒抗原自我檢測套組,8,2022/05/07 16:38:02,快篩實名制，每天16:00開始販售，售完為止。
5943014332,千甲台安藥局,屏東縣屏東市武廟里逢甲路９２號,120.4867,22.67045,(08)7330663,羅氏家用新冠病毒抗原自我檢測套組,45,2022/05/07 16:38:02,因政府物流不穩定 每日塊篩販售時間公告於LINE社群https:／／reurl.cc／M0b5VX
5943014341,和平藥局,屏東縣屏東市和平路３５號,120.4785,22.66651,(08)7556696,羅氏家用新冠病毒抗原自我檢測套組,2,2022/05/07 16:38:02,快篩實名制，每天16:00開始販售，售完為止。
5943020125,信安西藥局,屏東縣潮州鎮同榮里中山路７０號,120.5415,22.54973,(08)7882176,羅氏家用新冠病毒抗原自我檢測套組,11,2022/05/07 16:38:02,5月7日實名制快篩已售完。5月9日實名制快篩下午4點開賣。週日不營業。
5943021720,潮州藥局,屏東縣潮州鎮介壽路１－１號,120.536,22.54448,(08)7894000,羅氏家用新冠病毒抗原自我檢測套組,20,2022/05/07 16:38:02,快篩實名制，每天16:00開始販售，售完為止。
5943031735,愛樂活藥局,屏東縣東港鎮長春一路１１３－１號,120.4594,22.47111,(08)8312388,羅氏家用新冠病毒抗原自我檢測套組,2,2022/05/07 16:38:02,快篩販賣時間: 週一，二，四，五，日 晚上7點開賣，週三，六（有夜市）下午3點開賣 大家辛苦了
5943050169,新萬安藥局,屏東縣萬丹鄉萬安村萬丹路一段１１３號,120.4894,22.58628,(08)7772035,羅氏家用新冠病毒抗原自我檢測套組,2,2022/05/07 16:38:02,實名制快篩販售時間中午 12:30  至售完
5943131365,內埔藥師藥局文化店,屏東縣內埔鄉內埔村文化路３８２號,120.5676,22.6123,(08)7693929,羅氏家用新冠病毒抗原自我檢測套組,1,2022/05/07 16:38:02,營業日8點開始領口罩、不發號碼牌，售完為止
5943131561,南寧藥局,屏東縣內埔鄉南寧路２３號,120.5655,22.61723,(08)7690330,羅氏家用新冠病毒抗原自我檢測套組,16,2022/05/07 16:38:02,快篩實名制，每天16:00開始販售，售完為止。
5944020558,全民藥局,澎湖縣湖西鄉湖西村１５０－３號,119.6603,23.5844,(06)9920403,羅氏家用新冠病毒抗原自我檢測套組,39,2022/05/07 16:38:02,中午12:00-13:30休息
5945010038,德生藥局,花蓮縣花蓮市中山路３２９號,121.6067,23.98027,(03)8322676,羅氏家用新冠病毒抗原自我檢測套組,140,2022/05/07 16:38:02,.5月6日快篩暫停販售.5月7日下午6時開始販售
5945051619,仁愛藥局,花蓮縣吉安鄉慶豐村中山路三段２８０號,121.5712,23.97783,(03)8511635,羅氏家用新冠病毒抗原自我檢測套組,85,2022/05/07 16:38:02,5／7.28.29店休 實名制快篩早上8:30開賣!
5945051646,花蓮建國藥局,花蓮縣吉安鄉建國路１段１３７－１號,121.5915,23.98574,(03)8461699,羅氏家用新冠病毒抗原自我檢測套組,10,2022/05/07 16:38:02,快篩實名制，每天16:00開始販售，售完為止。
5946080552,伯安健康藥局,臺東縣長濱鄉長濱村１０鄰長濱路１０５號,121.4515,23.31496,(089)832519,羅氏家用新冠病毒抗原自我檢測套組,96,2022/05/07 16:38:02,無
5946101118,伯安藥局,臺東縣池上鄉新生路１１６號,121.2187,23.12315,(089)863585,羅氏家用新冠病毒抗原自我檢測套組,34,2022/05/07 16:38:02,早0800-1200，午1400-1800，晚1800-2000
5990010695,百泰藥局,金門縣金城鎮西海路１段１號,118.2864,24.41566,(082)312832,羅氏家用新冠病毒抗原自我檢測套組,78,2022/05/07 16:38:02,快篩實名制，每天16:00開始販售，售完為止。
