醫事機構代碼,醫事機構名稱,醫事機構地址,經度,緯度,醫事機構電話,廠牌項目,快篩試劑截至目前結餘存貨數量,來源資料時間,備註
0291010010,連江縣立醫院,連江縣南竿鄉復興村２１７號,119.9492,26.16084,(083)623995,羅氏家用新冠病毒抗原自我檢測套組,78,2022/05/09 08:09:02,4／29起固定周一至周六上午8:30-9:30快篩試劑販售.
2331260016,新北市貢寮區衛生所,新北市貢寮區朝陽街７０巷１０號、新北市貢寮區仁愛路１２８號,121.9095,25.02258,(02)24901431,羅氏家用新冠病毒抗原自我檢測套組,156,2022/05/09 08:09:02,快篩試劑販售時間為周一至周五早上9點開始販售，每日販售一箱，數量有限售完為止。
2333100013,新竹縣寶山鄉衛生所,新竹縣寶山鄉雙溪村７鄰雙園路二段２７３號,120.9949,24.76691,(03)5292106,羅氏家用新冠病毒抗原自我檢測套組,27,2022/05/09 08:09:02,快篩試劑於星期一~星期六8:30-9:30販售
2333120015,新竹縣峨眉鄉衛生所,新竹縣峨眉鄉峨眉村峨眉街２鄰５號,121.0214,24.68842,(03)5800314,羅氏家用新冠病毒抗原自我檢測套組,78,2022/05/09 08:09:02,自5月6日起平常上班日販賣快篩試劑12時至13時止，星期六為8時30分至9時30分，目前皆以現場排隊人員順序，每日最多78組
2333140017,新竹縣五峰鄉衛生所,新竹縣五峰鄉大隘村六鄰９９號,121.1194,24.63184,(03)5851005,羅氏家用新冠病毒抗原自我檢測套組,10,2022/05/09 08:09:02,無
2335110017,苗栗縣南庄鄉衛生所,苗栗縣南庄鄉東村大同路１７號,121,24.59733,(037)822024,羅氏家用新冠病毒抗原自我檢測套組,44,2022/05/09 08:09:02,口罩販賣時段:週一至週五上午8:00~下午5:00
2335140015,苗栗縣西湖鄉衛生所,苗栗縣西湖鄉龍洞村１鄰１６號,120.7577,24.5578,(037)921211,羅氏家用新冠病毒抗原自我檢測套組,78,2022/05/09 08:09:02,無
2335180019,苗栗縣泰安鄉衛生所,苗栗縣泰安鄉清安村２鄰７２號,120.9083,24.44722,(037)941054,羅氏家用新冠病毒抗原自我檢測套組,78,2022/05/09 08:09:02,口罩販賣時段：星期一~五：8:30~15：00。
2338070010,南投縣鹿谷鄉衛生所,南投縣鹿谷鄉中正路二段２０號,120.7542,23.74488,(049)2752002,羅氏家用新冠病毒抗原自我檢測套組,78,2022/05/09 08:09:02,快篩試劑販售時間 上班日（星期一至星期五）14:00~16:00
2338080016,南投縣中寮鄉衛生所,南投縣中寮鄉永平村永昌街１０２號,120.7657,23.881,(049)2691404,羅氏家用新冠病毒抗原自我檢測套組,78,2022/05/09 08:09:02,無
2340170016,嘉義縣大埔鄉衛生所,嘉義縣大埔鄉大埔村５３－１號,120.5928,23.29397,(05)2521214,羅氏家用新冠病毒抗原自我檢測套組,78,2022/05/09 08:09:02,無
2341250013,臺南市南化區衛生所,臺南市南化區南化里２２６－１號,120.4793,23.0444,(06)5771139,羅氏家用新冠病毒抗原自我檢測套組,156,2022/05/09 08:09:02,5／7-5／8假日無販售       5／9日起調整實名制快篩試劑販售時間:下午2點30分-4點整售完提早結束。
2341260019,臺南市左鎮區衛生所,臺南市左鎮區中正里１７２之１５號,120.4099,23.05631,(06)5731114,羅氏家用新冠病毒抗原自我檢測套組,9,2022/05/09 08:09:02,快篩試劑販賣時間:星期一至五，上午9-11時
2341300018,臺南市龍崎區衛生所,臺南市龍崎區崎頂里新市子１５８號,120.3618,22.96521,(06)5941397,羅氏家用新冠病毒抗原自我檢測套組,78,2022/05/09 08:09:02,無
2342130010,高雄市田寮區衛生所,高雄市田寮區南安里崗北路３２號,120.3594,22.87301,(07)6361504,羅氏家用新冠病毒抗原自我檢測套組,155,2022/05/09 08:09:02,巡迴醫療:每星期一、四下午及每月第一個有上班的星期三下午巡迴醫療
2342180010,高雄市永安區衛生所,高雄市永安區永安路２６號,120.2254,22.81879,(07)6912015,羅氏家用新冠病毒抗原自我檢測套組,78,2022/05/09 08:09:02,本所防疫快篩試劑販賣時間為週一到週五上班日 9:00-11:00 （或售罄為止），現場叫號不到，視同放棄
2342230015,高雄市杉林區衛生所,高雄市杉林區上平里山仙路９３巷２號,120.5386,22.97693,(07)6771319,羅氏家用新冠病毒抗原自我檢測套組,78,2022/05/09 08:09:02,快篩試劑販售時間為週一至週五上午09:00~11:00（當試劑數量售完或超過本所販售時間，則停止當日銷售）
2342250017,高雄市茂林區衛生所,高雄市茂林區茂林里茂林巷８－４號,120.6641,22.88641,(07)6801046,羅氏家用新冠病毒抗原自我檢測套組,138,2022/05/09 08:09:02,夜間急診，請先撥電話07-6801046
2342260013,高雄市桃源區衛生所,高雄市桃源區桃源里南進巷１８８－１號,120.7642,23.15845,(07)6861126,羅氏家用新冠病毒抗原自我檢測套組,152,2022/05/09 08:09:02,IDS提供24小時服務
2342270019,高雄市那瑪夏區衛生所,高雄市那瑪夏區瑪雅里６鄰平和巷２５２號,120.7024,23.24708,(07)6701142,羅氏家用新冠病毒抗原自我檢測套組,61,2022/05/09 08:09:02,春節期間正常門診
2343140010,屏東縣竹田鄉衛生所,屏東縣竹田鄉竹田村中山路２５號,120.5431,22.58637,(08)7710445,羅氏家用新冠病毒抗原自我檢測套組,33,2022/05/09 08:09:02,無
2343210017,屏東縣佳冬鄉衛生所,屏東縣佳冬鄉六根村佳和路８７－１號,120.5496,22.41426,(08)8662018,羅氏家用新冠病毒抗原自我檢測套組,65,2022/05/09 08:09:02,無
2343250011,屏東縣枋山鄉衛生所,屏東縣枋山鄉枋山村枋山路９８號,120.6527,22.26464,(08)8761150,羅氏家用新冠病毒抗原自我檢測套組,48,2022/05/09 08:09:02,快篩試劑販售時間8點至9點，售完為止
2343270013,屏東縣霧台鄉衛生所,屏東縣霧台鄉霧台村神山巷６８號,120.7261,22.74989,(08)7902232,羅氏家用新冠病毒抗原自我檢測套組,78,2022/05/09 08:09:02,5／6 20份販售於禮納里公共服務中心一樓（下午2~4點）
2343280019,屏東縣瑪家鄉衛生所,屏東縣瑪家鄉北葉村風景巷８６號,120.6496,22.70801,(08)7991164,羅氏家用新冠病毒抗原自我檢測套組,63,2022/05/09 08:09:02,口罩販售時間:星期一至星期五8:30-12:00 13:00-16:30
2343290015,屏東縣泰武鄉衛生所,屏東縣泰武鄉佳平村１７９號,120.6327,22.59212,(08)7832059,羅氏家用新冠病毒抗原自我檢測套組,78,2022/05/09 08:09:02,4／2-4／5門診照常
2343300016,屏東縣來義鄉衛生所,屏東縣來義鄉古樓村中正路９０號,120.632,22.52584,(08)7850103,羅氏家用新冠病毒抗原自我檢測套組,53,2022/05/09 08:09:02,無
2344011036,澎湖縣馬公市第三衛生所,澎湖縣馬公市西文里１１８之２號,119.5836,23.56813,(06)9211723,羅氏家用新冠病毒抗原自我檢測套組,106,2022/05/09 08:09:02,本所快篩試劑只提供離島衛生室（虎井、桶盤）販售，時間週一至週五08:30-17:00售完為止，星期六、日國定假日09:00-12:00。
2344030013,澎湖縣白沙鄉衛生所,澎湖縣白沙鄉赤崁村３５９號,119.5982,23.66669,(06)9931044,羅氏家用新冠病毒抗原自我檢測套組,76,2022/05/09 08:09:02,星期日上午門診看診（每月最後一個星期日休診）； 星期五上午巡迴醫療（中屯村，講美村，通樑村）
2344030022,澎湖縣白沙鄉鳥嶼衛生所,澎湖縣白沙鄉鳥嶼村漁港新村３號,119.6599,23.66008,(06)9916092,羅氏家用新冠病毒抗原自我檢測套組,128,2022/05/09 08:09:02,非上班時間提供急診服務
2344030031,澎湖縣白沙鄉吉貝衛生所,澎湖縣白沙鄉吉貝村８－１３號,119.6138,23.74056,(06)9911430,羅氏家用新冠病毒抗原自我檢測套組,188,2022/05/09 08:09:02,無
2344050024,澎湖縣望安鄉將軍衛生所,澎湖縣望安鄉將軍村１２鄰將軍澳１之３號,119.5216,23.3615,(06)9902066,羅氏家用新冠病毒抗原自我檢測套組,60,2022/05/09 08:09:02,24小時急診
2344060011,澎湖縣七美鄉衛生所,澎湖縣七美鄉中和村埔內５４號,119.431,23.2041,(06)9971005,羅氏家用新冠病毒抗原自我檢測套組,72,2022/05/09 08:09:02,無
2345080017,衛生福利部花蓮醫院豐濱原住民分院,花蓮縣豐濱鄉豐濱村光豐路４１號,121.5215,23.60195,(03)8358141,羅氏家用新冠病毒抗原自我檢測套組,78,2022/05/09 08:09:02,*本院口罩每天販售，時間自上午8點至晚上9點  *本院週一至週五上下午皆有門診，星期六隔週提供門診，及24小時急診。
2345110010,花蓮縣秀林鄉衛生所,花蓮縣秀林鄉秀林村１２鄰秀林路８８號,121.6334,24.1269,(03)8612122,羅氏家用新冠病毒抗原自我檢測套組,156,2022/05/09 08:09:02,口罩代售時間上班日上午8:10至12時止（口罩限量故售完為止）
2345120016,花蓮縣萬榮鄉衛生所,花蓮縣萬榮鄉萬榮村１鄰１６號,121.4092,23.71558,(03)8751651,羅氏家用新冠病毒抗原自我檢測套組,26,2022/05/09 08:09:02,快篩試劑代售時間：週一至週五下午2點至下午4點，販售為止。
2346020015,台東縣成功鎮衛生所,臺東縣成功鎮忠仁里中山東路６４號,121.3789,23.10003,(089)851419,羅氏家用新冠病毒抗原自我檢測套組,78,2022/05/09 08:09:02,5月7日上午8:30發號碼牌9:00開賣
2346070015,臺東縣東河鄉衛生所,臺東縣東河鄉東河村南東河路１０鄰３００號,121.3031,22.96846,(089)896289,羅氏家用新冠病毒抗原自我檢測套組,78,2022/05/09 08:09:02,快篩試劑販售時間:◆平日（星期一三四五）上午9-11時販售，星期二下午13-15時販售售完為止。
2346110014,台東縣綠島鄉衛生所,臺東縣綠島鄉中寮村１－１號,121.4696,22.67319,(089)672511,羅氏家用新冠病毒抗原自我檢測套組,78,2022/05/09 08:09:02,家用快篩實名制，販售時段為上午08:30至12:00，下午13:30至16:30（周一至周五），售完為止。）
2346120010,台東縣延平鄉衛生所,臺東縣延平鄉桃源村昇平路１１號,121.0855,22.90217,(089)561358,羅氏家用新冠病毒抗原自我檢測套組,78,2022/05/09 08:09:02,星期一至星期五上午8:00-11:00下午13:30-16:30販售快篩試劑現場一卡一號78號收完卡即完售，遇國定假日休息
2346130016,台東縣海端鄉衛生所,臺東縣海端鄉海端村３鄰２９號,121.1767,23.10094,(089)931391,羅氏家用新冠病毒抗原自我檢測套組,156,2022/05/09 08:09:02,星期一至星期五家用快篩試劑販售時間上午10點~12點（售完為止）
2346140012,台東縣達仁鄉衛生所,臺東縣達仁鄉安朔村復興路１２２號,120.8836,22.29488,(089)702209,羅氏家用新冠病毒抗原自我檢測套組,72,2022/05/09 08:09:02,12／31 元旦連假
2346150018,台東縣金峰鄉衛生所,臺東縣金峰鄉賓茂村１鄰１４號,120.9606,22.53248,(089)772201,羅氏家用新冠病毒抗原自我檢測套組,156,2022/05/09 08:09:02,快篩試劑販售時間為星期一至星期五，早上8:30~12:00；下午1:30~5:00
2346160014,台東縣蘭嶼鄉衛生所,臺東縣蘭嶼鄉紅頭村３６號,121.5546,22.02493,(089)732575,羅氏家用新冠病毒抗原自我檢測套組,78,2022/05/09 08:09:02,販售口罩時間 星期一至星期五 8:00~12:00 13:30~17:30
2390040518,金門縣金寧鄉衛生所,金門縣金寧鄉盤山村仁愛新屯２之１號,118.3374,24.44479,(082)325735,羅氏家用新冠病毒抗原自我檢測套組,43,2022/05/09 08:09:02,購買快篩實名制週一至週五上班日上午8:00開始依排隊發放號碼牌，每日78份，售完即止
2391020010,連江縣北竿鄉衛生所,連江縣北竿鄉塘岐村２８１－６號,119.9991,26.22617,(083)655592,羅氏家用新冠病毒抗原自我檢測套組,11,2022/05/09 08:09:02,新冠快篩試劑販售於週一至周六每日上午08:30-12:00開放購買。
2391030016,連江縣莒光鄉西莒衛生所,連江縣莒光鄉青帆村１４－１號,119.9331,25.97157,(083)689122,羅氏家用新冠病毒抗原自我檢測套組,306,2022/05/09 08:09:02,防疫口罩星期一至五09:00-17:00、（六）09:00-12:00現場購買
2391030026,連江縣莒光鄉東莒衛生所,連江縣莒光鄉大坪村３０－１號,119.9731,25.96113,(083)689038,羅氏家用新冠病毒抗原自我檢測套組,434,2022/05/09 08:09:02,防疫口罩星期一至星期日上午10:00-12:00收取健保卡，下午3:30至本所領取口罩。
5901010076,榮星藥局,臺北市松山區南京東路４段１３３巷５弄１號,121.5552,25.05214,(02)27124696,羅氏家用新冠病毒抗原自我檢測套組,30,2022/05/09 08:09:02,無
5901010165,傑安藥局,臺北市松山區八德路２段４３７巷７弄８號１樓,121.5473,25.04914,(02)27524155,羅氏家用新冠病毒抗原自我檢測套組,78,2022/05/09 08:09:02,9:30開始發號碼牌
5901010290,健全藥局,臺北市松山區民權東路３段１０３巷２０號,121.5449,25.06327,(02)27128293,羅氏家用新冠病毒抗原自我檢測套組,5,2022/05/09 08:09:02,無
5901011975,萬泰藥局,臺北市松山區敦化北路２２２巷３８號,121.5471,25.05994,(02)27135891,羅氏家用新冠病毒抗原自我檢測套組,15,2022/05/09 08:09:02,每日早上9.00販售快篩試劑
5901012409,家音藥局,臺北市松山區民生東路５段７３號,121.5585,25.05871,(02)37652080,羅氏家用新冠病毒抗原自我檢測套組,2,2022/05/09 08:09:02,實名制快篩販售時段公告，請追蹤美康健保藥局 家音店 FB粉絲頁，謝謝~
5901012516,惠登藥局,臺北市松山區民生東路３段１３０巷３４號,121.5461,25.0562,(02)25472432,羅氏家用新冠病毒抗原自我檢測套組,28,2022/05/09 08:09:02,實名制快篩週一到週五下午2點販售
5901012712,立康大藥局,臺北市松山區八德路四段２－１號,121.5581,25.04812,(02)27471749,羅氏家用新冠病毒抗原自我檢測套組,11,2022/05/09 08:09:02,快篩時間：周一～周五9:30-14:00，18:00-21:30。周六10:30-12:30，18:00-20:00。周日暫停販售。如有修正以店面公告為主
5901012749,躍獅松和藥局,臺北市松山區八德路四段６６６－１號,121.5761,25.04979,(02)27492569,羅氏家用新冠病毒抗原自我檢測套組,78,2022/05/09 08:09:02,實名制快篩販售時段，每日下午4點販售，售完為止
5901012963,綠之家藥局,臺北市松山區延壽街４２８號,121.5562,25.0562,(02)25289595,羅氏家用新冠病毒抗原自我檢測套組,144,2022/05/09 08:09:02,禮拜日不販售快篩
5901013095,康采藥局,臺北市松山區南京東路５段２９１巷１７－２號,121.5663,25.05236,(02)27670271,羅氏家用新冠病毒抗原自我檢測套組,16,2022/05/09 08:09:02,（已完售，庫存不準）快篩試劑每日16點販售，週日沒有販售
5901013120,誠康中西藥局,臺北市松山區南京東路５段５９巷３１弄４３號,121.5607,25.05346,(02)27619679,羅氏家用新冠病毒抗原自我檢測套組,28,2022/05/09 08:09:02,禮拜一到六早上7點發號碼牌，到貨時會用社群通知大家來取貨
5901013451,新德大藥局,臺北市松山區饒河街２０４號,121.577,25.05074,(02)27673402,羅氏家用新冠病毒抗原自我檢測套組,51,2022/05/09 08:09:02,周一至周六上午九點開賣；快篩實名制（周日休息）
5901013595,巧心藥局,臺北市松山區八德路３段１２巷５７弄３９之３號１樓,121.5521,25.04567,(02)25703728,羅氏家用新冠病毒抗原自我檢測套組,49,2022/05/09 08:09:02,快篩試劑14:00販售，售完為止．
5901013620,躍獅敦北藥局,臺北市松山區民生東路４段８０巷５號１樓,121.5531,25.05713,(02)27155691,羅氏家用新冠病毒抗原自我檢測套組,100,2022/05/09 08:09:02,實名制快篩販售時間PM14:30 本店會預留28份供及人大廈住戶購買 剩餘數量供現場民眾排隊購買（14:30開始販購）
5901013693,民生盛康藥局,臺北市松山區民生東路５段２０４號１樓,121.5648,25.05826,(02)27460758,羅氏家用新冠病毒抗原自我檢測套組,83,2022/05/09 08:09:02,【5／8不發放】每日早上9:00發號碼牌，11:00~20:00拿號碼牌回來領取，每人限1張號碼牌，逾時不候
5901020563,施寶藥局,臺北市大安區安東街５０－５號１樓,121.5426,25.04277,(02)27114175,羅氏家用新冠病毒抗原自我檢測套組,78,2022/05/09 08:09:02,週一至週五早上11點到下午8點.周六周日及公訂例假日公休快篩早上11點開始銷售直到配額售完為止
5901020616,龍護大藥局,臺北市大安區大安路１段２２４巷７號１Ｆ,121.5454,25.03401,(02)23250686,羅氏家用新冠病毒抗原自我檢測套組,57,2022/05/09 08:09:02,無
5901020858,順天堂藥局,臺北市大安區龍泉街９６號,121.5292,25.02256,(02)23627149,羅氏家用新冠病毒抗原自我檢測套組,42,2022/05/09 08:09:02,實名制快篩早上9:30開始發放，每日78份，發完為止。禮拜日公休
5901020876,大興藥局,臺北市大安區通化街３９巷５０弄１５號１樓,121.5555,25.03056,(02)27053369,羅氏家用新冠病毒抗原自我檢測套組,14,2022/05/09 08:09:02,快篩試劑販售時間自08:30開始，現場排隊。（週日休息）
5901021248,永誠藥局,臺北市大安區忠孝東路４段２１６巷２５之１號,121.5531,25.03997,(02)27520273,羅氏家用新冠病毒抗原自我檢測套組,98,2022/05/09 08:09:02,上午9:30發放（不發號碼牌）
5901021382,建如藥局,臺北市大安區和平東路３段２２８巷１１號１Ｆ,121.5543,25.02174,(02)27331456,羅氏家用新冠病毒抗原自我檢測套組,156,2022/05/09 08:09:02,8:00先領取號碼牌並收取健保卡 .9:00後才領回健保卡及快篩 星期日休息
5901023073,世中欣藥局,臺北市大安區永康街２巷８號,121.5294,25.03315,(02)23938947,羅氏家用新冠病毒抗原自我檢測套組,4,2022/05/09 08:09:02,健保快篩：周一至周五， 早上10點開始販售。週六下午2點販售。週日停售.。
5901023313,安和藥局,臺北市大安區安和路１段１０２巷３號,121.5519,25.03433,(02)27092349,羅氏家用新冠病毒抗原自我檢測套組,2,2022/05/09 08:09:02,平日下午三點開始販賣賣完 78份結束
5901024114,好安心藥局,臺北市大安區和平東路２段９８之２號,121.5415,25.02493,(02)23772166,羅氏家用新冠病毒抗原自我檢測套組,15,2022/05/09 08:09:02,快篩發放: 週一至週六 15:30現場開始販售（人滿提早發售），不發號碼牌。
5901024516,博昱師大藥局,臺北市大安區羅斯福路３段１８９號,121.5281,25.02109,(02)23696966,羅氏家用新冠病毒抗原自我檢測套組,47,2022/05/09 08:09:02,實名制快篩販售時間為下午14:00~15:30
5901024543,奇威藥局,臺北市大安區雲和街９３號,121.5312,25.02338,(02)23651110,羅氏家用新冠病毒抗原自我檢測套組,44,2022/05/09 08:09:02,無
5901024669,百岳藥局,臺北市大安區和平東路２段３１１巷１１號,121.5452,25.02514,(02)27551037,羅氏家用新冠病毒抗原自我檢測套組,78,2022/05/09 08:09:02,快篩試劑販售時間:周一至周五10:30~12:00止
5901024918,康祥藥局,臺北市大安區忠孝東路４段２１６巷２１號,121.5531,25.04025,(02)27817891,羅氏家用新冠病毒抗原自我檢測套組,79,2022/05/09 08:09:02,星期天11:00-19:00
5901024954,佑全大安敦南藥局,臺北市大安區敦化南路２段６３巷４６號,121.5512,25.03089,(02)23257579,羅氏家用新冠病毒抗原自我檢測套組,78,2022/05/09 08:09:02,早上10點發放號碼牌，同時開始販賣實名制快篩
5901024981,專品六張犁藥局,臺北市大安區基隆路２段２１７號１樓,121.5513,25.02299,(02)87322226,羅氏家用新冠病毒抗原自我檢測套組,52,2022/05/09 08:09:02,無
5901025004,早安藥局,臺北市大安區建國南路２段１５１巷４２號１樓,121.5396,25.02865,(02)27002209,羅氏家用新冠病毒抗原自我檢測套組,71,2022/05/09 08:09:02,快篩早上9點發號碼牌留卡下午2點領取
5901090074,慈仁藥局,臺北市大同區歸綏街２６１號１樓,121.5101,25.05832,(02)25572733,羅氏家用新冠病毒抗原自我檢測套組,46,2022/05/09 08:09:02,平日營業至晚上6點，星期六營業至下午2點，星期日公休
5901090154,柯藥局,臺北市大同區重慶北路３段３３５巷６號,121.5144,25.07452,(02)25948515,羅氏家用新冠病毒抗原自我檢測套組,93,2022/05/09 08:09:02,库存已零如何歸零
5901090323,泰元藥局,臺北市大同區哈密街９１號,121.5146,25.07303,(02)25914592,羅氏家用新冠病毒抗原自我檢測套組,40,2022/05/09 08:09:02,無
5901090341,正中藥局,臺北市大同區民族西路２１３號,121.5142,25.06874,(02)25976937,羅氏家用新冠病毒抗原自我檢測套組,1,2022/05/09 08:09:02,無
5901091544,得意藥師藥局,臺北市大同區延平北路２段２２９號,121.5115,25.06029,(02)25534294,羅氏家用新冠病毒抗原自我檢測套組,7,2022/05/09 08:09:02,無
5901091884,躍獅雙蓮藥局,臺北市大同區涼州街４號,121.5147,25.06078,(02)25537551,羅氏家用新冠病毒抗原自我檢測套組,49,2022/05/09 08:09:02,實名制快篩：平日週一～五 下午３點開賣 （六、日停售）
5901092087,躍獅文昌藥局,臺北市大同區民生西路１０８號（實際營業：一層）,121.5197,25.0574,(02)25586189,羅氏家用新冠病毒抗原自我檢測套組,72,2022/05/09 08:09:02,無
5901100066,名祥藥局,臺北市中山區龍江路１６６號,121.5403,25.05505,(02)25036265,羅氏家用新冠病毒抗原自我檢測套組,45,2022/05/09 08:09:02,實名制快篩代售時間為早上08:00＜售完為止＞
5901100155,大信藥局,臺北市中山區林森北路１５９巷６號,121.5255,25.0517,(02)25719080,羅氏家用新冠病毒抗原自我檢測套組,1,2022/05/09 08:09:02,無
5901100422,滿順藥局,臺北市中山區伊通街５４號１樓,121.5347,25.05145,(02)25075283,羅氏家用新冠病毒抗原自我檢測套組,146,2022/05/09 08:09:02,快篩服務時間 AM 8:30 起 售完為止
5901100628,貢玄藥局,臺北市中山區錦州街２０７號,121.532,25.06039,(02)25637847,羅氏家用新冠病毒抗原自我檢測套組,18,2022/05/09 08:09:02,早上10點~11點領口罩
5901101509,永直藥局,臺北市中山區北安路５９５巷２弄６號,121.5483,25.08192,(02)85098059,羅氏家用新冠病毒抗原自我檢測套組,156,2022/05/09 08:09:02,周一至周六早上8點發號碼牌，下午2點到晚上8點販售（拿號碼牌來買），周日不販售
5901101536,展佑藥局,臺北市中山區長春路１４６－１號,121.5317,25.05473,(02)25232803,羅氏家用新冠病毒抗原自我檢測套組,78,2022/05/09 08:09:02,實名制快篩試劑上午11:30開始販售，週日休息!
5901101607,蓁榛健康生活藥局,臺北市中山區合江街１００－２號１樓,121.5391,25.05845,(02)25099333,羅氏家用新冠病毒抗原自我檢測套組,18,2022/05/09 08:09:02,實名制快篩配售時間依到貨時間而定，請參考蓁榛健康生活藥局合江店臉書公告
5901101992,大愛藥師藥局,臺北市中山區吉林路２５５號１樓,121.5304,25.06165,(02)25424723,羅氏家用新冠病毒抗原自我檢測套組,120,2022/05/09 08:09:02,週一~週五13:55發放號碼牌14:00發放快篩，週六、週日休息
5901102015,久大藥局,臺北市中山區林森北路４８０號,121.5255,25.06127,(02)25111594,羅氏家用新冠病毒抗原自我檢測套組,29,2022/05/09 08:09:02,即日起周一至周六下午1:00-4:00領取口罩。 周日休息
5901102060,專心藥局,臺北市中山區伊通街１１２－２號,121.5347,25.05426,(02)25155847,羅氏家用新冠病毒抗原自我檢測套組,64,2022/05/09 08:09:02,無
5901102579,躍獅晴光藥局,臺北市中山區農安街２３之２號,121.5245,25.06501,(02)25951393,羅氏家用新冠病毒抗原自我檢測套組,3,2022/05/09 08:09:02,實名制快篩販售時間17:00，售完會提前結束
5901102631,金生藥局,臺北市中山區長安東路２段１６７－１號,121.5407,25.04843,(02)87729808,羅氏家用新冠病毒抗原自我檢測套組,102,2022/05/09 08:09:02,販售實名制快篩時間為週一~週六早上09:00開始（售完為止）
5901102686,富宥康藥局,臺北市中山區北安路６０８巷５弄２２號,121.5496,25.08263,(02)25325277,羅氏家用新冠病毒抗原自我檢測套組,2,2022/05/09 08:09:02,無
5901103209,麗恩藥局,臺北市中山區林森北路５７５之５號,121.5258,25.0653,(02)25981982,羅氏家用新冠病毒抗原自我檢測套組,78,2022/05/09 08:09:02,中午12點發放號碼牌
5901103227,建誠中西藥局,臺北市中山區龍江路３８５之１號,121.541,25.06511,(02)25158608,羅氏家用新冠病毒抗原自我檢測套組,22,2022/05/09 08:09:02,實名制快篩發放時間 週一至週六13:00-14:00
5901103334,大直小太陽藥局,臺北市中山區北安路６０７之１號,121.5488,25.08241,(02)85093208,羅氏家用新冠病毒抗原自我檢測套組,39,2022/05/09 08:09:02,無
5901103352,美康正康藥局,臺北市中山區北安路６１６之１號、６１８號２樓之１,121.549,25.08243,(02)25323077,羅氏家用新冠病毒抗原自我檢測套組,9,2022/05/09 08:09:02,5月實名制快篩:14:30~售完
5901103558,佳頤中西藥局,臺北市中山區長春路１４７之１號,121.5323,25.05495,(02)25641479,羅氏家用新冠病毒抗原自我檢測套組,75,2022/05/09 08:09:02,實名制快篩販售時間為下午1點起，售完為止，其他販售細節以店內公告為主
5901103736,杏一龍錦藥局,臺北市中山區龍江路２７９號１樓,121.5408,25.05973,(02)25174618,羅氏家用新冠病毒抗原自我檢測套組,76,2022/05/09 08:09:02,快篩提供時段週一到週六 9:00-12:00 週日不提供發放!!! 不發號碼牌 每日販售78人次 售完為止＞＜
5901103754,永育康暉藥局,臺北市中山區樂群二路２１０之２號１樓,121.5593,25.07952,(02)85012227,羅氏家用新冠病毒抗原自我檢測套組,1,2022/05/09 08:09:02,快篩試劑8:30開始販售，賣完為止
5901103772,興耀生活藥局,臺北市中山區林森北路４０５號（１樓）,121.5257,25.05943,(02)25818210,羅氏家用新冠病毒抗原自我檢測套組,67,2022/05/09 08:09:02,國定假日仍執行調劑業務
5901110268,赫得藥局,臺北市內湖區康樂街７２巷１７弄４號１Ｆ,121.6178,25.06976,(02)26328642,羅氏家用新冠病毒抗原自我檢測套組,34,2022/05/09 08:09:02,每周日公休。快篩試劑於周一至周六，早上8:30開賣（賣完為止）。
5901112593,康健藥局,臺北市內湖區康樂街８０號,121.6189,25.07015,(02)26305825,羅氏家用新冠病毒抗原自我檢測套組,79,2022/05/09 08:09:02,無
5901112824,思恩藥局,臺北市內湖區成功路４段６１巷２６號,121.5932,25.08121,(02)27965808,羅氏家用新冠病毒抗原自我檢測套組,7,2022/05/09 08:09:02,快篩販售時間:禮拜一~五 14:00~17:00
5901112879,壹零捌藥局,臺北市內湖區成功路４段３４４號,121.5996,25.08488,(02)27910061,羅氏家用新冠病毒抗原自我檢測套組,1,2022/05/09 08:09:02,快篩晚上7:30開始販售（星期一至星期六）
5901113018,桔子藥局,臺北市內湖區內湖路２段３３３號,121.5917,25.08319,(02)27930052,羅氏家用新冠病毒抗原自我檢測套組,78,2022/05/09 08:09:02,早0900-1200，午1400-1700，晚1900-2100
5901113027,晟安藥局,臺北市內湖區金龍路１３５號,121.5902,25.08593,(02)87919320,羅氏家用新冠病毒抗原自我檢測套組,77,2022/05/09 08:09:02,快篩一~六早上10；00開始販售，星期日不營業
5901113205,新安健保藥局,臺北市內湖區新明路４０２號,121.5797,25.05466,(02)27932289,羅氏家用新冠病毒抗原自我檢測套組,3,2022/05/09 08:09:02,快篩實名制9:10開始販售，現場排隊售完為止
5901113296,喜越藥局,臺北市內湖區內湖路１段２８５巷５９弄７號,121.5673,25.08377,(02)26271955,羅氏家用新冠病毒抗原自我檢測套組,57,2022/05/09 08:09:02,無
5901113367,瑞暉藥局,臺北市內湖區文德路１０５號,121.5837,25.0787,(02)26276828,羅氏家用新冠病毒抗原自我檢測套組,78,2022/05/09 08:09:02,營業時間: 09:00~22:00
5901113509,安安藥局,臺北市內湖區康寧路１段４號１樓,121.5912,25.08057,(02)87912187,羅氏家用新冠病毒抗原自我檢測套組,18,2022/05/09 08:09:02,快篩時段9:00-9:30；營業時段8:30~22:30
5901113563,耀元藥局,臺北市內湖區康樂街１５０號,121.6192,25.07263,(02)26337369,羅氏家用新冠病毒抗原自我檢測套組,39,2022/05/09 08:09:02,週一至週六實名制快篩下午兩點販售，依現場排隊順序購買，沒有發放號碼牌。週日無販售。特殊情況依現場公告為主。
5901113625,富康文德藥局,臺北市內湖區文德路２２巷２７弄４號,121.58,25.0766,(02)26272000,羅氏家用新冠病毒抗原自我檢測套組,64,2022/05/09 08:09:02,無
5901113652,加一藥師藥局,臺北市內湖區星雲街２４號１樓,121.5908,25.07804,(02)87912653,羅氏家用新冠病毒抗原自我檢測套組,89,2022/05/09 08:09:02,無
5901120139,裕成藥局,臺北市南港區玉成街１６６巷１３號,121.5835,25.04433,(02)27851227,羅氏家用新冠病毒抗原自我檢測套組,1,2022/05/09 08:09:02,2／12~12／15公休
5901121421,祥安藥局,臺北市南港區中坡南路２５號,121.5832,25.04329,(02)26547322,羅氏家用新冠病毒抗原自我檢測套組,15,2022/05/09 08:09:02,無
5901121583,健園藥局,臺北市南港區研究院路１段１９號１樓,121.6166,25.05401,(02)27851567,羅氏家用新冠病毒抗原自我檢測套組,53,2022/05/09 08:09:02,早上8點開賣 （政府有配送的狀況下） 沒發放號碼牌售完為止
5901121869,南港藥局,臺北市南港區南港路一段１６６號,121.6119,25.05536,(02)27829137,羅氏家用新冠病毒抗原自我檢測套組,78,2022/05/09 08:09:02,快篩販售時間晚上6:00~晚上8:00（每天78份，售完即止）（周日休息）
5901122080,成福大藥局,臺北市南港區成福路８號,121.5859,25.04578,(02)27859221,羅氏家用新冠病毒抗原自我檢測套組,78,2022/05/09 08:09:02,無
5901150397,博惠藥局,臺北市士林區華榮街１６號,121.5236,25.09549,(02)28320379,羅氏家用新冠病毒抗原自我檢測套組,76,2022/05/09 08:09:02,（實名制快篩）週一至週六下午四點開始銷售，** 周日停售 **
5901150593,安寧藥局,臺北市士林區劍潭路９１號,121.5199,25.08285,(02)28803319,羅氏家用新冠病毒抗原自我檢測套組,78,2022/05/09 08:09:02,領藥星期1.3.5為 9:00~12:00.及16:00~20:00*星期2.4.6.--上午
5901152024,今欣藥局,臺北市士林區天母西路４１巷９號１樓,121.5274,25.11931,(02)28713129,羅氏家用新冠病毒抗原自我檢測套組,11,2022/05/09 08:09:02,快篩周一到周五每天早上10點開始販售，周日及國定假日休息
5901152079,資生堂藥局,臺北市士林區承德路４段４０巷１７號１Ｆ,121.522,25.08107,(02)28857588,羅氏家用新冠病毒抗原自我檢測套組,78,2022/05/09 08:09:02,今日快篩已售完
5901152659,和樹藥局,臺北市士林區後港街４５巷１號１樓,121.5228,25.08444,(02)28821188,羅氏家用新冠病毒抗原自我檢測套組,78,2022/05/09 08:09:02,週日公休，周一早上9:30
5901152686,三光藥局,臺北市士林區延平北路５段３２０號１樓,121.5096,25.08628,(02)28123786,羅氏家用新冠病毒抗原自我檢測套組,78,2022/05/09 08:09:02,無
5901152748,柏雅大藥局,臺北市士林區德行西路６４號,121.5227,25.10506,(02)88664398,羅氏家用新冠病毒抗原自我檢測套組,49,2022/05/09 08:09:02,每天早上10:30開始販售快篩試劑，星期日公休不販售。
5901152793,信光藥局,臺北市士林區文昌路６８號,121.5214,25.09619,(02)28366277,羅氏家用新冠病毒抗原自我檢測套組,1,2022/05/09 08:09:02,下午三點發放快篩
5901153245,大東健保藥局,臺北市士林區大東路８６－４號,121.5257,25.09131,(02)28834672,羅氏家用新冠病毒抗原自我檢測套組,54,2022/05/09 08:09:02,實名制快篩販售以現場門口公告為主
5901153263,健揚藥局,臺北市士林區延平北路５段２５１號,121.5097,25.08483,(02)28163698,羅氏家用新冠病毒抗原自我檢測套組,1,2022/05/09 08:09:02,每日下午13:30開始販售
5901153674,愛佳藥局,臺北市士林區承德路４段２２２之１號,121.5215,25.0885,(02)28811199,羅氏家用新冠病毒抗原自我檢測套組,78,2022/05/09 08:09:02,實名制快篩平日一~五下午5:00販售，假日（六、日）不販售
5901153825,太和堂中西藥局,臺北市士林區大東路７４號（實際使用：１樓）,121.5257,25.09037,(02)28814122,羅氏家用新冠病毒抗原自我檢測套組,1,2022/05/09 08:09:02,上午8:30現場領號碼牌。週日公休
5901154028,向宇藥局,臺北市士林區德行東路２１７號１樓,121.5328,25.10935,(02)88661101,羅氏家用新冠病毒抗原自我檢測套組,78,2022/05/09 08:09:02,無
5901154055,天母盛康藥局,臺北市士林區天母東路８巷８４號１樓,121.5304,25.11483,(02)28720208,羅氏家用新冠病毒抗原自我檢測套組,63,2022/05/09 08:09:02,實名制快篩每日14:00開始，賣完為止。
5901154108,藥本家藥局,臺北市士林區中山北路７段１４巷２６號１樓,121.5328,25.11884,(02)28766682,羅氏家用新冠病毒抗原自我檢測套組,12,2022/05/09 08:09:02,無
5901162173,小明藥局,臺北市北投區中央南路１段６９號２樓,121.5014,25.13145,(02)28928950,羅氏家用新冠病毒抗原自我檢測套組,14,2022/05/09 08:09:02,快篩實名制購買時間:週一至週六早上8:00-9:00
5901162306,上頤藥局,臺北市北投區中和街３２７號１樓,121.4997,25.14097,(02)28981230,羅氏家用新冠病毒抗原自我檢測套組,524,2022/05/09 08:09:02,無
5901162806,大家藥局,臺北市北投區光明路１８２號,121.5033,25.13566,(02)28959000,羅氏家用新冠病毒抗原自我檢測套組,30,2022/05/09 08:09:02,快篩早上9點開賣 售完為止 沒有號碼牌 現場排隊
5901162833,維康藥局,臺北市北投區石牌路２段１９１．１９３號,121.5184,25.11874,(02)28206343,羅氏家用新冠病毒抗原自我檢測套組,42,2022/05/09 08:09:02,快篩發放時間為每日下午3點排隊，現場購賣
5901163107,小豬藥局,臺北市北投區東陽街４０３號１樓,121.5176,25.11244,(02)28217099,羅氏家用新冠病毒抗原自我檢測套組,73,2022/05/09 08:09:02,星期六.星期日不販售
5901163438,漢藥局,臺北市北投區吉利街１４６號,121.508,25.11854,(02)28236598,羅氏家用新冠病毒抗原自我檢測套組,27,2022/05/09 08:09:02,快篩實名制領取時間：周一至周六下午2點現場排隊
5901163554,良哲藥局,臺北市北投區明德路１５７－４號（實際使用：１樓）,121.5209,25.11129,(02)28285516,羅氏家用新冠病毒抗原自我檢測套組,2,2022/05/09 08:09:02,實名制快篩販售時間：早上 9:00~9:30／下午 2:30~3:00（週六人力不足不販售／週日休息）
5901163563,躍獅光明藥局,臺北市北投區光明路５１號、５３號（實際使用：１樓）,121.4998,25.13286,(02)28915993,羅氏家用新冠病毒抗原自我檢測套組,1,2022/05/09 08:09:02,*今日份快篩已售完*1.早上9:30發號碼牌2.等快篩到貨才開始賣3.有號碼牌者請在晚上8點前領取，逾期作廢
5901163572,永欣中西藥局,臺北市北投區中和街５０１號,121.4947,25.1452,(02)28910307,羅氏家用新冠病毒抗原自我檢測套組,59,2022/05/09 08:09:02,週一至週六 早上9:30發號碼牌 10點販售 周日公休（庫存不準 號碼牌發完即售完）謝謝
5901163634,心樂藥局,臺北市北投區致遠一路２段１０５號１樓,121.5128,25.1131,(02)28210261,羅氏家用新冠病毒抗原自我檢測套組,35,2022/05/09 08:09:02,您好。發放快篩時間:周一二三五六早上8:30-09:00，週四加開早上10-11點，周一二三五 下午4:00-4:30，周日及國定假日休息
5901170406,鼎泰藥局,臺北市信義區基隆路１段１５５號１樓,121.5653,25.04222,(02)27620617,羅氏家用新冠病毒抗原自我檢測套組,156,2022/05/09 08:09:02,周一至周五 9：30-21：30 （9:30 開始發快篩） 5／1 有營業
5901172651,康杏藥局,臺北市信義區福德街３０６號１樓,121.5874,25.03931,(02)27591510,羅氏家用新冠病毒抗原自我檢測套組,3,2022/05/09 08:09:02,無
5901172697,綠杏大藥局,臺北市信義區吳興街２４１號,121.5635,25.02745,(02)27582378,羅氏家用新冠病毒抗原自我檢測套組,66,2022/05/09 08:09:02,快篩實名制，下午1300開始販售，如果人潮過多，將提早開賣，星期天沒有販售，星期天沒有販售，星期天沒有販售
5901172964,榮泰藥局,臺北市信義區光復南路４１９巷１９號,121.5582,25.03659,(02)77296777,羅氏家用新冠病毒抗原自我檢測套組,85,2022/05/09 08:09:02,早上9:00開始發放實名制快篩號碼牌
5901173041,皇昇大藥局,臺北市信義區松山路２１０號１樓,121.5776,25.04509,(02)27663488,羅氏家用新冠病毒抗原自我檢測套組,106,2022/05/09 08:09:02,周一至週五下午3點開始販售實名制快篩
5901173210,濟生中西藥局,臺北市信義區崇德街４１號,121.5542,25.02436,(02)27358452,羅氏家用新冠病毒抗原自我檢測套組,74,2022/05/09 08:09:02,最新資訊FB:Jcp濟生中西藥局＃口罩:每天早8點開始＃營業時間:星期1245:早9點~晚8點 星期36:早9點~中午12點（中午休12-15點）
5901173372,新永春藥局,臺北市信義區忠孝東路５段４２３巷１號,121.5753,25.04126,(02)27667385,羅氏家用新冠病毒抗原自我檢測套組,39,2022/05/09 08:09:02,快篩販售時間:每日13:00開始，售完為止
5901173407,康怡健保藥局,臺北市信義區吳興街４６７巷２弄１２號,121.5695,25.02381,(02)27206193,羅氏家用新冠病毒抗原自我檢測套組,2,2022/05/09 08:09:02,快篩早上9點開賣，賣完為止
5901173738,尚頤中西藥局,臺北市信義區虎林街１４５號,121.5767,25.03959,(02)27253818,羅氏家用新冠病毒抗原自我檢測套組,57,2022/05/09 08:09:02,無
5901173872,柏愛藥局,臺北市信義區基隆路２段１３１之９號,121.5567,25.02788,(02)27325472,羅氏家用新冠病毒抗原自我檢測套組,68,2022/05/09 08:09:02,國定假日營業時間為09:30-17:30；實名制快篩09:30開賣
5901173934,躍獅光復藥局,臺北市信義區光復南路４１７之８號,121.5577,25.03682,(02)87862307,羅氏家用新冠病毒抗原自我檢測套組,46,2022/05/09 08:09:02,下午1點開始販售
5901173943,躍獅興雅藥局,臺北市信義區松德路１２８號,121.5745,25.03734,(02)87808429,羅氏家用新冠病毒抗原自我檢測套組,78,2022/05/09 08:09:02,14:00發號碼牌且同步開賣快篩，販賣至15:00或售完為止，週日無販售。
5901174057,詠晴中西藥局,臺北市信義區松山路４８４之４號（１樓含夾層）,121.5778,25.0389,(02)27266890,羅氏家用新冠病毒抗原自我檢測套組,78,2022/05/09 08:09:02,實名制快篩 - 16:30領號碼牌.當天取貨即可.避免群聚風險
5901174075,信義盛康藥局,臺北市信義區永吉路２８６號（１樓）,121.5744,25.04538,(02)23460521,羅氏家用新冠病毒抗原自我檢測套組,4,2022/05/09 08:09:02,無
5901180126,民生藥局,臺北市中正區濟南路２段４５－１號１樓,121.5305,25.0406,(02)23416470,羅氏家用新冠病毒抗原自我檢測套組,78,2022/05/09 08:09:02,4／15 公休無售口罩
5901180215,上海聯合藥局,臺北市中正區衡陽路３２號１樓,121.5126,25.04221,(02)23117744,羅氏家用新冠病毒抗原自我檢測套組,1,2022/05/09 08:09:02,無
5901180224,中心藥局,臺北市中正區汀州路３段１２１號,121.5303,25.01654,(02)23689889,羅氏家用新冠病毒抗原自我檢測套組,1,2022/05/09 08:09:02,實名制快篩因物流貨運配送調度，調整領取時間延後至下午3點
5901183510,怡誠藥局,臺北市中正區汀州路２段２１２號,121.5237,25.02236,(02)23626905,羅氏家用新冠病毒抗原自我檢測套組,156,2022/05/09 08:09:02,無
5901183645,大愛生活藥局,臺北市中正區汀州路２段２３２號,121.5243,25.02189,(02)23661155,羅氏家用新冠病毒抗原自我檢測套組,78,2022/05/09 08:09:02,下午14:30開始發放快篩（不發號碼牌直接買）~~不要太早開始排隊啊啊啊啊
5901184106,信康藥局,臺北市中正區南昌路１段１４３號,121.5186,25.02953,(02)23961979,羅氏家用新冠病毒抗原自我檢測套組,1,2022/05/09 08:09:02,14:00開始販售實名制快篩
5901184375,大盛藥局,臺北市中正區中華路１段２１巷１６號,121.5105,25.04645,(02)23713838,羅氏家用新冠病毒抗原自我檢測套組,47,2022/05/09 08:09:02,周日及國定假日公休
5901184535,桐心藥局,臺北市中正區金華街１８之６號１樓,121.5202,25.03175,(02)23581663,羅氏家用新冠病毒抗原自我檢測套組,7,2022/05/09 08:09:02,無
5901184562,博昱連雲藥局,臺北市中正區連雲街７２號、７２之１號,121.53,25.03455,(02)23581898,羅氏家用新冠病毒抗原自我檢測套組,91,2022/05/09 08:09:02,無
5901184633,躍獅東門藥局,臺北市中正區金山南路１段１０８之１號（１樓）,121.5273,25.03538,(02)23920339,羅氏家用新冠病毒抗原自我檢測套組,3,2022/05/09 08:09:02,5／9早上9點開始販售，不提早發放號碼牌
5901190426,皇祥藥局,臺北市萬華區萬青街１６５號１樓,121.5016,25.02279,(02)23375676,羅氏家用新冠病毒抗原自我檢測套組,78,2022/05/09 08:09:02,無
5901192162,寶興大藥局,臺北市萬華區寶興街１１９號,121.4948,25.02529,(02)23013375,羅氏家用新冠病毒抗原自我檢測套組,3,2022/05/09 08:09:02,周一至周五12：00開始代售，現場排隊，不發號碼牌
5901193105,安誠貴陽藥局,臺北市萬華區貴陽街２段１４８號,121.5016,25.04017,(02)23812190,羅氏家用新冠病毒抗原自我檢測套組,156,2022/05/09 08:09:02,無
5901193169,柏祥藥局,臺北市萬華區西藏路１４１號,121.5017,25.02944,(02)23018272,羅氏家用新冠病毒抗原自我檢測套組,78,2022/05/09 08:09:02,1快篩服務時間晚上6:00起售完截止。2販售詳情請見門口公告。5／7 - 5／8公休不販售。
5901193196,青年宏越藥局,臺北市萬華區青年路４４號,121.5042,25.0255,(02)23011037,羅氏家用新冠病毒抗原自我檢測套組,41,2022/05/09 08:09:02,快篩六日不販售，禮拜一~五下午2:30-3:30，現場排隊
5901200105,建興藥局,臺北市文山區木柵路２段８１號１樓,121.561,24.98889,(02)29399993,羅氏家用新冠病毒抗原自我檢測套組,78,2022/05/09 08:09:02,星期一至星期日早上8時30分現場販售實名制快篩試劑
5901200141,景美藥局,臺北市文山區景文街１２５號,121.5412,24.99033,(02)29335741,羅氏家用新冠病毒抗原自我檢測套組,78,2022/05/09 08:09:02,無
5901202627,杏隆藥局,臺北市文山區羅斯福路５段２６１號,121.5395,25.00115,(02)29313151,羅氏家用新冠病毒抗原自我檢測套組,156,2022/05/09 08:09:02,快篩實名制採預約登記，至5／14已登記額滿。
5901202752,躍獅奕新藥局,臺北市文山區木新路２段２７５號,121.566,24.98292,(02)22340378,羅氏家用新冠病毒抗原自我檢測套組,120,2022/05/09 08:09:02,週一至週六下午1:30售實名制快篩，週日停售
5901202789,宜康藥局,臺北市文山區保儀路７號,121.5686,24.98872,(02)86619862,羅氏家用新冠病毒抗原自我檢測套組,12,2022/05/09 08:09:02,快篩平日下午一點半開始販售，國定假日及週末沒有販售
5901202850,北一藥師藥局,臺北市文山區木新路３段４７號,121.5642,24.98236,(02)22348686,羅氏家用新冠病毒抗原自我檢測套組,5,2022/05/09 08:09:02,實名制快篩：週一至週五14:30開賣（直接排隊）、週六看狀況、週日停售
5901202949,萬隆大藥局,臺北市文山區羅斯福路５段２１８巷１５號,121.538,25.00203,(02)29334580,羅氏家用新冠病毒抗原自我檢測套組,75,2022/05/09 08:09:02,9：00~23：00
5901203179,健安藥局,臺北市文山區景興路１６５號,121.5447,24.99346,(02)29323757,羅氏家用新冠病毒抗原自我檢測套組,1,2022/05/09 08:09:02,周一到周六.下午三點開賣實名制快篩.現場排隊不發號碼牌
5901203204,躍獅新芳藥局,臺北市文山區興隆路３段１６號（實際營業地址：１樓）,121.5549,25.00062,(02)29308172,羅氏家用新冠病毒抗原自我檢測套組,78,2022/05/09 08:09:02,早上九點開始販售實名制快篩，售完為止
5902021153,世和藥局,高雄市鼓山區華豐里華夏路１９５號,120.2959,22.66936,(07)5522566,羅氏家用新冠病毒抗原自我檢測套組,5,2022/05/09 08:09:02,賣快篩時間：周一至週日每天早上7奌20分，售完為止。
5902030090,宏仁藥局,高雄市左營區左營大路３９０號,120.2932,22.68702,(07)5817895,羅氏家用新冠病毒抗原自我檢測套組,50,2022/05/09 08:09:02,口罩代售時間自早上10:00開始，售完為止。
5902030269,立文藥局,高雄市左營區立文路５４號,120.3058,22.66458,(07)5572899,羅氏家用新冠病毒抗原自我檢測套組,45,2022/05/09 08:09:02,0
5902030287,慈德藥局,高雄市左營區重愛路５３號,120.3186,22.68308,(07)3416212,羅氏家用新冠病毒抗原自我檢測套組,73,2022/05/09 08:09:02,快篩發放時間:週一至周六:上午9點至12點.週日下午2點半至5點；請自備剛好的錢.不用找錢.以利流程
5902030410,重仁藥局,高雄市左營區左營大路４０８號,120.2935,22.68725,(07)5824083,羅氏家用新冠病毒抗原自我檢測套組,42,2022/05/09 08:09:02,自2／11日~2／29日，營業日08:00~22:30為販賣口罩時間.售完為止
5902030634,有機藥局,高雄市左營區榮耀街３號,120.3216,22.67935,(07)3596429,羅氏家用新冠病毒抗原自我檢測套組,15,2022/05/09 08:09:02,平日:7:40~22:00 六:08:00~22:00 星期日公休
5902031999,平安藥局,高雄市左營區中華一路５之１號,120.287,22.66961,(07)5833688,羅氏家用新冠病毒抗原自我檢測套組,49,2022/05/09 08:09:02,週一~週六上午:8:00~12:00，下午:4:00~9:00， 週日例假日晚上6:00~9:00
5902032441,健怡藥局,高雄市左營區翠峰路４０號,120.2897,22.67229,(07)5821891,羅氏家用新冠病毒抗原自我檢測套組,51,2022/05/09 08:09:02,快篩星期一~星期六每天早上8:10開始販售
5902032450,可達藥局,高雄市左營區榮德街１７７號,120.3205,22.68359,(07)3420182,羅氏家用新冠病毒抗原自我檢測套組,3,2022/05/09 08:09:02,快篩販售時間週一～週六早上9點～11點。現場排隊，售完為止
5902040041,橘井藥局,高雄市楠梓區楠梓路１２９號,120.3286,22.73026,(07)3511869,羅氏家用新冠病毒抗原自我檢測套組,51,2022/05/09 08:09:02,快篩劑開賣時間：周一至週六每天上午8:00販售，售完為止。*** 周日店休，不販售***
5902042769,家安藥局,高雄市楠梓區後昌新路１３號１樓,120.2917,22.71844,(07)3600066,羅氏家用新冠病毒抗原自我檢測套組,48,2022/05/09 08:09:02,無
5902050350,日星藥局,高雄市三民區寶龍里惠德街３８號,120.3241,22.64741,(07)3845188,羅氏家用新冠病毒抗原自我檢測套組,78,2022/05/09 08:09:02,快篩口罩時間:星期一至五16:00-21:00；星期六09:00-11:30，售完為止
5902051240,明皇藥局,高雄市三民區寶國里義華路１８１號,120.3399,22.64276,(07)3860121,羅氏家用新冠病毒抗原自我檢測套組,69,2022/05/09 08:09:02,藥局販售口罩時間，依藥局門口公告時間為主（售完為止）
5902054858,勝發藥局,高雄市三民區金鼎路３５０號,120.3197,22.66521,(07)3474780,羅氏家用新冠病毒抗原自我檢測套組,77,2022/05/09 08:09:02,營業日08:00為販賣快篩試劑時間.售完為止
5902056754,大家藥局,高雄市三民區鼎中路２２９號１樓,120.3191,22.66421,(07)3107632,羅氏家用新冠病毒抗原自我檢測套組,72,2022/05/09 08:09:02,實名制快篩販售時間   08:30-12:00
5902057144,欣仁惠藥局,高雄市三民區大昌二路２４８號,120.3323,22.64529,(07)3837833,羅氏家用新冠病毒抗原自我檢測套組,48,2022/05/09 08:09:02,無
5902057519,伍陸藥局,高雄市三民區正興路９４號,120.3208,22.64597,(07)3890676,羅氏家用新冠病毒抗原自我檢測套組,75,2022/05/09 08:09:02,快篩發放時間早上08:30開始 售完為止
5902057902,利安藥局,高雄市三民區建工路５４５號,120.3213,22.64854,(07)3965550,羅氏家用新冠病毒抗原自我檢測套組,2,2022/05/09 08:09:02,營業日9:00AM起販賣口罩，售完為止
5902060025,連作藥局,高雄市新興區大同一路２０３－１號,120.3003,22.62856,(07)2154716,羅氏家用新冠病毒抗原自我檢測套組,13,2022/05/09 08:09:02,快篩試紙領用時間為每日下午2點
5902061899,元盛藥局,高雄市新興區六合路１５３號,120.3149,22.63186,(07)2228183,羅氏家用新冠病毒抗原自我檢測套組,64,2022/05/09 08:09:02,快篩早上8點販售 週日公休
5902071537,大衛藥局,高雄市前金區中華三路１８８號,120.295,22.63218,(07)2859958,羅氏家用新冠病毒抗原自我檢測套組,1,2022/05/09 08:09:02,元旦休假
5902080312,正和藥局,高雄市苓雅區福建街３６２號,120.3138,22.6266,(07)2265377,羅氏家用新冠病毒抗原自我檢測套組,77,2022/05/09 08:09:02,無
5902080474,弘宗藥局,高雄市苓雅區武智街２號,120.3356,22.62303,(07)7211088,羅氏家用新冠病毒抗原自我檢測套組,62,2022/05/09 08:09:02,家用實名制快篩試劑，早上8時開始販售。
5902081015,明群藥局,高雄市苓雅區英明路５４號,120.3253,22.61276,(07)7254953,羅氏家用新冠病毒抗原自我檢測套組,65,2022/05/09 08:09:02,周一至周六每日8:00開始販售快篩試劑依現場排隊序販賣售完為止 午休時間13:00~~14:30 防疫口罩4／30停售
5902081328,東信藥局,高雄市苓雅區三多一路１８９號,120.3313,22.62258,(07)7613309,羅氏家用新冠病毒抗原自我檢測套組,56,2022/05/09 08:09:02,早上8:30開始發送號碼牌販售口罩，售完為止，假日正常販售
5902084749,琉璃光藥師藥局,高雄市苓雅區四維一路２９２號之一樓,120.3244,22.6242,(07)7160930,羅氏家用新冠病毒抗原自我檢測套組,59,2022/05/09 08:09:02,早上8點10分開始販賣
5902085148,召祐健保藥局,高雄市苓雅區正義路９３號,120.3385,22.63037,(07)7493719,羅氏家用新冠病毒抗原自我檢測套組,72,2022/05/09 08:09:02,快篩週一到週六，每天早上11:00開賣，賣完為止
5902085184,惠春藥局,高雄市苓雅區武慶三路９６號,120.3319,22.62043,(07)7611358,羅氏家用新冠病毒抗原自我檢測套組,57,2022/05/09 08:09:02,「藥局販售口罩時間，依藥局門口公告時間為主（售完為止）」
5902085344,意祥藥局,高雄市苓雅區武廟路１４２之１號,120.3276,22.63125,(07)7224835,羅氏家用新冠病毒抗原自我檢測套組,31,2022/05/09 08:09:02,藥局販售口罩時間，依藥局門口公告時間為主（售完為止）
5902085371,加和藥局,高雄市苓雅區和平一路１４３之７號,120.3205,22.62331,(07)7219332,羅氏家用新冠病毒抗原自我檢測套組,78,2022/05/09 08:09:02,快篩試劑每日下午2:30販售，務再來電詢問。星期天不販售快篩試劑
5902090121,意文藥局,高雄市前鎮區瑞華里武營路１８３號,120.3374,22.60991,(07)7226570,羅氏家用新冠病毒抗原自我檢測套組,53,2022/05/09 08:09:02,每天8點營業 立即販賣
5902092410,旺盛藥局,高雄市前鎮區永豐路１０８號,120.3337,22.6065,(07)7512899,羅氏家用新冠病毒抗原自我檢測套組,59,2022/05/09 08:09:02,過年期間 111／01／31下午至111／02／03  休診
5902092910,健家藥局,高雄市前鎮區二聖二路４５號,120.3165,22.61293,(07)3389986,羅氏家用新冠病毒抗原自我檢測套組,1,2022/05/09 08:09:02,早上9:30營業，售完為止
5902092956,慈濟健保藥局,高雄市前鎮區鎮州路２１１號,120.3082,22.58819,(07)8159788,羅氏家用新冠病毒抗原自我檢測套組,69,2022/05/09 08:09:02,每天早上8點開始賣.售完為止藥局販售口罩時間，依藥局門口公告時間為主（售完為止）
5902100042,千佑藥局,高雄市旗津區復興里中洲三路５１３號,120.2736,22.60608,(07)5712619,羅氏家用新冠病毒抗原自我檢測套組,74,2022/05/09 08:09:02,5月1日-5月31日早上0831至1030為販賣快篩時間
5902110066,文祺藥局,高雄市小港區正苓里平治街１１２號,120.3543,22.56743,(07)8014066,羅氏家用新冠病毒抗原自我檢測套組,78,2022/05/09 08:09:02,自2／11日~2／29日，6:00發號碼牌，14:00為販賣口罩時間.售完為止
5902110422,臨生藥局,高雄市小港區鳳鳴路１４６－４號,120.3588,22.51445,(07)8711290,羅氏家用新冠病毒抗原自我檢測套組,74,2022/05/09 08:09:02,上午9時開始販售快篩劑售完為止。
5903010289,心美日藥局,臺中市豐原區中山路３５９號１樓,120.7149,24.24929,(04)25260703,羅氏家用新冠病毒抗原自我檢測套組,26,2022/05/09 08:09:02,早上8:00販售（如貨運延遲則改為14:00）
5903010341,昭仁藥局,臺中市豐原區南陽路１４０號,120.7307,24.24275,(04)25243559,羅氏家用新冠病毒抗原自我檢測套組,78,2022/05/09 08:09:02,早上8:30販售 （如貨運延遲則改為15:00）
5903010449,豐原藥局,臺中市豐原區新生北路２０６號之１（１樓）,120.7219,24.2551,(04)25260119,羅氏家用新冠病毒抗原自我檢測套組,78,2022/05/09 08:09:02,周日休息，無提供販售實名制快篩服務
5903010510,安德豐原藥局,臺中市豐原區中正路２９５號１樓,120.7159,24.25142,(04)25200733,羅氏家用新冠病毒抗原自我檢測套組,2,2022/05/09 08:09:02,快篩0800發號碼牌，憑號碼牌領取時間1200-1900
5903030030,大甲健康藥局,臺中市大甲區蔣公路２４２-１號１樓,120.6195,24.34722,(04)26805833,羅氏家用新冠病毒抗原自我檢測套組,71,2022/05/09 08:09:02,周一至周六營業，周日公休
5903030058,康達藥局,臺中市大甲區蔣公路２６６號１樓,120.6189,24.34749,(04)26862001,羅氏家用新冠病毒抗原自我檢測套組,47,2022/05/09 08:09:02,因快篩試劑每天的到貨時間不定，每日的販售時間會在臉書專頁上做公告。
5903030067,甲尚藥局,臺中市大甲區順天路１２９號１樓,120.622,24.3446,(04)26760885,羅氏家用新冠病毒抗原自我檢測套組,62,2022/05/09 08:09:02,實名制 快篩 早0800 開賣 （依經驗 約莫 0830 前完售）
5903030209,世芳中西藥局,臺中市大甲區光明路１２８之３號１樓,120.6224,24.34447,(04)26861906,羅氏家用新冠病毒抗原自我檢測套組,17,2022/05/09 08:09:02,無
5903040090,清雲藥局,臺中市清水區南社路３５５之１號１樓,120.5601,24.26694,(04)26264893,羅氏家用新冠病毒抗原自我檢測套組,27,2022/05/09 08:09:02,快篩代售: 週一至週五8:00，週六9:00開始，週日公休。
5903050069,進騰藥局,臺中市沙鹿區鎮南路２段２３４號,120.5689,24.22394,(04)26314418,羅氏家用新冠病毒抗原自我檢測套組,35,2022/05/09 08:09:02,營業時間8:00-22:00，每日中午12點開始販售家用快篩
5903050103,北勢進騰藥局,臺中市沙鹿區北勢東路５０９之７號１樓,120.576,24.22526,(04)26330893,羅氏家用新冠病毒抗原自我檢測套組,76,2022/05/09 08:09:02,營業時間12:00-22:00，每日12:00販售實名制快篩
5903050210,富康沙鹿藥局,臺中市沙鹿區沙田路１４２號１樓,120.5595,24.23613,(04)26633399,羅氏家用新冠病毒抗原自我檢測套組,50,2022/05/09 08:09:02,*早上八點販售防疫快篩。固定周一到周六
5903070025,得安藥局,臺中市后里區四村路７８號,120.7129,24.30469,(04)25585333,羅氏家用新冠病毒抗原自我檢測套組,78,2022/05/09 08:09:02,快篩販賣時間 14:00~15:00（售完為止）
5903070061,豪銘藥局,臺中市后里區公安路６８號,120.7113,24.30469,(04)25562991,羅氏家用新冠病毒抗原自我檢測套組,10,2022/05/09 08:09:02,每天早上8:30點開始販售，售完為止。星期日早上8-10點
5903070089,后里瑞士藥師藥局,臺中市后里區甲后路二段５７９號,120.7063,24.31155,(04)25566999,羅氏家用新冠病毒抗原自我檢測套組,31,2022/05/09 08:09:02,無
5903080030,捷達藥局,臺中市神岡區大漢街２５號,120.6974,24.25352,(04)25225207,羅氏家用新冠病毒抗原自我檢測套組,63,2022/05/09 08:09:02,周一到周六上午8:00開始販售，售完為止。
5903080094,灃洲大藥局,臺中市神岡區豐洲路４６６－３號１樓,120.7045,24.26179,(04)25150169,羅氏家用新冠病毒抗原自我檢測套組,2,2022/05/09 08:09:02,星期日公休，實名制快篩販售時間為每日下午兩點
5903090143,佳福藥局,臺中市潭子區中山路１段４３－１號,120.7023,24.19138,(04)25332982,羅氏家用新冠病毒抗原自我檢測套組,50,2022/05/09 08:09:02,每日中午12:00至下午3:00休息，星期六公休，營業日上午8:00快篩試劑開賣
5903090330,潭子炘星藥局,臺中市潭子區中山路一段９７號１樓,120.7023,24.19319,(04)25320107,羅氏家用新冠病毒抗原自我檢測套組,61,2022/05/09 08:09:02,快篩上午8:30開始販售，售完為止，中午12:00-3:00休息
5903090394,全球健康藥局,臺中市潭子區南環路５號１樓,120.7045,24.21661,(04)25340212,羅氏家用新冠病毒抗原自我檢測套組,14,2022/05/09 08:09:02,無
5903100046,躍獅佑仁藥局,臺中市大雅區雅環路２段２８７號,120.6488,24.22919,(04)25608256,羅氏家用新冠病毒抗原自我檢測套組,13,2022/05/09 08:09:02,家用快篩販售-星期一~星期五 晚上7點（19:00）開始.時間更新異動請參閱粉專
5903100180,杏一大雅中清藥局,臺中市大雅區中清路四段３１、３３、３５號１樓,120.6448,24.22615,(04)25601791,羅氏家用新冠病毒抗原自我檢測套組,22,2022/05/09 08:09:02,週一~週六14:00販售（13:50發號碼牌）每人每卡限定1份500元!週日無販售!
5903130017,祐民健保藥局,臺中市外埔區甲后路三段１０３０號１樓,120.6615,24.32387,(04)26836736,羅氏家用新冠病毒抗原自我檢測套組,56,2022/05/09 08:09:02,固定周一到周六，早上8:00開始發放號碼牌及販賣防疫口罩
5903130026,博翔欣大藥局,臺中市外埔區重光路３３－１９號,120.6521,24.33128,(04)26833312,羅氏家用新冠病毒抗原自我檢測套組,77,2022/05/09 08:09:02,無
5903140013,音聲藥局,臺中市大安區中松路１８號１樓,120.5872,24.34664,(04)26715318,羅氏家用新冠病毒抗原自我檢測套組,29,2022/05/09 08:09:02,固定周一到周日，早上8:00開始販賣快篩（依排隊順序）
5903160051,祥安健保藥局,臺中市大肚區育樂街１２－３號１樓,120.544,24.1532,(04)26990580,羅氏家用新冠病毒抗原自我檢測套組,28,2022/05/09 08:09:02,無
5903160088,必安藥局,臺中市大肚區沙田路二段６３４號,120.5455,24.15084,(04)26992116,羅氏家用新冠病毒抗原自我檢測套組,79,2022/05/09 08:09:02,**限購1份**早上8點販售**每天固定78份，非156**
5903190291,新平和藥局,臺中市太平區光興路８２７號１樓,120.7307,24.11198,(04)22771262,羅氏家用新冠病毒抗原自我檢測套組,122,2022/05/09 08:09:02,如需領藥請先電話洽詢。快篩早上8:00開始販售.售完為止.星期天公休沒賣
5903190335,育賢德侑藥局,臺中市太平區育賢路１０７號、１０９號,120.7219,24.15768,(04)23920696,羅氏家用新冠病毒抗原自我檢測套組,78,2022/05/09 08:09:02,實名制快篩販售時間：星期一~星期日 早上8:30點開賣（售完為止）
5903190586,樹孝炘星藥局,臺中市太平區樹孝路４７６號１樓,120.7203,24.15735,(04)23929578,羅氏家用新冠病毒抗原自我檢測套組,62,2022/05/09 08:09:02,快篩周一到周日早上8:00開賣，售完為止！異動資訊請洽博合耳鼻喉科粉絲專頁
5903190675,德芳太平藥局,臺中市太平區中興路１３３巷１－１號１樓,120.7146,24.12617,(04)23511588,羅氏家用新冠病毒抗原自我檢測套組,3,2022/05/09 08:09:02,快篩販售時間:下午3點~6點
5903200121,弘佑藥局,臺中市大里區成功路５１５號１樓,120.7032,24.09071,(04)24911234,羅氏家用新冠病毒抗原自我檢測套組,19,2022/05/09 08:09:02,實名制快篩試劑早上九點開始販售，無號碼牌。星期天公休
5903200229,信元藥局,臺中市大里區益民路２段３７２號１樓,120.684,24.11545,(04)24876051,羅氏家用新冠病毒抗原自我檢測套組,75,2022/05/09 08:09:02,下午5點發號碼牌並依序販賣
5903200587,大里安德健保藥局,臺中市大里區大明路１１７號,120.6861,24.11527,(04)24875607,羅氏家用新冠病毒抗原自我檢測套組,77,2022/05/09 08:09:02,早上9點開始發放
5903200658,德芳成功藥局,臺中市大里區成功路５３５－３號１樓,120.7033,24.0913,(04)24920298,羅氏家用新冠病毒抗原自我檢測套組,9,2022/05/09 08:09:02,快篩販售時間:下午3點~6點
5903200694,大里福倫藥局,臺中市大里區中興路二段１８３－２號１樓,120.6896,24.10679,(04)24850218,羅氏家用新冠病毒抗原自我檢測套組,58,2022/05/09 08:09:02,快篩販售時間：早上8點開始販售
5903200738,杏一大里國光藥局,臺中市大里區國光路二段４１１號１樓,120.6796,24.10921,(04)24071492,羅氏家用新冠病毒抗原自我檢測套組,78,2022/05/09 08:09:02,周一至周六16:00~19:00，周日及補假日人力不足不販售
5903220150,老順安大藥局,臺中市中區中華路二段６３號、６５號１樓,120.6794,24.14801,(04)22016306,羅氏家用新冠病毒抗原自我檢測套組,57,2022/05/09 08:09:02,實名制快篩銷售時間:周一至周六下午兩點至三點
5903240205,捷登藥局,臺中市西區公益路１０６號,120.6613,24.15105,(04)23191929,羅氏家用新冠病毒抗原自我檢測套組,1,2022/05/09 08:09:02,實名制快篩 每日下午 2:00 準時開賣，售完為止 .
5903240376,台丞藥局,臺中市西區三民路一段１６６－５號,120.6746,24.13743,(04)22279666,羅氏家用新冠病毒抗原自我檢測套組,61,2022/05/09 08:09:02,快篩實名制販賣時間即營業時間：早上0800開始販售，週日無營業
5903240410,德芳美村藥局,臺中市西區美村路一段６８１、６８３號１樓,120.6618,24.13545,(04)23782848,羅氏家用新冠病毒抗原自我檢測套組,64,2022/05/09 08:09:02,周一到周五下午3點~6點
5903250176,弘大美妝藥局,臺中市南區南門路１１５號１樓,120.6798,24.12222,(04)22859180,羅氏家用新冠病毒抗原自我檢測套組,57,2022/05/09 08:09:02,早上8點開始賣快篩，星期日休息
5903250443,千美台安藥局,臺中市南區美村南路２６３號,120.6666,24.11426,(04)22602101,羅氏家用新冠病毒抗原自我檢測套組,1,2022/05/09 08:09:02,周一到周日，下午2:30開始販售居家快篩
5903250505,心安藥局,臺中市南區國光路２４１號１樓,120.6794,24.12676,(04)22858773,羅氏家用新冠病毒抗原自我檢測套組,3,2022/05/09 08:09:02,每天下午三點排隊開賣，一人一卡，週日公休下次是5／9號
5903260163,康甫藥師藥局,臺中市北區進化北路３６６號１樓,120.6806,24.16333,(04)22366682,羅氏家用新冠病毒抗原自我檢測套組,2,2022/05/09 08:09:02,有關口罩販售：周一至周六早上9:30發號碼牌，下午3:00過後發售口罩。周日休息。
5903260501,瑞鋒藥師藥局,臺中市北區育德路１６號,120.6795,24.15763,(04)22020786,羅氏家用新冠病毒抗原自我檢測套組,6,2022/05/09 08:09:02,快篩 14:30開始
5903260681,昭德藥師藥局,臺中市北區西屯路一段３４５號,120.6654,24.16007,(04)23235655,羅氏家用新冠病毒抗原自我檢測套組,61,2022/05/09 08:09:02,早上八點至下午十一點營業，上午九點至下午九點現場排隊過卡買口罩，售完為止
5903260798,光恒藥局,臺中市北區五權路２６１號１樓,120.6767,24.15097,(04)22068638,羅氏家用新冠病毒抗原自我檢測套組,62,2022/05/09 08:09:02,快篩 周一到周六早上8:00到12:00 開放購買
5903270089,信心藥局,臺中市西屯區四川路１９０號,120.6559,24.16046,(04)23163430,羅氏家用新冠病毒抗原自我檢測套組,41,2022/05/09 08:09:02,每天早上08:00開始販售快篩試劑，售完為止
5903270230,大心藥局,臺中市西屯區西屯路２段２９５－１９號,120.6418,24.17795,(04)24528355,羅氏家用新冠病毒抗原自我檢測套組,77,2022/05/09 08:09:02,實名制快篩，早上9:00開始販售（售完為止），星期日固定公休
5903270347,甘肅安德藥局,臺中市西屯區甘肅路２０２－３號,120.6573,24.16838,(04)23165935,羅氏家用新冠病毒抗原自我檢測套組,59,2022/05/09 08:09:02,周一至五早上8:00，週六至周日早上9:00開始依序販快篩，售完為止
5903270409,維恩藥局,臺中市西屯區甘肅路一段１９５號,120.6568,24.16846,(04)23174277,羅氏家用新冠病毒抗原自我檢測套組,4,2022/05/09 08:09:02,營業時間:星期一~星期日（08:30-22:00）快篩:07:30AM（售完為止）
5903270847,分子藥局,臺中市西屯區惠來路二段２３６－１號,120.6421,24.16318,(04)22513080,羅氏家用新冠病毒抗原自我檢測套組,42,2022/05/09 08:09:02,發放時間週一至週日早上10點起售完為止
5903270936,新元藥局,臺中市西屯區文心路三段５３２號１樓,120.6659,24.17267,(04)23121383,羅氏家用新冠病毒抗原自我檢測套組,1,2022/05/09 08:09:02,5／1-5／2公休，快篩為滾動式配送，請電洽04-23121383
5903270963,源興大藥局,臺中市西屯區西屯路二段１２號,120.6622,24.16387,(04)23143045,羅氏家用新冠病毒抗原自我檢測套組,1,2022/05/09 08:09:02,口罩販售時間：每日下午2點至售完為止。
5903271031,美十樂中科藥局,臺中市西屯區西屯路三段１６６－６５號１樓,120.6129,24.19035,(04)24610219,羅氏家用新冠病毒抗原自我檢測套組,468,2022/05/09 08:09:02,醫事人員卡片損壞，暫時無法販賣快篩
5903271139,百吉藥局,臺中市西屯區青海路一段７１號１樓,120.6547,24.1644,(04)23135698,羅氏家用新冠病毒抗原自我檢測套組,64,2022/05/09 08:09:02,周六休息
5903271308,祐生藥局,臺中市西屯區文華路３之１號１樓,120.6447,24.17535,(04)24517169,羅氏家用新冠病毒抗原自我檢測套組,194,2022/05/09 08:09:02,快篩發放時間：第一批中午12:00，第二批傍晚18:00，售完為止
5903280334,長益藥局,臺中市南屯區忠勇路９９號,120.6155,24.14971,(04)23899383,羅氏家用新冠病毒抗原自我檢測套組,2,2022/05/09 08:09:02,週一至週六下午13點開始開始販售口罩（當場排隊，不發號碼牌售完為止）
5903280914,豐樹藥局,臺中市南屯區黎明路一段６３號１樓,120.6258,24.11362,(04)24792098,羅氏家用新冠病毒抗原自我檢測套組,1,2022/05/09 08:09:02,無
5903290689,大德安藥局,臺中市北屯區景賢路２３６號,120.7241,24.16701,(04)24378351,羅氏家用新冠病毒抗原自我檢測套組,12,2022/05/09 08:09:02,口罩代售時間從週一到週六09:00~現場排隊售完為止星期日早上10:00起至售完為止
5903290778,博宇藥局,臺中市北屯區北屯路３８５之１號,120.6979,24.17193,(04)22341479,羅氏家用新冠病毒抗原自我檢測套組,78,2022/05/09 08:09:02,快篩試劑10:00現場販售、售完為止。
5903290830,齊方藥局,臺中市北屯區四平路３９號,120.6708,24.17885,(04)22912192,羅氏家用新冠病毒抗原自我檢測套組,58,2022/05/09 08:09:02,5／7（星期六）下午4:00開賣，5／9（星期一）早上9:00開賣
5903291159,均福藥局,臺中市北屯區軍福十三路１００號１樓,120.7308,24.17096,(04)24391169,羅氏家用新冠病毒抗原自我檢測套組,4,2022/05/09 08:09:02,快篩實名制規則:晚上七點依現場排隊順序發號碼牌 （周日公休不販售）
5905010063,松柏藥局,臺南市新營區新南里新北街１號,120.3048,23.30861,(06)6590063,羅氏家用新冠病毒抗原自我檢測套組,47,2022/05/09 08:09:02,無
5905010296,躍獅新營藥局,臺南市新營區民生路１６８號１樓,120.3073,23.31112,(06)6564325,羅氏家用新冠病毒抗原自我檢測套組,56,2022/05/09 08:09:02,下午4點開始發放實名制快篩 （週日不發放）
5905030038,美尚藥局,臺南市白河區白河里康樂路４３號,120.4148,23.34833,(06)6853538,羅氏家用新冠病毒抗原自我檢測套組,22,2022/05/09 08:09:02,快篩販售時間：星期一~五8:00-21:00 六07:00-18:00 售完為止 禮拜天視診所上班而定
5905030047,大源醫藥局,臺南市白河區中山路１７２之２號,120.4177,23.35257,(06)6852306,羅氏家用新冠病毒抗原自我檢測套組,9,2022/05/09 08:09:02,防疫快篩，每周一至六，上午8:00~晚上9:00販售，售完為止
5905050192,復佑藥局,臺南市佳里區光復路３１５號１樓,120.1746,23.16289,(06)7222771,羅氏家用新冠病毒抗原自我檢測套組,31,2022/05/09 08:09:02,週一至週六 晚上7點販售防疫家用快篩試劑
5905060125,美麗安藥局,臺南市新化區護國里中山路１５０－１號１樓,120.3102,23.03714,(06)5909509,羅氏家用新冠病毒抗原自我檢測套組,64,2022/05/09 08:09:02,一至周六早上8點開始販售，周日休息，顯示無庫存請勿再來電詢問
5905070158,南科健登藥局,臺南市善化區龍目井路４１３號１樓,120.3058,23.10922,(06)5836266,羅氏家用新冠病毒抗原自我檢測套組,9,2022/05/09 08:09:02,快篩實名制販售 : 週一~六 下午兩點開始 週日不販售
5905090025,中山藥局,臺南市柳營區中山西路二段１４５號１樓,120.3137,23.27664,(06)6221696,羅氏家用新冠病毒抗原自我檢測套組,36,2022/05/09 08:09:02,無
5905100062,美尚藥局後壁店,臺南市後壁區後壁里１６８－８號,120.364,23.36509,(06)6871138,羅氏家用新冠病毒抗原自我檢測套組,3,2022/05/09 08:09:02,星期六.日早上視狀況營業（會提早公告）早上10:00開始販售
5905130042,人大聯合藥局,臺南市六甲區中山路８號１樓,120.3513,23.23087,(06)6987822,羅氏家用新冠病毒抗原自我檢測套組,54,2022/05/09 08:09:02,快篩販售時間：星期一-日07:30-售完
5905140039,安安藥局隆田店,臺南市官田區中山路一段１５號１樓,120.3186,23.1927,(06)5795705,羅氏家用新冠病毒抗原自我檢測套組,2,2022/05/09 08:09:02,全日口罩販賣
5905170019,博士藥師專業藥局,臺南市七股區大埕里３５７號１樓,120.1416,23.14288,(06)7874226,羅氏家用新冠病毒抗原自我檢測套組,16,2022/05/09 08:09:02,早上7:30開始營業，也開始快篩實名制，W1-5 7:30~20:00 W6 7:30~18:00
5905180051,晉昇藥師藥局,臺南市將軍區西甲里４鄰西華６７之２１號１樓,120.1563,23.19908,(06)7943667,羅氏家用新冠病毒抗原自我檢測套組,4,2022/05/09 08:09:02,無
5905210027,愛心藥師藥局,臺南市安定區港南里港口１４７號,120.233,23.09041,(06)5935104,羅氏家用新冠病毒抗原自我檢測套組,52,2022/05/09 08:09:02,春節營業時間請電洽或依現場公告
5905270158,佳德藥局,臺南市仁德區德糖路４７０號１樓,120.2522,22.95128,(06)2796767,羅氏家用新冠病毒抗原自我檢測套組,64,2022/05/09 08:09:02,口罩發放時間:禮拜一至禮拜六8:30發號碼牌 9:00領取口罩，禮拜四和六只到中午12:00
5905280092,元康保健藥局,臺南市歸仁區中山路二段２２９號,120.2888,22.96721,(06)2309055,羅氏家用新冠病毒抗原自我檢測套組,24,2022/05/09 08:09:02,快篩販售時間星期一至五下午1點開始至售完.5／6（六）不販售.5／7（日）早上9點半販售（不分單雙）
5905280118,和雅藥局,臺南市歸仁區民權三街９６號１樓,120.2902,22.96936,(06)2307757,羅氏家用新冠病毒抗原自我檢測套組,2,2022/05/09 08:09:02,無
5905280136,悅橙歸仁藥局,臺南市歸仁區大通路４３號１樓,120.296,22.9676,(06)2396660,羅氏家用新冠病毒抗原自我檢測套組,4,2022/05/09 08:09:02,實名制Covid-19快篩15:00開始現場販售至售完
5905310237,睿禾藥局,臺南市永康區東橋一路１３號,120.2356,23.01609,(06)3023868,羅氏家用新冠病毒抗原自我檢測套組,1,2022/05/09 08:09:02,快篩AM10點發號牌／11點領取到13點／周日休息
5905310273,誠康藥局,臺南市永康區中山東路１１３號１樓,120.2367,23.01266,(06)3022005,羅氏家用新冠病毒抗原自我檢測套組,78,2022/05/09 08:09:02,實名制快篩販售時間：星期一到星期六  早上08:30~售完為止
5905310291,俐欣藥局,臺南市永康區大仁街２０６號１樓,120.2582,23.00553,(06)2050777,羅氏家用新冠病毒抗原自我檢測套組,14,2022/05/09 08:09:02,無
5905310540,裕安藥局,臺南市永康區中華二路３８５號,120.2315,23.0083,(06)3133251,羅氏家用新冠病毒抗原自我檢測套組,55,2022/05/09 08:09:02,早8:30-1200／午15:00-18:00／晚18:30-21:00。周日午14:00-17:00
5905310933,樂馨藥局,臺南市永康區中山路８５號１樓,120.2561,23.02984,(06)2038100,羅氏家用新冠病毒抗原自我檢測套組,37,2022/05/09 08:09:02,周一至周日8:00現場排隊依序販售快篩，售完為止
5905320546,佑丞藥局,臺南市東區中華東路二段１２９號,120.2335,22.98546,(06)2902709,羅氏家用新冠病毒抗原自我檢測套組,10,2022/05/09 08:09:02,5／9早上十點開放領取
5905320644,崇善藥局,臺南市東區崇善路３９２號１樓,120.2288,22.97485,(06)2896619,羅氏家用新冠病毒抗原自我檢測套組,3,2022/05/09 08:09:02,星期一、三、五下午15:00~16:00；星期二、四下午15:00~18:00；請備妥剛好現金；星期六、日不販售
5905320751,倍加藥局,臺南市東區東門路一段２５５號１樓,120.2179,22.9872,(06)2364173,羅氏家用新冠病毒抗原自我檢測套組,66,2022/05/09 08:09:02,快篩販售時段 週一~週六 8:00~12:00 ＆ 14:30~21:30， 週日休息
5905320877,靈安藥局,臺南市東區大福里榮譽街３２－２號１樓,120.2163,22.97419,(06)2143727,羅氏家用新冠病毒抗原自我檢測套組,25,2022/05/09 08:09:02,週一至週五早上九點至晚上九點／週六早上九點至中午十二點
5905330220,合樂藥局,臺南市南區灣裡路３０９號,120.1824,22.92566,(06)2625016,羅氏家用新冠病毒抗原自我檢測套組,39,2022/05/09 08:09:02,快篩週一~六中午12點開賣，週日暫停
5905340253,永華台安藥局,臺南市中西區永華路一段１８４、１８４－１號１、２、３樓,120.1919,22.98831,(06)2225531,羅氏家用新冠病毒抗原自我檢測套組,30,2022/05/09 08:09:02,10:00販售快篩試劑（若有收到配送）
5905340262,瑞城藥局,臺南市中西區赤嵌里忠義路二段１７６號１樓,120.2043,22.99649,(06)2215810,羅氏家用新冠病毒抗原自我檢測套組,2,2022/05/09 08:09:02,週四公休 週一二三五六日09:30販售快篩 FB公告最新販售訊息 歡迎追蹤 居隔常備藥販售中
5905350240,健康藥局,臺南市北區長榮路５段２１號,120.2206,23.00827,(06)2003078,羅氏家用新冠病毒抗原自我檢測套組,14,2022/05/09 08:09:02,9:00開始販售快篩，售完為止；六日停止販售快篩
5905350482,大欣藥局,臺南市北區公園路２０３號１樓,120.2077,22.99941,(06)2236828,羅氏家用新冠病毒抗原自我檢測套組,1,2022/05/09 08:09:02,快篩視當日物流情況有所不同，APP數量僅供參考~謝謝
5905350535,開元台安藥局,臺南市北區開元路２８８號１樓,120.2226,23.00852,(06)2083172,羅氏家用新冠病毒抗原自我檢測套組,1,2022/05/09 08:09:02,06-2083172限定下午3點到3點半賣快篩
5905350544,康是美藥局和緯店,臺南市北區福德里和緯路二段２３８號１樓,120.2067,23.01231,(06)2519076,羅氏家用新冠病毒抗原自我檢測套組,57,2022/05/09 08:09:02,實名制快篩因物流配送時間不確定請電話詢問
5905370135,安南日日康藥局,臺南市安南區安和路五段３３號,120.2185,23.06398,(06)3550995,羅氏家用新冠病毒抗原自我檢測套組,20,2022/05/09 08:09:02,實名制快篩試劑周一至周六下午2點開始售完為止
5905370144,仁大藥局,臺南市安南區海佃路三段３４６號１樓,120.1788,23.05322,(06)2561777,羅氏家用新冠病毒抗原自我檢測套組,43,2022/05/09 08:09:02,週一至週六早上八點開始至售完，週日下午五點
5905370260,廣道藥局,臺南市安南區溪心里海佃路三段２１８號１樓,120.1806,23.05119,(06)2568383,羅氏家用新冠病毒抗原自我檢測套組,10,2022/05/09 08:09:02,早上7:10發號碼牌下午3-6點憑號碼牌領快篩；隨時可查『廣道藥局』臉書（FB）。
5905370331,草湖寮王藥局,臺南市安南區梅花里安中路一段６３３號１樓,120.1977,23.04163,(06)2465859,羅氏家用新冠病毒抗原自我檢測套組,47,2022/05/09 08:09:02,5／ 9  5／10  早上8:00開始販售
5905380177,凱順藥局,臺南市安平區育平里健康三街３９號１樓,120.168,22.98595,(06)2999752,羅氏家用新冠病毒抗原自我檢測套組,53,2022/05/09 08:09:02,快篩試劑每日9:00開始，售完為止。
5907010178,華美藥局,高雄市鳳山區建國路三段１６１號,120.3535,22.6367,(07)7452732,羅氏家用新冠病毒抗原自我檢測套組,55,2022/05/09 08:09:02,若有患者領藥優先處理領藥，快篩08-12，14-1730，1830-2050販售，售完為止
5907010187,人人好藥局,高雄市鳳山區五甲三路１０巷７號１樓,120.3278,22.59336,(07)8151566,羅氏家用新冠病毒抗原自我檢測套組,77,2022/05/09 08:09:02,上午0830-1330下午1530-2100， 自2／11-2／29口罩販售周一三四五日，時間:9:00-12:00售完為止
5907010409,好郝藥局,高雄市鳳山區武松里經武路１７８號１樓,120.3642,22.63619,(07)7468840,羅氏家用新冠病毒抗原自我檢測套組,75,2022/05/09 08:09:02,營業日15:00開始販售快篩，售完為止
5907010427,好郝藥局鳳林店,高雄市鳳山區誠智里鳳林路２９０號,120.3779,22.62216,(07)7869188,羅氏家用新冠病毒抗原自我檢測套組,78,2022/05/09 08:09:02,健保快篩周一到周六（周日不販售）下午三點開始現場販售，售完為止
5907011004,永豐久億藥局,高雄市鳳山區和興里五甲一路１１號１樓,120.3586,22.62189,(07)7104281,羅氏家用新冠病毒抗原自我檢測套組,50,2022/05/09 08:09:02,無
5907011200,和成藥局,高雄市鳳山區南成里和成路６５號１樓,120.3379,22.58986,(07)7961566,羅氏家用新冠病毒抗原自我檢測套組,39,2022/05/09 08:09:02,自2／11日~2／29日，營業日08:00~10:00為販賣口罩時間
5907011371,大樹五甲藥局,高雄市鳳山區福祥里五甲三路２４號１－２樓．２６號１－２樓,120.3278,22.59317,(07)8224926,羅氏家用新冠病毒抗原自我檢測套組,1,2022/05/09 08:09:02,快篩實名制，每天16:00開始販售，售完為止。
5907020021,柏康藥局,高雄市岡山區壽天路２２號,120.2938,22.79663,(07)6241688,羅氏家用新冠病毒抗原自我檢測套組,77,2022/05/09 08:09:02,無
5907040014,寶樹藥局,高雄市美濃區中山路１段８８號,120.5393,22.90148,(07)6812323,羅氏家用新冠病毒抗原自我檢測套組,54,2022/05/09 08:09:02,營業日08:00~19:00為販賣快篩試劑時間，售完為止
5907060258,杏合藥局,高雄市大寮區後庄里民族路２７０號１樓,120.3917,22.63746,(07)7023620,羅氏家用新冠病毒抗原自我檢測套組,62,2022/05/09 08:09:02,實名制快篩：週一~週五8:00，週六日9:00開始販售。5／8（日）提前於8:00開始
5907080081,英祥連鎖藥局仁雄店,高雄市仁武區仁雄路３６之２號,120.3512,22.68115,(07)3722509,羅氏家用新冠病毒抗原自我檢測套組,1,2022/05/09 08:09:02,快篩販售時間為星期一～六的14:30至17:00（若提前售完，則售完為止）（14:30開始發號碼牌）
5907080125,仁武丁丁藥局,高雄市仁武區仁和里鳳仁路２１之８號,120.3558,22.6802,(07)3721896,羅氏家用新冠病毒抗原自我檢測套組,78,2022/05/09 08:09:02,自5月1日~5月31日，營業日9:00起為販賣快篩時間，售完為止。
5907080250,仁同藥局,高雄市仁武區八卦里永仁街７０６號１樓,120.3313,22.69072,(07)3736142,羅氏家用新冠病毒抗原自我檢測套組,18,2022/05/09 08:09:02,自5月01日~5月31日，營業日8:00起開始販售，當場刷卡領口罩
5907090032,上鼎藥師健保藥局,高雄市大社區中山路４２３號,120.3526,22.73146,(07)3531053,羅氏家用新冠病毒抗原自我檢測套組,12,2022/05/09 08:09:02,每日9:30開放民眾購買快篩，售完為止。
5907110093,順和藥局,高雄市橋頭區仕豐路５號,120.3087,22.75144,(07)6118688,羅氏家用新冠病毒抗原自我檢測套組,23,2022/05/09 08:09:02,政府快篩發放時間晚上10點-10點半
5907140117,悅安藥局,高雄市阿蓮區和蓮里信義路１１１號,120.3263,22.87952,(07)6319632,羅氏家用新冠病毒抗原自我檢測套組,44,2022/05/09 08:09:02,早上8點開始販售實名制快篩.售完為止
5907140126,天德藥局阿蓮店,高雄市阿蓮區南蓮里忠孝路１６８、１７０號,120.3304,22.87917,(07)6311566,羅氏家用新冠病毒抗原自我檢測套組,1,2022/05/09 08:09:02,販售快篩時間：視快篩到貨時間即開始販售
5907150024,安麗兒藥局路竹店,高雄市路竹區大社路５１號１樓,120.262,22.8632,(07)6071699,羅氏家用新冠病毒抗原自我檢測套組,78,2022/05/09 08:09:02,快篩實名制，週一至週六，早上8：30 開始，售完為止（週日無販售）
5907150239,固德藥局,高雄市路竹區金平路３１２號,120.269,22.86954,(07)6978641,羅氏家用新冠病毒抗原自我檢測套組,48,2022/05/09 08:09:02,每日下午三點販售實名制快篩
5907160075,安麗兒藥局東方店,高雄市湖內區湖東里東方路９０號,120.2483,22.87968,(07)6936029,羅氏家用新冠病毒抗原自我檢測套組,78,2022/05/09 08:09:02,領快篩時間一~日早上11點開始~售完 （以郵局配送時間為主）
5907160093,保生藥局,高雄市湖內區葉厝里保生路３４０．３４２號,120.2195,22.90733,(07)6990800,羅氏家用新冠病毒抗原自我檢測套組,1,2022/05/09 08:09:02,快篩實名制，每天16:00開始販售，售完為止。
5907240014,博林健保藥局,高雄市內門區觀亭里中正路１６０巷５１號,120.4539,22.9232,(07)6671883,羅氏家用新冠病毒抗原自我檢測套組,62,2022/05/09 08:09:02,自2／11日~2／29日，營業日07:40~18:00為販賣口罩時間，售完為止
5907290176,為安藥局,高雄市鼓山區九如四路９５９號,120.2788,22.65541,(07)5212912,羅氏家用新冠病毒抗原自我檢測套組,71,2022/05/09 08:09:02,快篩實名制販賣時間：星期一至星期六  10:00開始，賣完為止  星期日休息
5907290238,聯合藥師藥局,高雄市鼓山區中華一路９７０號１樓,120.2919,22.65515,(07)5500558,羅氏家用新冠病毒抗原自我檢測套組,6,2022/05/09 08:09:02,5／8星期日預計11:00開始販售快篩，請從騎樓排隊並遵守防疫規範
5907300168,金元藥局,高雄市左營區重愛路２２０號,120.3156,22.68562,(07)3458378,羅氏家用新冠病毒抗原自我檢測套組,22,2022/05/09 08:09:02,快篩試劑郵差配送，約10點至11點左右會送到藥局，即開始販售，星期四，六營業時間至中午12點
5907300177,人尚大藥局,高雄市左營區榮總路１０９號１樓,120.3217,22.67927,(07)3100000,羅氏家用新冠病毒抗原自我檢測套組,22,2022/05/09 08:09:02,星期一到星期六 早上7:40開始銷售，星期日早上8:40，售完為止
5907300417,森森藥師藥局,高雄市左營區緯六路２１５號１樓,120.2874,22.69707,(07)5853600,羅氏家用新冠病毒抗原自我檢測套組,58,2022/05/09 08:09:02,快篩販售（W1~W5） 8~19點；（W6） 8:30~12點，售完為止
5907300515,詮裕藥局,高雄市左營區華夏路７０６號１樓,120.3022,22.6778,(07)3453942,羅氏家用新冠病毒抗原自我檢測套組,55,2022/05/09 08:09:02,星期一到星期六早上8點銷售到售完為止.星期日---無
5907300659,維康藥局高榮店,高雄市左營區榮總路１６３號、１６５號,120.3216,22.6809,(07)3494540,羅氏家用新冠病毒抗原自我檢測套組,78,2022/05/09 08:09:02,平常日0900-1700為快篩販賣時間賣完為止！假日1000-1800
5907300677,佳寧峰藥局,高雄市左營區部後街２號,120.2886,22.6834,(07)5886408,羅氏家用新冠病毒抗原自我檢測套組,78,2022/05/09 08:09:02,快篩試劑販賣時段:上午8:30起至售完為止
5907300766,悠仁藥局,高雄市左營區自由三路１７０號,120.3113,22.67165,(07)3457979,羅氏家用新冠病毒抗原自我檢測套組,78,2022/05/09 08:09:02,今日快篩0900開始販售。如提前一天配送，則為早上0900販售。不便之處，敬請見諒
5907300800,元大藥師健保藥局,高雄市左營區榮德街３２７號,120.3211,22.68636,(07)3507531,羅氏家用新冠病毒抗原自我檢測套組,1,2022/05/09 08:09:02,無
5907310137,青田藥局,高雄市楠梓區監理南街６８號,120.3188,22.72897,(07)3648257,羅氏家用新冠病毒抗原自我檢測套組,23,2022/05/09 08:09:02,銷售時間才販賣，別在看庫存了 ／ 周一至周五上午10:30-11:00 下午14:30-15:00 晚上19:00-20:00
5907310173,安健藥局,高雄市楠梓區鳳楠路２５０號,120.3296,22.72617,(07)3520167,羅氏家用新冠病毒抗原自我檢測套組,78,2022/05/09 08:09:02,2／06起營業日早上8點開始販賣，周六日早上8:30 .售完為止
5907320259,明誠藥局,高雄市三民區明誠一路１７２號,120.3273,22.65994,(07)3108636,羅氏家用新冠病毒抗原自我檢測套組,19,2022/05/09 08:09:02,星期一到星期六不限時辰，有庫存就售快篩.星期日下午3點售快篩
5907320651,未來照護藥局,高雄市三民區鼎瑞街１０８號１樓,120.3154,22.66606,(07)3105356,羅氏家用新冠病毒抗原自我檢測套組,77,2022/05/09 08:09:02,實名制快篩發放規則: 周一至周六AM10:00發號碼牌，下午14:00~21:30為領取快篩時間  每 周日為公休日
5907320704,建工台安藥局,高雄市三民區建工路４９９號之１,120.3224,22.64884,(07)3807521,羅氏家用新冠病毒抗原自我檢測套組,70,2022/05/09 08:09:02,實名制快篩每日9:00開始販售，售完為止。
5907320946,熊安心藥局,高雄市三民區陽明路４０８號,120.3429,22.64609,(07)3815212,羅氏家用新冠病毒抗原自我檢測套組,25,2022/05/09 08:09:02,週一 ~ 週六快篩 14:00 販售
5907321005,諾亞藥局,高雄市三民區鼎華路１４號１樓,120.3164,22.65139,(07)3929966,羅氏家用新冠病毒抗原自我檢測套組,1,2022/05/09 08:09:02,快篩早上10:00開始，營業時間:（一-五）早上8:00-12:00，下午02:30-6:00（五-下午5:30休息，六-開上午半天，日-休息）
5907321078,振源藥局,高雄市三民區熱河一街３５５號１樓,120.3061,22.64365,(07)3112541,羅氏家用新冠病毒抗原自我檢測套組,11,2022/05/09 08:09:02,4／30起15:00開始販售快篩，六日皆有營業
5907330184,崇信藥局,高雄市新興區中正四路５３號１樓,120.3,22.6305,(07)2810205,羅氏家用新冠病毒抗原自我檢測套組,62,2022/05/09 08:09:02,快篩實名制早上8:00開始販售，人多時發放號碼牌。
5907330228,林森合豐藥局,高雄市新興區林森一路３７號１樓,120.305,22.62388,(07)2823313,羅氏家用新冠病毒抗原自我檢測套組,3,2022/05/09 08:09:02,無
5907350328,安杏藥局,高雄市苓雅區四維二路９４－１７號,120.3197,22.62273,(07)7511739,羅氏家用新冠病毒抗原自我檢測套組,76,2022/05/09 08:09:02,快篩試劑代售時間自早上9:00點服務
5907350597,武廟台安藥局,高雄市苓雅區武廟路１３３－１號,120.3266,22.63106,(07)7228893,羅氏家用新冠病毒抗原自我檢測套組,78,2022/05/09 08:09:02,實名制快篩販售時間：（一）~（六） 9:00~17:00
5907360146,好芳鄰藥局,高雄市前鎮區光華二路２５７號,120.3179,22.61398,(07)3318657,羅氏家用新冠病毒抗原自我檢測套組,63,2022/05/09 08:09:02,4／28日起.上午08:20~11:00 為販賣快篩時間.售完為止（其餘時間不販賣）
5907360191,欣欣藥局,高雄市前鎮區翠亨北路５７９號,120.3129,22.59226,(07)8124862,羅氏家用新冠病毒抗原自我檢測套組,51,2022/05/09 08:09:02,實名制快篩販售:周一到週六上午8點至12點，周日休息。
5907360226,順康健保藥局,高雄市前鎮區一心二路６７號,120.3099,22.61142,(07)5364438,羅氏家用新冠病毒抗原自我檢測套組,1,2022/05/09 08:09:02,家用快篩販賣時間，每天早上9點開始，售完為止。
5907360566,祥安健保藥局,高雄市前鎮區復興三路３９３號１樓,120.3116,22.61373,(07)3340393,羅氏家用新冠病毒抗原自我檢測套組,74,2022/05/09 08:09:02,無
5907380371,希望藥局,高雄市小港區高坪二十七街４３０號１樓,120.3847,22.5586,(07)8911501,羅氏家用新冠病毒抗原自我檢測套組,134,2022/05/09 08:09:02,9:00-15:00  17:00-21:00  8:30開始販售實名制快篩
5911010097,俊德藥局,基隆市中正區中船路２０號１樓,121.7499,25.13684,(02)24281398,羅氏家用新冠病毒抗原自我檢測套組,58,2022/05/09 08:09:02,上午8點開始販售實名制快篩，慢性處方箋9:00~21:00
5911011227,和平大藥局,基隆市中正區中正路７５０號,121.7696,25.1519,(02)24628151,羅氏家用新冠病毒抗原自我檢測套組,78,2022/05/09 08:09:02,無
5911011334,海大藥局,基隆市中正區新豐街２５５號１樓,121.7879,25.13621,(02)24699222,羅氏家用新冠病毒抗原自我檢測套組,78,2022/05/09 08:09:02,平日：8：30~12：00，15：00~21：30；星期日：~12：00
5911011450,文裕藥局,基隆市中正區八斗街１０號,121.7962,25.13991,(02)24691239,羅氏家用新冠病毒抗原自我檢測套組,62,2022/05/09 08:09:02,星期一至星期六早上8:10開始販售，星期日時間於臉書公布
5911011496,源昌藥局,基隆市中正區北寧路384號1樓,121.7963,25.13946,(02)24691686,羅氏家用新冠病毒抗原自我檢測套組,72,2022/05/09 08:09:02,無
5911011521,禎宸藥局,基隆市中正區中正路１７５號１樓,121.7605,25.14233,(02)24620366,羅氏家用新冠病毒抗原自我檢測套組,45,2022/05/09 08:09:02,無
5911011585,雙鶴藥局,基隆市中正區義一路３５號１樓,121.7456,25.13309,(02)24263193,羅氏家用新冠病毒抗原自我檢測套組,5,2022/05/09 08:09:02,下午14:00開始販售
5911021170,康蘋藥局,基隆市七堵區開元路５９－２號２樓,121.7139,25.09623,(02)24558150,羅氏家用新冠病毒抗原自我檢測套組,78,2022/05/09 08:09:02,快篩試劑週一至週五14 :30週六13:00週日07:30開賣，現場排隊
5911021438,正心藥局,基隆市七堵區南興路１０號１樓,121.7149,25.09755,(02)24563378,羅氏家用新冠病毒抗原自我檢測套組,78,2022/05/09 08:09:02,每日限量78盒， 星期一~六下午13:30發號碼牌，14:00開始販賣，星期日上午9:00發號碼牌，9:30開始販賣，12:00停止領取
5911031327,百福暖暖專業藥局,基隆市暖暖區暖暖街１８９號１樓,121.7357,25.09904,(02)24596999,羅氏家用新冠病毒抗原自我檢測套組,52,2022/05/09 08:09:02,無
5911040273,第一藥局,基隆市仁愛區愛三路１２０號３樓,121.7436,25.12963,(02)24292288,羅氏家用新冠病毒抗原自我檢測套組,1,2022/05/09 08:09:02,快篩試劑每天下午12點發號碼牌，12點20分到14點販售
5911070011,信安藥局,基隆市信義區信二路９９號,121.7548,25.12912,(02)24238551,羅氏家用新冠病毒抗原自我檢測套組,78,2022/05/09 08:09:02,快篩實名制-早上9點開始販售-售完為止-
5912010046,中美藥局,新竹市東區南大里西大路１０２巷３號１樓,120.9708,24.79647,(03)5283828,羅氏家用新冠病毒抗原自我檢測套組,68,2022/05/09 08:09:02,快篩販賣時段:早上8:00現場排隊至售完為止。 週一至週六休息時段12:00-14:00  晚上18:00-19:00  週日整天店休
5912010206,康寧藥局,新竹市東區親仁里東大路１段１７９號,120.971,24.80908,(03)5321797,羅氏家用新冠病毒抗原自我檢測套組,39,2022/05/09 08:09:02,快篩販售時間：8:00
5912010484,聖心藥局,新竹市東區南大里食品路２６９號,120.9736,24.79533,(03)5610697,羅氏家用新冠病毒抗原自我檢測套組,49,2022/05/09 08:09:02,快篩銷售:自早上08:00 營業開始～， 售完為止！
5912011865,長青藥師藥局,新竹市東區民生路１４５號,120.9765,24.81063,(03)5439673,羅氏家用新冠病毒抗原自我檢測套組,62,2022/05/09 08:09:02,快篩實名制上午9；00 開始發放 ，週日不發放
5912012059,幼安藥局,新竹市東區三民里民族路１２８號,120.9775,24.80799,(03)5316337,羅氏家用新冠病毒抗原自我檢測套組,4,2022/05/09 08:09:02,快篩販賣時間 : 早上7:30 點開始至晚上點售完為止
5912012120,仁美藥局,新竹市東區振興里振興路５２號,120.9625,24.79493,(03)5625398,羅氏家用新冠病毒抗原自我檢測套組,78,2022/05/09 08:09:02,週一~週六晚上六點販售（週日店休）不發號碼牌!請不要問我要幾點排隊，我不是九天玄女!盡量不打電話，感恩!!
5912012746,安康藥局,新竹市東區民族路１１２號,120.9771,24.8077,(03)5437048,羅氏家用新冠病毒抗原自我檢測套組,38,2022/05/09 08:09:02,快篩試劑代售時段 : 早上8點到賣完為止送貨時間早上9點到下午2點
5912012773,博弘藥局,新竹市東區南大路３８７號,120.9684,24.79662,(03)5619470,羅氏家用新冠病毒抗原自我檢測套組,57,2022/05/09 08:09:02,快篩試劑販賣時間；上午8:00起至售完為止
5912013261,禾心藥局,新竹市東區民生路２３１號１樓,120.9754,24.81199,(03)5332403,羅氏家用新冠病毒抗原自我檢測套組,44,2022/05/09 08:09:02,無
5912013341,康健藥局,新竹市東區中央路１２８－１號,120.9711,24.80687,(03)5359789,羅氏家用新冠病毒抗原自我檢測套組,55,2022/05/09 08:09:02,快篩販售時段: 早8:00-9:00 售完為止
5912013412,牛津藥局,新竹市東區民族路６２號１樓,120.9756,24.8067,(03)5320780,羅氏家用新冠病毒抗原自我檢測套組,36,2022/05/09 08:09:02,5／9（一）快篩  於早上8:00開始販售。5／10，5／11於9:00開賣。
5912013654,七二八藥局,新竹市東區明湖路１２４５號１樓,120.979,24.76774,(03)5200530,羅氏家用新冠病毒抗原自我檢測套組,1,2022/05/09 08:09:02,5／8政府快篩，已經售完。5／9政府快篩，12:30開始販售。
5912013690,佑全新竹食品藥局,新竹市東區食品路１７０號,120.9764,24.79735,(03)5627307,羅氏家用新冠病毒抗原自我檢測套組,7,2022/05/09 08:09:02,實名制快篩下午2點開賣1點40分發號碼牌實際庫存依物流到貨時間滾動式調整
5912040106,永富大藥局,新竹市北區中山里北門街１８號,120.9661,24.80539,(035)234856,羅氏家用新冠病毒抗原自我檢測套組,63,2022/05/09 08:09:02,口罩販售時間：08:30；除夕晚上休息；其餘國定假日均正常營業
5912040188,健和藥局,新竹市北區大同里大同路１７８號,120.9668,24.80731,(03)5231734,羅氏家用新冠病毒抗原自我檢測套組,78,2022/05/09 08:09:02,快篩周一至周五 12點整開始 售完為止
5912040491,全禾藥局,新竹市北區潛園里集和街２５號,120.9616,24.80483,(03)5249173,羅氏家用新冠病毒抗原自我檢測套組,70,2022/05/09 08:09:02,早上9點半至12點，下午3點至9點
5912040553,新廣德中西藥局,新竹市北區民富里延平路１段１６６號,120.9564,24.80464,(03)5225386,羅氏家用新冠病毒抗原自我檢測套組,12,2022/05/09 08:09:02,快篩劑販售時間：08:00起，售完為止；每日08:00起至21:00為止
5912042208,芳里藥局,新竹市北區延平路一段214巷2號,120.9544,24.80528,(03)5222989,羅氏家用新冠病毒抗原自我檢測套組,37,2022/05/09 08:09:02,星期日營業時間調整為9:00-18:00。快篩販售時間為早上8點，禮拜天為9點
5912042404,豐盛藥局,新竹市北區光華二街３５號,120.9747,24.81816,(03)5335651,羅氏家用新冠病毒抗原自我檢測套組,14,2022/05/09 08:09:02,實名制快篩:早上9點開始發號碼牌，13-22點領取快篩
5912042459,閎安專業藥局,新竹市北區延平路三段６８７號１樓,120.9367,24.8407,(03)5368675,羅氏家用新冠病毒抗原自我檢測套組,8,2022/05/09 08:09:02,快篩販售時間:中午12:00，週日公休
5912042637,中福藥局,新竹市北區中福路８３號,120.9327,24.8408,(03)5366996,羅氏家用新冠病毒抗原自我檢測套組,78,2022/05/09 08:09:02,快篩販售時間：上午09:00
5912042959,躍獅光華藥局,新竹市北區光華東街３６－１號１樓,120.9743,24.81586,(03)5331281,羅氏家用新冠病毒抗原自我檢測套組,71,2022/05/09 08:09:02,實際販售時間:AM08:30
5912051216,健安藥局,新竹市香山區內湖路六十號,120.9058,24.74397,(03)5370111,羅氏家用新冠病毒抗原自我檢測套組,38,2022/05/09 08:09:02,實名制口罩已結束販售
5912051449,金正好藥局,新竹市香山區中華路四段５１２號１樓,120.9324,24.79011,(03)5305525,羅氏家用新冠病毒抗原自我檢測套組,40,2022/05/09 08:09:02,無
5917010126,永大藥局,臺中市中區錦上里民族路１２２號,120.6786,24.14054,(04)22210180,羅氏家用新冠病毒抗原自我檢測套組,5,2022/05/09 08:09:02,09:00開始代售快篩，人多會發號碼牌。5／8上午8點開始販售
5917011945,正三吉藥局,臺中市中區臺灣大道一段９５號,120.6831,24.13911,(04)22207700,羅氏家用新冠病毒抗原自我檢測套組,78,2022/05/09 08:09:02,快篩販售時間 14:00~17:00
5917020060,來安藥局,臺中市東區十甲東路４８８號１樓,120.7073,24.13824,(04)22116977,羅氏家用新冠病毒抗原自我檢測套組,46,2022/05/09 08:09:02,發快篩時間早上8點
5917020104,七星中西藥局,臺中市東區東信里十甲東路４０６巷１號１樓,120.7061,24.13603,(04)22123014,羅氏家用新冠病毒抗原自我檢測套組,1,2022/05/09 08:09:02,無
5917020122,周藥師藥局,臺中市東區合作里力行路５５號１樓,120.6956,24.15085,(04)23606800,羅氏家用新冠病毒抗原自我檢測套組,75,2022/05/09 08:09:02,營業時間早上8:30-12:30 下午2:30-晚上9:00 ｛8:30賣快篩；週日不賣快篩｝
5917021718,中大藥局,臺中市東區十甲路５０５號,120.7109,24.14466,(04)22131348,羅氏家用新冠病毒抗原自我檢測套組,3,2022/05/09 08:09:02,無
5917030066,立安藥局,臺中市西區土庫里忠明南路３４８號,120.6576,24.14276,(04)23719125,羅氏家用新冠病毒抗原自我檢測套組,36,2022/05/09 08:09:02,每天09:00開始依排隊先後序開始發放號碼牌並配售口罩，售完為止。
5917030128,太信藥局,臺中市西區三民路一段９５－１號１樓,120.6698,24.13322,(04)23718318,羅氏家用新冠病毒抗原自我檢測套組,48,2022/05/09 08:09:02,健保卡快篩請0900自備500元／份
5917030226,九和大藥局向上店,臺中市西區向上路一段１９２號１樓,120.6605,24.14684,(04)23020148,羅氏家用新冠病毒抗原自我檢測套組,62,2022/05/09 08:09:02,周一~六08:00開始。周日08:00~中午12:00，下午休息。
5917030388,富永藥局,臺中市西區三民西路１６１號,120.6638,24.12988,(04)23714681,羅氏家用新冠病毒抗原自我檢測套組,5,2022/05/09 08:09:02,郵差送達後，開始快篩發售！
5917030600,永昇藥局,臺中市西區東昇里朝陽街４５號,120.6701,24.13522,(04)23717280,羅氏家用新冠病毒抗原自我檢測套組,1,2022/05/09 08:09:02,九時開賣快篩   周日休息
5917030646,華隆藥局,臺中市西區樂群街６之２號,120.6735,24.14025,(04)22243785,羅氏家用新冠病毒抗原自我檢測套組,76,2022/05/09 08:09:02,上午09:00開始販售快篩試劑，售完為止
5917030726,元泉藥局,臺中市西區公益里中美街２５７號,120.6601,24.14874,(04)23015503,羅氏家用新冠病毒抗原自我檢測套組,63,2022/05/09 08:09:02,固定週一至週六早上8:30開始販售口罩.售完為止
5917032293,祥鶴大藥局,臺中市西區美村路一段六七三號一樓,120.6618,24.13561,(04)23710969,羅氏家用新冠病毒抗原自我檢測套組,44,2022/05/09 08:09:02,固定周一至周日早上８：００售快篩至售完
5917040106,侑民藥局,臺中市南區興大路３９６巷４９號１樓,120.6712,24.11564,(04)22860146,羅氏家用新冠病毒抗原自我檢測套組,78,2022/05/09 08:09:02,週一至週日上午9點販賣防疫快篩試劑
5917040302,元聖藥局,臺中市南區積善里五權南路６５０號１樓,120.6702,24.11416,(04)22627468,羅氏家用新冠病毒抗原自我檢測套組,25,2022/05/09 08:09:02,週一至週日上午9點販賣防疫口罩
5917050424,中心藥局,臺中市北區五權路２７９號１樓,120.6777,24.15169,(04)22012985,羅氏家用新冠病毒抗原自我檢測套組,22,2022/05/09 08:09:02,口罩每日上午8:00發放號碼牌，依序販售。全年無休。
5917050433,松鶴藥局,臺中市北區文莊里篤行路２２４號,120.6738,24.15187,(04)22028790,羅氏家用新冠病毒抗原自我檢測套組,57,2022/05/09 08:09:02,口罩每日上午8:30開始販售，現場排隊售完為止。（全年無休）
5917052928,盈佑藥局,臺中市北區進化路６３９號１樓,120.6941,24.16091,(04)22376737,羅氏家用新冠病毒抗原自我檢測套組,75,2022/05/09 08:09:02,週一至週五上午9點到下午9點賣口罩， 下午12~15點休息，週六下午晚上休息，星期日休息
5917060204,宏光藥局,臺中市西屯區何安里西屯路二段９５之２３號,120.656,24.16535,(04)23137278,羅氏家用新冠病毒抗原自我檢測套組,62,2022/05/09 08:09:02,星期一至六早上8:10分開始販賣快篩試劑（免號碼牌，依序隨到隨售，售完為止。）星期日試劑有到貨貨就賣
5917060331,宏吉藥局,臺中市西屯區大福里長安路二段３１６號１樓,120.6673,24.17773,(04)22910825,羅氏家用新冠病毒抗原自我檢測套組,19,2022/05/09 08:09:02,快篩試劑.防疫口罩.酒精上午7：30開始販售，營業至21:00（週日正常營業）
5917062353,典安大藥局,臺中市西屯區西屯路３段１５９－６０號,120.6177,24.18807,(04)24616571,羅氏家用新冠病毒抗原自我檢測套組,33,2022/05/09 08:09:02,每天10:00發放快篩
5917062531,久揚大藥局,臺中市西屯區工業區一路９８之１６號,120.6138,24.17453,(04)23580738,羅氏家用新冠病毒抗原自我檢測套組,67,2022/05/09 08:09:02,未發號碼牌，星期一至六早上9:00開始販賣口罩，星期日不一定
5917063725,永旭大藥局,臺中市西屯區逢甲路９２號１樓,120.6439,24.17883,(04)27087952,羅氏家用新冠病毒抗原自我檢測套組,1,2022/05/09 08:09:02,5／6起實名快篩，星期一到五早上10點開始，星期六日中午12點開始排隊販售。
5917071781,吉運藥局,臺中市南屯區南屯里黎明路１段１１３５號,120.6382,24.14047,(04)23834755,羅氏家用新冠病毒抗原自我檢測套組,50,2022/05/09 08:09:02,固定周一到周六，早上8:00賣實名制快篩。不發號碼牌
5917071996,乾生大藥局,臺中市南屯區大業路９５號,120.6524,24.15336,(04)23281277,羅氏家用新冠病毒抗原自我檢測套組,78,2022/05/09 08:09:02,09:00
5917072313,大業藥局,臺中市南屯區大業路５７１號１樓,120.6361,24.15347,(04)22516715,羅氏家用新冠病毒抗原自我檢測套組,43,2022/05/09 08:09:02,週一至週六早上10點  快篩試劑開賣
5917072564,恒安藥局,臺中市南屯區南屯路２段１１９號,120.652,24.13585,(04)24722887,羅氏家用新冠病毒抗原自我檢測套組,5,2022/05/09 08:09:02,5／7快篩試劑下午3:00開始販售，5／9（一）起快篩試劑早上8:30開始販售
5917080137,日盛藥局,臺中市北屯區東山路一段１４２-１１號,120.7036,24.16934,(04)24360810,羅氏家用新冠病毒抗原自我檢測套組,11,2022/05/09 08:09:02,每天（不含星期日）早上9點開始發售快篩，售完為止，歡迎洽購。
5917080342,弘光藥局,臺中市北屯區太原路三段４５８號１樓,120.6951,24.16476,(04)22342999,羅氏家用新冠病毒抗原自我檢測套組,18,2022/05/09 08:09:02,早上7:30開始販賣防疫口罩（全年無休）
5917080593,崇安藥局,臺中市北屯區四民里昌平路二段５４－３號１樓,120.6831,24.19198,(04)24221929,羅氏家用新冠病毒抗原自我檢測套組,78,2022/05/09 08:09:02,實名制快篩周一至周日08:15發號碼牌
5917080888,大華藥局,臺中市北屯區熱河路２段１０９號１樓,120.6873,24.17054,(04)22331721,羅氏家用新冠病毒抗原自我檢測套組,44,2022/05/09 08:09:02,週一至週五1830-2030販售快篩，週六1430-1600販售快篩。週六晚上及週日全天休診。
5917082444,杏城藥局,臺中市北屯區崇德路２段２９２、２９４號,120.686,24.17596,(04)22464676,羅氏家用新冠病毒抗原自我檢測套組,46,2022/05/09 08:09:02,雙周的星期日休息，快篩開賣時間9點，假日10點
5917082882,世富藥局,臺中市北屯區北屯路２９９－３號１樓,120.6961,24.16825,(04)22317085,羅氏家用新冠病毒抗原自我檢測套組,91,2022/05/09 08:09:02,營業早上08:00-12:00，下午15:00-21:00.星期六晚上休息.星期日休息
5917083012,佳家社區藥局,臺中市北屯區松義街１６８號,120.6984,24.18446,(04)22411678,羅氏家用新冠病毒抗原自我檢測套組,62,2022/05/09 08:09:02,｛快篩早上8點販售｝ 藥局營業時間8:30~22:00，週日下午公休.
5917083058,福益藥局,臺中市北屯區東山路１段１８８－７號,120.7093,24.17085,(04)24367031,羅氏家用新冠病毒抗原自我檢測套組,6,2022/05/09 08:09:02,快篩販售時間:   7:00開始~售完為止（星期日休息）
5917083101,北屯德康藥局,臺中市北屯區四平路４６９號１樓,120.681,24.19161,(04)24223378,羅氏家用新冠病毒抗原自我檢測套組,78,2022/05/09 08:09:02,每天早上9點30分發售口罩；前往領藥前先電話洽詢
5921010072,統一藥局,臺南市東區中西里東門路１段２９１號,120.2186,22.98683,(06)2376638,羅氏家用新冠病毒抗原自我檢測套組,8,2022/05/09 08:09:02,早上9點到晚間9點半  星期日休假
5921010429,乙田藥局,臺南市東區東明里怡東路３０號,120.2278,22.99109,(06)2359303,羅氏家用新冠病毒抗原自我檢測套組,50,2022/05/09 08:09:02,無
5921010992,光明宜康保健藥局,臺南市東區光明街３６之２號１樓,120.2282,22.9989,(06)2376448,羅氏家用新冠病毒抗原自我檢測套組,23,2022/05/09 08:09:02,快篩劑販售時間：星期一~日8：00，採現場排隊無號碼牌
5921012398,慈惠藥局,臺南市東區前鋒路２７號,120.2126,22.98989,(06)2760746,羅氏家用新冠病毒抗原自我檢測套組,16,2022/05/09 08:09:02,快篩販售時間:星期一到星期六早上7:45起至售完為止
5921012683,連春藥局,臺南市東區莊敬路１５號,120.2326,22.99335,(06)2083685,羅氏家用新冠病毒抗原自我檢測套組,53,2022/05/09 08:09:02,早上8／30開始銷售
5921012870,麗生藥師藥局,臺南市東區崇德路５６５號,120.2276,22.97294,(06)3356868,羅氏家用新冠病毒抗原自我檢測套組,1,2022/05/09 08:09:02,快篩實名制販售時間14:30-16:00
5921020096,豐陽藥局,臺南市南區文南里文南路１１５號,120.1898,22.98481,(06)2610628,羅氏家用新冠病毒抗原自我檢測套組,60,2022/05/09 08:09:02,週一至週日08:00 開始營業及販售防疫快篩試劑，售完為止.
5921020210,興泰藥局,臺南市南區金華路一段１６５號,120.1897,22.96557,(06)2653638,羅氏家用新冠病毒抗原自我檢測套組,43,2022/05/09 08:09:02,星期一到星期六早上8點開始.售完為止
5921020256,久芳藥局,臺南市南區喜樹路３４０巷１６６號,120.1761,22.94113,(06)2625209,羅氏家用新冠病毒抗原自我檢測套組,15,2022/05/09 08:09:02,防疫口罩發放上午八點至下午八點
5921020425,日大中西藥局,臺南市南區永興一街３２號,120.1927,22.9659,(06)2612817,羅氏家用新冠病毒抗原自我檢測套組,51,2022/05/09 08:09:02,每日08:00~21:30
5921021708,為仁藥師藥局,臺南市南區大同路二段１０６號,120.2123,22.98022,(06)2139376,羅氏家用新冠病毒抗原自我檢測套組,66,2022/05/09 08:09:02,實名制快篩試劑每日上午8:05販售
5921040221,好鄰居藥局,臺南市北區西華里公園路１２８號２樓７室,120.2076,22.99889,(06)2219015,羅氏家用新冠病毒抗原自我檢測套組,51,2022/05/09 08:09:02,固定星期一至星期六8:30開始販賣快篩，星期天早上9:00開始販賣快篩
5921040276,全一藥局,臺南市北區大豐里和緯路四段９５巷３８號,120.1912,23.0076,(06)2580021,羅氏家用新冠病毒抗原自我檢測套組,33,2022/05/09 08:09:02,快篩實名制，每天上午07:50開始販售（週日有）
5921040409,華成藥局,臺南市北區華興里南園街１１１號,120.2257,23.00757,(06)2344553,羅氏家用新冠病毒抗原自我檢測套組,2,2022/05/09 08:09:02,無
5921040481,眾安藥局,臺南市北區文元里文賢路１０３４號,120.1938,23.0153,(06)2588339,羅氏家用新冠病毒抗原自我檢測套組,78,2022/05/09 08:09:02,星期一~六，上午10點下午9點.（星期日休假）快篩劑販售上午10點起
5921041924,芳鄰藥局,臺南市北區公園北路１５２號,120.2084,23.00521,(06)2811101,羅氏家用新冠病毒抗原自我檢測套組,23,2022/05/09 08:09:02,營業時間早上九點~晚上九點
5921042118,欣平藥局,臺南市北區勝利路４２５號,120.2188,23.00482,(06)2354293,羅氏家用新冠病毒抗原自我檢測套組,49,2022/05/09 08:09:02,固定周一到周六早上8:00開始販售快篩實名制售完為止
5921050076,千代藥局,臺南市中西區民生路一段６０號１樓,120.2034,22.99337,(06)2256895,羅氏家用新冠病毒抗原自我檢測套組,73,2022/05/09 08:09:02,快篩試劑實名制:星期1~6下午一點至三點販售（星期日當日貨到開始販售）
5921050138,金德藥局,臺南市中西區府前路１段３３號,120.2108,22.98881,(06)2149082,羅氏家用新冠病毒抗原自我檢測套組,72,2022/05/09 08:09:02,星期一-日08:00-23:00
5921051582,丞功藥局,臺南市中西區成功路３１號,120.2095,22.99747,(06)2287641,羅氏家用新冠病毒抗原自我檢測套組,56,2022/05/09 08:09:02,星期一-六08:00-售完
5921060161,仲宏藥局,臺南市安南區淵中里安中路３段４３１號,120.1737,23.05,(06)2567798,羅氏家用新冠病毒抗原自我檢測套組,65,2022/05/09 08:09:02,星期一~星期六08:00-22:00 星期日:公休
5921060385,樂成藥局,臺南市安南區安和路一段１５９巷８３號,120.2115,23.03032,(06)2568576,羅氏家用新冠病毒抗原自我檢測套組,6,2022/05/09 08:09:02,無
5921061668,新資生藥師藥局,臺南市安南區城北路５２號１樓,120.1309,23.06296,(06)2571153,羅氏家用新冠病毒抗原自我檢測套組,61,2022/05/09 08:09:02,星期一~星期六早上.快篩販售8點到10點止
5921071226,康活藥局,臺南市安平區健康三街１８６號,120.1686,22.98883,(06)2936483,羅氏家用新冠病毒抗原自我檢測套組,4,2022/05/09 08:09:02,快篩晚上18:00開賣.
5921080010,羽田藥局,臺南市中西區府前路一段２１４號,120.205,22.98913,(06)2214066,羅氏家用新冠病毒抗原自我檢測套組,6,2022/05/09 08:09:02,週一至週六09:00起依序販售實名制快篩，售完為止。周日停止販售。
5922010405,信輝藥局,嘉義市東區安寮里吳鳳南路３５３號,120.4553,23.4643,(05)2252415,羅氏家用新冠病毒抗原自我檢測套組,55,2022/05/09 08:09:02,5／6（五）起每天早上08:00開始販售~售完為止
5922010441,穎川保健藥局,嘉義市東區仁武里中山路２０４號,120.4517,23.48096,(05)2223609,羅氏家用新冠病毒抗原自我檢測套組,17,2022/05/09 08:09:02,固定周一到周日07:00開始快篩賣
5922010496,乙展藥局,嘉義市東區蘭井里蘭井街７０號,120.4551,23.47807,(05)2279556,羅氏家用新冠病毒抗原自我檢測套組,8,2022/05/09 08:09:02,快篩07:10開始至售完（星期日不定期休息）
5922010736,全民藥局,嘉義市東區新店里林森東路２８９ 號,120.4665,23.49007,(05)2777900,羅氏家用新冠病毒抗原自我檢測套組,78,2022/05/09 08:09:02,實名制快篩試劑：週一至週六，早上 8：20開始販售。週日店休。
5922012285,聖安藥局,嘉義市東區仁武里民權路３６５號１樓,120.4506,23.48235,(05)2222941,羅氏家用新冠病毒抗原自我檢測套組,78,2022/05/09 08:09:02,每日8:30開始發放，每週四休息.
5922012712,誠泰藥師藥局,嘉義市東區安寮里興業東路５６號１樓,120.4555,23.46932,(05)2168905,羅氏家用新冠病毒抗原自我檢測套組,54,2022/05/09 08:09:02,快篩實名制早上8點開始販售
5922012721,仁藥集藥局,嘉義市東區太平里新生路５３９號,120.4582,23.49167,(05)2755533,羅氏家用新冠病毒抗原自我檢測套組,1,2022/05/09 08:09:02,8:30-11:00收健保卡，14:00發快篩
5922012874,德風藥局,嘉義市東區仁義里台林街１０８－４號１樓,120.4547,23.49514,(05)2716233,羅氏家用新冠病毒抗原自我檢測套組,78,2022/05/09 08:09:02,週一至六 上午8:30開賣 周日下午5:30開賣
5922012909,昱安藥局,嘉義市東區成仁街１８０號,120.4521,23.48057,(05)2252395,羅氏家用新冠病毒抗原自我檢測套組,8,2022/05/09 08:09:02,購買時段星期（一）至（六）下午4:00-5:00
5922013059,杏光藥局,嘉義市東區保健街１４７號附４,120.4492,23.50036,(05)2745642,羅氏家用新冠病毒抗原自我檢測套組,43,2022/05/09 08:09:02,週一至週五 下午1:00~5:00 現場排隊，無號碼牌（ （六日及國定假日停售）
5922013148,後庄弘安藥局,嘉義市東區吳鳳南路２９８號１樓,120.4587,23.4566,(05)2305678,羅氏家用新冠病毒抗原自我檢測套組,69,2022/05/09 08:09:02,無
5922013175,森活中西藥局,嘉義市東區吳鳳北路２０８號一樓,120.4533,23.47931,(05)2288518,羅氏家用新冠病毒抗原自我檢測套組,4,2022/05/09 08:09:02,8:30開始發放號碼牌，12:00~14:00領取快篩
5922020063,弘安藥局,嘉義市西區文化路２７７號,120.4486,23.48383,(05)2259000,羅氏家用新冠病毒抗原自我檢測套組,56,2022/05/09 08:09:02,營業時間 08:00-22:00 週一~週日販售快篩時間08:00-售罄；請自備零錢（面額500、1000不找零）
5922020116,興業藥局,嘉義市西區福民里興業西路３８１號,120.4366,23.46751,(05)2861880,羅氏家用新冠病毒抗原自我檢測套組,10,2022/05/09 08:09:02,依到貨時間  售完為止
5922020303,新宏祥藥局,嘉義市西區湖內里民生南路５７４號,120.4427,23.45504,(05)2355588,羅氏家用新冠病毒抗原自我檢測套組,20,2022/05/09 08:09:02,羅氏家用快篩:每日早上8點開始販售.售完為止
5922020358,泰春藥局,嘉義市西區學圃里民生北路６６號,120.4468,23.47543,(05)2224118,羅氏家用新冠病毒抗原自我檢測套組,65,2022/05/09 08:09:02,快篩試劑販售時間：早上9點至晚上9點
5922020376,勝華藥局,嘉義市西區垂楊路６２３號,120.4375,23.4726,(05)2856642,羅氏家用新冠病毒抗原自我檢測套組,40,2022/05/09 08:09:02,週一至週六早上 8:00開始販售快篩試劑.週日休息.
5922020483,逢春藥局,嘉義市西區竹圍里北興街４１７號,120.4348,23.48739,(05)2326990,羅氏家用新冠病毒抗原自我檢測套組,68,2022/05/09 08:09:02,快篩:週一至週六，早上8點開始 售完為止
5922020661,大正藥局,嘉義市西區書院里民族路７０２號,120.4435,23.47554,(05)2285812,羅氏家用新冠病毒抗原自我檢測套組,20,2022/05/09 08:09:02,早上8:00開始販售~售完為止 !
5922020769,安麗藥師藥局,嘉義市西區車店里廣州街２０６號,120.4302,23.46519,(05)2352395,羅氏家用新冠病毒抗原自我檢測套組,58,2022/05/09 08:09:02,快篩販售時間上午9點開始，現場排隊，售完為止。六、日休息。
5922020812,海鴻藥師藥局,嘉義市西區民生南路５５２號,120.4433,23.45878,(05)2837758,羅氏家用新冠病毒抗原自我檢測套組,57,2022/05/09 08:09:02,固定每日上午8 : 00 直接排隊發放
5922020858,大統藥局,嘉義市西區慶安里北興街１３６號,120.4421,23.48389,(05)2330230,羅氏家用新冠病毒抗原自我檢測套組,77,2022/05/09 08:09:02,5月8日預約登記已滿.有預約的民眾請於上午9:00-12:00領取
5922020894,平良藥局,嘉義市西區致遠里興業西路８４號１樓,120.4443,23.46856,(05)2235220,羅氏家用新冠病毒抗原自我檢測套組,1,2022/05/09 08:09:02,下午3點開賣快篩
5922020938,仁愛弘安藥局,嘉義市西區仁愛路３９３號１樓,120.442,23.47654,(05)2239000,羅氏家用新冠病毒抗原自我檢測套組,59,2022/05/09 08:09:02,早上八點開賣，賣完為止
5922020974,嚴昔志藥局,嘉義市西區新民路７８５號１樓,120.4396,23.4706,(05)2853991,羅氏家用新冠病毒抗原自我檢測套組,45,2022/05/09 08:09:02,無
5922028925,健安藥局,嘉義市西區民族路６２６號,120.4452,23.4757,(05)2281219,羅氏家用新冠病毒抗原自我檢測套組,65,2022/05/09 08:09:02,口罩:星期一至星期六9點-12點，15點-21點
592202A054,萬泰藥師藥局,嘉義市西區民族路４９４號,120.449,23.47605,(05)2168605,羅氏家用新冠病毒抗原自我檢測套組,71,2022/05/09 08:09:02,快篩實名制8:00開始販售
592202A296,秉原藥局,嘉義市西區書院里民族路７００號,120.4435,23.47554,(05)2285811,羅氏家用新冠病毒抗原自我檢測套組,11,2022/05/09 08:09:02,早上8:00開始販售~售完為止!
592202A349,力健藥局,嘉義市西區文化路５９１號,120.4443,23.49355,(05)2323217,羅氏家用新冠病毒抗原自我檢測套組,78,2022/05/09 08:09:02,營業時間為早上8:00至中午13:00，下午2:30至晚上9:30，口罩發放從早上8:30至售完為止
592202A358,國豐藥局,嘉義市西區北興街２４５－２號１樓,120.4386,23.4854,(05)2318473,羅氏家用新冠病毒抗原自我檢測套組,78,2022/05/09 08:09:02,週一至週六上午10:00開始販售，無號碼牌（週六下午及例假日停售）
5931010066,翰林藥局,新北市板橋區中正路２４０號,121.4557,25.01906,(02)29602748,羅氏家用新冠病毒抗原自我檢測套組,45,2022/05/09 08:09:02,早上8：00─晚上11：00
5931010217,皇安藥局,新北市板橋區中山路２段２４１號,121.4772,25.01757,(02)29524089,羅氏家用新冠病毒抗原自我檢測套組,78,2022/05/09 08:09:02,快篩星期一三五單號，星期二四號雙號
5931010342,宏達大藥局,新北市板橋區莒光路１７號,121.47,25.02478,(02)22572345,羅氏家用新冠病毒抗原自我檢測套組,156,2022/05/09 08:09:02,快篩 晚上20:00開始販售! 不要打電話來 問題這麼多就到現場 也不給你問
5931010477,華傳綜合大藥局,新北市板橋區大智街４０號,121.455,25.01515,(02)29670029,羅氏家用新冠病毒抗原自我檢測套組,28,2022/05/09 08:09:02,週一至週六早上8:30開始發售實名制快篩，週日停售。
5931010842,大福藥局,新北市板橋區三民路１段３１巷１５號,121.48,25.02326,(02)29610311,羅氏家用新冠病毒抗原自我檢測套組,32,2022/05/09 08:09:02,每週一至周六13:30開始販售實名制快篩試劑，週日無販售
5931011009,祥聖藥局,新北市板橋區溪崑二街１１２巷３５弄１號,121.4253,24.98921,(02)26835677,羅氏家用新冠病毒抗原自我檢測套組,78,2022/05/09 08:09:02,實名制快篩劑 5／9~5／14下午1:30販售（週日休息）。現場排隊購買，不發號碼牌。以上資訊正確請勿電話追問
5931011054,國光藥師藥局,新北市板橋區國光路１７２號,121.4605,25.01825,(02)29698181,羅氏家用新冠病毒抗原自我檢測套組,5,2022/05/09 08:09:02,無
5931011330,戴安藥局,新北市板橋區溪北路５４號,121.4276,24.98982,(02)26818663,羅氏家用新冠病毒抗原自我檢測套組,78,2022/05/09 08:09:02,無
5931011474,新欣藥局,新北市板橋區金門街１２８號,121.4328,24.99117,(02)26828061,羅氏家用新冠病毒抗原自我檢測套組,78,2022/05/09 08:09:02,實名制快篩每日上午9:00開始販售售完為止 星期日公休
5931012060,溪北藥局,新北市板橋區溪北路７８號１樓,121.4281,24.98953,(02)26866528,羅氏家用新冠病毒抗原自我檢測套組,68,2022/05/09 08:09:02,無
5931013343,晉麟藥局,新北市板橋區懷德街７８巷４號,121.4781,25.03164,(02)22509069,羅氏家用新冠病毒抗原自我檢測套組,40,2022/05/09 08:09:02,實名制快篩早上8:00販售，（依快篩到貨時間會滾動式調整）
5931013361,長欣藥師藥局,新北市板橋區中山路２段５０５巷３６號,121.4821,25.02246,(02)29585308,羅氏家用新冠病毒抗原自我檢測套組,2,2022/05/09 08:09:02,無
5931013478,富盛藥局,新北市板橋區四維路２９１巷４弄２４號１樓,121.4622,25.02879,(02)22596016,羅氏家用新冠病毒抗原自我檢測套組,51,2022/05/09 08:09:02,快篩試劑.下午2點販售.預防群聚 滾動式調整時間.請勿打電話詢問.謝謝
5931014537,友虹藥師藥局,新北市板橋區國光路１６號,121.457,25.01739,(02)29691181,羅氏家用新冠病毒抗原自我檢測套組,9,2022/05/09 08:09:02,早上十點開始販賣到十一點
5931015687,正康健保藥局,新北市板橋區大觀路２段６５號１樓,121.4467,25.00246,(02)22756681,羅氏家用新冠病毒抗原自我檢測套組,78,2022/05/09 08:09:02,下午13:30依現場順序開始販售快篩，快篩配送絮亂庫存不準!!
5931015721,新進發大藥局,新北市板橋區大同街２４號１樓,121.4787,25.0275,(02)22593926,羅氏家用新冠病毒抗原自我檢測套組,31,2022/05/09 08:09:02,快篩上午10點開門即賣，排隊不發號碼
5931016237,幸福健保藥局,新北市板橋區四維路１０６號１樓,121.4657,25.02457,(02)22530009,羅氏家用新冠病毒抗原自我檢測套組,3,2022/05/09 08:09:02,無
5931016755,禾田藥局,新北市板橋區大觀路２段２６５巷１２號（１樓）,121.4428,24.99858,(02)29659899,羅氏家用新冠病毒抗原自我檢測套組,1,2022/05/09 08:09:02,8：30發放號碼牌，9：30-21：30來購買，當日未刷健保卡購買者視為無效
5931016808,正安健保藥局,新北市板橋區民族路２２４號（１樓）,121.4687,25.00733,(02)29526813,羅氏家用新冠病毒抗原自我檢測套組,78,2022/05/09 08:09:02,17時依現場順序開始販售.週六12點.電腦配送庫存不準..以現場數量為準
5931017216,康鑫藥局,新北市板橋區文化路１段２０６號１樓,121.4664,25.02012,(02)82585135,羅氏家用新冠病毒抗原自我檢測套組,42,2022/05/09 08:09:02,無
5931017556,光鹽藥局,新北市板橋區中山路２段８４之２號（２樓）,121.4748,25.0161,(02)29552167,羅氏家用新冠病毒抗原自我檢測套組,78,2022/05/09 08:09:02,無
5931017636,福澤藥局,新北市板橋區南雅南路１段８５號（１樓）,121.4556,25.00543,(02)29690013,羅氏家用新冠病毒抗原自我檢測套組,11,2022/05/09 08:09:02,口罩代售9:00-23:00
5931017869,躍獅國慶藥局,新北市板橋區國慶路１７９號（１樓）,121.4626,24.99636,(02)29641548,羅氏家用新冠病毒抗原自我檢測套組,78,2022/05/09 08:09:02,快篩實名制，每天14:00開始販售，售完為止
5931017903,吉發藥局,新北市板橋區文化路１段１８８巷５弄１５號（１樓）,121.4674,25.01986,(02)22577381,羅氏家用新冠病毒抗原自我檢測套組,1,2022/05/09 08:09:02,無
5931018017,有田藥局,新北市板橋區忠孝路１８１號（１樓）,121.4642,25.00262,(02)29598095,羅氏家用新冠病毒抗原自我檢測套組,101,2022/05/09 08:09:02,早上十點開始販售，售完為止
5931018106,力安藥局,新北市板橋區莒光路１９６巷８號（１樓）,121.4738,25.02255,(02)22503349,羅氏家用新冠病毒抗原自我檢測套組,78,2022/05/09 08:09:02,快篩實名制，早上9點依現場順序開始販售快篩，售完為止。
5931020017,建宏藥局,新北市三重區名源街１６號,121.4819,25.06065,(02)29714533,羅氏家用新冠病毒抗原自我檢測套組,55,2022/05/09 08:09:02,星期一至日 營業時間早上8點-中午12點、下午2點-晚上9點30分（星期日偶會休息）
5931020400,新迪化中西藥局,新北市三重區三陽路２７號１樓,121.4855,25.05893,(02)29884755,羅氏家用新冠病毒抗原自我檢測套組,2,2022/05/09 08:09:02,快篩實名制中午12點開始販售，發號碼牌
5931020704,建芳藥局,新北市三重區集美街１７４號,121.4904,25.05321,(02)29763351,羅氏家用新冠病毒抗原自我檢測套組,60,2022/05/09 08:09:02,無
5931020919,東裕藥局,新北市三重區重新路４段１２２號,121.487,25.05652,(02)29773255,羅氏家用新冠病毒抗原自我檢測套組,78,2022/05/09 08:09:02,實名制快篩販售時間:AM9:00開始現場排隊，售完為止.（星期日休息）
5931021452,家福藥局,新北市三重區仁愛街６８２號,121.4817,25.08026,(02)22877692,羅氏家用新冠病毒抗原自我檢測套組,6,2022/05/09 08:09:02,實名制快篩販售時間:AM9:00，售完為止，星期天公休。請自備零錢
5931021532,龍門藥局,新北市三重區龍門路１８９號,121.4996,25.07322,(02)29756141,羅氏家用新冠病毒抗原自我檢測套組,78,2022/05/09 08:09:02,實名制快篩販售時間~星期一至星期六下午3點
5931023447,安泰藥局,新北市三重區正義北路３００－３號２樓,121.4953,25.06978,(02)89815379,羅氏家用新冠病毒抗原自我檢測套組,78,2022/05/09 08:09:02,5／2只有早上8:30--12:00營業下午.及晚上休息
5931024426,甜心健康生活藥局,新北市三重區福祉里集美街４５號１樓,121.488,25.05542,(02)29762223,羅氏家用新冠病毒抗原自我檢測套組,26,2022/05/09 08:09:02,無
5931024588,陽光藥師藥局,新北市三重區三和路２段１８２號１樓,121.4987,25.06886,(02)29788120,羅氏家用新冠病毒抗原自我檢測套組,59,2022/05/09 08:09:02,無
5931024908,力行德榮藥局,新北市三重區力行路２段１７０號１樓,121.483,25.07699,(02)22867170,羅氏家用新冠病毒抗原自我檢測套組,78,2022/05/09 08:09:02,星期一到星期五早上08:30.星期六.日中午12:10.
5931024962,建祥三和藥局,新北市三重區三和路２段１６０號１樓,121.4992,25.06853,(02)29703379,羅氏家用新冠病毒抗原自我檢測套組,37,2022/05/09 08:09:02,實名制快篩10:00發放號碼牌
5931024971,欽勝藥局,新北市三重區重陽路４段６號２樓,121.4906,25.06894,(02)29857389,羅氏家用新冠病毒抗原自我檢測套組,1,2022/05/09 08:09:02,販售快篩需現場排隊，無預約無號碼牌，販售時間15:00。
5931025174,小林健保藥局,新北市三重區文化北路６１－１號１樓,121.4987,25.0663,(02)29763895,羅氏家用新冠病毒抗原自我檢測套組,2,2022/05/09 08:09:02,快篩販售時間公告於「小林健保藥局」粉絲專頁
5931025192,榮康藥局,新北市三重區成功路８１號１樓,121.4886,25.05131,(02)29772723,羅氏家用新冠病毒抗原自我檢測套組,6,2022/05/09 08:09:02,星期一、四14:00發售。星期二、五20:00發售。星期三、六11:00發售。星期日另行公告
5931025398,昌誠藥局,新北市三重區三和路４段１６１號１樓,121.4835,25.0785,(02)22876338,羅氏家用新冠病毒抗原自我檢測套組,5,2022/05/09 08:09:02,5／2 （休診）
5931025521,徐匯藥局,新北市三重區仁愛街７５５號１樓,121.4809,25.07996,(02)28572234,羅氏家用新冠病毒抗原自我檢測套組,1,2022/05/09 08:09:02,實名快篩星期一~六，下午2:30開賣，1人限1卡
5931025638,華安生活藥局,新北市三重區重新路２段１２６號１樓,121.4963,25.0616,(02)29756534,羅氏家用新冠病毒抗原自我檢測套組,1,2022/05/09 08:09:02,國定例假日執行調劑業務
5931025647,幸康藥局,新北市三重區正義北路２０５號２樓,121.4962,25.0684,(02)29816105,羅氏家用新冠病毒抗原自我檢測套組,17,2022/05/09 08:09:02,國定假日，如元旦，端午，中秋不執行調劑業務。政府快篩實名制於週一~週六的14:30開始販售。
5931025692,杏一三重集成藥局,新北市三重區集成路４３號１樓,121.4893,25.05271,(02)29743410,羅氏家用新冠病毒抗原自我檢測套組,33,2022/05/09 08:09:02,5／5 暫停販售  5／6下午三點開始發放號碼牌
5931025745,恆源藥局,新北市三重區仁興街２８巷４１號１樓,121.4982,25.07515,(02)29765002,羅氏家用新冠病毒抗原自我檢測套組,61,2022/05/09 08:09:02,國定假日有提供調劑業務
5931025781,芯慈藥局,新北市三重區永安北路２段１０５號１樓,121.4831,25.08392,(02)28570670,羅氏家用新冠病毒抗原自我檢測套組,71,2022/05/09 08:09:02,國定假日有提供藥劑服務
5931025790,銀河藥局,新北市三重區五華街２４７號１樓,121.4892,25.08623,(02)28578688,羅氏家用新冠病毒抗原自我檢測套組,66,2022/05/09 08:09:02,實名制快篩販售時間：周一至週五下午三點，周六上午十點，星期日不販售
5931025807,永福藥局,新北市三重區永福街３號１樓,121.4827,25.07837,(02)22861161,羅氏家用新冠病毒抗原自我檢測套組,75,2022/05/09 08:09:02,15:00排隊拿號碼牌買快篩
5931025898,新宜安中西藥局,新北市三重區三陽路３０號１樓,121.4854,25.05867,(02)29883693,羅氏家用新冠病毒抗原自我檢測套組,78,2022/05/09 08:09:02,【實名制快篩試劑】依每日物流到貨狀況，請加LINE ID：「@692qferj」或FB：新宜安中西藥局公告告知。
5931030013,皇誼藥局,新北市永和區文化路３３號,121.5147,25.01499,(02)29278732,羅氏家用新冠病毒抗原自我檢測套組,36,2022/05/09 08:09:02,無
5931032133,宸安藥局,新北市永和區得和路３８５號１樓,121.5251,24.99943,(02)22328274,羅氏家用新冠病毒抗原自我檢測套組,2,2022/05/09 08:09:02,星期一至六 實名制快篩  PM2:00-3；00； 星期日公休
5931032302,威康藥局,新北市永和區中正路１５３號,121.5163,24.9984,(02)29461128,羅氏家用新冠病毒抗原自我檢測套組,3,2022/05/09 08:09:02,無
5931032759,友辰藥局,新北市永和區中正路３８０號１樓,121.5177,25.00123,(02)29267131,羅氏家用新冠病毒抗原自我檢測套組,2,2022/05/09 08:09:02,無
5931032811,華特健康藥局,新北市永和區永貞路３６２號１樓,121.5102,25.00667,(02)29264391,羅氏家用新冠病毒抗原自我檢測套組,2,2022/05/09 08:09:02,快篩販賣時間13:00-15:00
5931033103,皇家藥師藥局,新北市永和區中正路７２０號１樓,121.5158,25.01017,(02)89216867,羅氏家用新冠病毒抗原自我檢測套組,86,2022/05/09 08:09:02,無
5931033176,緣來藥師藥局,新北市永和區福和路２５０、２５２號１樓,121.5143,25.00787,(02)29211798,羅氏家用新冠病毒抗原自我檢測套組,65,2022/05/09 08:09:02,無
5931033461,常安中西藥局,新北市永和區保平路２６號１樓,121.5122,25.00749,(02)29283530,羅氏家用新冠病毒抗原自我檢測套組,5,2022/05/09 08:09:02,每日下午三點開始實名制快篩
5931033621,永正健康人生藥局,新北市永和區中正路１９１、１９３號１樓、１９７號２樓,121.5171,24.99931,(02)29467351,羅氏家用新冠病毒抗原自我檢測套組,78,2022/05/09 08:09:02,實名制快篩9點開賣
5931033774,台化藥局,新北市永和區勵行街１１９號１樓,121.5175,25.01202,(02)22318585,羅氏家用新冠病毒抗原自我檢測套組,1,2022/05/09 08:09:02,無
5931034039,叁品藥局,新北市永和區秀朗路２段１１８號１樓,121.5244,25.00152,(02)29208800,羅氏家用新冠病毒抗原自我檢測套組,137,2022/05/09 08:09:02,實名制快篩 下午一點發放號碼牌
5931034084,柏愛藥局,新北市永和區竹林路５７號１樓,121.5183,25.01386,(02)89285609,羅氏家用新冠病毒抗原自我檢測套組,78,2022/05/09 08:09:02,實名制快篩每日0930開賣.國定假日營業時間0900-1700
5931034119,仁愛陽光藥局,新北市永和區仁愛路１４３號１樓,121.5114,25.01293,(02)89213691,羅氏家用新冠病毒抗原自我檢測套組,6,2022/05/09 08:09:02,快篩代售時段14:00，售完為止...
5931034146,亮點藥局,新北市永和區竹林路７１號１樓,121.5186,25.01355,(02)89253895,羅氏家用新冠病毒抗原自我檢測套組,53,2022/05/09 08:09:02,快篩發放時段 下午16:30-18:00
5931040055,瑞發藥局,新北市中和區民享街５６－１號,121.474,25.00236,(02)22235319,羅氏家用新冠病毒抗原自我檢測套組,51,2022/05/09 08:09:02,口罩代售時間自08:00；號碼牌發放時間自08:00
5931040242,天立藥局,新北市中和區莒光路１２２號,121.4724,25.00173,(02)29578831,羅氏家用新冠病毒抗原自我檢測套組,56,2022/05/09 08:09:02,於下午15:00憑健保卡（一人一卡）購買實名制快篩。
5931040322,宏信藥局,新北市中和區永貞路２６２巷４號,121.5139,25.0039,(02)29294976,羅氏家用新冠病毒抗原自我檢測套組,98,2022/05/09 08:09:02,如有到貨每日早上7點30分準時開賣快篩試劑
5931040475,顧藥局,新北市中和區圓通路１４０號,121.4983,24.99583,(02)22470133,羅氏家用新冠病毒抗原自我檢測套組,70,2022/05/09 08:09:02,快篩周一到周六營業*.早上點開賣.售完為止
5931042326,璟福藥局,新北市中和區安平路７６號１樓,121.511,24.99652,(02)29408669,羅氏家用新冠病毒抗原自我檢測套組,41,2022/05/09 08:09:02,無
5931042648,恩溢藥局,新北市中和區復興路７９號１樓.２樓,121.5035,24.9902,(02)22452450,羅氏家用新冠病毒抗原自我檢測套組,3,2022/05/09 08:09:02,無
5931042899,家家藥局,新北市中和區民德路４３號,121.469,25.00219,(02)29587512,羅氏家用新冠病毒抗原自我檢測套組,78,2022/05/09 08:09:02,實名制快篩早上09:00販售，若人數眾多會發號碼牌，有拿到者可現場領取。
5931043109,育新藥局,新北市中和區中安街４０巷６號,121.5127,25.00305,(02)29283479,羅氏家用新冠病毒抗原自我檢測套組,51,2022/05/09 08:09:02,週一、二、三、五、六早上八點開始販售，售完為止（四、日無販賣）
5931043234,康荃優生保健藥局,新北市中和區福祥路６６號１樓,121.4994,25.00494,(02)22486532,羅氏家用新冠病毒抗原自我檢測套組,5,2022/05/09 08:09:02,無
5931043396,立健藥局,新北市中和區連城路３１７號１樓,121.4892,24.99607,(02)22230614,羅氏家用新冠病毒抗原自我檢測套組,58,2022/05/09 08:09:02,週日休假
5931043501,悅聖藥局,新北市中和區圓通路１４９號１樓,121.4984,24.99567,(02)22429779,羅氏家用新冠病毒抗原自我檢測套組,45,2022/05/09 08:09:02,快篩販售時間為每日早上 不發號碼牌（但政府不一定每日都有配送） *週日不販售*
5931043627,銓家藥局,新北市中和區員山路３１９號１-２樓,121.4812,25.0006,(02)22257728,羅氏家用新冠病毒抗原自我檢測套組,49,2022/05/09 08:09:02,實名制快篩 下午3點販售 前15分鐘發號碼牌
5931043636,雙合藥局,新北市中和區中正路２９１號１樓,121.4941,24.99375,(02)22476607,羅氏家用新冠病毒抗原自我檢測套組,2,2022/05/09 08:09:02,無
5931043761,杏元藥局,新北市中和區員山路１７２號１樓,121.4814,24.99994,(02)22236868,羅氏家用新冠病毒抗原自我檢測套組,2,2022/05/09 08:09:02,快篩1400 發放，現場排隊。
5931043798,永成藥局,新北市中和區景平路１５６號１樓,121.5176,24.99222,(02)29407619,羅氏家用新冠病毒抗原自我檢測套組,78,2022/05/09 08:09:02,實名制快篩，下午三點領取號碼並開始販售（每日78份）
5931043921,良安藥局,新北市中和區連城路４７７巷１號１樓,121.4833,24.99555,(02)22225798,羅氏家用新冠病毒抗原自我檢測套組,8,2022/05/09 08:09:02,週六日不開店，實名制快篩，晚上9:00開始販售
5931044017,幸福連鎖藥局,新北市中和區忠孝街１２２號１樓,121.5122,24.98581,(02)29410771,羅氏家用新冠病毒抗原自我檢測套組,36,2022/05/09 08:09:02,無
5931044044,宥元藥局,新北市中和區德光路６２號１樓,121.4696,25.00398,(02)89535473,羅氏家用新冠病毒抗原自我檢測套組,33,2022/05/09 08:09:02,週一至周六10:30-22:00發放口罩
5931044133,康富力藥局,新北市中和區仁愛街３２號１樓,121.5109,24.98843,(02)29429896,羅氏家用新冠病毒抗原自我檢測套組,19,2022/05/09 08:09:02,快篩代售時間：周一至周五9:30、週六14:00
5931044393,躍獅康銓藥局,新北市中和區莒光路１４６號１樓,121.4725,25.00088,(02)29646452,羅氏家用新冠病毒抗原自我檢測套組,50,2022/05/09 08:09:02,實名制快篩 每日上午09:10開始販售，週日店休
5931044464,健暉藥局,新北市中和區連城路４８７號１樓,121.4829,24.99552,(02)22231437,羅氏家用新冠病毒抗原自我檢測套組,80,2022/05/09 08:09:02,實名快篩 早上10點 39份 ／ 晚上7點 39份 賣完為止
5931044580,躍獅天晴藥局,新北市中和區和平街９號１樓,121.5095,24.99025,(02)29491931,羅氏家用新冠病毒抗原自我檢測套組,78,2022/05/09 08:09:02,無
5931044624,奕采藥局,新北市中和區宜安路７７號１樓,121.5109,24.99733,(02)29429770,羅氏家用新冠病毒抗原自我檢測套組,30,2022/05/09 08:09:02,週一至週六10:00~12:00販售實名制快篩9:00發號碼牌（週日停售）
5931044660,吉佑藥局,新北市中和區大勇街３４號１樓,121.5174,24.99345,(02)89416539,羅氏家用新冠病毒抗原自我檢測套組,45,2022/05/09 08:09:02,無
5931044786,坤暉藥局,新北市中和區中山路３段９４號２樓,121.4774,25.00583,(02)82217939,羅氏家用新冠病毒抗原自我檢測套組,78,2022/05/09 08:09:02,口罩發售時間早上9:00到11:00
5931044820,禾心藥局,新北市中和區秀朗路３段６４號１樓,121.5242,24.99482,(02)86688922,羅氏家用新冠病毒抗原自我檢測套組,31,2022/05/09 08:09:02,實名制快篩週一至週六9:00販售，週日不販售實名制快篩
5931044973,佳禾藥局,新北市中和區自立路３２號１樓,121.5226,24.9928,(02)29428989,羅氏家用新冠病毒抗原自我檢測套組,45,2022/05/09 08:09:02,快篩資訊 每天早上9點發號碼牌同時開始販售
5931044982,萊恩藥局,新北市中和區景安路２０９號１樓,121.5046,24.99192,(02)29468395,羅氏家用新冠病毒抗原自我檢測套組,157,2022/05/09 08:09:02,每週星期一到星期六（星期天依店內公告），早上9點發號碼牌押健保卡，12點後領取快篩
5931045112,景安藥局,新北市中和區景德街１４１號１樓及景平路１１１巷６０弄５６號,121.5175,24.99156,(02)86688215,羅氏家用新冠病毒抗原自我檢測套組,62,2022/05/09 08:09:02,實名制快篩每日販售時段08:10~21:00，請持健保卡現場排隊依序購買，售完為止。
5931045292,福欣藥局,新北市中和區中和路１４８號１樓,121.504,24.99961,(02)22485500,羅氏家用新冠病毒抗原自我檢測套組,48,2022/05/09 08:09:02,無
5931045354,榮記大藥局,新北市中和區員山路４８２號１樓,121.4799,25.00683,(02)22239546,羅氏家用新冠病毒抗原自我檢測套組,78,2022/05/09 08:09:02,實名制快篩試劑:周一到周五上午8點開賣，周六上午8:30開賣
5931045372,伍品藥局,新北市中和區莊敬路３５號１樓,121.5007,25.00503,(02)82456789,羅氏家用新冠病毒抗原自我檢測套組,54,2022/05/09 08:09:02,實名制快篩下午14:00點發號碼牌，請自備500元紙鈔  （週日）停止販售快篩！
5931045425,千樂台安藥局,新北市中和區安樂路１０１之２號１、２樓及１０１之３號１、２樓,121.5134,24.99526,(02)29406029,羅氏家用新冠病毒抗原自我檢測套組,69,2022/05/09 08:09:02,無
5931045498,好意藥局,新北市中和區景新街４６７巷３號１樓,121.5136,24.98825,(02)89416598,羅氏家用新冠病毒抗原自我檢測套組,78,2022/05/09 08:09:02,週日無販售快篩試劑
5931045541,富康活力華興藥局,新北市中和區興南路２段９２號１樓,121.5054,24.98444,(02)29450988,羅氏家用新冠病毒抗原自我檢測套組,54,2022/05/09 08:09:02,無
5931051790,家得福藥局,新北市新店區安康路２段１２３號１樓,121.5125,24.96129,(02)22118346,羅氏家用新冠病毒抗原自我檢測套組,30,2022/05/09 08:09:02,無
5931052135,椿萱藥局,新北市新店區建國路６９號,121.5404,24.9759,(02)29188311,羅氏家用新冠病毒抗原自我檢測套組,85,2022/05/09 08:09:02,無
5931052288,躍獅正新藥局,新北市新店區中正路５７之１號１樓,121.5443,24.96989,(02)89145930,羅氏家用新冠病毒抗原自我檢測套組,83,2022/05/09 08:09:02,星期一至六9:00為領取快篩號碼牌，20:00以前帶號碼牌來取快篩
5931052653,正升藥局,新北市新店區順安街６１號１樓,121.5407,24.98637,(02)29139493,羅氏家用新冠病毒抗原自我檢測套組,55,2022/05/09 08:09:02,無
5931052840,微笑生活藥局,新北市新店區建國路８５號１樓,121.5404,24.97657,(02)89113397,羅氏家用新冠病毒抗原自我檢測套組,64,2022/05/09 08:09:02,快篩於下午2點始賣，周日公休
5931053007,康曜藥師藥局,新北市新店區安康路２段２０４號１樓,121.5103,24.95964,(02)86669660,羅氏家用新冠病毒抗原自我檢測套組,48,2022/05/09 08:09:02,[週一至週五]13:20發號碼牌／13:30開始販售  [例假日無販售]
5931053123,大吉藥局,新北市新店區中正路３０號１樓,121.5452,24.96977,(02)29110151,羅氏家用新冠病毒抗原自我檢測套組,176,2022/05/09 08:09:02,實名制快篩，早上0905開賣，現場排隊販售，賣完為止。六日【無】販售
5931053141,禾康藥局,新北市新店區德正街４４號１樓,121.5443,24.97143,(02)29160596,羅氏家用新冠病毒抗原自我檢測套組,7,2022/05/09 08:09:02,無
5931053169,貳品藥局,新北市新店區新和街７５號１樓,121.5205,24.98612,(02)89418890,羅氏家用新冠病毒抗原自我檢測套組,78,2022/05/09 08:09:02,實名制快篩下午一點半依排隊順序發售
5931053267,富康活力惠國藥局,新北市新店區中正路７８號１樓,121.5439,24.97036,(02)29100066,羅氏家用新冠病毒抗原自我檢測套組,56,2022/05/09 08:09:02,實名制快篩，若當日有貨販售，於8:00準時開賣，請攜帶健保卡／居留證，謝謝您。
5931053276,富康活力新店藥局,新北市新店區中正路２２１號（１樓）,121.5396,24.97293,(02)29101111,羅氏家用新冠病毒抗原自我檢測套組,78,2022/05/09 08:09:02,無
5931053365,十二願藥局,新北市新店區中正路６８２號１樓,121.5341,24.98998,(02)22181899,羅氏家用新冠病毒抗原自我檢測套組,1,2022/05/09 08:09:02,公費快篩每日下午2點販售~ 公費快篩每日下午2點販售
5931060146,海山藥局,新北市新莊區景德路４２５號,121.4447,25.03331,(02)22019804,羅氏家用新冠病毒抗原自我檢測套組,47,2022/05/09 08:09:02,無
5931060342,十安藥局,新北市新莊區中港路３１６號,121.4524,25.04544,(02)29922859,羅氏家用新冠病毒抗原自我檢測套組,2,2022/05/09 08:09:02,自111／04／01起不再販賣實名制口罩
5931060628,錄新藥局,新北市新莊區後港一路７６巷１０弄１號,121.427,25.02604,(02)22051849,羅氏家用新冠病毒抗原自我檢測套組,78,2022/05/09 08:09:02,無
5931060815,祐全大藥局,新北市新莊區建安街８８號,121.4262,25.02423,(02)22026008,羅氏家用新冠病毒抗原自我檢測套組,1,2022/05/09 08:09:02,快篩代售時間:10:00；現場排隊售完為止.週日不營業
5931060824,禮安藥師藥局,新北市新莊區自立街１０９號１樓,121.4555,25.0455,(02)29942891,羅氏家用新冠病毒抗原自我檢測套組,1,2022/05/09 08:09:02,無
5931067092,恩泰藥局,新北市新莊區民安西路２６５號－１,121.4262,25.01296,(02)22038680,羅氏家用新冠病毒抗原自我檢測套組,76,2022/05/09 08:09:02,無
5931067403,建嘉藥局,新北市新莊區中誠街４２號１樓,121.4513,25.04812,(02)29925261,羅氏家用新冠病毒抗原自我檢測套組,60,2022/05/09 08:09:02,無
5931067985,蘋果藥局,新北市新莊區八德街１０５號,121.4242,25.02112,(02)22053933,羅氏家用新冠病毒抗原自我檢測套組,4,2022/05/09 08:09:02,快篩試劑代售時間自14:00開始過卡販售.若排隊人數提前到達.則提前1小時開賣
5931068464,健安藥局,新北市新莊區光和里民安西路２０９號１樓,121.4261,25.0147,(02)22043765,羅氏家用新冠病毒抗原自我檢測套組,78,2022/05/09 08:09:02,無
5931068722,庭安藥局,新北市新莊區民有里西盛街１７２號１樓,121.4281,25.01901,(02)22080528,羅氏家用新冠病毒抗原自我檢測套組,78,2022/05/09 08:09:02,早上9:30開始販售實名制快篩.賣完為止週日公休
5931068866,大愛藥師藥局,新北市新莊區後港一路６９號１樓,121.4267,25.02666,(02)22042119,羅氏家用新冠病毒抗原自我檢測套組,3,2022/05/09 08:09:02,快篩代售時間自下午2點 現場排隊
5931069201,招安藥師藥局,新北市新莊區西盛街３３８號１樓,121.428,25.01436,(02)22085138,羅氏家用新冠病毒抗原自我檢測套組,16,2022/05/09 08:09:02,5／1 5／2 並無快篩試劑到貨 請勿來電或來店購買
5931069603,中信藥師藥局,新北市新莊區中信街８０號１樓,121.448,25.05311,(02)29969811,羅氏家用新冠病毒抗原自我檢測套組,17,2022/05/09 08:09:02,AM 07:30 開始
5931069774,真安綜合大藥局,新北市新莊區四維路２０５號１樓,121.4219,25.02037,(02)22026188,羅氏家用新冠病毒抗原自我檢測套組,9,2022/05/09 08:09:02,無
593106A584,記安大藥局,新北市新莊區天祥街４６號１樓,121.4169,25.02893,(02)22095331,羅氏家用新冠病毒抗原自我檢測套組,80,2022/05/09 08:09:02,無
593106A646,薇妮雙鳳藥局,新北市新莊區雙鳳路２１號１樓,121.4167,25.02677,(02)29076993,羅氏家用新冠病毒抗原自我檢測套組,12,2022/05/09 08:09:02,實名制快篩每日早上9:00現場排隊購買，無發號碼牌
593106A735,樂家藥局,新北市新莊區中平路２７３號１樓,121.4447,25.04995,(02)29960723,羅氏家用新冠病毒抗原自我檢測套組,1,2022/05/09 08:09:02,無
593106A744,永明藥局,新北市新莊區幸福路５９８號１樓,121.4533,25.04943,(02)89920019,羅氏家用新冠病毒抗原自我檢測套組,1,2022/05/09 08:09:02,週日公休， 實名制快篩早上9點發放號碼牌， 早上10點~晚上8點販售
593106A824,家禾藥局,新北市新莊區立信五街６號１樓,121.4445,25.05148,(02)29972121,羅氏家用新冠病毒抗原自我檢測套組,78,2022/05/09 08:09:02,若有配送會在12:00及18:00固定販售各39份，不提前販售，沒有發放號碼牌，請耐心等待。人手不足若無法接電話請見諒。
593106A897,陽光豐年藥局,新北市新莊區豐年街１４號１樓,121.4463,25.03287,(02)22060665,羅氏家用新冠病毒抗原自我檢測套組,69,2022/05/09 08:09:02,無
593106A922,德翰藥局,新北市新莊區四維路１７１巷１、３號１樓,121.4226,25.0215,(02)22025576,羅氏家用新冠病毒抗原自我檢測套組,28,2022/05/09 08:09:02,無
593106A995,美德心藥局,新北市新莊區中平路３６７號１樓,121.4446,25.05226,(02)29989025,羅氏家用新冠病毒抗原自我檢測套組,64,2022/05/09 08:09:02,快篩實名制，每天14:30發號碼牌，持號碼牌依現場順序排隊購買，售完為止。（如物流配送不及，則另行公告）
593106B036,家嘉藥局,新北市新莊區自立街１０３號（１樓）,121.4553,25.04549,(02)89926488,羅氏家用新冠病毒抗原自我檢測套組,15,2022/05/09 08:09:02,今天號碼牌都已發放完畢
593106B189,美康頭前藥局,新北市新莊區化成路３７３之５號１樓,121.4412,25.03785,(02)85219638,羅氏家用新冠病毒抗原自我檢測套組,29,2022/05/09 08:09:02,無
593106B296,廣元藥局,新北市新莊區雙鳳路２號（１樓）,121.4175,25.02688,(02)29044988,羅氏家用新冠病毒抗原自我檢測套組,7,2022/05/09 08:09:02,快篩實名制5／8開始每日17:00販售
5931070044,正宜藥局,新北市樹林區佳園路１段３９號,121.3931,24.97086,(02)26805678,羅氏家用新冠病毒抗原自我檢測套組,35,2022/05/09 08:09:02,無
5931070053,仁一藥局,新北市樹林區中正路６２２號,121.4102,25.016,(02)26893915,羅氏家用新冠病毒抗原自我檢測套組,4,2022/05/09 08:09:02,快篩代售時間自08:30；現場排隊
5931070062,鴻真藥局,新北市樹林區保安街１段２０巷６號,121.4277,24.99363,(02)26828977,羅氏家用新冠病毒抗原自我檢測套組,75,2022/05/09 08:09:02,無
5931070080,耀鴻藥局,新北市樹林區中山路３段７６號,121.3936,24.97239,(02)26808989,羅氏家用新冠病毒抗原自我檢測套組,140,2022/05/09 08:09:02,每天都有發放口罩
5931070099,日弘藥師藥局,新北市樹林區復興路２９號,121.4223,24.9941,(02)26871919,羅氏家用新冠病毒抗原自我檢測套組,22,2022/05/09 08:09:02,快篩到貨時間不定，到貨即售，售完為止
5931070286,協安大藥局,新北市樹林區鎮前街１２６號,121.4248,24.99087,(02)26810386,羅氏家用新冠病毒抗原自我檢測套組,8,2022/05/09 08:09:02,05／29店休
5931070419,暉民西藥局,新北市樹林區千歲街３６號,121.4257,24.99661,(02)26835868,羅氏家用新冠病毒抗原自我檢測套組,93,2022/05/09 08:09:02,週一至週六早上08:00開始發號碼牌.13:00販賣實名制快篩.售完即貼公告告知.
5931071774,澤安藥師藥局,新北市樹林區保安二街２６號１樓,121.4247,24.99465,(02)26872764,羅氏家用新冠病毒抗原自我檢測套組,78,2022/05/09 08:09:02,實名制快篩每日08:00販售
5931071916,立欣藥局,新北市樹林區三福街１６６號,121.4047,25.01619,(02)26764728,羅氏家用新冠病毒抗原自我檢測套組,2,2022/05/09 08:09:02,口罩代售時間 每日下午14:30 號碼牌發放時間14:20 現場排隊
5931071961,綠蘋果藥局,新北市樹林區學勤路５９７號１樓,121.3842,24.94905,(02)89706050,羅氏家用新冠病毒抗原自我檢測套組,69,2022/05/09 08:09:02,無
5931072039,樹林藥師藥局,新北市樹林區鎮前街２４號１樓,121.426,24.99315,(02)26823030,羅氏家用新冠病毒抗原自我檢測套組,1,2022/05/09 08:09:02,無
5931072244,彰安藥局,新北市樹林區千歲街８２號,121.4264,24.99772,(02)26827341,羅氏家用新冠病毒抗原自我檢測套組,45,2022/05/09 08:09:02,5／7起改成『早上八點』 周一到周六現場排隊發放
5931072299,小蜜蜂中西健保藥局,新北市樹林區東榮街１１８號１樓,121.4154,24.9823,(02)86853677,羅氏家用新冠病毒抗原自我檢測套組,72,2022/05/09 08:09:02,快篩試劑發售時間：基本為早上八點   PS：如政府配送不及，發售時間會現場另行公告。
5931072404,伯安綜合藥局,新北市樹林區中華路１０８號１樓,121.4183,24.98074,(02)86856551,羅氏家用新冠病毒抗原自我檢測套組,37,2022/05/09 08:09:02,初一至初五春節休息
5931081305,佑家藥局,新北市鶯歌區中正三路１５１號１樓,121.3367,24.94007,(02)26798282,羅氏家用新冠病毒抗原自我檢測套組,5,2022/05/09 08:09:02,星期一至六，下午1:30發號碼牌   每日提供8份給醫護警消等緊急使用
5931081396,祐康藥局,新北市鶯歌區建國路３６號,121.356,24.95596,(02)26771223,羅氏家用新冠病毒抗原自我檢測套組,55,2022/05/09 08:09:02,快篩代售時段:星期一&四 上午8:30~9:30；星期二三五六 下午3:00~4:00；星期日公休。
5931081458,食在好健康藥局,新北市鶯歌區國慶街１６５號１樓,121.3512,24.95312,(02)26702559,羅氏家用新冠病毒抗原自我檢測套組,72,2022/05/09 08:09:02,實名制快篩販賣時間週一到週四19:00~20:00 （請自備散鈔）
5931081556,易加藥局,新北市鶯歌區尖山路１３７巷４號,121.3469,24.94851,(02)26705686,羅氏家用新冠病毒抗原自我檢測套組,39,2022/05/09 08:09:02,快篩週一至週六早上8:55發號碼牌，9:00開始販售，週日早上9:00-10:00販售
5931090117,大和藥局,新北市三峽區民生街１５０號,121.3722,24.93491,(02)26711010,羅氏家用新冠病毒抗原自我檢測套組,11,2022/05/09 08:09:02,無
5931090180,人來安藥局,新北市三峽區文化路２６６－５號,121.3665,24.93583,(02)26721199,羅氏家用新冠病毒抗原自我檢測套組,37,2022/05/09 08:09:02,營業時間早上8點至中午1點下午5點至晚上9點-快篩早上8點開始過卡賣完為止
5931090279,勝全藥局,新北市三峽區大同路２７之１號１樓,121.3769,24.92836,(02)26736186,羅氏家用新冠病毒抗原自我檢測套組,43,2022/05/09 08:09:02,每日8:00-22:00營業，星期日11:00-17:00休息；快篩早上8點開始過卡賣完為止
5931091623,兆康藥局,新北市三峽區中華路２２號１樓,121.3742,24.93265,(02)26717875,羅氏家用新冠病毒抗原自我檢測套組,13,2022/05/09 08:09:02,實名制快篩早上9:00開始發放號碼牌
5931091810,誠美藥局,新北市三峽區復興路１０６號１樓,121.3727,24.9378,(02)26718131,羅氏家用新冠病毒抗原自我檢測套組,37,2022/05/09 08:09:02,星期1~6早上9點現場排隊購買口罩，4／4~4／5不販售防疫口罩
5931091892,三峽藥局,新北市三峽區介壽路１段２７號１樓,121.3757,24.93321,(02)26738868,羅氏家用新冠病毒抗原自我檢測套組,1,2022/05/09 08:09:02,快篩實名制，每天16:00開始販售，售完為止。
5931092068,益銘藥師藥局,新北市三峽區大德路１８１號１樓,121.3753,24.94573,(02)26723662,羅氏家用新冠病毒抗原自我檢測套組,1,2022/05/09 08:09:02,無
5931092200,金美藥局,新北市三峽區大同路２３８號１樓,121.3663,24.92573,(02)86715859,羅氏家用新冠病毒抗原自我檢測套組,2,2022/05/09 08:09:02,無
5931100047,松和大藥局,新北市淡水區英專路９２號,121.4459,25.17167,(02)26203698,羅氏家用新冠病毒抗原自我檢測套組,3,2022/05/09 08:09:02,口罩代售:每週一~每週五10:30發放號碼牌
5931100154,尚運藥局,新北市淡水區學府路５１巷１弄２０號,121.4473,25.16892,(02)26225149,羅氏家用新冠病毒抗原自我檢測套組,27,2022/05/09 08:09:02,無
5931100163,昇運藥局,新北市淡水區中山路１５７－１號,121.4405,25.17287,(02)26222083,羅氏家用新冠病毒抗原自我檢測套組,51,2022/05/09 08:09:02,無
5931101704,聖天藥局,新北市淡水區重建街２１８號,121.4413,25.1748,(02)26215677,羅氏家用新冠病毒抗原自我檢測套組,1,2022/05/09 08:09:02,實名制快篩試劑正常到貨早上9:00販售 星期日休息
5931101973,良順藥局,新北市淡水區中山北路１段２４號１樓,121.4417,25.1751,(02)26218111,羅氏家用新冠病毒抗原自我檢測套組,21,2022/05/09 08:09:02,快篩販售時間為週一至週六每日上午10:00. 週日不販售
5931102078,躍獅竹圍藥局,新北市淡水區民生路４６號,121.4617,25.13781,(02)28090565,羅氏家用新冠病毒抗原自我檢測套組,1,2022/05/09 08:09:02,晚上7點販售快篩
5931102103,四季寶健保藥局,新北市淡水區新市一路３段１１７－１號（含夾層）,121.4468,25.18314,(02)26283199,羅氏家用新冠病毒抗原自我檢測套組,2,2022/05/09 08:09:02,無
5931102372,日揚藥局,新北市淡水區民族路３０巷５號,121.4612,25.13623,(02)26242059,羅氏家用新冠病毒抗原自我檢測套組,2,2022/05/09 08:09:02,5／7（六）下午1:00快篩實名制。5／8（日）公休無代售快篩實名制。
5931102425,日森人文藥局淡海店,新北市淡水區新市五路３段３８６號１樓,121.4388,25.19728,(02)26221313,羅氏家用新冠病毒抗原自我檢測套組,1,2022/05/09 08:09:02,無
5931111755,幸福藥局,新北市汐止區大同路２段３３２號１．２樓,121.6565,25.06694,(02)26490127,羅氏家用新冠病毒抗原自我檢測套組,77,2022/05/09 08:09:02,星期日暫停販售快篩試劑
5931112270,汐心藥局,新北市汐止區福德一路１５０號,121.6366,25.06687,(02)86932859,羅氏家用新冠病毒抗原自我檢測套組,65,2022/05/09 08:09:02,無
5931112369,汐止立欣藥局,新北市汐止區汐萬路二段２４９號１樓,121.6464,25.08835,(02)26464546,羅氏家用新冠病毒抗原自我檢測套組,54,2022/05/09 08:09:02,每日早上8:00販售實名制快篩。週日亦有販售。請先確認好購買資格（單、雙號及是否重複購買）。
5931112789,富康東科藥局,新北市汐止區新台五路１段９６號Ｃ棟１樓Ｃ１５號,121.6483,25.06047,(02)26969222,羅氏家用新冠病毒抗原自我檢測套組,138,2022/05/09 08:09:02,每日九點至下午六點開放購買口罩，周六周日公休
5931113080,宗齡藥局,新北市汐止區康寧街４５９巷２２號１樓,121.6313,25.06974,(02)26952788,羅氏家用新冠病毒抗原自我檢測套組,25,2022/05/09 08:09:02,週日公休，週一上午9點30分開始販售實名制快篩，現場排隊無號碼牌，庫存不準勿參考。
5931113115,躍獅大同藥局,新北市汐止區新興路７號１樓,121.6565,25.06493,(02)26418399,羅氏家用新冠病毒抗原自我檢測套組,30,2022/05/09 08:09:02,每日15:30販售實名制快篩
5931113133,祐欣藥局,新北市汐止區中興路２４０號１樓,121.6296,25.06805,(02)26950778,羅氏家用新冠病毒抗原自我檢測套組,78,2022/05/09 08:09:02,實名制快篩-每日早上9點開始發放號碼牌，發完78張號碼即=售完!! 請不要看帳面庫存!!
5931120049,本平藥局,新北市瑞芳區瑞芳街４５號,121.8076,25.10913,(02)24972167,羅氏家用新冠病毒抗原自我檢測套組,2,2022/05/09 08:09:02,無
5931121304,揚明藥局,新北市瑞芳區民族街２號１樓,121.8069,25.1076,(02)24970925,羅氏家用新冠病毒抗原自我檢測套組,68,2022/05/09 08:09:02,快篩代售時間自08:00~12:00
5931130241,協成藥局,新北市土城區延吉街３３３號,121.4652,24.98411,(02)22653212,羅氏家用新冠病毒抗原自我檢測套組,17,2022/05/09 08:09:02,快篩大約早上10點賣 現場排隊不發號碼牌
5931130358,盛安大藥局,新北市土城區中央路１段２５８號,121.4442,24.98436,(02)22668525,羅氏家用新冠病毒抗原自我檢測套組,8,2022/05/09 08:09:02,無
5931131864,學府實和藥局,新北市土城區學府路１段１２１號,121.4553,24.98727,(02)22612111,羅氏家用新冠病毒抗原自我檢測套組,75,2022/05/09 08:09:02,無
5931131882,裕達藥局,新北市土城區延吉街１７１號,121.4697,24.98577,(02)22739328,羅氏家用新冠病毒抗原自我檢測套組,5,2022/05/09 08:09:02,下午2點開賣快篩，星期日休息
5931131908,璨鴻藥局,新北市土城區延和路１９１號,121.4692,24.99035,(02)82622588,羅氏家用新冠病毒抗原自我檢測套組,66,2022/05/09 08:09:02,快篩發放時間星期一至五
5931132263,立新藥局,新北市土城區光明街５號１樓,121.4421,24.97475,(02)82626111,羅氏家用新冠病毒抗原自我檢測套組,4,2022/05/09 08:09:02,快篩試劑下午3點開始銷售
5931132343,誠安藥局,新北市土城區中央路４段３６號１樓,121.4207,24.96088,(02)22677737,羅氏家用新冠病毒抗原自我檢測套組,156,2022/05/09 08:09:02,快篩代售時段：平日晚上8點，售完為止
5931132594,元蒼藥局,新北市土城區學府路１段６９號１樓,121.4571,24.98825,(02)22733868,羅氏家用新冠病毒抗原自我檢測套組,53,2022/05/09 08:09:02,無
5931132610,久安藥局,新北市土城區廣明街７０號１樓,121.455,24.9938,(02)89671097,羅氏家用新冠病毒抗原自我檢測套組,2,2022/05/09 08:09:02,每日依現場排隊於9:30開始販售，售完為止。5／1號勞動節 無販售
5931132807,健業藥局,新北市土城區中央路２段２２３－１０號,121.4407,24.97312,(02)22704798,羅氏家用新冠病毒抗原自我檢測套組,78,2022/05/09 08:09:02,無
5931132816,大康藥局,新北市土城區學府路１段７２號２樓,121.4566,24.98829,(02)22738004,羅氏家用新冠病毒抗原自我檢測套組,45,2022/05/09 08:09:02,實名制快篩早上8點開始販售
5931132950,美康藥妝藥局,新北市土城區延吉街２５４號１樓,121.4664,24.98465,(02)22616868,羅氏家用新冠病毒抗原自我檢測套組,44,2022/05/09 08:09:02,實名制快篩前一天若有到貨，則隔日三點販售
5931133037,國安健保藥局,新北市土城區延和路１０９號１樓,121.4678,24.99033,(02)22614933,羅氏家用新冠病毒抗原自我檢測套組,101,2022/05/09 08:09:02,無
5931133199,陽光活力藥局,新北市土城區延和路１０３號１樓,121.4675,24.99024,(02)22610590,羅氏家用新冠病毒抗原自我檢測套組,78,2022/05/09 08:09:02,實名制快篩：周一到周六早上八點半，周日早上九點半販售
5931133331,城安大藥局,新北市土城區金城路３段４０號,121.4656,24.98639,(02)22646561,羅氏家用新冠病毒抗原自我檢測套組,80,2022/05/09 08:09:02,快篩代售時間晚上8:30
5931133564,城恩藥局,新北市土城區學成路３４號１樓,121.4527,24.9873,(02)22735808,羅氏家用新冠病毒抗原自我檢測套組,1,2022/05/09 08:09:02,無
5931133591,土城人藥局,新北市土城區中央路２段２１３巷２號１樓,121.4413,24.97392,(02)22705068,羅氏家用新冠病毒抗原自我檢測套組,1,2022/05/09 08:09:02,無
5931140096,華信藥局,新北市蘆洲區民族路１５４號１樓,121.4796,25.08611,(02)22898116,羅氏家用新冠病毒抗原自我檢測套組,35,2022/05/09 08:09:02,特殊休假，會門口張貼公告
5931142303,康群生活藥局,新北市蘆洲區中正路１０５號１樓,121.4698,25.0841,(02)82835630,羅氏家用新冠病毒抗原自我檢測套組,3,2022/05/09 08:09:02,快篩領取時間每日14:00，到貨時間不一定，是否發放請上臉書粉專查詢!!
5931142572,幸安藥局,新北市蘆洲區中山二路５３號１樓,121.4739,25.08204,(02)82835389,羅氏家用新冠病毒抗原自我檢測套組,66,2022/05/09 08:09:02,507（六）508（ 日）無販售 勿排隊   509（一）早上九點販售（本月507 508 515 522 528 529無販售）
5931142849,康泉藥師藥局,新北市蘆洲區集賢路２２２－４號１樓,121.4827,25.08691,(02)28476990,羅氏家用新冠病毒抗原自我檢測套組,78,2022/05/09 08:09:02,早上8:10開始販售實名制快篩，周日公休
5931143266,中美永結藥局,新北市蘆洲區長安街１８５號１樓,121.4605,25.08169,(02)22887676,羅氏家用新冠病毒抗原自我檢測套組,36,2022/05/09 08:09:02,無
5931143355,昭陽藥局,新北市蘆洲區復興路２３０號１樓,121.4793,25.08936,(02)82867077,羅氏家用新冠病毒抗原自我檢測套組,11,2022/05/09 08:09:02,無
5931150065,成泰藥局,新北市五股區成泰路１段１４３號,121.4354,25.07308,(02)22924305,羅氏家用新冠病毒抗原自我檢測套組,45,2022/05/09 08:09:02,無
5931150163,德泰藥局,新北市五股區成泰路１段９號,121.4336,25.06674,(02)29095927,羅氏家用新冠病毒抗原自我檢測套組,78,2022/05/09 08:09:02,無
5931151302,宏安藥局,新北市五股區成泰路２段１３６號,121.4382,25.08369,(02)22915932,羅氏家用新冠病毒抗原自我檢測套組,78,2022/05/09 08:09:02,口罩販售時間:每日08:15~23:00售完為止 星期日如果前一日還有庫存，當日照常販售
5931151437,虹元藥局,新北市五股區自強路５６號,121.4331,25.07364,(02)22925067,羅氏家用新冠病毒抗原自我檢測套組,2,2022/05/09 08:09:02,無
5931151482,源昇藥局,新北市五股區五股里成泰路２段６１號２樓,121.4379,25.0836,(02)82952027,羅氏家用新冠病毒抗原自我檢測套組,37,2022/05/09 08:09:02,無
5931151660,祐康藥師藥局,新北市五股區五福路３６號１樓,121.4339,25.08922,(02)82921335,羅氏家用新冠病毒抗原自我檢測套組,30,2022/05/09 08:09:02,無
5931160132,健康藥師藥局,新北市泰山區明志路２段３２３號,121.4264,25.046,(02)22972121,羅氏家用新冠病毒抗原自我檢測套組,28,2022/05/09 08:09:02,周日公休
5931160141,日泰藥局,新北市泰山區泰林路２段２２７號,121.4323,25.06194,(02)29095989,羅氏家用新冠病毒抗原自我檢測套組,22,2022/05/09 08:09:02,下午兩點開始販售。每日提供10份確診個案，詳情上粉絲頁，母親節停售
5931161344,北安藥妝藥局,新北市泰山區明志路２段６１號,121.4292,25.0526,(02)22967199,羅氏家用新冠病毒抗原自我檢測套組,31,2022/05/09 08:09:02,早上9:30開始發號碼牌
5931161460,紅葉藥局,新北市泰山區楓江路８號２樓,121.4335,25.06244,(02)22960328,羅氏家用新冠病毒抗原自我檢測套組,1,2022/05/09 08:09:02,無
5931161513,苗園健保特約藥局,新北市泰山區仁愛路９２號１樓,121.4331,25.05534,(02)22970736,羅氏家用新冠病毒抗原自我檢測套組,63,2022/05/09 08:09:02,每日下午兩點販售，每日限量70組，另8份預留緊急狀況使用。
5931161577,立赫輔大藥局,新北市泰山區貴子路６５號１樓,121.4304,25.03971,(02)29060306,羅氏家用新冠病毒抗原自我檢測套組,42,2022/05/09 08:09:02,營業時間：週一~週五，9:30-19:30，5／9 （一）9:30開始發號碼牌
5931161620,華特藥局,新北市泰山區明志路１段２６０號１樓,121.4321,25.06052,(02)29095662,羅氏家用新冠病毒抗原自我檢測套組,156,2022/05/09 08:09:02,5／7（六）-5／8（日）人力調度停止販售快篩 大家辛苦了 多多關心身邊的家人 加油 我們星期一再繼續奮鬥!!
5931170129,麗園藥局,新北市林口區麗園一街６巷１－４號１Ｆ,121.3766,25.07012,(02)26009405,羅氏家用新冠病毒抗原自我檢測套組,31,2022/05/09 08:09:02,無
5931171671,欣穎藥局,新北市林口區文化二路１段５３５號１樓,121.3843,25.0829,(02)26069786,羅氏家用新冠病毒抗原自我檢測套組,6,2022/05/09 08:09:02,實名制快篩:下午3點-5點。只收紙鈔。周日公休
5931171733,長欣藥局,新北市林口區中山路１８８號１樓之３,121.3894,25.07908,(02)26013171,羅氏家用新冠病毒抗原自我檢測套組,43,2022/05/09 08:09:02,快篩開賣時間早上9點10分 周日公休  身障.警消醫護可優先購買
5931171742,唯恩藥局,新北市林口區麗園一街９巷１號１樓之２,121.3768,25.07139,(02)26005805,羅氏家用新冠病毒抗原自我檢測套組,78,2022/05/09 08:09:02,快篩發放固定13點，領取號碼牌
5931171831,沐霖藥局,新北市林口區文化三路２段２８６號１樓,121.3775,25.08304,(02)26032086,羅氏家用新冠病毒抗原自我檢測套組,78,2022/05/09 08:09:02,~週日公休~
5931231207,大愛嘉安藥局,新北市八里區中山路２段４２２號１樓,121.3999,25.1476,(02)26107790,羅氏家用新冠病毒抗原自我檢測套組,62,2022/05/09 08:09:02,無
5931270026,仁又堂藥局,新北市金山區信義路１７號,121.6373,25.22091,(02)24982468,羅氏家用新冠病毒抗原自我檢測套組,63,2022/05/09 08:09:02,無
5931271103,躍獅五福藥局,新北市金山區中山路９９號１樓,121.6399,25.21925,(02)24081608,羅氏家用新冠病毒抗原自我檢測套組,23,2022/05/09 08:09:02,口罩販售時段:早上八點至售完為止
5931281074,北海岸藥局,新北市萬里區瑪鍊路９８號,121.6906,25.17868,(02)24922022,羅氏家用新冠病毒抗原自我檢測套組,23,2022/05/09 08:09:02,快篩劑每天早上8點開賣
5932010019,家佳藥局,桃園市桃園區瑞慶里莊一街８０號,121.2937,25.02199,(03)3175618,羅氏家用新冠病毒抗原自我檢測套組,96,2022/05/09 08:09:02,藥局不看診，周休二日
5932010202,安琪兒藥局,桃園市桃園區莊敬路二段７６號１樓,121.2934,25.02282,(03)3016965,羅氏家用新冠病毒抗原自我檢測套組,78,2022/05/09 08:09:02,無
5932010328,七加恩聯合藥局,桃園市桃園區中埔二街１２３號１樓,121.2959,25.01191,(03)3029302,羅氏家用新冠病毒抗原自我檢測套組,78,2022/05/09 08:09:02,1-5，8:15 發號碼牌  W6 8:45  庫存量不等於實際量
5932010560,均康藥局,桃園市桃園區中聖里國鼎一街２７號１樓之４,121.2875,24.98726,(03)2170172,羅氏家用新冠病毒抗原自我檢測套組,41,2022/05/09 08:09:02,快篩販售時間 : 早上8:00
5932010917,幸運草健保藥局,桃園市桃園區縣府路２８０號,121.2994,24.99316,(03)3379977,羅氏家用新冠病毒抗原自我檢測套組,32,2022/05/09 08:09:02,快篩販售時間：平日8:00起售完為止，週六9:00開始
5932011147,維格藥局,桃園市桃園區大興西路二段１２９號,121.2974,25.01048,(03)3016639,羅氏家用新冠病毒抗原自我檢測套組,78,2022/05/09 08:09:02,營業時間:8:30-12:00、14:00-22:00，快篩9:00販售
5932011585,北醫藥局,桃園市桃園區中正路８５４號,121.3011,25.01082,(03)3575806,羅氏家用新冠病毒抗原自我檢測套組,28,2022/05/09 08:09:02,快篩販賣時段：配送後販賣
5932011870,永祥大藥局,桃園市桃園區永安路５２８號,121.2986,25.00181,(03)3337161,羅氏家用新冠病毒抗原自我檢測套組,2,2022/05/09 08:09:02,口罩販賣時段：週一至週六早上9點
5932012402,聖昌藥師藥局,桃園市桃園區莊敬里中正路１２３８號１樓,121.2975,25.01898,(03)3266654,羅氏家用新冠病毒抗原自我檢測套組,78,2022/05/09 08:09:02,每日早上8:15開始賣快篩試劑
5932012573,悅藥坊人文藥局,桃園市桃園區桃智路６號,121.2948,24.96505,(03)3761688,羅氏家用新冠病毒抗原自我檢測套組,1,2022/05/09 08:09:02,快篩若有到貨，販售時段為：（一）~（六）17:00-19:00；（日）中午12:30
5932012591,迦南藥局,桃園市桃園區國聖一街６１號１樓之１,121.2885,24.98721,(03)3609938,羅氏家用新冠病毒抗原自我檢測套組,58,2022/05/09 08:09:02,快篩販售時間:週一至週五晚上7點半，六日不販售。
5932012742,益兒康藥局,桃園市桃園區國際路二段４０號,121.2887,24.99146,(03)3798851,羅氏家用新冠病毒抗原自我檢測套組,35,2022/05/09 08:09:02,實名制快篩販售時間:周一至周六08:00開始販售，售完為止
5932012813,桃園大興藥局,桃園市桃園區大興西路二段７６巷３號,121.2984,25.01183,(03)3013222,羅氏家用新冠病毒抗原自我檢測套組,18,2022/05/09 08:09:02,快篩實名制，每天16:00開始販售，售完為止。
5932013034,永明藥師藥局,桃園市桃園區永安路２６４號,121.304,24.99839,(03)3343606,羅氏家用新冠病毒抗原自我檢測套組,130,2022/05/09 08:09:02,實名制快篩試劑，早上8點多開始依衛福部規範憑健保卡，一人一卡一份（5劑入），每份500元。售出後不退換。
5932013114,仁悅藥師藥局,桃園市桃園區中山路６０號１樓,121.3116,24.99496,(03)3361718,羅氏家用新冠病毒抗原自我檢測套組,55,2022/05/09 08:09:02,快篩販售時間  早上08:00 ； 星期日停售
5932013392,桃園中正藥局,桃園市桃園區中正路３７３號,121.3079,24.99955,(03)3381600,羅氏家用新冠病毒抗原自我檢測套組,13,2022/05/09 08:09:02,快篩實名制，每天16:00開始販售，售完為止。
5932013409,欣立藥局,桃園市桃園區龍安街１８１－１號１樓,121.2782,24.99294,(03)3792001,羅氏家用新冠病毒抗原自我檢測套組,59,2022/05/09 08:09:02,快篩代售時間：晚上6點至銷售完畢。
5932013650,金安藥局,桃園市桃園區南華街１４８號,121.3077,24.99269,(03)3398088,羅氏家用新冠病毒抗原自我檢測套組,12,2022/05/09 08:09:02,無
5932013687,桃園春日藥局,桃園市桃園區春日路８７８號,121.3096,25.01561,(03)3580101,羅氏家用新冠病毒抗原自我檢測套組,80,2022/05/09 08:09:02,快篩實名制，每天16:00開始販售，售完為止。
5932014077,新資生民安大藥局,桃園市桃園區民安路９８號１樓,121.2997,24.99691,(03)3310098,羅氏家用新冠病毒抗原自我檢測套組,27,2022/05/09 08:09:02,每日14:00開賣.售完為止.臉書粉專會公告最新訊息.可關注
5932014102,小飛象藥局,桃園市桃園區慈文路１９２號,121.3041,25.00907,(03)3552771,羅氏家用新冠病毒抗原自我檢測套組,78,2022/05/09 08:09:02,5／8完售，5／9[21:30]開賣78份，再打來問就掛電話。不發號碼牌請自行計算人數。即起調劑確診者視訊處方，請自保。
5932014111,鴻發藥師藥局,桃園市桃園區大有路５４３號,121.3171,25.0149,(03)3582468,羅氏家用新冠病毒抗原自我檢測套組,78,2022/05/09 08:09:02,實聯快篩:早上09:30發放號碼牌，限當日下午2~4點憑牌購買，逾時不候請見諒
5932014371,杏一桃園敏盛藥局,桃園市桃園區經國路１１８號,121.3065,25.01545,(03)3254973,羅氏家用新冠病毒抗原自我檢測套組,10,2022/05/09 08:09:02,快篩實名制販售時間請依門市公告。  藥師諮詢服務時間平日10:00-19:00。
5932014433,樺品藥局,桃園市桃園區中華路４８號１樓,121.3104,24.99093,(03)3476667,羅氏家用新冠病毒抗原自我檢測套組,47,2022/05/09 08:09:02,營業時間:9:30-21:30，11:00取號碼牌購買快篩
5932014442,新光藥局,桃園市桃園區大有路１７２號,121.3209,25.00752,(03)3310133,羅氏家用新冠病毒抗原自我檢測套組,116,2022/05/09 08:09:02,營業時間:週一至週五10:00-22:00；快篩下午2:00開始，賣完為止，不發號碼牌
5932018539,新永安藥師藥局,桃園市桃園區永安路４６６號,121.2994,25.00081,(03)3471180,羅氏家用新冠病毒抗原自我檢測套組,61,2022/05/09 08:09:02,快篩實名制星期一~星期日早上8:30開賣，賣完為止，謝謝!
5932018548,五代全民藥局,桃園市桃園區中山路九十七號,121.3107,24.99424,(03)3355001,羅氏家用新冠病毒抗原自我檢測套組,40,2022/05/09 08:09:02,快篩購買時間08:00起
5932018628,民富大藥局,桃園市桃園區大有路４８８號,121.3186,25.01277,(03)3469976,羅氏家用新冠病毒抗原自我檢測套組,74,2022/05/09 08:09:02,快篩販賣時段：暫定週一至週五14:00-15:00， 週六.日不發放以現場公告時間為主
593201A284,康泰藥局,桃園市桃園區大業路一段三二三號,121.3127,25.01136,(03)3588299,羅氏家用新冠病毒抗原自我檢測套組,2,2022/05/09 08:09:02,上午 8:50領號碼牌，11:00前購買，逾時將售予現場民眾
593201A506,永忻藥局,桃園市桃園區大興路一九三號一樓,121.312,25.01564,(03)3585569,羅氏家用新冠病毒抗原自我檢測套組,76,2022/05/09 08:09:02,口罩販賣時段：週一~週六 15:00~1700
5932020324,回生藥局,桃園市中壢區福州二街４０８號,121.232,24.9676,(03)4616483,羅氏家用新冠病毒抗原自我檢測套組,78,2022/05/09 08:09:02,口罩販賣時段：早上9點，以藥局當日公告為主
5932020360,日進藥局,桃園市中壢區中山東路二段１５６號,121.2394,24.95276,(03)4569132,羅氏家用新冠病毒抗原自我檢測套組,59,2022/05/09 08:09:02,政府實名制快篩販售時間:每日早上08:00~售完為止！
5932020575,國泰藥局,桃園市中壢區中正路３４２號,121.1939,24.97931,(03)4937136,羅氏家用新冠病毒抗原自我檢測套組,8,2022/05/09 08:09:02,無
5932021090,新生藥師藥局,桃園市中壢區民權路５２號,121.2172,24.95608,(03)4919796,羅氏家用新冠病毒抗原自我檢測套組,5,2022/05/09 08:09:02,販賣時段：0840
5932021269,優良藥局,桃園市中壢區長春路２０號,121.2499,24.97907,(03)4612336,羅氏家用新冠病毒抗原自我檢測套組,1,2022/05/09 08:09:02,快篩販售時間10:00
5932021401,懷仁藥師健保藥局,桃園市中壢區中北路９３號１樓,121.238,24.95653,(03)4378466,羅氏家用新冠病毒抗原自我檢測套組,12,2022/05/09 08:09:02,實名制快篩銷售\5月7號更改時間為下午5:00\星期日沒有販售
5932021830,億源藥局,桃園市中壢區林森路１７６號,121.2268,24.94399,(03)4595111,羅氏家用新冠病毒抗原自我檢測套組,68,2022/05/09 08:09:02,8:30-21:00／口罩販賣時段：08:30開始，售完為止
5932022159,躍獅新明藥局,桃園市中壢區新明路６６號１樓,121.215,24.95868,(03)2813361,羅氏家用新冠病毒抗原自我檢測套組,10,2022/05/09 08:09:02,快篩販賣時段：14:00~售完為止，現場排隊 ， 星期天沒有販售快篩
5932022257,星康生活藥局,桃園市中壢區中美路二段94號,121.2218,24.96005,(03)4252869,羅氏家用新冠病毒抗原自我檢測套組,2,2022/05/09 08:09:02,5／7-5／9 實名制快篩14:00販售  5／10之後另行公佈販賣時間
5932022631,中壢中正藥局,桃園市中壢區中正路３６３、３６５號,121.2163,24.95532,(03)4014100,羅氏家用新冠病毒抗原自我檢測套組,78,2022/05/09 08:09:02,快篩實名制，每天16:00開始販售，售完為止。
5932023012,鴻安中西藥局,桃園市中壢區新中北路二段１９１號１樓,121.2625,24.95597,(03)4520615,羅氏家用新冠病毒抗原自我檢測套組,46,2022/05/09 08:09:02,快篩1030-1130。週一到周日都有。
5932023021,辰鴻藥局,桃園市中壢區環中東路１１０號,121.2585,24.96527,(03)4638639,羅氏家用新冠病毒抗原自我檢測套組,156,2022/05/09 08:09:02,周一至週六 9:00開始，政府滾動式調整配貨
5932023281,裕翔藥局,桃園市中壢區榮民路４８號１樓,121.2606,24.96956,(03)4355499,羅氏家用新冠病毒抗原自我檢測套組,58,2022/05/09 08:09:02,快篩下午五點販售
5932023370,中力藥局,桃園市中壢區復興路５４號,121.2249,24.95742,(03)4273119,羅氏家用新冠病毒抗原自我檢測套組,78,2022/05/09 08:09:02,05／01 ，全日休息。
5932023432,敏康藥局,桃園市中壢區福德路３４號之１樓,121.2581,24.97485,(03)4611961,羅氏家用新冠病毒抗原自我檢測套組,60,2022/05/09 08:09:02,快篩實名制，每日早上八點販售，售完為止
5932023512,大順藥局,桃園市中壢區興仁路三段５６號,121.2642,24.95469,(03)4654675,羅氏家用新冠病毒抗原自我檢測套組,74,2022/05/09 08:09:02,5／7起 快篩實名制，早上八點販售，售完為止。
5932023558,德春藥局,桃園市中壢區中山路４４５號,121.2165,24.95668,(03)4933495,羅氏家用新冠病毒抗原自我檢測套組,14,2022/05/09 08:09:02,快篩試劑6AM發號碼牌，8AM領試劑
5932023647,樂謙藥師藥局,桃園市中壢區龍東路１３４號,121.2522,24.92929,(03)4662775,羅氏家用新冠病毒抗原自我檢測套組,46,2022/05/09 08:09:02,實名快篩每日下午2點、晚上6點 各發39份
5932023665,生源藥局,桃園市中壢區中光路７１號,121.2275,24.95668,(03)4221606,羅氏家用新冠病毒抗原自我檢測套組,78,2022/05/09 08:09:02,快篩販賣時段：08:30～10:30
5932023889,華勛藥局,桃園市中壢區華勛街１１２、１１４號,121.2597,24.95065,(03)4161881,羅氏家用新冠病毒抗原自我檢測套組,1,2022/05/09 08:09:02,快篩實名制，每天16:00開始販售，售完為止。
5932023987,薰衣草藥局,桃園市中壢區新生路３３５號１樓,121.2231,24.96495,(03)4253330,羅氏家用新冠病毒抗原自我檢測套組,1,2022/05/09 08:09:02,週日無販售，其餘販售時間依粉絲團公告
5932024028,天晟社區藥局,桃園市中壢區延平路１５３號１樓,121.2292,24.9627,(03)4629292,羅氏家用新冠病毒抗原自我檢測套組,47,2022/05/09 08:09:02,無
