醫事機構代碼,醫事機構名稱,醫事機構地址,經度,緯度,醫事機構電話,廠牌項目,快篩試劑截至目前結餘存貨數量,來源資料時間,備註
5901012963,綠之家藥局,臺北市松山區延壽街４２８號,121.5562,25.0562,(02)25289595,羅氏家用新冠病毒抗原自我檢測套組,78,2022/05/01 15:40:02,禮拜日不販售快篩
5901013442,松山八德藥局,臺北市松山區八德路２段４００號,121.5466,25.04804,(02)27782773,羅氏家用新冠病毒抗原自我檢測套組,78,2022/05/01 15:40:02,快篩實名制，每天16:00開始販售，售完為止。
5901020689,四維藥局,臺北市大安區復興南路２段１５１巷４３號１樓,121.5454,25.02846,(02)27094222,羅氏家用新冠病毒抗原自我檢測套組,37,2022/05/01 15:40:02,假日可先打電話聯絡
5901023386,弘昇藥局,臺北市大安區復興南路１段１０７巷３２號,121.5458,25.04349,(02)27110061,羅氏家用新冠病毒抗原自我檢測套組,7,2022/05/01 15:40:02,上午11點以後至晚上11點
5901024525,國泰維康藥局,臺北市大安區仁愛路４段２６６巷１５弄２０號,121.5541,25.03654,(02)27542185,羅氏家用新冠病毒抗原自我檢測套組,11,2022/05/01 15:40:02,星期一到星期六下午3點到5點販賣實名制快篩（不發號碼牌）
5901024838,昶青藥局,臺北市大安區濟南路３段２２之１號,121.5346,25.04008,(02)27515678,羅氏家用新冠病毒抗原自我檢測套組,78,2022/05/01 15:40:02,每天下午13:00販售快篩實名制
5901025031,中力信義藥局,臺北市大安區信義路４段５１號（１樓）,121.545,25.03354,(02)23250266,羅氏家用新冠病毒抗原自我檢測套組,78,2022/05/01 15:40:02,下午一點到三點販售實名制快篩
5901090154,柯藥局,臺北市大同區重慶北路３段３３５巷６號,121.5144,25.07452,(02)25948515,羅氏家用新冠病毒抗原自我檢測套組,94,2022/05/01 15:40:02,库存已零如何歸零
5901092130,大同民生藥局,臺北市大同區民生西路１２８號１樓、２樓及１３０號１樓、２樓,121.5191,25.05734,(02)25558886,羅氏家用新冠病毒抗原自我檢測套組,78,2022/05/01 15:40:02,快篩實名制，每天16:00開始販售，售完為止。
5901100333,明美藥局,臺北市中山區長春路６９號,121.5266,25.05502,(02)25365419,羅氏家用新冠病毒抗原自我檢測套組,82,2022/05/01 15:40:02,口罩周一至周五，16:30-18:30販售
5901100431,長生藥局,臺北市中山區松江路３６２巷５５號１樓,121.5313,25.06207,(02)25816210,羅氏家用新冠病毒抗原自我檢測套組,1,2022/05/01 15:40:02,無
5901101321,文德藥局,臺北市中山區龍江路３５６巷１９號１樓,121.5401,25.06607,(02)25181178,羅氏家用新冠病毒抗原自我檢測套組,17,2022/05/01 15:40:02,無
5901102597,德惠藥局,臺北市中山區德惠街１２２號,121.53,25.06652,(02)25971131,羅氏家用新冠病毒抗原自我檢測套組,54,2022/05/01 15:40:02,每日下午3點30分開始販售快篩實名制
5901103352,美康正康藥局,臺北市中山區北安路６１６之１號、６１８號２樓之１,121.549,25.08243,(02)25323077,羅氏家用新冠病毒抗原自我檢測套組,78,2022/05/01 15:40:02,實名制快篩:14:30~售完
5901103629,十二願藥局,臺北市中山區林森北路３０９號,121.5256,25.05588,(02)25311223,羅氏家用新冠病毒抗原自我檢測套組,80,2022/05/01 15:40:02,快篩晚上8點開始發放.營業時間下午1點至凌晨3點
5901103656,大樹龍江藥局,臺北市中山區龍江路２４２號,121.5406,25.05889,(02)25035666,羅氏家用新冠病毒抗原自我檢測套組,78,2022/05/01 15:40:02,國定假日仍執行調劑業務
5901103745,吉林藥局,臺北市中山區吉林路３７１號（１樓）,121.5305,25.06511,(02)25865990,羅氏家用新冠病毒抗原自我檢測套組,78,2022/05/01 15:40:02,快篩實名制，每天16:00開始販售，售完為止。
5901103807,專品龍江藥局,臺北市中山區龍江路３１１號１樓,121.5409,25.06127,(02)25178870,羅氏家用新冠病毒抗原自我檢測套組,8,2022/05/01 15:40:02,實名制快篩下午三點開始發號碼牌販售
5901112100,盧狄聯合藥局,臺北市內湖區康寧路３段１８９巷５７號,121.6129,25.07133,(02)26308897,羅氏家用新冠病毒抗原自我檢測套組,78,2022/05/01 15:40:02,營業時間早上9點至晚上8點，週六上半天 **快篩實名制08:00開賣 **
5901112351,康信藥局,臺北市內湖區民權東路６段２９６巷２９號,121.6062,25.07203,(02)26342088,羅氏家用新冠病毒抗原自我檢測套組,78,2022/05/01 15:40:02,兒童口罩:全天供應.成人口罩發放時間:下午4:00.售完為止
5901113661,內湖藥局,臺北市內湖區康寧路１段１１６號１樓,121.5934,25.07948,(02)27940545,羅氏家用新冠病毒抗原自我檢測套組,77,2022/05/01 15:40:02,快篩實名制，每天16:00開始販售，售完為止。
5901122115,上丞藥師藥局,臺北市南港區成福路１０號１樓,121.5859,25.04574,(02)26535589,羅氏家用新冠病毒抗原自我檢測套組,16,2022/05/01 15:40:02,實名制快篩下午三點開賣，無發放號碼牌
5901150548,田倉藥局,臺北市士林區士東路１２４號,121.5302,25.11219,(02)88662188,羅氏家用新冠病毒抗原自我檢測套組,78,2022/05/01 15:40:02,每日19:00（傍晚7點）開始販售.
5901153585,德行春天生活藥局,臺北市士林區德行東路７６號,121.5275,25.1073,(02)28380306,羅氏家用新冠病毒抗原自我檢測套組,2,2022/05/01 15:40:02,下午2點40持健保卡領號碼牌販售快篩到晚上10點售完為止
5901153665,康佑藥局,臺北市士林區延平北路５段１７６號,121.5103,25.08299,(02)28119981,羅氏家用新冠病毒抗原自我檢測套組,78,2022/05/01 15:40:02,實名制快篩9點開始
5901153941,士東藥局,臺北市士林區士東路９１巷３號,121.5291,25.11256,(02)28760588,羅氏家用新冠病毒抗原自我檢測套組,78,2022/05/01 15:40:02,快篩實名制，每天16:00開始販售，售完為止。
5901153996,文昌春天藥局,臺北市士林區文昌路４４號（１樓）,121.5216,25.09562,(02)28838539,羅氏家用新冠病毒抗原自我檢測套組,4,2022/05/01 15:40:02,無
5901160099,進春藥局,臺北市北投區明德路１５１號,121.5206,25.11086,(02)28216938,羅氏家用新冠病毒抗原自我檢測套組,206,2022/05/01 15:40:02,無休 上午九點開始販售，現場排隊。（依現場公告為主）
5901160197,川秀藥局,臺北市北投區石牌路２段９９巷９號１樓,121.5166,25.11792,(02)28270702,羅氏家用新冠病毒抗原自我檢測套組,80,2022/05/01 15:40:02,快篩下午2點開買
5901160400,世全藥局,臺北市北投區知行路２７３號,121.4672,25.12134,(02)28585378,羅氏家用新冠病毒抗原自我檢測套組,78,2022/05/01 15:40:02,早0000-0100，午1300-1600，晚1600-2400
5901162119,祐鄰藥局,臺北市北投區尊賢街２５０號,121.5073,25.11707,(02)28281232,羅氏家用新冠病毒抗原自我檢測套組,1,2022/05/01 15:40:02,無
5901163250,關渡松藥局,臺北市北投區知行路２４７號,121.4671,25.12074,(02)28584824,羅氏家用新冠病毒抗原自我檢測套組,78,2022/05/01 15:40:02,口罩時段: 星期一至星期五早上9:00及晚上18:30，星期六日為下午15:00
5901163296,天禧大藥局,臺北市北投區實踐街３５號,121.5087,25.11521,(02)28213558,羅氏家用新冠病毒抗原自我檢測套組,2,2022/05/01 15:40:02,實名制快篩下午1:30現場販售
5901163545,天康大藥局,臺北市北投區中央南路１段５７號,121.5014,25.13192,(02)28914265,羅氏家用新冠病毒抗原自我檢測套組,9,2022/05/01 15:40:02,實名制快篩下午1:30現場販售
5901163563,躍獅光明藥局,臺北市北投區光明路５１號、５３號（實際使用：１樓）,121.4998,25.13286,(02)28915993,羅氏家用新冠病毒抗原自我檢測套組,10,2022/05/01 15:40:02,無
5901163643,致遠盛康藥局,臺北市北投區致遠二路１４１號１樓,121.5128,25.1173,(02)28263580,羅氏家用新冠病毒抗原自我檢測套組,1,2022/05/01 15:40:02,下午2點發號碼牌開始販售實名制快篩試劑
5901170059,必欣藥局,臺北市信義區松仁路２６４號,121.5696,25.02425,(02)27225060,羅氏家用新冠病毒抗原自我檢測套組,78,2022/05/01 15:40:02,實名制快篩販售時間：星期一至星期日晚上20：00開始
5901170648,立信藥局,臺北市信義區松山路４０３號,121.578,25.04144,(02)27687754,羅氏家用新冠病毒抗原自我檢測套組,49,2022/05/01 15:40:02,快篩試劑販賣時間:晚上七點至九點 星期日三點半開賣
5901172924,躍獅松仁藥局,臺北市信義區松仁路２３３號（實際營業地址：１樓）,121.5688,25.02617,(02)27238626,羅氏家用新冠病毒抗原自我檢測套組,26,2022/05/01 15:40:02,快篩販售時段:下午13:30開始售完至晚上19:00前
5901173710,專品光復藥局,臺北市信義區光復南路４６７之１號,121.5577,25.03384,(02)27586682,羅氏家用新冠病毒抗原自我檢測套組,3,2022/05/01 15:40:02,禮拜一到六下午三點販售口罩
5901173925,杏一光復藥局,臺北市信義區光復南路４４９之１號,121.5578,25.03488,(02)87804626,羅氏家用新冠病毒抗原自我檢測套組,13,2022/05/01 15:40:02,快篩實名制下午三點開始販售
5901174002,吳興春天藥局,臺北市信義區吳興街１３７號１樓,121.5618,25.02947,(02)27585618,羅氏家用新冠病毒抗原自我檢測套組,5,2022/05/01 15:40:02,下午2:40發號碼牌
5901174084,市政藥局,臺北市信義區忠孝東路５段１６９號１樓、１７１號１樓,121.5688,25.0412,(02)27560050,羅氏家用新冠病毒抗原自我檢測套組,78,2022/05/01 15:40:02,快篩實名制，每天16:00開始販售，售完為止。
5901184222,豐仁藥局,臺北市中正區寧波西街１６１號,121.5109,25.02736,(02)23033908,羅氏家用新冠病毒抗原自我檢測套組,78,2022/05/01 15:40:02,實名制快篩販售: 周一至周六 12:30-13:30
5901184473,中力藥局,臺北市中正區襄陽路１３之５號、１５號,121.5155,25.04349,(02)23313768,羅氏家用新冠病毒抗原自我檢測套組,78,2022/05/01 15:40:02,實名制快篩 販售時間：09:30~售完為止
5901184491,躍獅南門藥局,臺北市中正區中華路２段３９巷１０號,121.5074,25.03484,(02)23141111,羅氏家用新冠病毒抗原自我檢測套組,78,2022/05/01 15:40:02,口罩販售時段：成人早上9點及晚上7點各200個
5901184660,南昌春天藥局,臺北市中正區南昌路１段１５７號１樓,121.5188,25.02927,(02)23972886,羅氏家用新冠病毒抗原自我檢測套組,1,2022/05/01 15:40:02,無
5901184679,汀州藥局,臺北市中正區汀州路１段１８７、１８９、１９１號（１樓）,121.5112,25.02704,(02)23090705,羅氏家用新冠病毒抗原自我檢測套組,78,2022/05/01 15:40:02,快篩實名制，每天16:00開始販售，售完為止。
5901190177,信昌藥局,臺北市萬華區長泰街３６號１樓,121.5007,25.02336,(02)23054898,羅氏家用新冠病毒抗原自我檢測套組,78,2022/05/01 15:40:02,快篩實名制販售時間:週一~週日9:00起售完為止
5901190515,日昇藥局,臺北市萬華區廣州街１２４號,121.5016,25.03654,(02)23062975,羅氏家用新冠病毒抗原自我檢測套組,37,2022/05/01 15:40:02,實名制快篩 05-01 有配送
5901190668,聯慶大藥局,臺北市萬華區萬大路３０６號１樓,121.5003,25.02495,(02)23039850,羅氏家用新冠病毒抗原自我檢測套組,1,2022/05/01 15:40:02,無
5901192448,健誠大藥局,臺北市萬華區環河南路２段１８５號,121.4919,25.03246,(02)23042223,羅氏家用新冠病毒抗原自我檢測套組,78,2022/05/01 15:40:02,口罩販售：週六早上10點開始， 其他日早上9點開始， 周日休息
5901192822,專品藥局,臺北市萬華區長沙街２段７１－１號,121.5051,25.04062,(02)23718892,羅氏家用新冠病毒抗原自我檢測套組,8,2022/05/01 15:40:02,快篩實名制下午3點發放
5901192975,萬華藥局,臺北市萬華區萬大路２４８號實際營業地址１樓、２樓,121.5003,25.02626,(02)23012221,羅氏家用新冠病毒抗原自我檢測套組,78,2022/05/01 15:40:02,快篩實名制，每天16:00開始販售，售完為止。
5901193150,日森人文藥局,臺北市萬華區和平西路３段１４９號,121.4988,25.03543,(02)23082100,羅氏家用新冠病毒抗原自我檢測套組,65,2022/05/01 15:40:02,快篩每日11點現場發放號碼牌購買
5901193230,啟仁藥局,臺北市萬華區環河南路２段１７７號,121.492,25.03259,(02)23362771,羅氏家用新冠病毒抗原自我檢測套組,78,2022/05/01 15:40:02,六日沒配送停售，一般時間下午2點開始發號碼牌， 發完為止
5901193310,和德藥局,臺北市萬華區西園路２段２９２號１樓,121.4935,25.02698,(02)23331522,羅氏家用新冠病毒抗原自我檢測套組,78,2022/05/01 15:40:02,快篩實名制，每天16:00開始販售，售完為止。
5901200490,永明大藥局,臺北市文山區興隆路１段２９７號１樓,121.5449,24.99875,(02)29314428,羅氏家用新冠病毒抗原自我檢測套組,98,2022/05/01 15:40:02,每日下午2點50發放號碼牌，3點進行快篩販售，6點前未領取視同放棄。每日販售78份。
5901202047,華君藥局,臺北市文山區興隆路２段６０號,121.5478,24.99955,(02)29319510,羅氏家用新冠病毒抗原自我檢測套組,1,2022/05/01 15:40:02,每天12:00開始販售快篩
5901202841,欣安景美藥局,臺北市文山區景文街７７號,121.5414,24.99126,(02)29316008,羅氏家用新冠病毒抗原自我檢測套組,78,2022/05/01 15:40:02,今日快篩劑AM10：00發號碼牌PM17:00開始販賣售完為止
5901203044,木新健康人生藥局,臺北市文山區木新路３段２０３號,121.5598,24.9814,(02)86611465,羅氏家用新冠病毒抗原自我檢測套組,90,2022/05/01 15:40:02,9：30~22：00
5901203062,大樹文山藥局,臺北市文山區興隆路３段１３號（１、２、３樓）,121.555,25.00088,(02)29342226,羅氏家用新冠病毒抗原自我檢測套組,78,2022/05/01 15:40:02,口罩販售時間：14:00 - 16:00
5901203080,杏一木柵藥局,臺北市文山區木柵路３段９８號,121.5674,24.98861,(02)29371839,羅氏家用新冠病毒抗原自我檢測套組,10,2022/05/01 15:40:02,無
5901203375,大樹景美藥局,臺北市文山區羅斯福路６段２３４之１號,121.5404,24.99244,(02)29322951,羅氏家用新冠病毒抗原自我檢測套組,80,2022/05/01 15:40:02,快篩實名制，每天16:00開始販售，售完為止。
5901203393,躍獅景新藥局,臺北市文山區羅斯福路６段３０號１樓,121.5396,24.99978,(02)29356221,羅氏家用新冠病毒抗原自我檢測套組,61,2022/05/01 15:40:02,無
5902011291,長庚藥局,高雄市鹽埕區五福四路１６３號一樓,120.2834,22.62347,(07)5513436,羅氏家用新冠病毒抗原自我檢測套組,16,2022/05/01 15:40:02,無
5902020012,永松藥局,高雄市鼓山區鼓山三路１３０－１５號,120.2802,22.66454,(07)5810657,羅氏家用新冠病毒抗原自我檢測套組,9,2022/05/01 15:40:02,周一到周日早上9點開始賣口罩，到晚上10點.
5902022801,裕康中西大藥局,高雄市鼓山區裕誠路１５１９號,120.2951,22.66479,(07)5555352,羅氏家用新冠病毒抗原自我檢測套組,80,2022/05/01 15:40:02,藥局販售口罩時間，依藥局門口公告時間為主（售完為止）
5902030643,新高橋藥局,高雄市左營區民族一路１０２８號,120.3201,22.68255,(07)3100696,羅氏家用新冠病毒抗原自我檢測套組,3,2022/05/01 15:40:02,下午2:30開始販售口罩
5902031999,平安藥局,高雄市左營區中華一路５之１號,120.287,22.66961,(07)5833688,羅氏家用新冠病毒抗原自我檢測套組,53,2022/05/01 15:40:02,無
5902051222,利民藥局,高雄市三民區孝順街７４號,120.3128,22.6431,(07)3125436,羅氏家用新冠病毒抗原自我檢測套組,65,2022/05/01 15:40:02,快篩實名制早上9點30分開始販售，發號碼牌
5902054858,勝發藥局,高雄市三民區金鼎路３５０號,120.3197,22.66521,(07)3474780,羅氏家用新冠病毒抗原自我檢測套組,2,2022/05/01 15:40:02,營業日08:00為販賣快篩試劑時間.售完為止
5902056807,長慶藥局,高雄市三民區金鼎路３１０號,120.3207,22.66513,(07)3105835,羅氏家用新冠病毒抗原自我檢測套組,49,2022/05/01 15:40:02,自110／01／01-110／12／31，營業日早上08:30至晚上10:30為販賣口罩時間.售完為止
5902057519,伍陸藥局,高雄市三民區正興路９４號,120.3208,22.64597,(07)3890676,羅氏家用新冠病毒抗原自我檢測套組,60,2022/05/01 15:40:02,口罩發放時間早上08:30開始 售完為止春節期間看診時段請電洽藥局
5902057680,健爾康藥局,高雄市三民區正興路２３號,120.3226,22.6456,(07)3965658,羅氏家用新冠病毒抗原自我檢測套組,55,2022/05/01 15:40:02,自2／11日~2／29日，營業日08:30~2100為販賣口罩時間，售完為止。
5902060025,連作藥局,高雄市新興區大同一路２０３－１號,120.3003,22.62856,(07)2154716,羅氏家用新冠病毒抗原自我檢測套組,54,2022/05/01 15:40:02,快篩試紙領用時間為每日下午2點  5／1日周日加班 快篩貨未到店 中午再詢問
5902080465,廣德泰藥局,高雄市苓雅區苓雅二路７６號,120.2997,22.61762,(07)3340769,羅氏家用新冠病毒抗原自我檢測套組,156,2022/05/01 15:40:02,早上8點開始快篩實名制，售完為止一人限購買一份
5902080545,柏松藥局,高雄市苓雅區輔仁路１７５號,120.3332,22.63065,(07)7119786,羅氏家用新冠病毒抗原自我檢測套組,53,2022/05/01 15:40:02,實名制快篩試劑.平日早上9:00開始販售.假日早上9:30開始販售.售完為止!!
5902081328,東信藥局,高雄市苓雅區三多一路１８９號,120.3313,22.62258,(07)7613309,羅氏家用新冠病毒抗原自我檢測套組,44,2022/05/01 15:40:02,早上8:30開始發送號碼牌販售口罩，售完為止，假日正常販售
5902085228,永森藥局,高雄市苓雅區建國一路２９０號,120.3262,22.63308,(07)7163087,羅氏家用新冠病毒抗原自我檢測套組,24,2022/05/01 15:40:02,快篩代售時間:營業時間
5902100033,旗后藥局,高雄市旗津區中洲三路７１５號,120.2705,22.61096,(07)5715838,羅氏家用新冠病毒抗原自我檢測套組,65,2022/05/01 15:40:02,無
5902110628,悅是康藥局,高雄市小港區漢民路２７６號,120.3536,22.56665,(07)8010012,羅氏家用新冠病毒抗原自我檢測套組,58,2022/05/01 15:40:02,4／30下午3:30開賣
5902111670,桂林活力藥師藥局,高雄市小港區桂陽路４０號,120.3575,22.58194,(07)7931248,羅氏家用新冠病毒抗原自我檢測套組,3,2022/05/01 15:40:02,自2／11日~2／29日，營業日08:30及13:00各50份為販賣口罩時間.售完為止
5902111938,丁丁藥局小港店,高雄市小港區宏平路８５號,120.3635,22.57096,(07)8603388,羅氏家用新冠病毒抗原自我檢測套組,1,2022/05/01 15:40:02,無
5903010485,大樹圓環藥局,臺中市豐原區圓環東路６１７號１樓,120.7283,24.25084,(04)25122212,羅氏家用新冠病毒抗原自我檢測套組,78,2022/05/01 15:40:02,口罩販售時間：14:00 - 16:00
5903050238,百岳大藥局,臺中市沙鹿區鎮南路二段７７號１樓,120.5697,24.21895,(04)26359825,羅氏家用新冠病毒抗原自我檢測套組,3,2022/05/01 15:40:02,9:00憑健保卡購買口罩
5903050274,鹿寮藥局,臺中市沙鹿區中山路４６１、４６１－１號１、２樓,120.5615,24.24387,(04)26630677,羅氏家用新冠病毒抗原自我檢測套組,78,2022/05/01 15:40:02,快篩實名制，每天16:00開始販售，售完為止。
5903070089,后里瑞士藥師藥局,臺中市后里區甲后路二段５７９號,120.7063,24.31155,(04)25566999,羅氏家用新冠病毒抗原自我檢測套組,9,2022/05/01 15:40:02,周一到周五，早上8點到10點。周六、周日早上9點到11點
5903090143,佳福藥局,臺中市潭子區中山路１段４３－１號,120.7023,24.19138,(04)25332982,羅氏家用新冠病毒抗原自我檢測套組,78,2022/05/01 15:40:02,每日中午12:00至下午3:00休息，星期六公休
5903100206,民生藥局,臺中市大雅區民生路一段２２１號１樓,120.6512,24.22789,(04)25662229,羅氏家用新冠病毒抗原自我檢測套組,78,2022/05/01 15:40:02,快篩實名制，每天16:00開始販售，售完為止。
5903150153,溪南藥局,臺中市烏日區溪南路一段５６５號１樓,120.6431,24.07523,(04)23353666,羅氏家用新冠病毒抗原自我檢測套組,78,2022/05/01 15:40:02,快篩實名制，每天16:00開始販售，售完為止。
5903180142,峰正藥局,臺中市霧峰區中正路８３０號１樓,120.6987,24.06244,(04)23303353,羅氏家用新冠病毒抗原自我檢測套組,78,2022/05/01 15:40:02,快篩實名制，每天16:00開始販售，售完為止。
5903190362,太平中山藥局,臺中市太平區中山路４段１１號,120.7139,24.14931,(04)23959200,羅氏家用新冠病毒抗原自我檢測套組,78,2022/05/01 15:40:02,快篩實名制，每天16:00開始販售，售完為止。
5903190693,維肯藥局,臺中市太平區中興路７８－１號１樓,120.7163,24.12783,(04)23512198,羅氏家用新冠病毒抗原自我檢測套組,78,2022/05/01 15:40:02,實名制快篩 星期一~六早上九點開始發放
5903200372,國光丁丁藥局,臺中市大里區國光路２段５５１－１號１樓,120.6788,24.11241,(04)24069711,羅氏家用新冠病毒抗原自我檢測套組,5,2022/05/01 15:40:02,星期一至星期日早上9點依排隊順序直接領取
5903200596,大樹大里藥局,臺中市大里區中興路二段１０１號,120.6885,24.10305,(04)24861133,羅氏家用新冠病毒抗原自我檢測套組,78,2022/05/01 15:40:02,快篩實名制，每天16:00開始販售，售完為止。
5903200621,德芳東榮藥局,臺中市大里區東榮路８號,120.6893,24.1102,(04)24863898,羅氏家用新冠病毒抗原自我檢測套組,78,2022/05/01 15:40:02,快篩販售時間：下午3點~6點，現場排隊，完售即停
5903200685,塗城藥局,臺中市大里區中興路一段１８７、１８９、１９１號１樓,120.6933,24.09008,(04)24967234,羅氏家用新冠病毒抗原自我檢測套組,78,2022/05/01 15:40:02,快篩實名制，每天16:00開始販售，售完為止。
5903200701,大益藥局,臺中市大里區益民路二段３３５號１、２樓,120.6837,24.11311,(04)24811551,羅氏家用新冠病毒抗原自我檢測套組,78,2022/05/01 15:40:02,快篩實名制，每天16:00開始販售，售完為止。
5903230192,康是美藥局東英店,臺中市東區十甲路４５０號１樓,120.7097,24.14406,(04)22139034,羅氏家用新冠病毒抗原自我檢測套組,68,2022/05/01 15:40:02,無
5903240447,大樹五權藥局,臺中市西區五權路９７－１號１樓,120.6717,24.14626,(04)22022910,羅氏家用新冠病毒抗原自我檢測套組,78,2022/05/01 15:40:02,快篩實名制，每天16:00開始販售，售完為止。
5903240483,名華藥局,臺中市西區中華路一段７號１樓,120.6732,24.14209,(04)22231187,羅氏家用新冠病毒抗原自我檢測套組,12,2022/05/01 15:40:02,實名制快篩，5／1週日PM3:00開賣
5903250381,大樹美村藥局,臺中市南區美村南路１２４號,120.667,24.11499,(04)22621113,羅氏家用新冠病毒抗原自我檢測套組,78,2022/05/01 15:40:02,口罩販售時間：14:00 - 16:00
5903250578,樂碩藥局,臺中市南區建國南路一段２５９號１樓,120.6583,24.12491,(04)22601288,羅氏家用新冠病毒抗原自我檢測套組,78,2022/05/01 15:40:02,快篩週一到週六15:00、週日16:30開始販售，售完為止
5903250612,杏一南區台中藥局,臺中市南區台中路６６、６８號１樓,120.683,24.1339,(04)22220652,羅氏家用新冠病毒抗原自我檢測套組,78,2022/05/01 15:40:02,每日早上10點開始販售實名制快篩，售完為止。
5903260681,昭德藥師藥局,臺中市北區西屯路一段３４５號,120.6654,24.16007,(04)23235655,羅氏家用新冠病毒抗原自我檢測套組,5,2022/05/01 15:40:02,早上八點至下午十一點營業，上午九點至下午九點現場排隊過卡買口罩，售完為止
5903260743,黎明安德藥局,臺中市北區中清路１段８５２號１樓,120.6718,24.17295,(04)22956098,羅氏家用新冠病毒抗原自我檢測套組,78,2022/05/01 15:40:02,禮拜四公休、禮拜日下午2點開始營業，一到六下午3點開始販賣快篩，禮拜日下午5點開始販賣快篩
5903260814,杏一北區文心藥局,臺中市北區文心路４段２１０－８號１、２樓,120.678,24.1729,(04)22993847,羅氏家用新冠病毒抗原自我檢測套組,78,2022/05/01 15:40:02,防疫口罩每日中午12時開始販售
5903260930,大西洋藥局,臺中市北區北平路２段２８號１樓,120.6726,24.17165,(04)22932469,羅氏家用新冠病毒抗原自我檢測套組,2,2022/05/01 15:40:02,無
5903261008,台中大樹藥局,臺中市北區漢口路三段２６１號,120.6726,24.16703,(04)22981113,羅氏家用新冠病毒抗原自我檢測套組,78,2022/05/01 15:40:02,快篩實名制，每天16:00開始販售，售完為止。
5903261017,多倫多藥局,臺中市北區太原路二段１１號１樓,120.6753,24.16558,(04)22980210,羅氏家用新冠病毒抗原自我檢測套組,39,2022/05/01 15:40:02,無
5903270310,弘福藥師藥局,臺中市西屯區西屯路３段１６６－２１號１樓,120.6159,24.18918,(04)24611916,羅氏家用新冠病毒抗原自我檢測套組,17,2022/05/01 15:40:02,每日15:00發放號碼牌，發完即開始販售（全年無休）
5903270776,河南丁丁藥局,臺中市西屯區河南路４段１９１號,120.6367,24.15565,(04)22511658,羅氏家用新冠病毒抗原自我檢測套組,26,2022/05/01 15:40:02,周一至周日每天上午9:00開始販售口罩[有口罩庫存時]
5903270865,尚禾藥局,臺中市西屯區青海路一段６５號,120.6548,24.16438,(04)23147688,羅氏家用新冠病毒抗原自我檢測套組,117,2022/05/01 15:40:02,實名制快篩發放時間：第一時段中午12:30~14:00。第二時段20：30~22：30。第一時段若未發完，餘量將遞延至第二時段發放。
5903270909,元生藥局,臺中市西屯區大墩路９６０號,120.6516,24.15817,(04)23274539,羅氏家用新冠病毒抗原自我檢測套組,78,2022/05/01 15:40:02,快篩販售時段下午4點起
5903271022,西屯藥局,臺中市西屯區西屯路三段１５０－４５號１樓,120.621,24.18716,(04)24621822,羅氏家用新冠病毒抗原自我檢測套組,156,2022/05/01 15:40:02,快篩實名制，每天16:00開始販售，售完為止。
5903271068,西墩藥局,臺中市西屯區黎明路三段２７５、２７７號１樓,120.6373,24.17812,(04)24510770,羅氏家用新冠病毒抗原自我檢測套組,78,2022/05/01 15:40:02,快篩實名制，每天16:00開始販售，售完為止。
5903271148,重慶美得康藥局,臺中市西屯區重慶路１３９號１樓,120.6563,24.16628,(04)23111789,羅氏家用新冠病毒抗原自我檢測套組,2,2022/05/01 15:40:02,快篩下午1點半（依物流時間調整）
5903271193,何安藥局,臺中市西屯區西屯路二段１０１號Ｂ棟１樓,120.6531,24.16616,(04)23161110,羅氏家用新冠病毒抗原自我檢測套組,78,2022/05/01 15:40:02,快篩實名制，每天16:00開始販售，售完為止。
5903271291,西屯長安藥局,臺中市西屯區成都路３６８號１樓,120.6641,24.17322,(04)22981221,羅氏家用新冠病毒抗原自我檢測套組,78,2022/05/01 15:40:02,快篩實名制，每天16:00開始販售，售完為止。
5903280067,博川健保藥局,臺中市南屯區大墩５街２９８號１樓,120.6486,24.14257,(04)24732995,羅氏家用新冠病毒抗原自我檢測套組,78,2022/05/01 15:40:02,實名制快篩12:00開始販售
5903280165,南屯福倫藥局,臺中市南屯區南屯路２段３１７號,120.6456,24.13754,(04)24758018,羅氏家用新冠病毒抗原自我檢測套組,78,2022/05/01 15:40:02,實名制快篩: 晚上6:00開始販售.售完為止
5903280245,大墩何藥局,臺中市南屯區大敦南路４３１號１．２樓,120.6476,24.13497,(04)24710655,羅氏家用新冠病毒抗原自我檢測套組,78,2022/05/01 15:40:02,防疫用快篩試劑下午4點開始販售，售完為止
5903280567,康總藥局,臺中市南屯區南屯路二段１０１號１樓,120.6524,24.13579,(04)24735285,羅氏家用新冠病毒抗原自我檢測套組,4,2022/05/01 15:40:02,周一到周日每日上午9:30開始販賣，賣完為止（營業時間到晚上10:00）。快篩數量4為誤差
5903280763,全順藥局,臺中市南屯區永春東路３３９號１樓,120.6477,24.13447,(04)24730983,羅氏家用新冠病毒抗原自我檢測套組,78,2022/05/01 15:40:02,實名制口罩販賣時段-平日8：00~12:00，15:00~21:00，週六8點~13點，周日公休
5903280807,大樹南屯藥局,臺中市南屯區向上路一段６４３號１樓,120.6486,24.14659,(04)24758887,羅氏家用新冠病毒抗原自我檢測套組,78,2022/05/01 15:40:02,快篩實名制，每天16:00開始販售，售完為止。
5903290661,康博中西健保藥局,臺中市北屯區后庄一街７號１樓,120.6644,24.1865,(04)24252468,羅氏家用新冠病毒抗原自我檢測套組,78,2022/05/01 15:40:02,快篩發放於下午01:00作業.週六.日及假日下午06:30開始
5903290876,北屯軍功藥局,臺中市北屯區軍功路一段７５２號,120.7193,24.17513,(04)24375111,羅氏家用新冠病毒抗原自我檢測套組,78,2022/05/01 15:40:02,快篩實名制，每天16:00開始販售，售完為止。
5903290929,微笑藥局,臺中市北屯區昌平路一段３１８號１樓,120.6907,24.17344,(04)22432699,羅氏家用新冠病毒抗原自我檢測套組,16,2022/05/01 15:40:02,【快篩試劑】下午2:30起~現場排隊~
5903290965,崇德藥局,臺中市北屯區崇德路二段３１號,120.685,24.16962,(04)22361331,羅氏家用新冠病毒抗原自我檢測套組,79,2022/05/01 15:40:02,快篩實名制，每天16:00開始販售，售完為止。
5903291006,五和健保藥局,臺中市北屯區崇德路二段４６０號１樓,120.6863,24.18001,(04)22415533,羅氏家用新冠病毒抗原自我檢測套組,6,2022/05/01 15:40:02,週六公休 。周一至周五 14:30 發號碼牌 15:00販售； 週日 9:00發號碼牌 10:00販售
5903291104,惠登藥局,臺中市北屯區豐樂路３２之９號１樓,120.6897,24.19282,(04)24225682,羅氏家用新冠病毒抗原自我檢測套組,14,2022/05/01 15:40:02,無
5903291140,興安藥局,臺中市北屯區興安路二段５２號１、２樓,120.6949,24.1762,(04)22460369,羅氏家用新冠病毒抗原自我檢測套組,76,2022/05/01 15:40:02,快篩實名制，每天16:00開始販售，售完為止。
5903291168,日初藥局,臺中市北屯區軍功路一段４８２－３號１樓,120.7188,24.17102,(04)24363150,羅氏家用新冠病毒抗原自我檢測套組,78,2022/05/01 15:40:02,無
5903291257,新一代何藥局,臺中市北屯區環中東路二段２６６、２６８號１樓,120.7207,24.17576,(04)24364366,羅氏家用新冠病毒抗原自我檢測套組,78,2022/05/01 15:40:02,5／1（日）下午4:00開賣
5905010143,啄木鳥藥師藥局,臺南市新營區新南里民治路２４２號,120.3041,23.30767,(06)6590248,羅氏家用新冠病毒抗原自我檢測套組,78,2022/05/01 15:40:02,5／1晚上6:00開賣
5905010250,大樹新營藥局,臺南市新營區民權路７４、７６、７８號１樓,120.3127,23.30615,(06)6328300,羅氏家用新冠病毒抗原自我檢測套組,78,2022/05/01 15:40:02,快篩實名制，每天16:00開始販售，售完為止。
5905020023,大樹鹽水藥局,臺南市鹽水區朝琴路１２６－３號１樓,120.271,23.32228,(06)6520432,羅氏家用新冠病毒抗原自我檢測套組,78,2022/05/01 15:40:02,快篩實名制，每天16:00開始販售，售完為止。
5905030092,大樹白河藥局,臺南市白河區中山路１５３號１樓,120.417,23.35255,(06)6830006,羅氏家用新冠病毒抗原自我檢測套組,78,2022/05/01 15:40:02,快篩實名制，每天16:00開始販售，售完為止。
5905040141,大樹麻豆藥局,臺南市麻豆區中山路４８、５０號１樓,120.2469,23.18382,(06)5716556,羅氏家用新冠病毒抗原自我檢測套組,78,2022/05/01 15:40:02,快篩實名制，每天16:00開始販售，售完為止。
5905050209,大樹佳里藥局,臺南市佳里區延平路２３７號１樓,120.1783,23.1599,(06)7231323,羅氏家用新冠病毒抗原自我檢測套組,78,2022/05/01 15:40:02,快篩實名制，每天16:00開始販售，售完為止。
5905060198,大樹新化藥局,臺南市新化區中正路５３１號１樓,120.3072,23.03764,(06)5901331,羅氏家用新冠病毒抗原自我檢測套組,78,2022/05/01 15:40:02,快篩實名制，每天16:00開始販售，售完為止。
5905070121,大樹善化藥局,臺南市善化區民權路５４、５６、５８號１樓,120.3034,23.1322,(06)5830550,羅氏家用新冠病毒抗原自我檢測套組,78,2022/05/01 15:40:02,快篩實名制，每天16:00開始販售，售完為止。
5905080056,大樹學甲藥局,臺南市學甲區中正路１３５號１樓,120.1793,23.23029,(06)7820001,羅氏家用新冠病毒抗原自我檢測套組,78,2022/05/01 15:40:02,快篩實名制，每天16:00開始販售，售完為止。
5905200085,大樹新市藥局,臺南市新市區中正路４９、５１號１樓,120.2916,23.07223,(06)5892552,羅氏家用新冠病毒抗原自我檢測套組,78,2022/05/01 15:40:02,快篩實名制，每天16:00開始販售，售完為止。
5905210027,愛心藥師藥局,臺南市安定區港南里港口１４７號,120.233,23.09041,(06)5935104,羅氏家用新冠病毒抗原自我檢測套組,1,2022/05/01 15:40:02,春節營業時間請電洽或依現場公告
5905270176,大樹仁德藥局,臺南市仁德區中正路二段１１５２號１樓,120.2519,22.97062,(06)2797466,羅氏家用新冠病毒抗原自我檢測套組,78,2022/05/01 15:40:02,快篩實名制，每天16:00開始販售，售完為止。
5905280109,大樹青青藥局,臺南市歸仁區中山路三段１２號,120.2875,22.96765,(06)2300301,羅氏家用新冠病毒抗原自我檢測套組,78,2022/05/01 15:40:02,快篩實名制，每天16:00開始販售，售完為止。
5905290034,大樹關廟藥局,臺南市關廟區中央路２６３號１樓,120.3272,22.96109,(06)5965889,羅氏家用新冠病毒抗原自我檢測套組,78,2022/05/01 15:40:02,快篩實名制，每天16:00開始販售，售完為止。
5905310880,永東藥局,臺南市永康區中山路５５號１樓,120.2562,23.02921,(06)2318700,羅氏家用新冠病毒抗原自我檢測套組,38,2022/05/01 15:40:02,口罩販售時間：星期一~五09:45~11:45、16:00~18:00星期六08.30~10.30、16:00~18:00 星期日08:30~10:30
5905311074,中華長億藥局,臺南市永康區中華路７３４、７３６號１樓,120.2288,23.0167,(06)3022322,羅氏家用新冠病毒抗原自我檢測套組,78,2022/05/01 15:40:02,快篩實名制，每天16:00開始販售，售完為止。
5905311127,台南永康藥局,臺南市永康區中山南路８１６、８１６─１、２、３號１樓,120.2471,23.02099,(06)2020201,羅氏家用新冠病毒抗原自我檢測套組,79,2022/05/01 15:40:02,快篩實名制，每天16:00開始販售，售完為止。
5905320706,悅橙藥局,臺南市東區崇明路４５９號１樓,120.2247,22.97311,(06)2605168,羅氏家用新冠病毒抗原自我檢測套組,6,2022/05/01 15:40:02,無
5905320797,大樹自由藥局,臺南市東區自由路三段３８２號１樓,120.2373,22.98241,(06)2890800,羅氏家用新冠病毒抗原自我檢測套組,78,2022/05/01 15:40:02,快篩實名制，每天16:00開始販售，售完為止。
5905320804,大樹大同藥局,臺南市東區大同路二段２２７、２２９號１樓,120.2143,22.97567,(06)2158700,羅氏家用新冠病毒抗原自我檢測套組,78,2022/05/01 15:40:02,快篩實名制，每天16:00開始販售，售完為止。
5905320868,大樹東寧藥局,臺南市東區東寧路４３６號１樓,120.2291,22.9895,(06)2360006,羅氏家用新冠病毒抗原自我檢測套組,78,2022/05/01 15:40:02,快篩實名制，每天16:00開始販售，售完為止。
5905320886,中華崇德藥局,臺南市東區中華東路三段１８１、１８３號１樓,120.2259,22.97667,(06)2880800,羅氏家用新冠病毒抗原自我檢測套組,78,2022/05/01 15:40:02,快篩實名制，每天16:00開始販售，售完為止。
5905320911,大樹崇道藥局,臺南市東區崇道路６３號１樓,120.2272,22.97227,(06)2680456,羅氏家用新冠病毒抗原自我檢測套組,79,2022/05/01 15:40:02,快篩實名制，每天16:00開始販售，售完為止。
5905350366,千多藥局,臺南市北區金華路五段１號,120.1962,23.0016,(06)2228641,羅氏家用新冠病毒抗原自我檢測套組,78,2022/05/01 15:40:02,晚上6點開始銷售實名制快篩試劑，賣完為止
5905370260,廣道藥局,臺南市安南區溪心里海佃路三段２１８號１樓,120.1806,23.05119,(06)2568383,羅氏家用新冠病毒抗原自我檢測套組,47,2022/05/01 15:40:02,5月1日至5月3日因物流配送不定，販售時間另行公布；可查『廣道藥局』臉書（FB）。
5905370304,大樹安南藥局,臺南市安南區安和路四段５５７號１樓,120.2185,23.06181,(06)3563370,羅氏家用新冠病毒抗原自我檢測套組,78,2022/05/01 15:40:02,口罩販賣時段：14:00 - 16:00
5905370466,大樹北安藥局,臺南市安南區北安路三段１５８號１樓,120.2036,23.04256,(06)2553633,羅氏家用新冠病毒抗原自我檢測套組,78,2022/05/01 15:40:02,快篩實名制，每天16:00開始販售，售完為止。
5905380239,怡家藥局,臺南市安平區國平里華平路１４６─５號１樓,120.174,22.98438,(06)2970519,羅氏家用新冠病毒抗原自我檢測套組,78,2022/05/01 15:40:02,本週日5／1（08:00-10:00售完為止）特地加開發售公費快篩
5907010150,育英藥局文德店,高雄市鳳山區文德路２９號,120.3527,22.63836,(07)7777059,羅氏家用新冠病毒抗原自我檢測套組,78,2022/05/01 15:40:02,營業時間上午12:00~下午10:00藥局發口罩時間為下午:12:00售完為止
5907011095,鳳山五甲藥局,高雄市鳳山區正義里五甲二路１３９號１樓,120.3409,22.6014,(07)7269899,羅氏家用新冠病毒抗原自我檢測套組,78,2022/05/01 15:40:02,快篩實名制，每天16:00開始販售，售完為止。
5907011111,壹然藥局,高雄市鳳山區中正里瑞興路４６２號１樓,120.3713,22.63084,(07)7014755,羅氏家用新冠病毒抗原自我檢測套組,10,2022/05/01 15:40:02,今日已停止營業販售，明日5／1（日）早上8:30開始販賣，剩餘22，其餘須等政府當日配售，時間不定
5907011148,大樹國泰藥局,高雄市鳳山區興仁里五甲一路２９２號,120.3539,22.61698,(07)7407234,羅氏家用新冠病毒抗原自我檢測套組,78,2022/05/01 15:40:02,快篩實名制，每天16:00開始販售，售完為止。
5907011175,鳳西藥局,高雄市鳳山區忠義里中山西路２３８號１樓,120.3471,22.62831,(07)7902717,羅氏家用新冠病毒抗原自我檢測套組,78,2022/05/01 15:40:02,快篩實名制，每天16:00開始販售，售完為止。
5907011219,協康健保藥局,高雄市鳳山區瑞竹里博愛路２１５號１樓,120.3704,22.62887,(07)7199259,羅氏家用新冠病毒抗原自我檢測套組,78,2022/05/01 15:40:02,5／2實名制快篩於下午三點開賣
5907011317,凱旋藥局,高雄市鳳山區國隆里新富路３７３號１樓,120.3475,22.61494,(07)7671181,羅氏家用新冠病毒抗原自我檢測套組,78,2022/05/01 15:40:02,快篩實名制，每天16:00開始販售，售完為止。
5907011371,大樹五甲藥局,高雄市鳳山區福祥里五甲三路２４號１－２樓．２６號１－２樓,120.3278,22.59317,(07)8224926,羅氏家用新冠病毒抗原自我檢測套組,78,2022/05/01 15:40:02,快篩實名制，每天16:00開始販售，售完為止。
5907011399,佑家藥師藥局,高雄市鳳山區新強里新富路２８８號１樓,120.3418,22.61265,(07)7673298,羅氏家用新冠病毒抗原自我檢測套組,1,2022/05/01 15:40:02,無
5907011406,長青連鎖藥局大士店,高雄市鳳山區五甲一路１３９號１樓,120.3562,22.61968,(07)7104618,羅氏家用新冠病毒抗原自我檢測套組,78,2022/05/01 15:40:02,下午4點開始販售實名制快篩
5907020085,大德藥局,高雄市岡山區大德一路９８號,120.3025,22.79689,(07)6221456,羅氏家用新冠病毒抗原自我檢測套組,78,2022/05/01 15:40:02,快篩實名制，每天16:00開始販售，售完為止。
5907020094,大樹岡山藥局,高雄市岡山區岡山路１３６號,120.2967,22.78913,(07)6219477,羅氏家用新冠病毒抗原自我檢測套組,78,2022/05/01 15:40:02,快篩實名制，每天16:00開始販售，售完為止。
5907030152,旗山藥局,高雄市旗山區中華路２３號,120.4841,22.88027,(07)6621158,羅氏家用新冠病毒抗原自我檢測套組,77,2022/05/01 15:40:02,快篩實名制，每天16:00開始販售，售完為止。
5907050010,新朋友藥師連鎖藥局,高雄市林園區東林東路４４號,120.3971,22.50389,(07)6460588,羅氏家用新冠病毒抗原自我檢測套組,17,2022/05/01 15:40:02,快篩於每日下午3:30，開始發放
5907050109,林園藥局,高雄市林園區仁愛路１３號１樓,120.3928,22.50418,(07)6425855,羅氏家用新冠病毒抗原自我檢測套組,78,2022/05/01 15:40:02,快篩實名制，每天16:00開始販售，售完為止。
5907060230,華思中西藥局,高雄市大寮區永芳里進學路１２２號１樓,120.3933,22.60468,(07)7835567,羅氏家用新冠病毒抗原自我檢測套組,49,2022/05/01 15:40:02,星期一~星期六 下午四點販售實名制快篩  星期天店休
5907070030,久堂藥局,高雄市大樹區久堂里久堂路１３６號１樓,120.4178,22.65813,(07)6512800,羅氏家用新冠病毒抗原自我檢測套組,78,2022/05/01 15:40:02,快篩實名制，每天16:00開始販售，售完為止。
5907080232,大樹仁武藥局,高雄市仁武區赤山里仁雄路８０－９號,120.3469,22.67811,(07)3744777,羅氏家用新冠病毒抗原自我檢測套組,78,2022/05/01 15:40:02,快篩實名制，每天16:00開始販售，售完為止。
5907080330,文武藥局,高雄市仁武區文武里中華路３５３號,120.3535,22.7011,(07)3733551,羅氏家用新冠病毒抗原自我檢測套組,78,2022/05/01 15:40:02,快篩實名制，每天16:00開始販售，售完為止。
5907090167,大樹大社藥局,高雄市大社區中山路３０８號１樓,120.3503,22.73145,(07)3531682,羅氏家用新冠病毒抗原自我檢測套組,78,2022/05/01 15:40:02,快篩實名制，每天16:00開始販售，售完為止。
5907100088,本館藥局,高雄市鳥松區大華里本館路１９０號１樓,120.3361,22.65556,(07)3707655,羅氏家用新冠病毒抗原自我檢測套組,1,2022/05/01 15:40:02,營業時間每日09:00-22:00  實名制快篩販賣時間15:00-20:00
5907110048,和德藥局橋頭店,高雄市橋頭區橋南路１１６－１號,120.3125,22.75441,(07)6113580,羅氏家用新冠病毒抗原自我檢測套組,1,2022/05/01 15:40:02,快篩下午15:00開賣  售完為止
5907120017,和德藥局燕巢店,高雄市燕巢區西燕里中民路６２８號,120.3612,22.79345,(07)6143499,羅氏家用新冠病毒抗原自我檢測套組,78,2022/05/01 15:40:02,5／1 因物流無配送快篩試劑，無法確定到貨時間，故早上9:00暫停發放，造成不便請見諒!!
5907150257,大樹大立藥局,高雄市路竹區國昌路５１號,120.26,22.85409,(07)6961663,羅氏家用新冠病毒抗原自我檢測套組,78,2022/05/01 15:40:02,快篩實名制，每天16:00開始販售，售完為止。
5907160093,保生藥局,高雄市湖內區葉厝里保生路３４０．３４２號,120.2195,22.90733,(07)6990800,羅氏家用新冠病毒抗原自我檢測套組,78,2022/05/01 15:40:02,快篩實名制，每天16:00開始販售，售完為止。
5907200065,復安堂藥局,高雄市梓官區信蚵里廣澤路２號１樓,120.2553,22.7297,(07)6103147,羅氏家用新冠病毒抗原自我檢測套組,78,2022/05/01 15:40:02,W一-五0830~1200，1500~1800，1900~2100，W六08:30~12:00，週日1800（實名制快篩試劑每天早上0830開始販售，售完為止）
5907280036,七賢藥局,高雄市鹽埕區七賢三路１６２號１樓,120.2829,22.62712,(07)5330616,羅氏家用新冠病毒抗原自我檢測套組,78,2022/05/01 15:40:02,快篩實名制，每天16:00開始販售，售完為止。
5907290265,新美館藥局,高雄市鼓山區中華一路９７２號,120.2919,22.65513,(07)5522006,羅氏家用新冠病毒抗原自我檢測套組,78,2022/05/01 15:40:02,無
5907290309,鼓山藥局,高雄市鼓山區華榮路１０號,120.2973,22.66156,(07)5520017,羅氏家用新冠病毒抗原自我檢測套組,78,2022/05/01 15:40:02,快篩實名制，每天16:00開始販售，售完為止。
5907290327,金好藥局,高雄市鼓山區青海路４１８號１樓,120.2845,22.65177,(07)5869556,羅氏家用新冠病毒抗原自我檢測套組,1,2022/05/01 15:40:02,無
5907300088,神農健保藥局,高雄市左營區重和路１１７號,120.3121,22.68463,(07)3418228,羅氏家用新冠病毒抗原自我檢測套組,78,2022/05/01 15:40:02,星期一到六每天14點購買快篩，星期天公休
5907300631,大樹孟子藥局,高雄市左營區孟子路２２６、２２８號,120.3112,22.67415,(07)3461772,羅氏家用新冠病毒抗原自我檢測套組,78,2022/05/01 15:40:02,快篩實名制，每天16:00開始販售，售完為止。
5907300686,左營自由藥局,高雄市左營區自由二路３５０、３５０－１號,120.3091,22.66599,(07)5589991,羅氏家用新冠病毒抗原自我檢測套組,78,2022/05/01 15:40:02,快篩實名制，每天16:00開始販售，售完為止。
5907300766,悠仁藥局,高雄市左營區自由三路１７０號,120.3113,22.67165,(07)3457979,羅氏家用新冠病毒抗原自我檢測套組,78,2022/05/01 15:40:02,一~五的營業時間為0800~1200／1530~1800／1830~2100 六日的營業時間為0900
5907300784,新高橋藥局博正店,高雄市左營區忠言路１８０號,120.3038,22.65841,(07)5509810,羅氏家用新冠病毒抗原自我檢測套組,39,2022/05/01 15:40:02,下午2:30開始販售口罩
5907300926,高鐵藥局,高雄市左營區華夏路１３２２．１３２６號,120.312,22.68587,(07)3452797,羅氏家用新冠病毒抗原自我檢測套組,78,2022/05/01 15:40:02,快篩實名制，每天16:00開始販售，售完為止。
5907300944,左營藥局,高雄市左營區華夏路３２５號,120.2972,22.67167,(07)5501017,羅氏家用新冠病毒抗原自我檢測套組,78,2022/05/01 15:40:02,快篩實名制，每天16:00開始販售，售完為止。
5907300971,健勝藥局,高雄市左營區勝利路１２７－１號１樓,120.2896,22.6806,(07)5811169,羅氏家用新冠病毒抗原自我檢測套組,31,2022/05/01 15:40:02,無
5907300980,大路藥局,高雄市左營區左營大路５５－２號１樓,120.2877,22.6813,(07)5851001,羅氏家用新冠病毒抗原自我檢測套組,78,2022/05/01 15:40:02,快篩實名制，每天16:00開始販售，售完為止。
5907310262,大樹楠梓藥局,高雄市楠梓區軍校路９０８號,120.2919,22.71246,(07)3632322,羅氏家用新冠病毒抗原自我檢測套組,78,2022/05/01 15:40:02,快篩實名制，每天16:00開始販售，售完為止。
5907310360,百康藥局,高雄市楠梓區右昌街４１６號,120.2884,22.71571,(07)3601281,羅氏家用新冠病毒抗原自我檢測套組,45,2022/05/01 15:40:02,賣快篩時間：周一至週六早上09:00起買快篩，至晚上10:00，周日依前日未購完之數量可續購
5907310404,藍田藥局,高雄市楠梓區藍田路１號,120.2953,22.72643,(07)3601236,羅氏家用新冠病毒抗原自我檢測套組,78,2022/05/01 15:40:02,快篩實名制，每天16:00開始販售，售完為止。
5907320179,新高橋藥局天祥店,高雄市三民區天祥一路１１７號,120.3205,22.66711,(07)3102683,羅氏家用新冠病毒抗原自我檢測套組,38,2022/05/01 15:40:02,上午10:00開始販售快篩，9:50發號碼牌
5907320893,大樹天祥藥局,高雄市三民區天祥一路１６７號,120.3191,22.66737,(07)3429902,羅氏家用新冠病毒抗原自我檢測套組,79,2022/05/01 15:40:02,快篩實名制，每天16:00開始販售，售完為止。
5907320900,大昌藥局,高雄市三民區大昌二路３９７號,120.3317,22.64915,(07)3961396,羅氏家用新冠病毒抗原自我檢測套組,78,2022/05/01 15:40:02,快篩實名制，每天16:00開始販售，售完為止。
5907321032,三民明誠藥局,高雄市三民區明誠一路５００號１－２Ｆ及５０２號,120.3223,22.66046,(07)3493137,羅氏家用新冠病毒抗原自我檢測套組,48,2022/05/01 15:40:02,快篩試劑下午2:00販售
5907321069,桂林活力藥局九如店,高雄市三民區懷安街１１２號１樓,120.3176,22.64095,(07)3981009,羅氏家用新冠病毒抗原自我檢測套組,61,2022/05/01 15:40:02,每天15:30發號碼牌，於18:00前兌換完畢，逾期棄權，剩餘則繼續發放
5907321103,自由藥局,高雄市三民區自由一路７８號,120.3089,22.64422,(07)3223113,羅氏家用新冠病毒抗原自我檢測套組,78,2022/05/01 15:40:02,快篩實名制，每天16:00開始販售，售完為止。
5907321158,窩窩香藥局,高雄市三民區明哲路４２－１號１樓,120.312,22.66176,(07)3505883,羅氏家用新冠病毒抗原自我檢測套組,78,2022/05/01 15:40:02,快篩配送時間尚未固定，依FB公告販售時間為主
5907330031,健美藥局,高雄市新興區復興一路４０之４號,120.3084,22.62985,(07)2291108,羅氏家用新冠病毒抗原自我檢測套組,69,2022/05/01 15:40:02,111／4／28起，週一至週日上午8:40販售快篩，售完止 如有異動會另行公告門市
5907330200,新興復興藥局,高雄市新興區復興一路７６號１樓,120.3085,22.63312,(07)2352550,羅氏家用新冠病毒抗原自我檢測套組,78,2022/05/01 15:40:02,快篩實名制，每天16:00開始販售，售完為止。
5907350506,大樹苓雅藥局,高雄市苓雅區中華四路１５３號,120.3001,22.61783,(07)5353111,羅氏家用新冠病毒抗原自我檢測套組,78,2022/05/01 15:40:02,快篩實名制，每天16:00開始販售，售完為止。
5907350551,大樹武廟藥局,高雄市苓雅區武廟路４３、４５號１樓,120.3314,22.63005,(07)7222268,羅氏家用新冠病毒抗原自我檢測套組,78,2022/05/01 15:40:02,快篩實名制，每天16:00開始販售，售完為止。
5907350631,三多藥局,高雄市苓雅區三多二路２９２號１樓,120.3173,22.61838,(07)3365889,羅氏家用新冠病毒抗原自我檢測套組,78,2022/05/01 15:40:02,快篩實名制，每天16:00開始販售，售完為止。
5907360664,忠純藥局,高雄市前鎮區中華五路１００９號１樓,120.3056,22.60341,(07)3366886,羅氏家用新冠病毒抗原自我檢測套組,78,2022/05/01 15:40:02,快篩實名制，每天16:00開始販售，售完為止。
5907360673,前鎮大樹藥局,高雄市前鎮區瑞隆路４７２號１樓,120.3291,22.60547,(07)7137171,羅氏家用新冠病毒抗原自我檢測套組,78,2022/05/01 15:40:02,快篩實名制，每天16:00開始販售，售完為止。
5907380184,桂林活力藥師藥局孔鳳店,高雄市小港區孔鳳路５６１號１樓,120.3586,22.58393,(07)7912331,羅氏家用新冠病毒抗原自我檢測套組,86,2022/05/01 15:40:02,無
5907380264,大樹孔鳳藥局,高雄市小港區孔鳳路５１９、５２１號,120.3587,22.5828,(07)7918521,羅氏家用新冠病毒抗原自我檢測套組,78,2022/05/01 15:40:02,快篩實名制，每天16:00開始販售，售完為止。
5907380353,桂林活力藥師藥局漢民店,高雄市小港區漢民路６９１－１及６９１－２號１樓,120.3614,22.56762,(07)8010636,羅氏家用新冠病毒抗原自我檢測套組,79,2022/05/01 15:40:02,無
5907380424,大樹小港藥局,高雄市小港區康莊路７５號１樓,120.3559,22.56853,(07)8068328,羅氏家用新冠病毒抗原自我檢測套組,78,2022/05/01 15:40:02,快篩實名制，每天16:00開始販售，售完為止。
5911010015,喬寶藥局,基隆市中正區義二路６６號１樓,121.7461,25.13187,(02)24202827,羅氏家用新冠病毒抗原自我檢測套組,2,2022/05/01 15:40:02,下午2點開賣
5911011478,天康新豐藥局,基隆市中正區新豐街２５１巷４弄９號１樓,121.7885,25.13594,(02)24695168,羅氏家用新冠病毒抗原自我檢測套組,1,2022/05/01 15:40:02,無
5911011576,百福義一藥師藥局,基隆市中正區義一路４８號１樓,121.7458,25.13279,(02)24268288,羅氏家用新冠病毒抗原自我檢測套組,29,2022/05/01 15:40:02,周一至周六08:00開門，周日09:00開門
5911011638,中正藥局,基隆市中正區新豐街３８５號１、２樓,121.7856,25.13537,(02)24690660,羅氏家用新冠病毒抗原自我檢測套組,78,2022/05/01 15:40:02,快篩實名制，每天16:00開始販售，售完為止。
5911040228,大田大藥局,基隆市仁愛區仁二路５號,121.7507,25.12744,(02)24258762,羅氏家用新冠病毒抗原自我檢測套組,79,2022/05/01 15:40:02,下午2:00發號碼牌並販售
5911041958,百福仁愛專業藥局,基隆市仁愛區仁四路５０號１樓,121.7413,25.12829,(02)24266699,羅氏家用新冠病毒抗原自我檢測套組,78,2022/05/01 15:40:02,4／30起，早上8:00販售快篩
5911050153,隆泰藥局,基隆市中山區西定路１２號,121.7355,25.13184,(02)24225889,羅氏家用新冠病毒抗原自我檢測套組,73,2022/05/01 15:40:02,無
5911050162,錦泰藥局,基隆市中山區中山二路４３號,121.7405,25.13786,(02)24228523,羅氏家用新冠病毒抗原自我檢測套組,78,2022/05/01 15:40:02,快篩販賣時間星期一至五晚上7點，星期六，星期日休息
5911051267,親親藥局,基隆市中山區復興路１８１號,121.7264,25.14587,(02)24378323,羅氏家用新冠病毒抗原自我檢測套組,78,2022/05/01 15:40:02,無
5911051392,寶慷藥局,基隆市中山區復興路１９１號１樓,121.7263,25.14611,(02)24362338,羅氏家用新冠病毒抗原自我檢測套組,78,2022/05/01 15:40:02,無
5911051543,復興藥局,基隆市中山區復興路１２８、１３０、１３２、１３４號１、２樓,121.7262,25.1446,(02)24362566,羅氏家用新冠病毒抗原自我檢測套組,78,2022/05/01 15:40:02,快篩實名制，每天16:00開始販售，售完為止。
5911071536,小不點健保藥局,基隆市信義區深溪路１２６號１樓,121.7827,25.13375,(02)24683985,羅氏家用新冠病毒抗原自我檢測套組,61,2022/05/01 15:40:02,無
5911071590,基隆藥局,基隆市信義區東信路１６６、１６８號１、２樓,121.7646,25.12821,(02)24680955,羅氏家用新冠病毒抗原自我檢測套組,106,2022/05/01 15:40:02,快篩實名制，每天16:00開始販售，售完為止。
5911071607,家安藥師藥局,基隆市信義區信二路２５７、２５９號１樓,121.7478,25.1301,(02)24223917,羅氏家用新冠病毒抗原自我檢測套組,78,2022/05/01 15:40:02,星期一 ~ 星期五13:30開始銷售。
5912012737,婷婷藥局,新竹市東區明湖路965號,120.9669,24.77371,(03)5290999,羅氏家用新冠病毒抗原自我檢測套組,70,2022/05/01 15:40:02,5／1星期日下午17點賣快篩
5912012862,佑信大藥局,新竹市東區新莊里光復路一段３６２─１３號,121.0157,24.78419,(03)6663578,羅氏家用新冠病毒抗原自我檢測套組,78,2022/05/01 15:40:02,快篩實際販售時間:13:00-15:00
5912013216,宏禎藥局,新竹市東區建新路４０號１樓,120.9971,24.79818,(03)5750238,羅氏家用新冠病毒抗原自我檢測套組,78,2022/05/01 15:40:02,口罩販賣時段:平日與假日上午8:00起現場排隊至售完為止
5912013261,禾心藥局,新竹市東區民生路２３１號１樓,120.9754,24.81199,(03)5332403,羅氏家用新冠病毒抗原自我檢測套組,78,2022/05/01 15:40:02,無
5912013494,田美藥局,新竹市東區田美三街３５之１號１樓,120.9767,24.81572,(03)5350233,羅氏家用新冠病毒抗原自我檢測套組,78,2022/05/01 15:40:02,快篩實名制，每天16:00開始販售，售完為止。
5912013547,佑全新竹光復藥局,新竹市東區仙水里光復路１段３５３號１樓,121.0176,24.78315,(03)6661826,羅氏家用新冠病毒抗原自我檢測套組,78,2022/05/01 15:40:02,（因快篩配送作業不及，快篩開賣時間可能會有所調整，請依現場公告為主）原則上為上午9:30開賣，9:20發號碼牌
5912013627,合康連鎖藥局食品店,新竹市東區食品路１４０號１樓,120.977,24.79771,(03)5621111,羅氏家用新冠病毒抗原自我檢測套組,78,2022/05/01 15:40:02,實名快篩販售時間：下午17:00
5912013672,關東藥局,新竹市東區光復路１段３３２、３３４號１至２樓,121.0187,24.78289,(03)5777077,羅氏家用新冠病毒抗原自我檢測套組,78,2022/05/01 15:40:02,快篩實名制，每天16:00開始販售，售完為止。
5912042815,合康連鎖藥局西大店,新竹市北區西大路６３６、６３８號１樓,120.9585,24.8101,(03)5233111,羅氏家用新冠病毒抗原自我檢測套組,78,2022/05/01 15:40:02,09:00
5912042940,新竹北門藥局,新竹市北區中正路３６０、３６２號１樓,120.9629,24.81414,(03)5333234,羅氏家用新冠病毒抗原自我檢測套組,156,2022/05/01 15:40:02,無
5912042968,大樹新竹藥局,新竹市北區西大路５４０、５４２號１、２樓,120.9619,24.80676,(03)5250388,羅氏家用新冠病毒抗原自我檢測套組,78,2022/05/01 15:40:02,快篩實名制，每天16:00開始販售，售完為止。
5912051430,三姓藥局,新竹市香山區中華路四段５７６號１、２樓,120.9297,24.78886,(03)5385886,羅氏家用新冠病毒抗原自我檢測套組,78,2022/05/01 15:40:02,快篩實名制，每天16:00開始販售，售完為止。
5917020060,來安藥局,臺中市東區十甲東路４８８號１樓,120.7073,24.13824,(04)22116977,羅氏家用新冠病毒抗原自我檢測套組,33,2022/05/01 15:40:02,發快篩時間早上8點
5917020211,何藥局,臺中市東區精武路１８０號１樓,120.691,24.14765,(04)23605435,羅氏家用新冠病毒抗原自我檢測套組,78,2022/05/01 15:40:02,快篩下午4:00開始販售，現場排隊，直接販售，售完為止。
5917021718,中大藥局,臺中市東區十甲路５０５號,120.7109,24.14466,(04)22131348,羅氏家用新冠病毒抗原自我檢測套組,61,2022/05/01 15:40:02,晚上8點販售快篩
5917030520,林西藥局,臺中市西區向上路一段４６－１號,120.6661,24.14688,(04)23014023,羅氏家用新冠病毒抗原自我檢測套組,33,2022/05/01 15:40:02,每日早上9點開始依序當場領口罩，售完為止。
5917032382,中港大藥局,臺中市西區臺灣大道２段１３２號,120.6714,24.14995,(04)22080708,羅氏家用新冠病毒抗原自我檢測套組,62,2022/05/01 15:40:02,無
5917041765,荃大藥局,臺中市南區臺中路１５４號,120.6843,24.13114,(04)22858850,羅氏家用新冠病毒抗原自我檢測套組,78,2022/05/01 15:40:02,防疫口罩銷售時間:早上9:15~12:00止.（星期日無防疫口罩）.
5917062988,廣安大藥局,臺中市西屯區青海路一段一Ｏ一、一Ｏ三號,120.6536,24.16485,(04)23118572,羅氏家用新冠病毒抗原自我檢測套組,28,2022/05/01 15:40:02,週一~日10AM販售口罩售完為止，無發放號碼牌.
5917063350,天立專業藥師藥局,臺中市西屯區太原路１段２０７號１樓,120.6617,24.16318,(04)23160455,羅氏家用新冠病毒抗原自我檢測套組,32,2022/05/01 15:40:02,週一~週六快篩9:00售完為止，週日中午12：00售完為止
5917070355,承諭藥局,臺中市南屯區黎明路２段１９９號,120.636,24.14698,(04)23849128,羅氏家用新冠病毒抗原自我檢測套組,78,2022/05/01 15:40:02,快篩實名制周一、二、四、五早上10:30；周三、六晚上7:00 ； 週日下午4:00
5917071727,大愛藥局,臺中市南屯區向心南路９６２．９６４號１樓,120.644,24.13718,(04)24733646,羅氏家用新冠病毒抗原自我檢測套組,78,2022/05/01 15:40:02,無
5917072251,五六藥局,臺中市南屯區南屯路２段２４０號,120.6493,24.13696,(04)24757156,羅氏家用新冠病毒抗原自我檢測套組,78,2022/05/01 15:40:02,5 ／ 1 日售快篩，19 : 30 開始販售， 售完為止. （不發號碼牌）
5917072644,全成藥局,臺中市南屯區大墩６街２２３號,120.6464,24.14254,(04)24712897,羅氏家用新冠病毒抗原自我檢測套組,1,2022/05/01 15:40:02,實名制快篩每日15:00開始販售-售完為止（庫存以現場為主）
5921010072,統一藥局,臺南市東區中西里東門路１段２９１號,120.2186,22.98683,(06)2376638,羅氏家用新冠病毒抗原自我檢測套組,40,2022/05/01 15:40:02,早上9點到晚間9點半  星期日休假
5921010223,王藥局,臺南市東區小東里小東路１９０－１號,120.2276,22.99976,(06)2378697,羅氏家用新冠病毒抗原自我檢測套組,2,2022/05/01 15:40:02,週一 至 週日，下午 2:00 ~ 晚上9:00 （ 需健保卡 ）
5921012085,台安藥局,臺南市東區大同路一段１６３號,120.2113,22.98503,(06)2150011,羅氏家用新冠病毒抗原自我檢測套組,78,2022/05/01 15:40:02,快篩下午四點開始銷售
5921020185,安心藥局,臺南市南區喜東里喜樹路１５１巷３３號,120.18,22.94099,(06)2622570,羅氏家用新冠病毒抗原自我檢測套組,78,2022/05/01 15:40:02,快篩服務時間 星期一至星期五 上午8時至10時
5921060205,建壽藥局,臺南市安南區海東里海佃路２段５７２號,120.1874,23.04221,(06)2555388,羅氏家用新冠病毒抗原自我檢測套組,78,2022/05/01 15:40:02,快篩實名制早上8點開始販售
5921071360,蘋果藥師藥局,臺南市安平區健康三街２０６號,120.1688,22.98987,(06)2955351,羅氏家用新冠病毒抗原自我檢測套組,78,2022/05/01 15:40:02,快篩16:30-21:00販賣，請自備零錢.
5922012945,大明藥局,嘉義市東區大雅路二段６８２號,120.4663,23.47719,(05)2760958,羅氏家用新冠病毒抗原自我檢測套組,78,2022/05/01 15:40:02,4／30星期六9:00領號碼卡 10:00-11:00 販售 5／1 星期日 晚上8:00 快篩供應
5922013102,後庄藥局,嘉義市東區吳鳳南路６４９號,120.4594,23.45511,(05)2391233,羅氏家用新冠病毒抗原自我檢測套組,78,2022/05/01 15:40:02,快篩實名制，每天16:00開始販售，售完為止。
5922013184,軍輝啄木鳥藥局,嘉義市東區軍輝路２２２號,120.4588,23.455,(05)2395963,羅氏家用新冠病毒抗原自我檢測套組,78,2022/05/01 15:40:02,週一~日下午4:00開始
5922013193,民權藥局,嘉義市東區民權路１５５號１樓、１５７號１樓,120.4604,23.48374,(05)2775322,羅氏家用新冠病毒抗原自我檢測套組,78,2022/05/01 15:40:02,快篩實名制，每天16:00開始販售，售完為止。
5922021006,竹圍藥局,嘉義市西區友愛路２７０、２７２號,120.4339,23.4837,(05)2811233,羅氏家用新冠病毒抗原自我檢測套組,78,2022/05/01 15:40:02,快篩實名制，每天16:00開始販售，售完為止。
5922028881,中興中西藥局,嘉義市西區垂楊路５０１號,120.4422,23.47297,(05)2353096,羅氏家用新冠病毒抗原自我檢測套組,78,2022/05/01 15:40:02,周一至周五10點開始，周末下午5點開始，並依序販售快篩售完為止
5931010342,宏達大藥局,新北市板橋區莒光路１７號,121.47,25.02478,(02)22572345,羅氏家用新冠病毒抗原自我檢測套組,156,2022/05/01 15:40:02,快篩 晚上20:00開始販售! 不要打電話來 問題這麼多就到現場 也不給你問
5931010397,正成藥師藥局,新北市板橋區三民路２段１５４巷７號,121.4787,25.01515,(02)29512760,羅氏家用新冠病毒抗原自我檢測套組,156,2022/05/01 15:40:02,無
5931014420,萬泰藥局,新北市板橋區信義路２２１之１號,121.4597,24.99145,(02)89645570,羅氏家用新冠病毒抗原自我檢測套組,78,2022/05/01 15:40:02,無
5931014555,廣益藥局,新北市板橋區自由路２１號,121.4654,25.02296,(02)22545726,羅氏家用新冠病毒抗原自我檢測套組,78,2022/05/01 15:40:02,無
5931014831,詠濟藥局,新北市板橋區幸福路２３號,121.4618,25.02023,(02)22536951,羅氏家用新冠病毒抗原自我檢測套組,20,2022/05/01 15:40:02,無
5931015187,皇慶藥局,新北市板橋區南門街８１、８３號１、２樓及館前西路１１２巷７號,121.4568,25.0077,(02)29655351,羅氏家用新冠病毒抗原自我檢測套組,13,2022/05/01 15:40:02,現場排隊／號碼牌發放防疫口罩時間自09:00
5931015981,立安中西藥局,新北市板橋區後埔街８３號１樓,121.4607,25.00523,(02)29582241,羅氏家用新冠病毒抗原自我檢測套組,1,2022/05/01 15:40:02,無
5931017289,板橋大樹藥局,新北市板橋區忠孝路２８號（１樓）,121.4603,25.00176,(02)29555551,羅氏家用新冠病毒抗原自我檢測套組,78,2022/05/01 15:40:02,快篩實名制，每天16:00開始販售，售完為止。
5931017529,埔全藥局,新北市板橋區忠孝路３３號（１樓）,121.4608,25.00206,(02)29567309,羅氏家用新冠病毒抗原自我檢測套組,78,2022/05/01 15:40:02,實名快篩 早上10點39份／晚上7點39份 賣完為止
5931017636,福澤藥局,新北市板橋區南雅南路１段８５號（１樓）,121.4556,25.00543,(02)29690013,羅氏家用新冠病毒抗原自我檢測套組,78,2022/05/01 15:40:02,口罩代售9:00-23:00
5931017789,明翠藥局,新北市板橋區四維路１４６、１４８號１、２樓,121.4651,25.02555,(02)22550201,羅氏家用新冠病毒抗原自我檢測套組,78,2022/05/01 15:40:02,快篩實名制，每天16:00開始販售，售完為止。
5931017814,順儷新板藥局,新北市板橋區漢生東路１８７號１樓,121.4698,25.01181,(02)29512590,羅氏家用新冠病毒抗原自我檢測套組,9,2022/05/01 15:40:02,5／1 快篩9:40到貨! 請稍早有領到號碼牌的民眾盡速前往買快篩 謝謝!
5931017841,莊敬健康人生藥局,新北市板橋區莊敬路８７號１樓,121.4728,25.02645,(02)22570028,羅氏家用新冠病毒抗原自我檢測套組,4,2022/05/01 15:40:02,實名快篩下午2:30發放號碼牌及販售
5931017921,順儷民權藥局,新北市板橋區民權路２３４號１樓,121.4586,25.01453,(02)29609555,羅氏家用新冠病毒抗原自我檢測套組,14,2022/05/01 15:40:02,無
5931017985,松柏藥局,新北市板橋區松柏街９４號（１樓）,121.4767,25.03065,(02)82585223,羅氏家用新冠病毒抗原自我檢測套組,78,2022/05/01 15:40:02,快篩實名制，每天16:00開始販售，售完為止。
5931018026,莊敬藥局,新北市板橋區莊敬路１６３號（１樓）,121.4715,25.02456,(02)22551105,羅氏家用新冠病毒抗原自我檢測套組,78,2022/05/01 15:40:02,快篩實名制，每天16:00開始販售，售完為止。
5931018053,廣福健保藥局,新北市板橋區三民路１段７６號（１樓）,121.4793,25.02207,(02)29544288,羅氏家用新冠病毒抗原自我檢測套組,29,2022/05/01 15:40:02,實名制快篩每日下午16:00開始販售
5931018142,重慶藥局,新北市板橋區國慶路１２７號（１樓）,121.4608,24.99602,(02)29565586,羅氏家用新冠病毒抗原自我檢測套組,78,2022/05/01 15:40:02,快篩實名制，每天16:00開始販售，售完為止。
5931020562,力健藥局,新北市三重區自強路３段３８號,121.4868,25.07266,(02)29856255,羅氏家用新冠病毒抗原自我檢測套組,19,2022/05/01 15:40:02,無
5931023581,大重仁藥局,新北市三重區重新路５段５９２號１樓,121.4694,25.04539,(02)29958283,羅氏家用新冠病毒抗原自我檢測套組,39,2022/05/01 15:40:02,無
5931023858,開元藥局,新北市三重區正義北路３２４號２樓,121.4949,25.07039,(02)29873976,羅氏家用新冠病毒抗原自我檢測套組,59,2022/05/01 15:40:02,無
5931025441,尚好藥局,新北市三重區力行路２段１４２號１樓,121.4823,25.07611,(02)22863232,羅氏家用新冠病毒抗原自我檢測套組,78,2022/05/01 15:40:02,星期一~星期六早上9點開賣實名制，星期日公休
5931025610,大樹三重藥局,新北市三重區正義北路６６號１樓,121.4972,25.06415,(02)29713188,羅氏家用新冠病毒抗原自我檢測套組,78,2022/05/01 15:40:02,口罩販售時間：14:00 - 16:00
5931025914,仁美藥局,新北市三重區慈愛街５１號１、２樓,121.4861,25.07908,(02)22805150,羅氏家用新冠病毒抗原自我檢測套組,78,2022/05/01 15:40:02,快篩實名制，每天16:00開始販售，售完為止。
5931025932,永吉藥局,新北市三重區車路頭街９１號１樓,121.4844,25.07422,(02)22860432,羅氏家用新冠病毒抗原自我檢測套組,78,2022/05/01 15:40:02,快篩實名制，每天16:00開始販售，售完為止。
5931025969,躍獅欣欣藥局,新北市三重區正義北路２３３號１樓,121.496,25.06915,(02)29816955,羅氏家用新冠病毒抗原自我檢測套組,78,2022/05/01 15:40:02,16:00開始販售，15:50發號碼牌，離開視同放棄。
5931026073,重陽藥局,新北市三重區重陽路４段３６、３８號１樓,121.4913,25.06975,(02)29880456,羅氏家用新冠病毒抗原自我檢測套組,78,2022/05/01 15:40:02,快篩實名制，每天16:00開始販售，售完為止。
5931026082,大有藥局,新北市三重區中正北路２１３號１、２樓及２１５號１、２樓,121.4763,25.07013,(02)29885771,羅氏家用新冠病毒抗原自我檢測套組,78,2022/05/01 15:40:02,快篩實名制，每天16:00開始販售，售完為止。
5931026091,重新藥局,新北市三重區重新路４段１２號１樓,121.4888,25.05775,(02)29742700,羅氏家用新冠病毒抗原自我檢測套組,78,2022/05/01 15:40:02,快篩實名制，每天16:00開始販售，售完為止。
5931030013,皇誼藥局,新北市永和區文化路３３號,121.5147,25.01499,(02)29278732,羅氏家用新冠病毒抗原自我檢測套組,78,2022/05/01 15:40:02,無
5931032188,原大藥局,新北市永和區永和路１段２０號１樓,121.513,25.00471,(02)29272767,羅氏家用新冠病毒抗原自我檢測套組,1,2022/05/01 15:40:02,下午1點可領取
5931033961,永和大樹藥局,新北市永和區福和路１４３號１、２樓,121.5207,25.00766,(02)29233377,羅氏家用新冠病毒抗原自我檢測套組,78,2022/05/01 15:40:02,快篩實名制，每天16:00開始販售，售完為止。
5931034146,亮點藥局,新北市永和區竹林路７１號１樓,121.5186,25.01355,(02)89253895,羅氏家用新冠病毒抗原自我檢測套組,84,2022/05/01 15:40:02,快篩發放時段 下午16:30-18:00
5931040215,華新藥局,新北市中和區華新街７３號,121.5082,24.98392,(02)29448345,羅氏家用新冠病毒抗原自我檢測套組,78,2022/05/01 15:40:02,無
5931041061,裕壬藥局,新北市中和區新生街２０６、２０８號１樓,121.4836,24.99644,(02)32349358,羅氏家用新冠病毒抗原自我檢測套組,78,2022/05/01 15:40:02,快篩17:00領
5931043047,藥安藥局,新北市中和區廣福路１６號１樓,121.5052,25.00277,(02)22447066,羅氏家用新冠病毒抗原自我檢測套組,78,2022/05/01 15:40:02,星期日公休
5931043396,立健藥局,新北市中和區連城路３１７號１樓,121.4892,24.99607,(02)22230614,羅氏家用新冠病毒抗原自我檢測套組,78,2022/05/01 15:40:02,週一~週六營業時間均有口罩銷售 ，週日休假
5931043529,新雙和藥師藥局,新北市中和區中正路２８１－８號１樓,121.4943,24.99374,(02)22404276,羅氏家用新冠病毒抗原自我檢測套組,3,2022/05/01 15:40:02,無
5931043565,一安藥妝藥局,新北市中和區中和路９號１.２樓,121.4998,25.00221,(02)22483778,羅氏家用新冠病毒抗原自我檢測套組,78,2022/05/01 15:40:02,營業時間9:00~22:00
5931044268,冠品藥師藥局,新北市中和區連城路１１９號１樓,121.4963,24.9993,(02)22452129,羅氏家用新冠病毒抗原自我檢測套組,156,2022/05/01 15:40:02,無
5931044704,惠民藥局,新北市中和區中興街１５３號１樓,121.5001,24.99102,(02)22475303,羅氏家用新冠病毒抗原自我檢測套組,78,2022/05/01 15:40:02,口罩於8:40發放號碼牌，並同時開始領取。
5931045041,大誠藥局,新北市中和區民享街８７號１樓,121.4744,25.00162,(02)22258394,羅氏家用新冠病毒抗原自我檢測套組,1,2022/05/01 15:40:02,實名制快篩 每日下午03:30開始販售
5931045130,四維藥局,新北市中和區四維街３７巷２號１樓,121.5124,24.98679,(02)86681345,羅氏家用新冠病毒抗原自我檢測套組,78,2022/05/01 15:40:02,快篩實名制，每天16:00開始販售，售完為止。
5931045176,藥安連勝藥局,新北市中和區連勝街３７號１樓,121.4983,24.9977,(02)22425266,羅氏家用新冠病毒抗原自我檢測套組,78,2022/05/01 15:40:02,實名制快篩下午1點開始過卡配發
5931045229,佑全中和景新藥局,新北市中和區景新街３９５號１樓,121.5126,24.98995,(02)29431408,羅氏家用新冠病毒抗原自我檢測套組,81,2022/05/01 15:40:02,實名制快篩試劑---僅限5／1（日）第一階段14:00 開始販售78份，第二階段16:00 開始販售78份
5931050417,世明藥局,新北市新店區北新路３段１２０號１樓,121.5417,24.98174,(02)29122139,羅氏家用新冠病毒抗原自我檢測套組,78,2022/05/01 15:40:02,＜因4／30（六）、5／1（日）政府無配送快篩，故停售兩日＞ 快篩實名制販售時間：下午13:00~14:00
5931051558,信龍大藥局,新北市新店區安康路２段５６號,121.515,24.96385,(02)22115533,羅氏家用新冠病毒抗原自我檢測套組,60,2022/05/01 15:40:02,無
5931053169,貳品藥局,新北市新店區新和街７５號１樓,121.5205,24.98612,(02)89418890,羅氏家用新冠病毒抗原自我檢測套組,78,2022/05/01 15:40:02,實名制快篩下午一點開始發號碼牌，請不用提早到
5931053178,長照藥局,新北市新店區如意街１６號１樓,121.4944,24.94838,(02)22153325,羅氏家用新冠病毒抗原自我檢測套組,78,2022/05/01 15:40:02,無
5931053196,康心藥局,新北市新店區北新路３段１０４號１樓,121.5419,24.9812,(02)86655858,羅氏家用新冠病毒抗原自我檢測套組,8,2022/05/01 15:40:02,快篩販售：周一~週六，15:00開始（若遇物流延遲則順延），以現場排隊為主
5931053310,安和藥局,新北市新店區安和路３段１３７號１樓,121.517,24.9853,(02)86685309,羅氏家用新冠病毒抗原自我檢測套組,78,2022/05/01 15:40:02,111年春節連假期間1／31-2／4不營業
5931060342,十安藥局,新北市新莊區中港路３１６號,121.4524,25.04544,(02)29922859,羅氏家用新冠病毒抗原自我檢測套組,5,2022/05/01 15:40:02,自111／04／01起不再販賣實名制口罩
5931060557,一安藥局,新北市新莊區立德里新泰路２６８號,121.446,25.04029,(02)29941618,羅氏家用新冠病毒抗原自我檢測套組,78,2022/05/01 15:40:02,口罩發放時段，每日8:30~22:00 （發完為止）
5931060628,錄新藥局,新北市新莊區後港一路７６巷１０弄１號,121.427,25.02604,(02)22051849,羅氏家用新冠病毒抗原自我檢測套組,78,2022/05/01 15:40:02,無
5931067136,蒲陽藥局,新北市新莊區中港路５１４號,121.4518,25.05187,(02)29930069,羅氏家用新冠病毒抗原自我檢測套組,14,2022/05/01 15:40:02,無
5931068991,新莊健業藥局,新北市新莊區昌平街３７號１樓至２樓,121.4547,25.05221,(02)22798808,羅氏家用新冠病毒抗原自我檢測套組,78,2022/05/01 15:40:02,快篩實名制下午三點開始販售
5931069498,新杏藥局,新北市新莊區新泰路９９號１樓,121.449,25.03497,(02)22011012,羅氏家用新冠病毒抗原自我檢測套組,78,2022/05/01 15:40:02,固定週一至週日15:00開始發放號碼牌並依序販售口罩，售完為止。
5931069765,健業藥妝藥局,新北市新莊區中和街１３０號１樓,121.4475,25.04809,(02)22796279,羅氏家用新冠病毒抗原自我檢測套組,78,2022/05/01 15:40:02,口罩販售資訊:下午3點~11點販售
593106A566,一心春天藥局,新北市新莊區中和街１３號１樓、地下室,121.4481,25.04342,(02)89929482,羅氏家用新冠病毒抗原自我檢測套組,7,2022/05/01 15:40:02,每日下午3:00開始販售實名制快篩（14:40發號碼牌）
593106A833,欣國藥局,新北市新莊區富國路５７號１樓、２樓,121.4196,25.02625,(02)29080958,羅氏家用新冠病毒抗原自我檢測套組,3,2022/05/01 15:40:02,每天快篩劑發號碼牌AM09:30販賣AM09:30售完為止
593106A931,建安藥局,新北市新莊區建安街１１７號、１１９號１樓,121.4262,25.02406,(02)22051969,羅氏家用新冠病毒抗原自我檢測套組,78,2022/05/01 15:40:02,快篩實名制，每天16:00開始販售，售完為止。
593106A977,丹鳳藥局,新北市新莊區中正路７４５、７４７號（１樓）,121.4227,25.0288,(02)29065755,羅氏家用新冠病毒抗原自我檢測套組,78,2022/05/01 15:40:02,快篩實名制，每天16:00開始販售，售完為止。
593106B027,樂福藥局,新北市新莊區幸福路４８號１樓、幸福路６４巷２弄１６號１樓,121.4577,25.04953,(02)29923388,羅氏家用新冠病毒抗原自我檢測套組,62,2022/05/01 15:40:02,快篩每日上午11點發放號碼牌 下午2:30開始依號碼牌時間領取 4／30無快篩販售
593106B036,家嘉藥局,新北市新莊區自立街１０３號（１樓）,121.4553,25.04549,(02)89926488,羅氏家用新冠病毒抗原自我檢測套組,28,2022/05/01 15:40:02,無
593106B107,大樹新莊藥局,新北市新莊區新泰路５９號１樓、２樓,121.4494,25.03405,(02)22010566,羅氏家用新冠病毒抗原自我檢測套組,78,2022/05/01 15:40:02,快篩實名制，每天16:00開始販售，售完為止。
593106B205,藥師佛藥局,新北市新莊區中正路８８１之４號１樓,121.4175,25.02544,(02)29016625,羅氏家用新冠病毒抗原自我檢測套組,80,2022/05/01 15:40:02,晚上7點開始賣快篩，會預留警察消防人員額度，所以民眾購買額度不會是78盒！七點後不接電話，不用再打來問了！
593106B321,大樹幸福藥局,新北市新莊區幸福路６７２號１樓,121.4509,25.0493,(02)29981066,羅氏家用新冠病毒抗原自我檢測套組,78,2022/05/01 15:40:02,快篩實名制，每天16:00開始販售，售完為止。
593106B349,騰康藥局,新北市新莊區富國路１８４號１樓,121.4245,25.02446,(02)26793069,羅氏家用新冠病毒抗原自我檢測套組,78,2022/05/01 15:40:02,無
5931070053,仁一藥局,新北市樹林區中正路６２２號,121.4102,25.016,(02)26893915,羅氏家用新冠病毒抗原自我檢測套組,78,2022/05/01 15:40:02,快篩代售時間自08:30；現場排隊 （周日均為公休日）
5931072431,樹林大樹藥局,新北市樹林區育英街５４號１－２樓,121.4213,24.98928,(02)26815488,羅氏家用新冠病毒抗原自我檢測套組,78,2022/05/01 15:40:02,快篩實名制，每天16:00開始販售，售完為止。
5931081510,鶯歌藥局,新北市鶯歌區鶯桃路２段１１號１樓,121.3258,24.97205,(02)86778778,羅氏家用新冠病毒抗原自我檢測套組,78,2022/05/01 15:40:02,口罩販售時間：14:00 - 16:00
5931081547,信義健保藥局,新北市鶯歌區信義街６３號１樓,121.3534,24.95571,(02)86775563,羅氏家用新冠病毒抗原自我檢測套組,78,2022/05/01 15:40:02,4／30 晚上店休，暫不發放
5931091865,大新藥局,新北市三峽區大義路２５９號１樓,121.3774,24.94638,(02)86713204,羅氏家用新冠病毒抗原自我檢測套組,39,2022/05/01 15:40:02,實名制快篩下午2:50開始發號碼牌 3:00販售
5931091892,三峽藥局,新北市三峽區介壽路１段２７號１樓,121.3757,24.93321,(02)26738868,羅氏家用新冠病毒抗原自我檢測套組,78,2022/05/01 15:40:02,快篩實名制，每天16:00開始販售，售完為止。
5931092022,瑞達美藥局,新北市三峽區民權街１８０號１樓,121.3678,24.92983,(02)86741627,羅氏家用新冠病毒抗原自我檢測套組,78,2022/05/01 15:40:02,若政府有配送則早上9點10分開始發號碼牌，拿到號碼牌要離開請先寄卡付費，否則視同放棄
5931092095,禾雅藥局,新北市三峽區文化路１３０號（１樓）,121.3709,24.93626,(02)26718621,羅氏家用新冠病毒抗原自我檢測套組,20,2022/05/01 15:40:02,無
5931101973,良順藥局,新北市淡水區中山北路１段２４號１樓,121.4417,25.1751,(02)26218111,羅氏家用新冠病毒抗原自我檢測套組,78,2022/05/01 15:40:02,無
5931102336,淡大郭藥局,新北市淡水區英專路３２號１樓,121.4456,25.17008,(02)26229966,羅氏家用新冠病毒抗原自我檢測套組,61,2022/05/01 15:40:02,如有販售實名制快篩，時間為上午10點。（可至現場查看最新公告）
5931102434,西雅圖聯合藥局,新北市淡水區新市一路３段１０１巷１６弄２０號１樓,121.4471,25.18403,(02)26200910,羅氏家用新冠病毒抗原自我檢測套組,16,2022/05/01 15:40:02,實名制快篩劑販售時間:於下午2點30分依排隊順序發號碼牌、下午3點販賣。
5931102452,池慶藥局,新北市淡水區中山北路２段５號１樓,121.4443,25.18344,(02)26238852,羅氏家用新冠病毒抗原自我檢測套組,3,2022/05/01 15:40:02,快篩販售14:50到16:00
5931102489,水源藥局,新北市淡水區水源街１段１３３號１樓,121.447,25.172,(02)26295233,羅氏家用新冠病毒抗原自我檢測套組,78,2022/05/01 15:40:02,快篩實名制，每天16:00開始販售，售完為止。
5931112136,汐芷藥局,新北市汐止區福德一路２５５號,121.6335,25.06447,(02)26924087,羅氏家用新冠病毒抗原自我檢測套組,15,2022/05/01 15:40:02,每日8:30現場發放號碼牌，12:00~20:00前憑牌領取.逾時不候
5931112234,安泰藥局,新北市汐止區連興街１１４號１樓,121.6537,25.06284,(02)26488486,羅氏家用新冠病毒抗原自我檢測套組,78,2022/05/01 15:40:02,實名制快篩每天下午5點開始作業，現場排隊不發號碼牌
5931113071,蒲公英藥局,新北市汐止區連興街１２６號（１樓）,121.6538,25.06188,(02)26907770,羅氏家用新冠病毒抗原自我檢測套組,78,2022/05/01 15:40:02,實名制快篩銷售時間:下午17:00-19:00（無發放號碼牌）
5931113160,社后藥局,新北市汐止區康寧街４２４號１樓,121.6307,25.06801,(02)26956321,羅氏家用新冠病毒抗原自我檢測套組,78,2022/05/01 15:40:02,快篩實名制，每天16:00開始販售，售完為止。
5931113188,汐止藥局,新北市汐止區福德二路７０號１樓,121.6331,25.06651,(02)86932587,羅氏家用新冠病毒抗原自我檢測套組,78,2022/05/01 15:40:02,無
5931113197,博昱忠孝藥局,新北市汐止區忠孝東路２７８號（１樓）,121.6637,25.06809,(02)86423838,羅氏家用新冠病毒抗原自我檢測套組,77,2022/05/01 15:40:02,無
5931121411,長興堂藥局,新北市瑞芳區明燈路３段６９號１樓,121.8055,25.10824,(02)24972050,羅氏家用新冠病毒抗原自我檢測套組,34,2022/05/01 15:40:02,每周一至五上午8時半開始發放口罩。
5931121466,瑞芳藥局,新北市瑞芳區明燈路３段５９之１及５９之２號,121.8057,25.10812,(02)24966588,羅氏家用新冠病毒抗原自我檢測套組,78,2022/05/01 15:40:02,快篩實名制，每天16:00開始販售，售完為止。
5931130205,瑞益藥局,新北市土城區廣明街６３巷４號,121.4546,24.99356,(02)89668598,羅氏家用新冠病毒抗原自我檢測套組,75,2022/05/01 15:40:02,9:30開始賣快篩
5931132727,順儷藥師藥局,新北市土城區延和路１６之３號１樓,121.4644,24.98813,(02)22648655,羅氏家用新冠病毒抗原自我檢測套組,63,2022/05/01 15:40:02,春節期間看診時段請電洽
5931133546,宏林保健藥局,新北市土城區裕民路１３４號（１樓）,121.4515,24.98622,(02)82615919,羅氏家用新冠病毒抗原自我檢測套組,1,2022/05/01 15:40:02,無
5931133662,中央藥局,新北市土城區中央路２段８４、８６號（１樓）,121.4423,24.97885,(02)22630345,羅氏家用新冠病毒抗原自我檢測套組,78,2022/05/01 15:40:02,快篩實名制，每天16:00開始販售，售完為止。
5931133680,土城金城藥局,新北市土城區裕民路２８０號１、２樓,121.4554,24.982,(02)22631616,羅氏家用新冠病毒抗原自我檢測套組,78,2022/05/01 15:40:02,快篩實名制，每天16:00開始販售，售完為止。
5931142634,華安大藥局,新北市蘆洲區長安街４８號１樓,121.4633,25.07973,(02)22881168,羅氏家用新冠病毒抗原自我檢測套組,90,2022/05/01 15:40:02,無
5931143275,集賢藥局,新北市蘆洲區信義路２２２巷６１號１、２樓,121.4813,25.08535,(02)22882400,羅氏家用新冠病毒抗原自我檢測套組,78,2022/05/01 15:40:02,快篩實名制，每天16:00開始販售，售完為止。
5931143300,大樹蘆洲藥局,新北市蘆洲區民族路２６５號１樓,121.4762,25.09063,(02)22810747,羅氏家用新冠病毒抗原自我檢測套組,78,2022/05/01 15:40:02,無
5931143319,大樹長榮藥局,新北市蘆洲區長榮路６１、６１－１號１樓,121.4624,25.0833,(02)28480567,羅氏家用新冠病毒抗原自我檢測套組,78,2022/05/01 15:40:02,快篩實名制，每天16:00開始販售，售完為止。
5931151277,永任藥局,新北市五股區水碓路９號１樓,121.4336,25.07236,(02)22911093,羅氏家用新冠病毒抗原自我檢測套組,57,2022/05/01 15:40:02,5／1 販售時間下午3:20開賣
5931151302,宏安藥局,新北市五股區成泰路２段１３６號,121.4382,25.08369,(02)22915932,羅氏家用新冠病毒抗原自我檢測套組,92,2022/05/01 15:40:02,口罩販售時間:每日08:15~23:00售完為止 星期日如果前一日還有庫存，當日照常販售
5931151660,祐康藥師藥局,新北市五股區五福路３６號１樓,121.4339,25.08922,(02)82921335,羅氏家用新冠病毒抗原自我檢測套組,78,2022/05/01 15:40:02,口罩代售時間:一至六早上8:30開始販售， 星期日早上9:00
5931151713,五股藥局,新北市五股區成泰路１段２３５之２號（１樓）,121.4363,25.07968,(02)22951150,羅氏家用新冠病毒抗原自我檢測套組,78,2022/05/01 15:40:02,快篩實名制，每天16:00開始販售，售完為止。
5931170129,麗園藥局,新北市林口區麗園一街６巷１－４號１Ｆ,121.3766,25.07012,(02)26009405,羅氏家用新冠病毒抗原自我檢測套組,78,2022/05/01 15:40:02,無
5931171411,康旭藥局,新北市林口區麗園一街６巷９號１樓－３,121.3751,25.07145,(02)26007808,羅氏家用新冠病毒抗原自我檢測套組,78,2022/05/01 15:40:02,口罩販賣時間：星期一到星期六08:00-17:30，售完為止。（星期日暫停販售）
5931171582,綠園藥局,新北市林口區仁愛路２段１０５號１樓,121.3843,25.07507,(02)86012258,羅氏家用新冠病毒抗原自我檢測套組,5,2022/05/01 15:40:02,上午8:30-12:00、下午2:30-18:00、晚上18:00-21:30
5931171779,全球忠孝藥局,新北市林口區忠孝路４９７號１樓,121.3708,25.07028,(02)26092139,羅氏家用新冠病毒抗原自我檢測套組,1,2022/05/01 15:40:02,營業時間:9:00-22:00
5931171813,力行藥局,新北市林口區文化３路１段４２３、４２５號１、２樓,121.3653,25.07438,(02)26080711,羅氏家用新冠病毒抗原自我檢測套組,78,2022/05/01 15:40:02,快篩實名制，每天16:00開始販售，售完為止。
5931171822,榮昌藥局,新北市林口區仁愛路１段４１０號１樓,121.3867,25.07683,(02)26011312,羅氏家用新冠病毒抗原自我檢測套組,2,2022/05/01 15:40:02,實名制快篩15:00開賣唷！
5931171886,林口辰安藥局,新北市林口區文化三路１段１９１巷５號１樓,121.3619,25.07016,(02)26099151,羅氏家用新冠病毒抗原自我檢測套組,156,2022/05/01 15:40:02,快篩1600開始販售，現場排隊領取
5931181159,信東深坑北深藥局,新北市深坑區北深路３段１０３號１樓,121.6056,25.00171,(02)77092976,羅氏家用新冠病毒抗原自我檢測套組,78,2022/05/01 15:40:02,快篩代售時間自13:00 ； 現場排隊
5931250015,松南藥局,新北市雙溪區中華路２９號,121.8658,25.03728,(02)24931085,羅氏家用新冠病毒抗原自我檢測套組,24,2022/05/01 15:40:02,週一至週五營業至晚上21點.週六至20點週日至12點
5932011638,明光藥局,桃園市桃園區中山東路１１７之１號,121.317,24.9968,(03)3380427,羅氏家用新冠病毒抗原自我檢測套組,2,2022/05/01 15:40:02,口罩販賣時段：0900-1200--1400-1800
5932012813,桃園大興藥局,桃園市桃園區大興西路二段７６巷３號,121.2984,25.01183,(03)3013222,羅氏家用新冠病毒抗原自我檢測套組,78,2022/05/01 15:40:02,快篩實名制，每天16:00開始販售，售完為止。
5932013338,合豐藥局,桃園市桃園區中山東路８２號,121.3176,24.99664,(03)3394007,羅氏家用新冠病毒抗原自我檢測套組,78,2022/05/01 15:40:02,口罩販售時間：週一至週日
5932013374,芳鄰藥局,桃園市桃園區昆明路３９號,121.3173,24.98372,(03)3679498,羅氏家用新冠病毒抗原自我檢測套組,78,2022/05/01 15:40:02,無
5932013392,桃園中正藥局,桃園市桃園區中正路３７３號,121.3079,24.99955,(03)3381600,羅氏家用新冠病毒抗原自我檢測套組,78,2022/05/01 15:40:02,快篩實名制，每天16:00開始販售，售完為止。
5932013436,和康藥局,桃園市桃園區三民路三段５６９號１樓,121.3076,24.98395,(03)3672399,羅氏家用新冠病毒抗原自我檢測套組,78,2022/05/01 15:40:02,快篩販售時間:周一至周六上午8:30發放號碼牌.
5932013687,桃園春日藥局,桃園市桃園區春日路８７８號,121.3096,25.01561,(03)3580101,羅氏家用新冠病毒抗原自我檢測套組,78,2022/05/01 15:40:02,快篩實名制，每天16:00開始販售，售完為止。
5932013721,桃園民光藥局,桃園市桃園區中正路５６９號,121.3049,25.0041,(03)3364888,羅氏家用新冠病毒抗原自我檢測套組,78,2022/05/01 15:40:02,快篩實名制，每天16:00開始販售，售完為止。
5932013749,桃園寶山藥局,桃園市桃園區寶山街７２號,121.3175,25.01291,(03)3250562,羅氏家用新冠病毒抗原自我檢測套組,78,2022/05/01 15:40:02,快篩實名制，每天16:00開始販售，售完為止。
5932013909,莊敬長青藥師藥局,桃園市桃園區莊敬路一段３２３號１樓,121.2971,25.02393,(03)3587676,羅氏家用新冠病毒抗原自我檢測套組,78,2022/05/01 15:40:02,4／30（六）5／1（日）快篩下午4:30販售 之後販售時間另行公布
5932013918,益壽藥局,桃園市桃園區中山路８２８、８３０、８３２、８３４、８３６號,121.2902,24.99093,(03)3693100,羅氏家用新冠病毒抗原自我檢測套組,78,2022/05/01 15:40:02,快篩實名制，每天16:00開始販售，售完為止。
5932013990,福澤大業藥局,桃園市桃園區大業路１段４２２號１樓,121.3118,25.01473,(03)3563865,羅氏家用新冠病毒抗原自我檢測套組,37,2022/05/01 15:40:02,家用快篩販賣時段15:30至售完為止
5932014004,同德辰安藥局,桃園市桃園區同德十街２５號,121.294,25.01835,(03)3012028,羅氏家用新冠病毒抗原自我檢測套組,78,2022/05/01 15:40:02,實名制快篩試劑於下午4點開始販售，現場排隊，沒有發放號碼牌。
5932014059,桃園南平藥局,桃園市桃園區南平路３０２－１號１樓,121.2989,25.01855,(03)3165222,羅氏家用新冠病毒抗原自我檢測套組,78,2022/05/01 15:40:02,快篩實名制，每天16:00開始販售，售完為止。
5932014273,藝文藥局,桃園市桃園區大興西路１段１６５號,121.3049,25.01414,(03)3261789,羅氏家用新冠病毒抗原自我檢測套組,78,2022/05/01 15:40:02,快篩實名制，每天16:00開始販售，售完為止。
5932014326,闔新藥局,桃園市桃園區中正路５７６號１樓,121.3054,25.00388,(03)3317279,羅氏家用新冠病毒抗原自我檢測套組,78,2022/05/01 15:40:02,營業時間:9:00-21:00，實名制快篩領取時間14:30開始，現場排隊
5932014415,多多藥局,桃園市桃園區南平路１８３號１樓,121.3022,25.01946,(03)3162133,羅氏家用新冠病毒抗原自我檢測套組,7,2022/05/01 15:40:02,實名制快篩販售時段[下午3:00~3:30]
5932014424,桃園中山藥局,桃園市桃園區中山路７０７號,121.2914,24.99079,(03)2207168,羅氏家用新冠病毒抗原自我檢測套組,78,2022/05/01 15:40:02,快篩實名制，每天16:00開始販售，售完為止。
5932014460,桃鶯藥局,桃園市桃園區桃鶯路１０２號,121.318,24.98516,(03)3675100,羅氏家用新冠病毒抗原自我檢測套組,78,2022/05/01 15:40:02,快篩實名制，每天16:00開始販售，售完為止。
5932017112,全安藥師藥局,桃園市桃園區寶慶路４２９號,121.29,25.01915,(03)3023107,羅氏家用新冠病毒抗原自我檢測套組,75,2022/05/01 15:40:02,快篩實名制09:00~~售完為止（週日休息）
5932020360,日進藥局,桃園市中壢區中山東路二段１５６號,121.2394,24.95276,(03)4569132,羅氏家用新冠病毒抗原自我檢測套組,78,2022/05/01 15:40:02,營業時間:早上08:30至晚上09:30（周日下午休息）
5932020548,生富藥師藥局,桃園市中壢區新明里中央西路二段７６號,121.2162,24.95848,(03)4941475,羅氏家用新冠病毒抗原自我檢測套組,68,2022/05/01 15:40:02,口罩販賣時段：早上7:30後
5932021269,優良藥局,桃園市中壢區長春路２０號,121.2499,24.97907,(03)4612336,羅氏家用新冠病毒抗原自我檢測套組,1,2022/05/01 15:40:02,口罩販賣時段：9:30-10:30
5932022355,新家福藥局,桃園市中壢區福州二街４１９號,121.2325,24.968,(03)4621658,羅氏家用新冠病毒抗原自我檢測套組,69,2022/05/01 15:40:02,實名制快篩販售時間: 15:30開始至售完為止
5932022524,家佳聯合藥局,桃園市中壢區中光路１４號,121.2256,24.95717,(03)4273960,羅氏家用新冠病毒抗原自我檢測套組,78,2022/05/01 15:40:02,實名制快篩:12：00販賣，售完為止
5932022631,中壢中正藥局,桃園市中壢區中正路３６３、３６５號,121.2163,24.95532,(03)4014100,羅氏家用新冠病毒抗原自我檢測套組,78,2022/05/01 15:40:02,快篩實名制，每天16:00開始販售，售完為止。
5932023058,福澤健行藥局,桃園市中壢區健行路１３９號,121.2275,24.94943,(03)4681988,羅氏家用新冠病毒抗原自我檢測套組,39,2022/05/01 15:40:02,家用快篩販賣時段15:30至售完為止
5932023094,中壢民權藥局,桃園市中壢區民權路３２６、３２８號,121.2054,25.0001,(03)4014961,羅氏家用新冠病毒抗原自我檢測套組,1,2022/05/01 15:40:02,實聯制快篩每天78份週一至週六下午1350拿取號碼牌1400開始販售.依序入場販售.過號視同放棄
5932023281,裕翔藥局,桃園市中壢區榮民路４８號１樓,121.2606,24.96956,(03)4355499,羅氏家用新冠病毒抗原自我檢測套組,115,2022/05/01 15:40:02,快篩下午五點販售
5932023512,大順藥局,桃園市中壢區興仁路三段５６號,121.2642,24.95469,(03)4654675,羅氏家用新冠病毒抗原自我檢測套組,59,2022/05/01 15:40:02,營業時間:8:00-22:30；口罩販賣時段：早上8點
5932023807,東興藥局,桃園市中壢區中北路２段３９號,121.224,24.95033,(03)4282611,羅氏家用新冠病毒抗原自我檢測套組,78,2022/05/01 15:40:02,快篩實名制，每天16:00開始販售，售完為止。
5932023889,華勛藥局,桃園市中壢區華勛街１１２、１１４號,121.2597,24.95065,(03)4161881,羅氏家用新冠病毒抗原自我檢測套組,78,2022/05/01 15:40:02,快篩實名制，每天16:00開始販售，售完為止。
5932023914,內壢忠孝藥局,桃園市中壢區忠孝路３６號,121.2566,24.97338,(03)4636641,羅氏家用新冠病毒抗原自我檢測套組,78,2022/05/01 15:40:02,快篩實名制，每天16:00開始販售，售完為止。
5932023923,朝日藥局,桃園市中壢區新生路１２９號,121.2227,24.96044,(03)2805882,羅氏家用新冠病毒抗原自我檢測套組,1,2022/05/01 15:40:02,實名快篩下午3點發號碼牌，下午3點30分發放試劑
5932023932,龍東藥局,桃園市中壢區龍東路２０５號,121.2523,24.92966,(03)4383088,羅氏家用新冠病毒抗原自我檢測套組,78,2022/05/01 15:40:02,快篩實名制，每天16:00開始販售，售完為止。
5932023996,青瑭藥局,桃園市中壢區民權路４段２７７號１樓,121.2022,25.00625,(03)2875901,羅氏家用新冠病毒抗原自我檢測套組,1,2022/05/01 15:40:02,無
5932024215,幸運星藥師藥局,桃園市中壢區龍東路４４號１樓,121.2502,24.9284,(03)4563356,羅氏家用新冠病毒抗原自我檢測套組,39,2022/05/01 15:40:02,快篩實名制，實際發售以官網及店公佈欄公告為主
5932024279,中壢環東藥局,桃園市中壢區中山東路２段１９３號,121.2404,24.95171,(03)4562345,羅氏家用新冠病毒抗原自我檢測套組,78,2022/05/01 15:40:02,快篩實名制，每天16:00開始販售，售完為止。
5932028311,千福藥局,桃園市中壢區高鐵站前西路二段８７號,121.2203,25.00709,(03)4533789,羅氏家用新冠病毒抗原自我檢測套組,78,2022/05/01 15:40:02,口罩販賣時段-上午九時至售完為止
5932028491,新典藥局,桃園市中壢區龍東路４２５號,121.2561,24.93391,(03)4371986,羅氏家用新冠病毒抗原自我檢測套組,78,2022/05/01 15:40:02,8:00-12:00；15:00-21:00；三節營業至12:00／口罩販賣時段：08：00發放號碼牌
5932031578,宜暉健保藥局,桃園市大溪區介壽路７１８號,121.2849,24.90544,(03)3806695,羅氏家用新冠病毒抗原自我檢測套組,156,2022/05/01 15:40:02,9:00-22:00／端午.中秋.除夕~初三休息／快篩販賣時間19:00發號碼牌，售完為止
5932031729,德安堂藥局,桃園市大溪區介壽路８９２號,121.2837,24.90016,(03)3808173,羅氏家用新冠病毒抗原自我檢測套組,78,2022/05/01 15:40:02,口罩販賣時段：14:00 - 16:00
5932031747,欣康藥局,桃園市大溪區員林路２段３９０－６號,121.2677,24.88412,(03)3076310,羅氏家用新冠病毒抗原自我檢測套組,121,2022/05/01 15:40:02,快篩販賣時段：15:30
5932031881,大溪藥局,桃園市大溪區康莊路１６０號,121.2886,24.8808,(03)3873873,羅氏家用新冠病毒抗原自我檢測套組,78,2022/05/01 15:40:02,快篩實名制，每天16:00開始販售，售完為止。
5932040246,龍泰藥局,桃園市楊梅區民族路五段１４７巷２號,121.1736,24.9586,(03)4901525,羅氏家用新冠病毒抗原自我檢測套組,78,2022/05/01 15:40:02,口罩販售時間：08:00開賣至11:00
5932042679,得康美藥局,桃園市楊梅區環南路１２８號１樓,121.1466,24.90164,(03)4788128,羅氏家用新冠病毒抗原自我檢測套組,1,2022/05/01 15:40:02,口罩販售時段~A:10:00-11:00 B:15:30-16:30 C:19:30-20:30
5932043130,宜康美藥局,桃園市楊梅區環東路４５２號,121.1571,24.91005,(03)4883805,羅氏家用新冠病毒抗原自我檢測套組,63,2022/05/01 15:40:02,口罩販賣時段：早上09:30~10:30（100份）下午15:30~16:30（50份）晚上19:30~20:30（50份）
5932043336,楊梅藥局,桃園市楊梅區大成路１４８、１５０號,121.1458,24.91148,(03)4880776,羅氏家用新冠病毒抗原自我檢測套組,78,2022/05/01 15:40:02,快篩實名制，每天16:00開始販售，售完為止。
5932051329,恆安藥局,桃園市蘆竹區忠孝西路２４號,121.2924,25.04425,(03)2120206,羅氏家用新冠病毒抗原自我檢測套組,79,2022/05/01 15:40:02,口罩販賣時段：下午16:00  晚上20:00
5932052433,承昇藥局,桃園市蘆竹區桃園街８６號,121.2918,25.04607,(03)3211085,羅氏家用新冠病毒抗原自我檢測套組,78,2022/05/01 15:40:02,口罩販賣時段：週一~週五10:00~12:00
5932052540,南竹健保藥局,桃園市蘆竹區南竹路一段７６號１樓,121.2909,25.04691,(03)3526182,羅氏家用新冠病毒抗原自我檢測套組,2,2022/05/01 15:40:02,口罩販賣時段：週一至週日10-22點販售  晚上18-19交班用餐時間不販售
5932052979,南崁藥局,桃園市蘆竹區中正路２５１、２５３、２５５號,121.2921,25.04695,(03)3522022,羅氏家用新冠病毒抗原自我檢測套組,78,2022/05/01 15:40:02,快篩實名制，每天16:00開始販售，售完為止。
5932053047,桃園大竹藥局,桃園市蘆竹區大竹路３６５號,121.2652,25.01997,(03)3235959,羅氏家用新冠病毒抗原自我檢測套組,80,2022/05/01 15:40:02,快篩實名制，每天16:00開始販售，售完為止。
5932060088,銘方大藥局,桃園市大園區大園里中華路３２號,121.1982,25.06647,(03)3865077,羅氏家用新冠病毒抗原自我檢測套組,1,2022/05/01 15:40:02,快篩試劑販賣時段 : 早上 8:30 起至售完為止
5932060177,勝峰藥師藥局,桃園市大園區菓林里３鄰菓林路５１號１樓,121.2585,25.07499,(03)3835588,羅氏家用新冠病毒抗原自我檢測套組,78,2022/05/01 15:40:02,16:00
5932062484,園正藥局,桃園市大園區中正東路７５號,121.2003,25.06315,(03)3865250,羅氏家用新冠病毒抗原自我檢測套組,78,2022/05/01 15:40:02,快篩實名制，每天16:00開始販售，售完為止。
5932077056,桃園龜山藥局,桃園市龜山區萬壽路二段８９６號,121.3394,24.99586,(03)3203312,羅氏家用新冠病毒抗原自我檢測套組,78,2022/05/01 15:40:02,快篩實名制，每天16:00開始販售，售完為止。
5932077305,全興藥局,桃園市龜山區光峰路１５３號１樓,121.3427,25.0026,(03)3597901,羅氏家用新冠病毒抗原自我檢測套組,78,2022/05/01 15:40:02,上午8:30開始販售實名制快篩試劑，禮拜日公休。
5932077510,左外野藥局,桃園市龜山區文光街６號１樓,121.3802,25.05471,(03)3271503,羅氏家用新冠病毒抗原自我檢測套組,155,2022/05/01 15:40:02,快篩販售時間:19:30-20:30 （週五公休）
5932077574,樂樂聯合藥局,桃園市龜山區萬壽路１段１０９號１、２樓,121.4091,25.01886,(02)82000560,羅氏家用新冠病毒抗原自我檢測套組,2,2022/05/01 15:40:02,無
5932077592,南崁南祥藥局,桃園市龜山區南祥路４６號,121.2975,25.04633,(03)2227733,羅氏家用新冠病毒抗原自我檢測套組,78,2022/05/01 15:40:02,快篩實名制，每天16:00開始販售，售完為止。
5932077627,文興藥局,桃園市龜山區復興一路１０２號１、２、３樓,121.368,25.0592,(03)3285330,羅氏家用新冠病毒抗原自我檢測套組,78,2022/05/01 15:40:02,快篩實名制，每天16:00開始販售，售完為止。
5932077645,美康萬壽藥局,桃園市龜山區萬壽路１段３２５號１、２樓,121.4024,25.0169,(02)82000001,羅氏家用新冠病毒抗原自我檢測套組,78,2022/05/01 15:40:02,5／1下午兩點開始發號碼牌販售公費快篩
5932080455,日鴻藥局,桃園市八德區義勇街１７５號,121.3065,24.96335,(03)3763304,羅氏家用新冠病毒抗原自我檢測套組,6,2022/05/01 15:40:02,口罩販賣時段：早上9:00 發號碼牌下午4:00~6:00領取
5932083545,興豐藥局,桃園市八德區介壽路二段一一七五號,121.2975,24.93165,(03)3654229,羅氏家用新冠病毒抗原自我檢測套組,57,2022/05/01 15:40:02,口罩販賣時段：7:20~10:00
5932083974,晨鴻藥師藥局,桃園市八德區桃鶯路７號１樓,121.3265,24.97179,(03)3764299,羅氏家用新冠病毒抗原自我檢測套組,78,2022/05/01 15:40:02,兒童口罩早上8:30領取號碼牌 一定發完 因為一天只有20個名額 ，請勿再打電話詢問 謝謝
5932084300,博泰藥局,桃園市八德區介壽路二段９８２號,121.2973,24.93407,(03)3731010,羅氏家用新冠病毒抗原自我檢測套組,78,2022/05/01 15:40:02,口罩販賣時段：14:00 - 16:00
5932084695,康馥藥局,桃園市八德區金和路５３號１樓,121.2971,24.95494,(03)3749620,羅氏家用新冠病毒抗原自我檢測套組,85,2022/05/01 15:40:02,口罩販賣時段：15:00 ， 週日14:30開始營業；星期六公休。
5932084793,美康健保藥局,桃園市八德區桃鶯路９１號１、２樓,121.328,24.97036,(03)3613624,羅氏家用新冠病毒抗原自我檢測套組,78,2022/05/01 15:40:02,無
5932084864,阿寶藥局,桃園市八德區東勇一路６號,121.3064,24.96452,(03)3750060,羅氏家用新冠病毒抗原自我檢測套組,26,2022/05/01 15:40:02,無
5932099776,愛心藥局,桃園市龍潭區五福街１５巷３號,121.2177,24.86528,(03)4706717,羅氏家用新冠病毒抗原自我檢測套組,78,2022/05/01 15:40:02,口罩販賣時段：0800～售完
5932099963,龍潭北龍藥局,桃園市龍潭區北龍路２７５號,121.2174,24.8681,(03)4893123,羅氏家用新冠病毒抗原自我檢測套組,88,2022/05/01 15:40:02,快篩實名制，每天16:00開始販售，售完為止。
5932100210,福澤中豐藥局,桃園市平鎮區中豐路３４５號,121.2116,24.91034,(03)4283805,羅氏家用新冠病毒抗原自我檢測套組,5,2022/05/01 15:40:02,家用快篩販賣時段15:30至售完為止
5932100685,閤家康聯合藥局,桃園市平鎮區中豐路山頂段２５６號,121.2108,24.89805,(03)4194550,羅氏家用新冠病毒抗原自我檢測套組,11,2022/05/01 15:40:02,快篩販賣時段:15:00
5932100863,新昕藥局,桃園市平鎮區東社里龍南路９２號１樓,121.2463,24.92401,(03)4509616,羅氏家用新冠病毒抗原自我檢測套組,156,2022/05/01 15:40:02,快篩販售時間  下午2:00，目前六、日無販售
5932101226,平鎮中豐藥局,桃園市平鎮區中豐路山頂段１６４號,121.2109,24.90035,(03)4690939,羅氏家用新冠病毒抗原自我檢測套組,77,2022/05/01 15:40:02,快篩實名制，每天16:00開始販售，售完為止。
5932123008,立明藥局,桃園市觀音區草漯里大觀路二段３３－１號１樓,121.1433,25.04796,(03)4838292,羅氏家用新冠病毒抗原自我檢測套組,78,2022/05/01 15:40:02,下午兩點開始販售快篩
5932124096,松樹藥師藥局,桃園市觀音區中山路二段777號,121.1382,25.01172,(03)4988995,羅氏家用新冠病毒抗原自我檢測套組,78,2022/05/01 15:40:02,快篩販售時間：14:00~售完為止.
5932124381,日昇藥局,桃園市觀音區成功路一段７８１號,121.119,25.05221,(03)4834212,羅氏家用新冠病毒抗原自我檢測套組,6,2022/05/01 15:40:02,下午4點開始販售快篩試劑
5933011196,高平堂藥局,新竹縣關西鎮正義路66號,121.1762,24.79269,(03)5872263,羅氏家用新冠病毒抗原自我檢測套組,1,2022/05/01 15:40:02,相關公告 請搜尋FB【高平堂藥局】
5933011267,關西藥局,新竹縣關西鎮中山路６８號,121.1764,24.79148,(03)5171121,羅氏家用新冠病毒抗原自我檢測套組,79,2022/05/01 15:40:02,快篩實名制，每天16:00開始販售，售完為止。
5933020104,廣和藥局,新竹縣新埔鎮中正路２９２號,121.0807,24.82769,(035)885959,羅氏家用新冠病毒抗原自我檢測套組,6,2022/05/01 15:40:02,實名制快篩 下午15:00開始販售
5933031652,合康藥局,新竹縣竹東鎮興農街１１號,121.0861,24.73988,(03)5103818,羅氏家用新冠病毒抗原自我檢測套組,76,2022/05/01 15:40:02,實名制快篩時段：下午17:00~22:30
5933031769,竹東朝陽藥局,新竹縣竹東鎮朝陽路１號１、２樓,121.0852,24.74199,(03)5111166,羅氏家用新冠病毒抗原自我檢測套組,78,2022/05/01 15:40:02,口罩販售時間：14:00 - 16:00
5933031885,東林藥局,新竹縣竹東鎮東林路８０號,121.0913,24.73683,(03)5961321,羅氏家用新冠病毒抗原自我檢測套組,78,2022/05/01 15:40:02,快篩實名制，每天16:00開始販售，售完為止。
5933052866,晶華藥局,新竹縣竹北市莊敬南路１１０號１樓,121.0203,24.81736,(03)5502107,羅氏家用新冠病毒抗原自我檢測套組,1,2022/05/01 15:40:02,4／28 14:00  販售公費快篩
5933052955,仁里藥局,新竹縣竹北市勝利二路１２５號,121.0278,24.82236,(03)6673878,羅氏家用新冠病毒抗原自我檢測套組,78,2022/05/01 15:40:02,口罩販賣時段：星期一~日10:00-12:00
5933053023,禾坊藥局,新竹縣竹北市科大一路８５號,121.0095,24.82142,(03)5588797,羅氏家用新冠病毒抗原自我檢測套組,78,2022/05/01 15:40:02,口罩販賣時段：09:00
5933053041,中一藥局,新竹縣竹北市文興路一段２４２號１樓,121.0287,24.81018,(03)6670827,羅氏家用新冠病毒抗原自我檢測套組,78,2022/05/01 15:40:02,更新:快篩販售時間下午16:00
5933053158,竹北啄木鳥藥局,新竹縣竹北市博愛街１８３號,121.0054,24.83222,(03)5539420,羅氏家用新冠病毒抗原自我檢測套組,1,2022/05/01 15:40:02,政府防疫口罩販售時段 : 10:00起至21:00為止
5933053292,成功藥局,新竹縣竹北市成功三路６９號,121.0239,24.81934,(03)5509117,羅氏家用新冠病毒抗原自我檢測套組,78,2022/05/01 15:40:02,快篩實名制，每天16:00開始販售，售完為止。
5933053381,佑全竹北中正藥局,新竹縣竹北市中正西路１７６、１７８號１樓,120.9991,24.84149,(03)5556235,羅氏家用新冠病毒抗原自我檢測套組,2,2022/05/01 15:40:02,實名制快篩每日14:00開賣 （13:40發號碼牌）
5933053489,十興藥局,新竹縣竹北市莊敬五街７５號,121.0268,24.82346,(03)6684889,羅氏家用新冠病毒抗原自我檢測套組,78,2022/05/01 15:40:02,快篩實名制，每天16:00開始販售，售完為止。
5933053550,六家藥局,新竹縣竹北市六家一路一段１６３號,121.0289,24.80958,(03)6578456,羅氏家用新冠病毒抗原自我檢測套組,78,2022/05/01 15:40:02,快篩實名制，每天16:00開始販售，售完為止。
5933053596,中華藥局,新竹縣竹北市中華路２２６號１、２樓,121.0028,24.83118,(03)5513031,羅氏家用新冠病毒抗原自我檢測套組,78,2022/05/01 15:40:02,快篩實名制，每天16:00開始販售，售完為止。
5933053603,竹北光明藥局,新竹縣竹北市光明一路１３７號,121.0157,24.83023,(03)5584545,羅氏家用新冠病毒抗原自我檢測套組,78,2022/05/01 15:40:02,快篩實名制，每天16:00開始販售，售完為止。
5933061463,如家藥師藥局,新竹縣湖口鄉工業區光復東路２４９號,121.0242,24.86913,(03)5972606,羅氏家用新冠病毒抗原自我檢測套組,78,2022/05/01 15:40:02,口罩販賣時段：星期一~五14:00-20:00／星期六、日19:00-21:00
5933061712,湖山藥局,新竹縣湖口鄉中山路二段１２７號,121.0439,24.90198,(03)5904999,羅氏家用新冠病毒抗原自我檢測套組,78,2022/05/01 15:40:02,快篩實名制，每天16:00開始販售，售完為止。
5933061767,合康藥局湖口,新竹縣湖口鄉民族街１２６號,121.0456,24.90316,(03)6992365,羅氏家用新冠病毒抗原自我檢測套組,78,2022/05/01 15:40:02,星期一~六 16:30發放號碼牌，17:00開始領取，19:00之前領取完畢。
5933080119,建仁藥局,新竹縣新豐鄉建興路一段１２２號,120.9951,24.87287,(03)5595850,羅氏家用新冠病毒抗原自我檢測套組,4,2022/05/01 15:40:02,快篩販賣時段：每天早晨07:00開始.賣完為止
5933081536,昌昌藥局,新竹縣新豐鄉新市路１９３號,120.9846,24.90465,(03)5598077,羅氏家用新冠病毒抗原自我檢測套組,15,2022/05/01 15:40:02,5／1 下午 3點半 賣快篩
5933081607,新豐藥局,新竹縣新豐鄉中興路２０８、２１０號,120.9949,24.87571,(03)5575005,羅氏家用新冠病毒抗原自我檢測套組,78,2022/05/01 15:40:02,快篩實名制，每天16:00開始販售，售完為止。
5934010013,永安藥局,宜蘭縣宜蘭市復興路６１號,121.7542,24.74964,(03)9332039,羅氏家用新冠病毒抗原自我檢測套組,78,2022/05/01 15:40:02,快篩販售時間，早上8:30-12:00下午2:30-9:00 （周六8:30-12:00）
5934012473,宜蘭藥局,宜蘭縣宜蘭市泰山路３６號,121.7485,24.75524,(03)9365168,羅氏家用新冠病毒抗原自我檢測套組,78,2022/05/01 15:40:02,快篩實名制，每天16:00開始販售，售完為止。
5934020019,樺生藥師連鎖藥局,宜蘭縣羅東鎮中正路３７號,121.7706,24.6737,(03)9543432,羅氏家用新冠病毒抗原自我檢測套組,78,2022/05/01 15:40:02,每日7:30發售直至購完
5934022175,公正藥局,宜蘭縣羅東鎮興東路１３７、１３９號,121.769,24.6802,(03)9560543,羅氏家用新冠病毒抗原自我檢測套組,78,2022/05/01 15:40:02,快篩實名制，每天16:00開始販售，售完為止。
5935012146,聯合藥師藥局,苗栗縣苗栗市社寮街１４５號,120.8248,24.56724,(037)264425,羅氏家用新冠病毒抗原自我檢測套組,78,2022/05/01 15:40:02,無
5935012360,心惠聯合藥局,苗栗縣苗栗市中山路１８８號１樓,120.8235,24.56541,(037)377389,羅氏家用新冠病毒抗原自我檢測套組,78,2022/05/01 15:40:02,口罩販賣時段：10:30-售完 週日預約制
5935012413,苗栗藥局,苗栗縣苗栗市光復路５５號,120.8165,24.5532,(037)360789,羅氏家用新冠病毒抗原自我檢測套組,78,2022/05/01 15:40:02,快篩實名制，每天16:00開始販售，售完為止。
5935021261,永信藥師藥局,苗栗縣苑裡鎮和平路７２－１號,120.6549,24.44096,(037)857069,羅氏家用新冠病毒抗原自我檢測套組,57,2022/05/01 15:40:02,無
5935021430,苑裡藥局,苗栗縣苑裡鎮為公路３２－１號,120.6541,24.44247,(037)851331,羅氏家用新冠病毒抗原自我檢測套組,78,2022/05/01 15:40:02,快篩實名制，每天16:00開始販售，售完為止。
5935030180,通霄藥局,苗栗縣通霄鎮中山路１３１號,120.678,24.48903,(037)755155,羅氏家用新冠病毒抗原自我檢測套組,73,2022/05/01 15:40:02,快篩實名制，每天16:00開始販售，售完為止。
5935041914,合康連鎖藥局,苗栗縣竹南鎮博愛街２７０號,120.8725,24.68724,(037)474987,羅氏家用新冠病毒抗原自我檢測套組,78,2022/05/01 15:40:02,販售快篩時間為下午17:00開始販售
5935041996,新欣藥局,苗栗縣竹南鎮龍山路一段１６０號１樓,120.8665,24.692,(037)471503,羅氏家用新冠病毒抗原自我檢測套組,78,2022/05/01 15:40:02,無
5935061452,後龍藥局,苗栗縣後龍鎮中山路２０９號１樓,120.7931,24.6127,(037)723660,羅氏家用新冠病毒抗原自我檢測套組,78,2022/05/01 15:40:02,快篩實名制，每天16:00開始販售，售完為止。
5935091245,芳鄰藥局,苗栗縣公館鄉玉泉村玉泉３６８之１１號,120.8267,24.50749,(037)223727,羅氏家用新冠病毒抗原自我檢測套組,1,2022/05/01 15:40:02,口罩販賣時段：13:00~售完
5935130023,民享藥局,苗栗縣三義鄉廣盛村中正路１４７之３號,120.772,24.41316,(037)871498,羅氏家用新冠病毒抗原自我檢測套組,78,2022/05/01 15:40:02,口罩販賣時段：早上7點開始到售完
5936012551,豐原福倫藥局,臺中市豐原區中正路２９６號,120.7156,24.25173,(04)25276618,羅氏家用新冠病毒抗原自我檢測套組,5,2022/05/01 15:40:02,防疫口罩販賣時段：下午2：00-3：00。
5936090224,海源大藥局,臺中市潭子區潭秀里中山路２段４８７號,120.705,24.216,(04)25312187,羅氏家用新冠病毒抗原自我檢測套組,68,2022/05/01 15:40:02,快篩試劑下午3點開始販賣。
5936102998,妙昌藥局學府店,臺中市大雅區學府路２９９號,120.6491,24.22479,(04)25689841,羅氏家用新冠病毒抗原自我檢測套組,17,2022/05/01 15:40:02,周一至周日14:40開始發號碼牌同時販售口罩
5936150341,原全成藥局,臺中市烏日區中山路一段３８７號１樓,120.6388,24.10773,(04)23361818,羅氏家用新冠病毒抗原自我檢測套組,59,2022/05/01 15:40:02,5／1 快篩下午3：30開始販售！售完為止.
5936151393,辰采藥局,臺中市烏日區學田路５８８號,120.6073,24.12307,(04)23372207,羅氏家用新冠病毒抗原自我檢測套組,78,2022/05/01 15:40:02,5／1快篩18:00~開賣時間以到貨時間為主，此處與藥局line帳號會公布當日發售時間
5936171386,國際大藥局,臺中市龍井區藝術街６號,120.5954,24.18751,(04)26522118,羅氏家用新冠病毒抗原自我檢測套組,1,2022/05/01 15:40:02,口罩販售時間W一至W六 10:30AM-10PM，但12-3pm休息，W日5PM-10PM
5936180152,祥暘藥局,臺中市霧峰區中正路１１６２號,120.6996,24.07068,(04)23391346,羅氏家用新冠病毒抗原自我檢測套組,78,2022/05/01 15:40:02,快篩實名制，每天16:00開始販售，售完為止。
5936192134,樹德大藥局,臺中市太平區樹德路１０２號１樓,120.7115,24.15386,(04)23981782,羅氏家用新冠病毒抗原自我檢測套組,32,2022/05/01 15:40:02,下午3點開始領號碼牌，分流領取，請勿依賴網站庫存
5937010140,三立大藥局,彰化縣彰化市中華西路１１１號,120.5321,24.07338,(04)7635422,羅氏家用新冠病毒抗原自我檢測套組,78,2022/05/01 15:40:02,周一至週日下午四點半開始排隊　並依續販售　售完截止..
5937010159,彰化明德藥局,彰化縣彰化市興北里三民路２０９號,120.5425,24.08556,(04)7299085,羅氏家用新冠病毒抗原自我檢測套組,25,2022/05/01 15:40:02,正常調劑時間8:30~22:00（調劑時間皆有賣口罩）
5937010462,杏全藥局,彰化縣彰化市忠權里彰美路一段１８５號,120.5377,24.08868,(04)7240547,羅氏家用新冠病毒抗原自我檢測套組,10,2022/05/01 15:40:02,快篩販售：下午3點
5937010819,日榮堂藥局,彰化縣彰化市光華里和平路５０號,120.5406,24.08,(04)7222396,羅氏家用新冠病毒抗原自我檢測套組,16,2022/05/01 15:40:02,每日15:30開始販售
5937013132,正光藥局彰南店,彰化縣彰化市中庄里彰南路１段２１號,120.5662,24.08841,(04)7321003,羅氏家用新冠病毒抗原自我檢測套組,78,2022/05/01 15:40:02,領藥來正光.防疫實名制快篩13:30開始販售
5937013436,大埔藥局,彰化縣彰化市大埔路４０６、４０８、４１０、４１２號,120.5439,24.06298,(04)7117511,羅氏家用新冠病毒抗原自我檢測套組,78,2022/05/01 15:40:02,快篩實名制，每天16:00開始販售，售完為止。
5937013561,友誼藥局彰化店,彰化縣彰化市辭修路１９１－２號,120.5376,24.08413,(04)7288865,羅氏家用新冠病毒抗原自我檢測套組,5,2022/05/01 15:40:02,周一到周五10點半至11點半販賣快篩，星期日下午2點
5937013570,彰化藥局,彰化縣彰化市永安街２７８、２８０號,120.5438,24.08977,(04)7287877,羅氏家用新冠病毒抗原自我檢測套組,70,2022/05/01 15:40:02,快篩實名制，每天16:00開始販售，售完為止。
5937013767,民族藥局,彰化縣彰化市民族路２１２號１樓,120.5393,24.071,(04)7261221,羅氏家用新冠病毒抗原自我檢測套組,78,2022/05/01 15:40:02,快篩實名制，每天16:00開始販售，售完為止。
5937021509,老信和藥局,彰化縣鹿港鎮頂番里鹿和路四段４０號,120.4811,24.08594,(04)7711098,羅氏家用新冠病毒抗原自我檢測套組,78,2022/05/01 15:40:02,周一至周五09:00~21:30周六09:00~12:00
5937021750,正光藥局鹿港店,彰化縣鹿港鎮永安里復興路２５１號,120.438,24.05569,(04)7775769,羅氏家用新冠病毒抗原自我檢測套組,78,2022/05/01 15:40:02,口罩販售時間:每日13點30分開始販售。
5937021849,大樹鹿港藥局,彰化縣鹿港鎮中正路１９３號,120.4405,24.05491,(04)7772226,羅氏家用新冠病毒抗原自我檢測套組,78,2022/05/01 15:40:02,快篩實名制，每天16:00開始販售，售完為止。
5937031747,大樹和美藥局,彰化縣和美鎮道周路５０１號,120.494,24.10896,(04)7550090,羅氏家用新冠病毒抗原自我檢測套組,78,2022/05/01 15:40:02,快篩實名制，每天16:00開始販售，售完為止。
5937041449,維德藥局,彰化縣北斗鎮復興路１８號,120.5284,23.87284,(04)8889033,羅氏家用新冠病毒抗原自我檢測套組,46,2022/05/01 15:40:02,星期日公休
5937051847,天一藥局,彰化縣員林市光明里中正路４４１號,120.5724,23.95817,(04)8384875,羅氏家用新冠病毒抗原自我檢測套組,68,2022/05/01 15:40:02,固定周一到周六，早上14:30開始販賣防疫口罩（現場排隊）。
5937052059,華衛藥局,彰化縣員林市惠來里南昌路９６號,120.5719,23.95464,(04)8397503,羅氏家用新冠病毒抗原自我檢測套組,82,2022/05/01 15:40:02,快篩販售時間8:20至09:50
5937052264,醫聯藥師藥局,彰化縣員林市三條里員東路二段４１０號１樓,120.5811,23.95898,(04)8360617,羅氏家用新冠病毒抗原自我檢測套組,9,2022/05/01 15:40:02,快篩實名制每天下午15:00開始販售，售完為止
5937052335,大樹三民藥局,彰化縣員林市三民東街３５６號,120.5825,23.96065,(04)8372837,羅氏家用新冠病毒抗原自我檢測套組,78,2022/05/01 15:40:02,快篩實名制，每天16:00開始販售，售完為止。
5937052451,統信藥局,彰化縣員林市正興街３７２號,120.5722,23.95997,(04)8367089,羅氏家用新冠病毒抗原自我檢測套組,7,2022/05/01 15:40:02,無
5937052479,莒光藥局,彰化縣員林市莒光路３１６號１樓,120.5669,23.95942,(04)8361388,羅氏家用新冠病毒抗原自我檢測套組,78,2022/05/01 15:40:02,快篩實名制，每天16:00開始販售，售完為止。
5937052488,大樹員林藥局,彰化縣員林市大同路二段２０７號,120.5745,23.96891,(04)8331353,羅氏家用新冠病毒抗原自我檢測套組,78,2022/05/01 15:40:02,快篩實名制，每天16:00開始販售，售完為止。
5937052513,正光藥局員林店,彰化縣員林市三民東街３１０、３１２號,120.5814,23.96036,(04)8328765,羅氏家用新冠病毒抗原自我檢測套組,78,2022/05/01 15:40:02,實名制快篩下午13:30開始販售
5937061718,東環藥局,彰化縣溪湖鎮湖東街８１巷７０－３、７０－４、７０－５號,120.4833,23.95861,(04)8820001,羅氏家用新冠病毒抗原自我檢測套組,78,2022/05/01 15:40:02,快篩實名制，每天16:00開始販售，售完為止。
5937061736,平和藥局,彰化縣溪湖鎮彰水路三段２７７、２７９號１樓,120.4801,23.95959,(04)8816880,羅氏家用新冠病毒抗原自我檢測套組,78,2022/05/01 15:40:02,快篩實名制，每天16:00開始販售，售完為止。
5937071474,田中藥局,彰化縣田中鎮新生街１５０巷２號,120.5862,23.8621,(04)8761988,羅氏家用新冠病毒抗原自我檢測套組,78,2022/05/01 15:40:02,快篩實名制，每天16:00開始販售，售完為止。
5937081596,二林藥局,彰化縣二林鎮斗苑路五段３９號,120.3709,23.89951,(04)8950010,羅氏家用新冠病毒抗原自我檢測套組,79,2022/05/01 15:40:02,快篩實名制，每天16:00開始販售，售完為止。
5937101271,信義藥局,彰化縣伸港鄉新港村信義路７１號,120.4859,24.14681,(04)7982232,羅氏家用新冠病毒抗原自我檢測套組,78,2022/05/01 15:40:02,快篩實名制，每天16:00開始販售，售完為止。
5937121317,彰水藥局,彰化縣秀水鄉彰水路二段４２５、４２７、４２９號１樓,120.4943,24.02791,(04)7685880,羅氏家用新冠病毒抗原自我檢測套組,78,2022/05/01 15:40:02,快篩實名制，每天16:00開始販售，售完為止。
5937140045,新得大藥局,彰化縣芬園鄉社口村彰南路四段７４號,120.6285,24.01306,(049)2521753,羅氏家用新冠病毒抗原自我檢測套組,30,2022/05/01 15:40:02,設備異常  暫停銷售快篩
5937161133,石埤藥局,彰化縣埔鹽鄉石埤村番金路８０之１６號,120.4225,23.98887,(04)8655146,羅氏家用新冠病毒抗原自我檢測套組,2,2022/05/01 15:40:02,週一至週日早上08:00開始販賣快篩.售完為止。
5937181304,永靖藥局,彰化縣永靖鄉瑚璉路１１６號,120.5505,23.92624,(04)8230220,羅氏家用新冠病毒抗原自我檢測套組,78,2022/05/01 15:40:02,快篩實名制，每天16:00開始販售，售完為止。
5937191300,社頭藥局,彰化縣社頭鄉社斗路一段３７３號,120.5846,23.89651,(04)8720030,羅氏家用新冠病毒抗原自我檢測套組,78,2022/05/01 15:40:02,快篩實名制，每天16:00開始販售，售完為止。
5937201061,長春藥局,彰化縣二水鄉文化村光文路１０３號,120.6167,23.81189,(04)8795289,羅氏家用新冠病毒抗原自我檢測套組,7,2022/05/01 15:40:02,早上8:00發放號碼牌，13:00開始販售至17:00止
5938010108,宏嘉藥局,南投縣南投市崇文里彰南路一段１１１４號,120.6854,23.90663,(049)2228073,羅氏家用新冠病毒抗原自我檢測套組,3,2022/05/01 15:40:02,配合政府防疫政策.快篩試劑每日下午3點開始販售.售完為止
5938011909,彰南藥局,南投縣南投市彰南路二段２１號,120.6845,23.90847,(049)2230005,羅氏家用新冠病毒抗原自我檢測套組,78,2022/05/01 15:40:02,無
5938020079,仁和藥局,南投縣埔里鎮薰化里中山路三段９７號,120.9631,23.96619,(049)2985470,羅氏家用新冠病毒抗原自我檢測套組,17,2022/05/01 15:40:02,固定周一至周日上午8.00，下午21:00販售，售完為止
5938030717,百安大藥局,南投縣草屯鎮中正路７０９號,120.6843,23.9805,(049)2305542,羅氏家用新冠病毒抗原自我檢測套組,78,2022/05/01 15:40:02,無
5938032480,草屯藥局,南投縣草屯鎮碧山路１４５、１４７號,120.6834,23.9778,(049)2362992,羅氏家用新冠病毒抗原自我檢測套組,78,2022/05/01 15:40:02,快篩實名制，每天16:00開始販售，售完為止。
5938032515,草屯丁丁藥局,南投縣草屯鎮太平路二段１７９號,120.6831,23.97335,(049)2330058,羅氏家用新冠病毒抗原自我檢測套組,29,2022/05/01 15:40:02,5月1號 今日號碼牌已發完
5938032560,祥陽藥局,南投縣草屯鎮中正路８２２、８２４號,120.6854,23.98276,(049)2353393,羅氏家用新冠病毒抗原自我檢測套組,78,2022/05/01 15:40:02,快篩實名制，每天16:00開始販售，售完為止。
5938041916,大明藥局,南投縣竹山鎮大明路４８２號,120.6798,23.759,(049)2652500,羅氏家用新冠病毒抗原自我檢測套組,78,2022/05/01 15:40:02,快篩實名制，每天16:00開始販售，售完為止。
5939012599,斗六藥局,雲林縣斗六市雲林路二段１１３號,120.534,23.70477,(05)5372300,羅氏家用新冠病毒抗原自我檢測套組,78,2022/05/01 15:40:02,快篩實名制，每天16:00開始販售，售完為止。
5939031576,良方藥局,雲林縣虎尾鎮中山路５７號,120.4344,23.70764,(05)6312106,羅氏家用新冠病毒抗原自我檢測套組,78,2022/05/01 15:40:02,週一至週六營業時間販售，吃飯時間休息
5939032724,虎尾藥局,雲林縣虎尾鎮林森路二段１１７、１１９號,120.4298,23.70595,(05)6336330,羅氏家用新冠病毒抗原自我檢測套組,312,2022/05/01 15:40:02,新開業，健保系統線路建置中，尚無法使用健保系統販售實名制快篩試劑。
5939041849,西螺藥局,雲林縣西螺鎮光復西路１２３、１２５號,120.4612,23.79675,(05)5872112,羅氏家用新冠病毒抗原自我檢測套組,78,2022/05/01 15:40:02,快篩實名制，每天16:00開始販售，售完為止。
5939050044,健康藥局,雲林縣土庫鎮順天里中正路１１號,120.388,23.6739,(05)6622889,羅氏家用新冠病毒抗原自我檢測套組,78,2022/05/01 15:40:02,代售口罩時間早上七點三十五分開始，現場排隊，售完為止
5939051238,天愛藥局,雲林縣土庫鎮中山路８０號,120.3903,23.6749,(05)6629923,羅氏家用新冠病毒抗原自我檢測套組,68,2022/05/01 15:40:02,無
5939061949,大樹北港藥局,雲林縣北港鎮華勝路９９號,120.2986,23.57559,(05)7830783,羅氏家用新冠病毒抗原自我檢測套組,78,2022/05/01 15:40:02,快篩實名制，每天16:00開始販售，售完為止。
5939071276,慈生藥局,雲林縣古坑鄉麻園村平和２２號,120.5203,23.6351,(05)5828222,羅氏家用新冠病毒抗原自我檢測套組,150,2022/05/01 15:40:02,週三.四.六.日下午3-5點販售實名制快篩
5939131482,麥津藥局,雲林縣麥寮鄉中山路３１３、３１５號,120.2527,23.74947,(05)6932258,羅氏家用新冠病毒抗原自我檢測套組,78,2022/05/01 15:40:02,快篩實名制，每天16:00開始販售，售完為止。
5939191380,亞洲藥局,雲林縣口湖鄉崙東村中山路７８－２號,120.1649,23.6175,(05)7991108,羅氏家用新冠病毒抗原自我檢測套組,78,2022/05/01 15:40:02,1000（賣完為止）
5940031368,溝背藥局,嘉義縣大林鎮義和里三塊厝７－７號,120.4859,23.61441,(05)2955878,羅氏家用新冠病毒抗原自我檢測套組,78,2022/05/01 15:40:02,週日下午晚上休息
5940031386,大樹大林藥局,嘉義縣大林鎮祥和路１９２號,120.4527,23.60447,(05)2641800,羅氏家用新冠病毒抗原自我檢測套組,78,2022/05/01 15:40:02,快篩實名制，每天16:00開始販售，售完為止。
5940031402,信沅中西藥局,嘉義縣大林鎮西林里０１１鄰中正路４２０號,120.4528,23.60129,(05)2656377,羅氏家用新冠病毒抗原自我檢測套組,78,2022/05/01 15:40:02,5／1（日） 晚上七點開始賣
5940041435,嘉方藥局,嘉義縣民雄鄉中樂村昇平路５８號,120.4303,23.55781,(05)2066747,羅氏家用新冠病毒抗原自我檢測套組,54,2022/05/01 15:40:02,早上08:00開始販賣，賣完為止
5940041739,民雄藥局,嘉義縣民雄鄉東榮村００５鄰建國路一段１１７號,120.4333,23.55681,(05)2264566,羅氏家用新冠病毒抗原自我檢測套組,78,2022/05/01 15:40:02,快篩實名制，每天16:00開始販售，售完為止。
5940060056,黃莉雅藥局,嘉義縣新港鄉宮前村新民路１６號,120.3468,23.55654,(05)3747329,羅氏家用新冠病毒抗原自我檢測套組,3,2022/05/01 15:40:02,5／1星期日銷售時間15:00開始.售完為止
5940111450,祥和藥局,嘉義縣太保市太保二路１４９號１樓,120.2951,23.45484,(05)3623006,羅氏家用新冠病毒抗原自我檢測套組,78,2022/05/01 15:40:02,周一至周六早上八點開始販售快篩，周六僅上午營業
5940120137,德安藥局,嘉義縣水上鄉南和村後寮２６之６號,120.362,23.41007,(05)2688835,羅氏家用新冠病毒抗原自我檢測套組,92,2022/05/01 15:40:02,星期日公休
5940121394,水上藥局,嘉義縣水上鄉水頭村中興路２６６號,120.4029,23.43014,(05)2601121,羅氏家用新冠病毒抗原自我檢測套組,78,2022/05/01 15:40:02,快篩實名制，每天16:00開始販售，售完為止。
5940131283,一心藥局,嘉義縣中埔鄉富收村頂中下街３１、３１－１號１樓,120.4885,23.45077,(05)2303553,羅氏家用新冠病毒抗原自我檢測套組,7,2022/05/01 15:40:02,無
5940131363,和睦藥局,嘉義縣中埔鄉中山路５段８２１號１樓,120.4618,23.45158,(05)2395283,羅氏家用新冠病毒抗原自我檢測套組,127,2022/05/01 15:40:02,5／2 補假休息
5940141305,東義藥局,嘉義縣竹崎鄉獅埜村東義２０－１８號,120.4898,23.51273,(05)2110957,羅氏家用新冠病毒抗原自我檢測套組,131,2022/05/01 15:40:02,無
5941020038,惠生藥局,臺南市鹽水區中正路３１號,120.2679,23.31999,(06)6522279,羅氏家用新冠病毒抗原自我檢測套組,78,2022/05/01 15:40:02,早上7:00~晚上21:00
5941041322,紘信藥局,臺南市麻豆區民生路３６之７號１樓,120.2541,23.18173,(06)5711289,羅氏家用新冠病毒抗原自我檢測套組,78,2022/05/01 15:40:02,1／1 休診一天
5941061173,杏安藥局,臺南市新化區武安里信義路３２０號,120.3063,23.03475,(06)5801081,羅氏家用新冠病毒抗原自我檢測套組,78,2022/05/01 15:40:02,週一至週六早8點開快篩販賣販賣
5941270163,太子藥局,臺南市仁德區太子里太子路３３８號,120.2577,22.99146,(06)2729906,羅氏家用新冠病毒抗原自我檢測套組,78,2022/05/01 15:40:02,5／1快篩 晚上8點 開始販賣
5942013331,泰安藥局,高雄市鳳山區仁愛路６－１號,120.3731,22.6226,(07)7037838,羅氏家用新冠病毒抗原自我檢測套組,4,2022/05/01 15:40:02,自4月起，中午時間（12：30~2：30）不販售實名制口罩。
5942013411,長喜藥局,高雄市鳳山區大明路７６號,120.342,22.60811,(07)7671007,羅氏家用新冠病毒抗原自我檢測套組,78,2022/05/01 15:40:02,固定周一至周六09:00-22:00  周日14:00-17:00購買快篩
5942013699,新怡安藥局,高雄市鳳山區海洋里新富路５１２號,120.3474,22.61403,(07)7633565,羅氏家用新冠病毒抗原自我檢測套組,2,2022/05/01 15:40:02,自2／11日~2／29日，營業日09:00~22:30為販賣口罩時間，售完為止，
5942013804,長喜連鎖藥局,高雄市鳳山區鳳甲路４９２號,120.3462,22.59758,(07)7961070,羅氏家用新冠病毒抗原自我檢測套組,78,2022/05/01 15:40:02,一.週日執業時間公休.
5942021735,長青連鎖藥局,高雄市岡山區碧紅里維新東街３３號,120.2977,22.79349,(07)6232566,羅氏家用新冠病毒抗原自我檢測套組,17,2022/05/01 15:40:02,營業日上午9:00~晚上10:00為販賣口罩時間，售完為止
5942060027,福民藥局,高雄市大寮區鳳林三路４０８號之１,120.3964,22.6036,(07)7816570,羅氏家用新冠病毒抗原自我檢測套組,3,2022/05/01 15:40:02,8:15發口罩號碼牌售完為止
5943012892,立健藥局,屏東縣屏東市勝利里廣東路９６２號,120.4862,22.68773,(08)7328039,羅氏家用新冠病毒抗原自我檢測套組,78,2022/05/01 15:40:02,營業日週一至週五09:00~21:00、
5943013639,屏東啄木鳥藥局,屏東縣屏東市民生路７９－２４號,120.4983,22.66705,(08)7210684,羅氏家用新冠病毒抗原自我檢測套組,5,2022/05/01 15:40:02,早上8:30開始販賣口罩，售完為止
5943014092,屏東藥局,屏東縣屏東市自由路６３１號,120.4824,22.683,(08)7323331,羅氏家用新冠病毒抗原自我檢測套組,78,2022/05/01 15:40:02,快篩實名制，每天16:00開始販售，售完為止。
5943014145,廣東藥局,屏東縣屏東市廣東路６８２－２．６８４號,120.4966,22.68527,(08)7362210,羅氏家用新冠病毒抗原自我檢測套組,78,2022/05/01 15:40:02,快篩實名制，每天16:00開始販售，售完為止。
5943014234,屏大藥局,屏東縣屏東市民生路５７－２１號,120.5038,22.66399,(08)7220369,羅氏家用新冠病毒抗原自我檢測套組,78,2022/05/01 15:40:02,快篩實名制，每天16:00開始販售，售完為止。
5943014341,和平藥局,屏東縣屏東市和平路３５號,120.4785,22.66651,(08)7556696,羅氏家用新冠病毒抗原自我檢測套組,78,2022/05/01 15:40:02,快篩實名制，每天16:00開始販售，售完為止。
5943021515,鈺康藥局,屏東縣潮州鎮四維路２１３號,120.5473,22.55472,(08)7800921,羅氏家用新冠病毒抗原自我檢測套組,78,2022/05/01 15:40:02,自3／2日~3／31日，周一至周五營業日8:30~為販賣口罩時間，售完為止，周六09:30~為販賣口罩時間，售完為止
5943021604,葉錦霖藥局,屏東縣潮州鎮新榮里中山五巷３－４號,120.5391,22.54882,(08)7885629,羅氏家用新冠病毒抗原自我檢測套組,7,2022/05/01 15:40:02,藥局販售口罩時間，依藥局門口公告時間為主（售完為止）
5943021695,立康藥局,屏東縣潮州鎮介壽路７７號１樓,120.5365,22.54417,(08)7800995,羅氏家用新冠病毒抗原自我檢測套組,61,2022/05/01 15:40:02,快篩實名制下午3:30開始販售，售完為止
5943021720,潮州藥局,屏東縣潮州鎮介壽路１－１號,120.536,22.54448,(08)7894000,羅氏家用新冠病毒抗原自我檢測套組,78,2022/05/01 15:40:02,快篩實名制，每天16:00開始販售，售完為止。
5943031735,愛樂活藥局,屏東縣東港鎮長春一路１１３－１號,120.4594,22.47111,(08)8312388,羅氏家用新冠病毒抗原自我檢測套組,78,2022/05/01 15:40:02,快篩販賣時間: 週一，二，四，五晚上7點開賣，週三，六（有夜市）下午3點開賣
5943031771,東港藥局,屏東縣東港鎮中正路２５７˙２５７－１號,120.4523,22.47022,(08)8325133,羅氏家用新冠病毒抗原自我檢測套組,78,2022/05/01 15:40:02,快篩實名制，每天16:00開始販售，售完為止。
5943041320,南門大藥局,屏東縣恆春鎮中正路８４號,120.7446,22.00343,(08)8894335,羅氏家用新冠病毒抗原自我檢測套組,78,2022/05/01 15:40:02,營業日16:00-21:00為販賣快篩時間（賣完為止）
5943061091,瑞安藥局,屏東縣長治鄉瑞源路１１號,120.5117,22.66511,(08)7237236,羅氏家用新冠病毒抗原自我檢測套組,42,2022/05/01 15:40:02,營業日08；00開始.12點到2點休息
5943081164,九如藥局,屏東縣九如鄉九如路二段２３０號,120.4893,22.73311,(08)7397777,羅氏家用新冠病毒抗原自我檢測套組,78,2022/05/01 15:40:02,實名制快篩販售時間:1600-售完為止
5943091197,葉藥局里港店,屏東縣里港鄉春林村永春路１７－５號１樓,120.4961,22.77736,(08)7750318,羅氏家用新冠病毒抗原自我檢測套組,4,2022/05/01 15:40:02,無
5943125214,萬和藥局,屏東縣萬巒鄉中正路２２－１０號,120.5678,22.57192,(08)7815556,羅氏家用新冠病毒抗原自我檢測套組,78,2022/05/01 15:40:02,快篩實名制，每天16:00開始販售，售完為止。
5943131561,南寧藥局,屏東縣內埔鄉南寧路２３號,120.5655,22.61723,(08)7690330,羅氏家用新冠病毒抗原自我檢測套組,78,2022/05/01 15:40:02,快篩實名制，每天16:00開始販售，售完為止。
5943190042,永清堂藥局,屏東縣林邊鄉永樂村榮農路５巷７－３號,120.5168,22.4385,(08)8755138,羅氏家用新冠病毒抗原自我檢測套組,14,2022/05/01 15:40:02,每日早上08:00開始販售口罩，售完為止
5944011442,澎躍藥局,澎湖縣馬公市大勇街６１號,119.5715,23.57207,(06)9276186,羅氏家用新冠病毒抗原自我檢測套組,1,2022/05/01 15:40:02,快篩實名制從PM3:00開始販售，售完為止。
5945013057,富強健康藥局,花蓮縣花蓮市國裕里２２鄰富強路１２８號,121.5971,23.99707,(03)8571839,羅氏家用新冠病毒抗原自我檢測套組,1,2022/05/01 15:40:02,營業時間: 上午 8:30~13:00 下午 17:30~21:30 公休日:另行通知。
5945021086,安康鳳林藥局,花蓮縣鳳林鎮仁愛街１０號１樓,121.4503,23.74937,(03)8762227,羅氏家用新冠病毒抗原自我檢測套組,9,2022/05/01 15:40:02,快篩發放時間，依現場公告為主，售完為止。
5945051646,花蓮建國藥局,花蓮縣吉安鄉建國路１段１３７－１號,121.5915,23.98574,(03)8461699,羅氏家用新冠病毒抗原自我檢測套組,80,2022/05/01 15:40:02,快篩實名制，每天16:00開始販售，售完為止。
5945051726,安康藥局,花蓮縣吉安鄉中山路３段３８４號,121.5689,23.97907,(03)8513951,羅氏家用新冠病毒抗原自我檢測套組,78,2022/05/01 15:40:02,口罩販售時間同營業時間
5945091113,瑞安藥局,花蓮縣瑞穗鄉中山路１段６號,121.3771,23.49752,(03)8876616,羅氏家用新冠病毒抗原自我檢測套組,78,2022/05/01 15:40:02,口罩販賣時間：每天上午8點開始販售，賣完為止。
5946012205,欣華藥局,臺東縣臺東市更生路７７號１樓,121.1486,22.75825,(089)320676,羅氏家用新冠病毒抗原自我檢測套組,78,2022/05/01 15:40:02,口罩販賣時間早上8:30到售完為止（星期ㄖ早上8:30售完為止）
5946012312,仁愛藥局,臺東縣臺東市光明路４０號,121.1539,22.75747,(089)350360,羅氏家用新冠病毒抗原自我檢測套組,78,2022/05/01 15:40:02,快篩實名制販售時間為8:00-9:00
5990010695,百泰藥局,金門縣金城鎮西海路１段１號,118.2864,24.41566,(082)312832,羅氏家用新冠病毒抗原自我檢測套組,78,2022/05/01 15:40:02,快篩實名制，每天16:00開始販售，售完為止。
