醫事機構代碼,醫事機構名稱,醫事機構地址,經度,緯度,醫事機構電話,廠牌項目,快篩試劑截至目前結餘存貨數量,來源資料時間,備註
2340170016,嘉義縣大埔鄉衛生所,嘉義縣大埔鄉大埔村５３－１號,120.5928,23.29397,(05)2521214,羅氏家用新冠病毒抗原自我檢測套組,56,2022/05/10 18:56:33,無
2342130010,高雄市田寮區衛生所,高雄市田寮區南安里崗北路３２號,120.3594,22.87301,(07)6361504,羅氏家用新冠病毒抗原自我檢測套組,234,2022/05/10 18:56:33,巡迴醫療:每星期一、四下午及每月第一個有上班的星期三下午巡迴醫療
2344011036,澎湖縣馬公市第三衛生所,澎湖縣馬公市西文里１１８之２號,119.5836,23.56813,(06)9211723,羅氏家用新冠病毒抗原自我檢測套組,21,2022/05/10 18:56:33,本所快篩試劑只提供離島衛生室（虎井、桶盤）販售，時間週一至週五08:30-17:00售完為止，星期六、日國定假日09:00-12:00。
2344030022,澎湖縣白沙鄉鳥嶼衛生所,澎湖縣白沙鄉鳥嶼村漁港新村３號,119.6599,23.66008,(06)9916092,羅氏家用新冠病毒抗原自我檢測套組,110,2022/05/10 18:56:33,非上班時間提供急診服務
2344030031,澎湖縣白沙鄉吉貝衛生所,澎湖縣白沙鄉吉貝村８－１３號,119.6138,23.74056,(06)9911430,羅氏家用新冠病毒抗原自我檢測套組,200,2022/05/10 18:56:33,無
2344050015,澎湖縣望安鄉衛生所,澎湖縣望安鄉西安村３６－７號,119.4972,23.36161,(06)9991036,羅氏家用新冠病毒抗原自我檢測套組,18,2022/05/10 18:56:33,夜間急診。快篩試劑販售時間為:每日08:00-12:00、13:30-17:30售完為止，如有餘數為離島未售出（東嶼坪、花嶼）。
2344050024,澎湖縣望安鄉將軍衛生所,澎湖縣望安鄉將軍村１２鄰將軍澳１之３號,119.5216,23.3615,(06)9902066,羅氏家用新冠病毒抗原自我檢測套組,12,2022/05/10 18:56:33,24小時急診
2391020010,連江縣北竿鄉衛生所,連江縣北竿鄉塘岐村２８１－６號,119.9991,26.22617,(083)655592,羅氏家用新冠病毒抗原自我檢測套組,7,2022/05/10 18:56:33,新冠快篩試劑販售於週一至周六每日上午08:30-12:00開放購買。
2391030016,連江縣莒光鄉西莒衛生所,連江縣莒光鄉青帆村１４－１號,119.9331,25.97157,(083)689122,羅氏家用新冠病毒抗原自我檢測套組,182,2022/05/10 18:56:33,防疫口罩星期一至五09:00-17:00、（六）09:00-12:00現場購買
2391030026,連江縣莒光鄉東莒衛生所,連江縣莒光鄉大坪村３０－１號,119.9731,25.96113,(083)689038,羅氏家用新冠病毒抗原自我檢測套組,460,2022/05/10 18:56:33,防疫口罩星期一至星期日上午10:00-12:00收取健保卡，下午3:30至本所領取口罩。
2391040012,連江縣東引鄉衛生所,連江縣東引鄉中柳村１２３號,120.4904,26.36701,(083)677206,羅氏家用新冠病毒抗原自我檢測套組,1,2022/05/10 18:56:33,防疫口罩每日10:00-12:00現場購買
5901013095,康采藥局,臺北市松山區南京東路５段２９１巷１７－２號,121.5663,25.05236,(02)27670271,羅氏家用新冠病毒抗原自我檢測套組,16,2022/05/10 18:56:33,（已完售，庫存不準）快篩試劑每日16點販售，週日沒有販售
5901013399,一安正昇藥局,臺北市松山區南京東路５段３０９號,121.5667,25.05155,(02)27680993,羅氏家用新冠病毒抗原自我檢測套組,1,2022/05/10 18:56:33,快篩發放時間  下午14:30
5901013693,民生盛康藥局,臺北市松山區民生東路５段２０４號１樓,121.5648,25.05826,(02)27460758,羅氏家用新冠病毒抗原自我檢測套組,51,2022/05/10 18:56:33,【每日70分】星期一~六9:00發號碼牌，11:00~20:00拿號碼牌回來領取，每人限1張號碼牌，逾時不候
5901020385,延吉大藥局,臺北市大安區延吉街１５３號１樓,121.5548,25.04066,(02)27819227,羅氏家用新冠病毒抗原自我檢測套組,78,2022/05/10 18:56:33,無
5901021408,生百藥局,臺北市大安區臨江街１２４號,121.5539,25.03024,(02)27371011,羅氏家用新冠病毒抗原自我檢測套組,27,2022/05/10 18:56:33,無
5901024221,安居藥局,臺北市大安區安居街１９號,121.5549,25.02085,(02)23773537,羅氏家用新冠病毒抗原自我檢測套組,78,2022/05/10 18:56:33,領快篩注意事項:週一到週五晚上7:30-9:00 週六早上8:00-12:00直接排隊購買 .週日不營業
5901024669,百岳藥局,臺北市大安區和平東路２段３１１巷１１號,121.5452,25.02514,(02)27551037,羅氏家用新冠病毒抗原自我檢測套組,3,2022/05/10 18:56:33,快篩試劑販售時間:周一至周五10:30~12:00止
5901024918,康祥藥局,臺北市大安區忠孝東路４段２１６巷２１號,121.5531,25.04025,(02)27817891,羅氏家用新冠病毒抗原自我檢測套組,1,2022/05/10 18:56:33,星期天11:00-19:00
5901025059,博醫仁愛藥局,臺北市大安區仁愛路４段８巷２號１樓,121.5443,25.0375,(02)27019107,羅氏家用新冠病毒抗原自我檢測套組,3,2022/05/10 18:56:33,每天11:30發號碼牌，12:00~15:00憑號碼牌與健保卡購買實名制快篩
5901100333,明美藥局,臺北市中山區長春路６９號,121.5266,25.05502,(02)25365419,羅氏家用新冠病毒抗原自我檢測套組,2,2022/05/10 18:56:33,口罩周一至周五，16:30-18:30販售
5901100422,滿順藥局,臺北市中山區伊通街５４號１樓,121.5347,25.05145,(02)25075283,羅氏家用新冠病毒抗原自我檢測套組,1,2022/05/10 18:56:33,快篩服務時間 AM 8:30 起 售完為止
5901101509,永直藥局,臺北市中山區北安路５９５巷２弄６號,121.5483,25.08192,(02)85098059,羅氏家用新冠病毒抗原自我檢測套組,166,2022/05/10 18:56:33,周一至周六早上8點發號碼牌，下午2點到晚上8點販售（拿號碼牌來買），周日不販售
5901101929,樂活苑藥局,臺北市中山區北安路５４６號１樓,121.548,25.08014,(02)25323296,羅氏家用新冠病毒抗原自我檢測套組,76,2022/05/10 18:56:33,實名制快篩代售時間為18:00~19:00.現場排隊，不發號碼牌.
5901102444,啟美藥師藥局,臺北市中山區錦州街２８２號,121.5352,25.06024,(02)25178032,羅氏家用新冠病毒抗原自我檢測套組,78,2022/05/10 18:56:33,快篩 販售時間 20點開賣到21點，星期六日公休
5901102686,富宥康藥局,臺北市中山區北安路６０８巷５弄２２號,121.5496,25.08263,(02)25325277,羅氏家用新冠病毒抗原自我檢測套組,78,2022/05/10 18:56:33,無
5901103629,十二願藥局,臺北市中山區林森北路３０９號,121.5256,25.05588,(02)25311223,羅氏家用新冠病毒抗原自我檢測套組,71,2022/05/10 18:56:33,快篩晚上8點開始發放.營業時間下午1點至凌晨3點
5901103790,可康藥局,臺北市中山區林森北路３７３號（１樓）,121.5257,25.05826,(02)25361078,羅氏家用新冠病毒抗原自我檢測套組,2,2022/05/10 18:56:33,快篩實名制晚上9點開始發放
5901112879,壹零捌藥局,臺北市內湖區成功路４段３４４號,121.5996,25.08488,(02)27910061,羅氏家用新冠病毒抗原自我檢測套組,1,2022/05/10 18:56:33,快篩晚上7:30開始販售（星期一至星期六）
5901150548,田倉藥局,臺北市士林區士東路１２４號,121.5302,25.11219,(02)88662188,羅氏家用新冠病毒抗原自我檢測套組,63,2022/05/10 18:56:33,每日19:00（傍晚7點）開始販售.
5901152079,資生堂藥局,臺北市士林區承德路４段４０巷１７號１Ｆ,121.522,25.08107,(02)28857588,羅氏家用新冠病毒抗原自我檢測套組,78,2022/05/10 18:56:33,今日快篩已售完
5901154028,向宇藥局,臺北市士林區德行東路２１７號１樓,121.5328,25.10935,(02)88661101,羅氏家用新冠病毒抗原自我檢測套組,15,2022/05/10 18:56:33,無
5901154082,德行盛康藥局,臺北市士林區德行東路２０６之１號１樓,121.532,25.1089,(02)28348756,羅氏家用新冠病毒抗原自我檢測套組,26,2022/05/10 18:56:33,無
5901154091,社正藥局,臺北市士林區社正路１２號１樓,121.5093,25.08854,(02)28118704,羅氏家用新冠病毒抗原自我檢測套組,30,2022/05/10 18:56:33,無
5901154135,誠泰中西藥局,臺北市士林區永平街１３號１樓,121.5051,25.08996,(02)88112352,羅氏家用新冠病毒抗原自我檢測套組,73,2022/05/10 18:56:33,周一到周六晚上7:00開始販賣，   周日上午10:00開賣到下午1:00
5901161890,良興藥局,臺北市北投區中和街２８６號,121.5004,25.14047,(02)28933360,羅氏家用新冠病毒抗原自我檢測套組,12,2022/05/10 18:56:33,18點30分點開始營業
5901163214,鴻恩藥局,臺北市北投區中央南路１段１２９號,121.5012,25.13015,(02)28926410,羅氏家用新冠病毒抗原自我檢測套組,78,2022/05/10 18:56:33,快篩試劑代售時間自08:30 ，現場排隊
5901163527,理得藥局,臺北市北投區石牌路１段１５０號,121.5131,25.11426,(02)28289680,羅氏家用新冠病毒抗原自我檢測套組,1,2022/05/10 18:56:33,每日13:30發放號碼牌 14:00開賣，售完為止。
5901163581,陳藥師藥局,臺北市北投區光明路２巷１３－２號（實際使用：１樓）,121.4997,25.13132,(02)28921971,羅氏家用新冠病毒抗原自我檢測套組,15,2022/05/10 18:56:33,無
5901173238,正和藥局,臺北市信義區吳興街２２５巷６號,121.5634,25.02782,(02)23455186,羅氏家用新冠病毒抗原自我檢測套組,4,2022/05/10 18:56:33,下午2點半發放快篩，週日無發放
5901173390,馨馨藥局,臺北市信義區虎林街８２巷１９號,121.5764,25.04336,(02)27491208,羅氏家用新冠病毒抗原自我檢測套組,1,2022/05/10 18:56:33,無
5901173818,博亞藥局,臺北市信義區莊敬路４６２號,121.5677,25.02672,(02)27580506,羅氏家用新冠病毒抗原自我檢測套組,39,2022/05/10 18:56:33,平日早上8:30、晚上8:00；假日早上8:30，發放號碼牌，持號碼牌購買!
5901173961,北一忠孝藥局,臺北市信義區忠孝東路５段５２４巷１弄１６號１樓,121.5802,25.04133,(02)23464588,羅氏家用新冠病毒抗原自我檢測套組,2,2022/05/10 18:56:33,實名制快篩一~六販早上10點販售，周日不販售
5901174011,寶春藥局,臺北市信義區虎林街１１９之１９號１樓,121.5771,25.04112,(02)27566501,羅氏家用新冠病毒抗原自我檢測套組,58,2022/05/10 18:56:33,實名制快篩每日19:00現場排隊販售
5901174057,詠晴中西藥局,臺北市信義區松山路４８４之４號（１樓含夾層）,121.5778,25.0389,(02)27266890,羅氏家用新冠病毒抗原自我檢測套組,14,2022/05/10 18:56:33,實名制快篩 - 16:30領號碼牌.當天取貨即可.避免群聚風險
5901174075,信義盛康藥局,臺北市信義區永吉路２８６號（１樓）,121.5744,25.04538,(02)23460521,羅氏家用新冠病毒抗原自我檢測套組,1,2022/05/10 18:56:33,無
5901180055,日生大藥局,臺北市中正區汀州路１段５３號１樓,121.5076,25.03026,(02)23031393,羅氏家用新冠病毒抗原自我檢測套組,78,2022/05/10 18:56:33,快篩試劑代售服務時間:（1）5月10日周二 晚上19點起開賣 售完為止
5901180368,古亭藥局,臺北市中正區汀州路３段１１７號,121.5301,25.01667,(02)23683618,羅氏家用新冠病毒抗原自我檢測套組,78,2022/05/10 18:56:33,實名制  快篩  預計每晚7:30 排隊人數額滿 就開賣    星期六早上休息 星期日休息
5901183387,丞良藥局,臺北市中正區南昌路１段７８號地下１樓,121.5173,25.03099,(02)33938868,羅氏家用新冠病毒抗原自我檢測套組,78,2022/05/10 18:56:33,週一~週五 晚上9:00~9:30現場領取，若排隊人潮過多會提早開賣
5901184080,活力健康藥妝藥局,臺北市中正區中華路２段３１５巷１號,121.5062,25.02795,(02)23392625,羅氏家用新冠病毒抗原自我檢測套組,3,2022/05/10 18:56:33,快篩14:00-15:00， 建議提早排隊
5901184179,保德中華藥局,臺北市中正區中華路２段１５９號,121.5042,25.03101,(02)23027720,羅氏家用新冠病毒抗原自我檢測套組,3,2022/05/10 18:56:33,快篩下午三點開始發號碼牌及販售，限當日購買
5901184213,71恩典藥局,臺北市中正區信義路２段７１號,121.5264,25.03466,(02)23223371,羅氏家用新冠病毒抗原自我檢測套組,77,2022/05/10 18:56:33,快篩販售：◆週一到週五19:00 ◆週六17:00，十分鐘前發號碼牌。拜託不要打電話詢問，超累!!
5901184535,桐心藥局,臺北市中正區金華街１８之６號１樓,121.5202,25.03175,(02)23581663,羅氏家用新冠病毒抗原自我檢測套組,6,2022/05/10 18:56:33,無
5901190668,聯慶大藥局,臺北市萬華區萬大路３０６號１樓,121.5003,25.02495,(02)23039850,羅氏家用新冠病毒抗原自我檢測套組,9,2022/05/10 18:56:33,無
5901193169,柏祥藥局,臺北市萬華區西藏路１４１號,121.5017,25.02944,(02)23018272,羅氏家用新冠病毒抗原自我檢測套組,9,2022/05/10 18:56:33,1快篩服務時間晚上6:00起售完截止。2販售詳情請見門口公告。3周日公休不販售。
5901193221,正盛藥局,臺北市萬華區中華路２段４３４－１號,121.5064,25.02708,(02)23050386,羅氏家用新冠病毒抗原自我檢測套組,66,2022/05/10 18:56:33,【5／9自費快篩+血氧機到貨!!】1.一~六20點，周日不賣 2.排隊人潮多，建議7點左右提前候位 3.詳情看公告或板橋正康臉書
5901193338,艾米力藥師藥局,臺北市萬華區西藏路１０７－２號１樓,121.5035,25.02955,(02)23036583,羅氏家用新冠病毒抗原自我檢測套組,59,2022/05/10 18:56:33,實名制快篩：周一~周五【晚上】7:00販售；周末（六日）早上9:00販售
5901202627,杏隆藥局,臺北市文山區羅斯福路５段２６１號,121.5395,25.00115,(02)29313151,羅氏家用新冠病毒抗原自我檢測套組,167,2022/05/10 18:56:33,快篩實名制採預約登記，至5／14已登記額滿。
5902032530,杏光藥局,高雄市左營區果峰街４７巷１號１樓,120.2869,22.6703,(07)5837060,羅氏家用新冠病毒抗原自我檢測套組,74,2022/05/10 18:56:33,上午營業時間為9 :00~12:00；晚上營業至21:30
5902092410,旺盛藥局,高雄市前鎮區永豐路１０８號,120.3337,22.6065,(07)7512899,羅氏家用新冠病毒抗原自我檢測套組,1,2022/05/10 18:56:33,過年期間 111／01／31下午至111／02／03  休診
5903050194,樂齊藥局,臺中市沙鹿區北中路８６－１、８６－２號,120.5692,24.22827,(04)26338867,羅氏家用新冠病毒抗原自我檢測套組,78,2022/05/10 18:56:33,防疫家用快篩試劑每日19點開賣，售完為止，庫存請依現場為主。
5903150028,全成烏日藥局,臺中市烏日區溪南路１段７７６號,120.6427,24.07423,(04)23352656,羅氏家用新冠病毒抗原自我檢測套組,76,2022/05/10 18:56:33,實名制快篩晚上7:00發放，售完為止
5903160097,安昌藥局,臺中市大肚區遊園路二段１７６號１樓,120.5808,24.17289,(04)26913890,羅氏家用新冠病毒抗原自我檢測套組,16,2022/05/10 18:56:33,每天晚上19:00點開始現場排隊販賣快篩試劑.
5903170119,開心果藥局,臺中市龍井區新興路１１２號１樓,120.5835,24.18225,(04)26315252,羅氏家用新冠病毒抗原自我檢測套組,34,2022/05/10 18:56:33,週一到週六: 晚上6點半開賣，週日: 下午3點開賣，現場排隊。
5903200587,大里安德健保藥局,臺中市大里區大明路１１７號,120.6861,24.11527,(04)24875607,羅氏家用新冠病毒抗原自我檢測套組,78,2022/05/10 18:56:33,早上9點開始發放
5903230085,翔新藥局,臺中市東區東英１７街１６７－３號,120.7092,24.14785,(04)22131269,羅氏家用新冠病毒抗原自我檢測套組,49,2022/05/10 18:56:33,快篩晚上7點現場販售!!! 星期日公休，（W1-W6 中午12:15-14:30休）
5903230183,恒生藥局,臺中市東區樂業路３９５號１樓,120.7051,24.138,(04)22135179,羅氏家用新冠病毒抗原自我檢測套組,74,2022/05/10 18:56:33,5／10、11快篩夜間7點開賣，請務必參閱fb。周日公休。另有提供領慢箋服務及保健食品，任何疑問請洽藥師。
5903270721,舒健藥局,臺中市西屯區西屯路二段２５５號２樓,120.6459,24.17179,(04)27077858,羅氏家用新冠病毒抗原自我檢測套組,72,2022/05/10 18:56:33,公費快篩試劑於周一至周六晚上7點現場排隊購買，週日公休。
5903270865,尚禾藥局,臺中市西屯區青海路一段６５號,120.6548,24.16438,(04)23147688,羅氏家用新冠病毒抗原自我檢測套組,39,2022/05/10 18:56:33,實名制快篩發放：時段一中午12:30~14:00。時段二20：30~22：30。時段一若未發完，餘量將遞延至時段二發放。周日停售。
5903270963,源興大藥局,臺中市西屯區西屯路二段１２號,120.6622,24.16387,(04)23143045,羅氏家用新冠病毒抗原自我檢測套組,4,2022/05/10 18:56:33,口罩販售時間：每日下午2點至售完為止。
5903271004,西屯青育藥師藥局,臺中市西屯區西屯路二段２９５－３號１樓,120.6425,24.17735,(04)27077898,羅氏家用新冠病毒抗原自我檢測套組,35,2022/05/10 18:56:33,無
5903271031,美十樂中科藥局,臺中市西屯區西屯路三段１６６－６５號１樓,120.6129,24.19035,(04)24610219,羅氏家用新冠病毒抗原自我檢測套組,468,2022/05/10 18:56:33,醫事人員卡片損壞，暫時無法販賣快篩
5903271102,杏東美藥局,臺中市西屯區智惠街１５６號１樓,120.6438,24.17032,(04)24523798,羅氏家用新冠病毒抗原自我檢測套組,53,2022/05/10 18:56:33,快篩實名制5／10 19:00發放（售完為止）
5903271139,百吉藥局,臺中市西屯區青海路一段７１號１樓,120.6547,24.1644,(04)23135698,羅氏家用新冠病毒抗原自我檢測套組,72,2022/05/10 18:56:33,周六休息
5903271246,柏醫藥局,臺中市西屯區上安路５６號１樓,120.6412,24.17052,(04)24526391,羅氏家用新冠病毒抗原自我檢測套組,78,2022/05/10 18:56:33,因應到貨時間不定，統一晚上7點開放78組（5／10已到貨 09:46）
5903280549,仁幼藥局,臺中市南屯區黎明東街２２９號１樓,120.6367,24.1482,(04)23809162,羅氏家用新冠病毒抗原自我檢測套組,31,2022/05/10 18:56:33,快篩販售時間平日早上8:30--9:00，晚上7:00--完售，禮拜六下午3:00--完售，請禮讓領藥病患優先
5903290385,元復藥局,臺中市北屯區東山路１段２２５－７號,120.7155,24.17475,(04)24362075,羅氏家用新冠病毒抗原自我檢測套組,1,2022/05/10 18:56:33,上午7:20-7:40及8:30起發號碼牌。
5903290625,又昌中西健保藥局,臺中市北屯區東山路１段２２３號,120.7152,24.17452,(04)24375716,羅氏家用新冠病毒抗原自我檢測套組,26,2022/05/10 18:56:33,快篩實名制 周一~周五晚上18:30開賣 現場排隊不發號碼牌
5903290661,康博中西健保藥局,臺中市北屯區后庄一街７號１樓,120.6644,24.1865,(04)24252468,羅氏家用新冠病毒抗原自我檢測套組,2,2022/05/10 18:56:33,快篩下午01:00發售53份；晚上06:00銷售25份.週六.日及假日下午06:30開始依配送滾動調整
5903290901,帥帥藥局,臺中市北屯區東山路一段３００－２號,120.7204,24.1759,(04)24378188,羅氏家用新冠病毒抗原自我檢測套組,50,2022/05/10 18:56:33,星期一二晚上18:30-20:30，星期三至五下午15:00-17:00販賣快篩試劑，售完為止。六.日無販售。
5903291195,匯百鴻藥局,臺中市北屯區昌平東二路１５６號１樓,120.6877,24.18922,(04)24222288,羅氏家用新冠病毒抗原自我檢測套組,22,2022/05/10 18:56:33,無
5905010250,大樹新營藥局,臺南市新營區民權路７４、７６、７８號１樓,120.3127,23.30615,(06)6328300,羅氏家用新冠病毒抗原自我檢測套組,1,2022/05/10 18:56:33,快篩實名制，每天16:00開始販售，售完為止。
5907080250,仁同藥局,高雄市仁武區八卦里永仁街７０６號１樓,120.3313,22.69072,(07)3736142,羅氏家用新冠病毒抗原自我檢測套組,78,2022/05/10 18:56:33,可購買快篩試劑時間每日早上7:30到8:30
5907160093,保生藥局,高雄市湖內區葉厝里保生路３４０．３４２號,120.2195,22.90733,(07)6990800,羅氏家用新冠病毒抗原自我檢測套組,1,2022/05/10 18:56:33,快篩實名制，每天16:00開始販售，售完為止。
5911011478,天康新豐藥局,基隆市中正區新豐街２５１巷４弄９號１樓,121.7885,25.13594,(02)24695168,羅氏家用新冠病毒抗原自我檢測套組,1,2022/05/10 18:56:33,無
5911011512,八斗子東亞藥局,基隆市中正區北寧路３７８號,121.7958,25.13944,(02)24698829,羅氏家用新冠病毒抗原自我檢測套組,7,2022/05/10 18:56:33,中午12點鐘開賣實名制快篩，售完為止
5911050162,錦泰藥局,基隆市中山區中山二路４３號,121.7405,25.13786,(02)24228523,羅氏家用新冠病毒抗原自我檢測套組,47,2022/05/10 18:56:33,快篩販賣時間星期一至五晚上7點，星期六，星期日下午5點
5912013609,丁丁藥局,新竹市東區中華路二段９１號,120.9812,24.80794,(03)6117888,羅氏家用新冠病毒抗原自我檢測套組,1,2022/05/10 18:56:33,無
5917030646,華隆藥局,臺中市西區樂群街６之２號,120.6735,24.14025,(04)22243785,羅氏家用新冠病毒抗原自我檢測套組,37,2022/05/10 18:56:33,上午09:00開始販售快篩試劑，售完為止
5917030995,麗新健保大藥局,臺中市西區向上路一段１６２號,120.6612,24.1469,(04)23017100,羅氏家用新冠病毒抗原自我檢測套組,3,2022/05/10 18:56:33,週一至週日下午15:00至售完為止
5917080888,大華藥局,臺中市北屯區熱河路２段１０９號１樓,120.6873,24.17054,(04)22331721,羅氏家用新冠病毒抗原自我檢測套組,37,2022/05/10 18:56:33,週一至週五1830-2030販售快篩，週六1430-1600販售快篩。週六晚上及週日全天休診。
5921040301,永生藥局,臺南市北區六甲里公園路４８１號,120.2079,23.00898,(06)2813681,羅氏家用新冠病毒抗原自我檢測套組,4,2022/05/10 18:56:33,每日販賣快篩劑下午2時起至售完為止／星期日休息／5月10-15日暫停售
5922013111,富善藥局,嘉義市東區新生路２３４號,120.4609,23.48419,(05)2759559,羅氏家用新冠病毒抗原自我檢測套組,4,2022/05/10 18:56:33,5／13、14休假，實名制快篩早上9:30-12:00 號碼牌領取
5922020509,全德藥局,嘉義市西區福民里興業西路２８９號,120.4392,23.46776,(05)2854263,羅氏家用新冠病毒抗原自我檢測套組,78,2022/05/10 18:56:33,快篩 販售時間：19 :30~20:30星期日停售
5931015687,正康健保藥局,新北市板橋區大觀路２段６５號１樓,121.4467,25.00246,(02)22756681,羅氏家用新冠病毒抗原自我檢測套組,20,2022/05/10 18:56:33,下午13:30依現場順序開始販售快篩，快篩配送絮亂庫存不準!!
5931017618,新埔健保藥局,新北市板橋區自由路２號１樓,121.4654,25.02222,(02)22558878,羅氏家用新冠病毒抗原自我檢測套組,27,2022/05/10 18:56:33,無
5931017967,曉品中西藥局,新北市板橋區貴興路２４號（１樓）,121.4575,25.00389,(02)29586990,羅氏家用新冠病毒抗原自我檢測套組,6,2022/05/10 18:56:33,無
5931017994,後埔藥局,新北市板橋區華興街９號（１樓）,121.459,25.00457,(02)89510306,羅氏家用新冠病毒抗原自我檢測套組,3,2022/05/10 18:56:33,5／10 下午2點發放號碼牌*確保作業流暢請自備500元*每天 78 份晚上10 點以前領取完畢（過卡時間差異剩餘數量僅供參考）
5931018099,廣品藥局,新北市板橋區漢生西路８２號（１樓）,121.4628,25.01934,(02)22576880,羅氏家用新冠病毒抗原自我檢測套組,1,2022/05/10 18:56:33,實名制快篩 周一~周五下午16；00發放 週六.日 早上09；30發放 請勿打電話詢問 感謝配合
5931023447,安泰藥局,新北市三重區正義北路３００－３號２樓,121.4953,25.06978,(02)89815379,羅氏家用新冠病毒抗原自我檢測套組,78,2022/05/10 18:56:33,5／2只有早上8:30--12:00營業下午.及晚上休息
5931023581,大重仁藥局,新北市三重區重新路５段５９２號１樓,121.4694,25.04539,(02)29958283,羅氏家用新冠病毒抗原自我檢測套組,18,2022/05/10 18:56:33,販賣快篩：星期一~四 1830-1850，星期五1500-1520，星期六日0900-0920
5931024588,陽光藥師藥局,新北市三重區三和路２段１８２號１樓,121.4987,25.06886,(02)29788120,羅氏家用新冠病毒抗原自我檢測套組,78,2022/05/10 18:56:33,無
5931024631,德榮藥局,新北市三重區中華路９１號１樓,121.4836,25.06302,(02)29717291,羅氏家用新冠病毒抗原自我檢測套組,78,2022/05/10 18:56:33,政府快篩販售時間星期一至星期六晚間19:00整現場販售..謝謝
5931025398,昌誠藥局,新北市三重區三和路４段１６１號１樓,121.4835,25.0785,(02)22876338,羅氏家用新冠病毒抗原自我檢測套組,5,2022/05/10 18:56:33,5／2 （休診）
5931025656,煜安健保藥局,新北市三重區光明路２３號１樓,121.4912,25.05856,(02)29768128,羅氏家用新冠病毒抗原自我檢測套組,68,2022/05/10 18:56:33,國定假日執行調劑業務
5931025987,忠孝德榮藥局,新北市三重區忠孝路２段９７號１樓,121.4842,25.07005,(02)29800297,羅氏家用新冠病毒抗原自我檢測套組,68,2022/05/10 18:56:33,現場排隊不發號碼牌*實名制快篩* 週一至週日晚間19:00開始代售.
5931033774,台化藥局,新北市永和區勵行街１１９號１樓,121.5175,25.01202,(02)22318585,羅氏家用新冠病毒抗原自我檢測套組,1,2022/05/10 18:56:33,無
5931034119,仁愛陽光藥局,新北市永和區仁愛路１４３號１樓,121.5114,25.01293,(02)89213691,羅氏家用新冠病毒抗原自我檢測套組,3,2022/05/10 18:56:33,快篩代售時段14:00，售完為止...
5931040215,華新藥局,新北市中和區華新街７３號,121.5082,24.98392,(02)29448345,羅氏家用新冠病毒抗原自我檢測套組,37,2022/05/10 18:56:33,無
5931043565,一安藥妝藥局,新北市中和區中和路９號１.２樓,121.4998,25.00221,(02)22483778,羅氏家用新冠病毒抗原自我檢測套組,11,2022/05/10 18:56:33,下午3點開始發號碼牌販售快篩
5931043770,宜安健康人生藥局,新北市中和區宜安路１６２號１樓,121.5091,24.99895,(02)29224648,羅氏家用新冠病毒抗原自我檢測套組,2,2022/05/10 18:56:33,下午六點起發實名制快篩
5931043921,良安藥局,新北市中和區連城路４７７巷１號１樓,121.4833,24.99555,(02)22225798,羅氏家用新冠病毒抗原自我檢測套組,81,2022/05/10 18:56:33,週六日不開店，實名制快篩，晚上9:00開始販售
5931044642,貞心藥局,新北市中和區永貞路２８０之１號１樓,121.5133,25.00397,(02)29203865,羅氏家用新冠病毒抗原自我檢測套組,2,2022/05/10 18:56:33,領口罩時間為下午一點
5931045130,四維藥局,新北市中和區四維街３７巷２號１樓,121.5124,24.98679,(02)86681345,羅氏家用新冠病毒抗原自我檢測套組,2,2022/05/10 18:56:33,快篩實名制，每天16:00開始販售，售完為止。
5931045443,台昕藥局,新北市中和區復興路２５５號（１樓）,121.5032,24.9902,(02)22406080,羅氏家用新冠病毒抗原自我檢測套組,16,2022/05/10 18:56:33,無
5931052484,大河藥局,新北市新店區三民路１４０號１樓,121.5351,24.97502,(02)29140910,羅氏家用新冠病毒抗原自我檢測套組,78,2022/05/10 18:56:33,週一至週六下午2點開始發購實名制快篩試劑。限1人1卡購買1份。5／15週日不發購。
5931052724,合康大藥局,新北市新店區中正路２６３－２號１樓,121.5384,24.97367,(02)29109888,羅氏家用新冠病毒抗原自我檢測套組,3,2022/05/10 18:56:33,快篩14:00開始（有事先發號碼牌）網上還有數量是拿到號碼牌還沒來領的，拜託別再問了
5931053132,康宜庭碧潭藥局,新北市新店區北宜路１段４１號１樓,121.5384,24.95726,(02)29186266,羅氏家用新冠病毒抗原自我檢測套組,1,2022/05/10 18:56:33,14:00 發放號碼牌，同步販售
5931060342,十安藥局,新北市新莊區中港路３１６號,121.4524,25.04544,(02)29922859,羅氏家用新冠病毒抗原自我檢測套組,7,2022/05/10 18:56:33,自111／04／01起不再販賣實名制口罩
5931060431,武田藥局,新北市新莊區化成路２１２號,121.4657,25.0465,(02)29944029,羅氏家用新冠病毒抗原自我檢測套組,78,2022/05/10 18:56:33,無
593106A566,一心春天藥局,新北市新莊區中和街１３號１樓、地下室,121.4481,25.04342,(02)89929482,羅氏家用新冠病毒抗原自我檢測套組,3,2022/05/10 18:56:33,快篩代售時間:週一至週日15:00現場排隊購買，售完為止。（物流配送不及則例外，以門市公告為主）
593106A600,全鎵藥局,新北市新莊區建中街２２號１樓,121.4493,25.03766,(02)22761550,羅氏家用新冠病毒抗原自我檢測套組,3,2022/05/10 18:56:33,16:00快篩開賣
593106B036,家嘉藥局,新北市新莊區自立街１０３號（１樓）,121.4553,25.04549,(02)89926488,羅氏家用新冠病毒抗原自我檢測套組,31,2022/05/10 18:56:33,今天號碼牌都已發放完畢
593106B232,新康健保藥局,新北市新莊區自立街１７２號１樓,121.4557,25.04537,(02)29962558,羅氏家用新冠病毒抗原自我檢測套組,2,2022/05/10 18:56:33,早上9點發號碼牌，下午2-4點帶號碼牌來領快篩（逾時不候）
5931072066,琉璃水藥師藥局,新北市樹林區龍興街２１號１樓,121.403,25.01614,(02)26764262,羅氏家用新冠病毒抗原自我檢測套組,12,2022/05/10 18:56:33,無
5931072253,活水藥局,新北市樹林區鎮前街２１號１樓,121.4259,24.99255,(02)26818928,羅氏家用新冠病毒抗原自我檢測套組,47,2022/05/10 18:56:33,無
5931081547,信義健保藥局,新北市鶯歌區信義街６３號１樓,121.3534,24.95571,(02)86775563,羅氏家用新冠病毒抗原自我檢測套組,39,2022/05/10 18:56:33,發放時間以現場公告為主
5931111844,福恩藥師大藥局,新北市汐止區福德二路１７１之１號１樓,121.6307,25.06506,(02)26940835,羅氏家用新冠病毒抗原自我檢測套組,78,2022/05/10 18:56:33,無
5931112083,裕和藥局,新北市汐止區宜興街４號１樓,121.6211,25.04126,(02)26609119,羅氏家用新冠病毒抗原自我檢測套組,77,2022/05/10 18:56:33,晚上9.00領實名制快篩時間
5931112645,健成藥局,新北市汐止區新興路２０號１樓,121.6564,25.06456,(02)26428989,羅氏家用新冠病毒抗原自我檢測套組,73,2022/05/10 18:56:33,無
5931113179,富康活力中興藥局,新北市汐止區中興路１５６號１樓,121.6324,25.0649,(02)26950222,羅氏家用新冠病毒抗原自我檢測套組,78,2022/05/10 18:56:33,無
5931120049,本平藥局,新北市瑞芳區瑞芳街４５號,121.8076,25.10913,(02)24972167,羅氏家用新冠病毒抗原自我檢測套組,2,2022/05/10 18:56:33,無
5931132245,萬昌健保藥局,新北市土城區中央路４段１６０號,121.417,24.95827,(02)22678057,羅氏家用新冠病毒抗原自我檢測套組,18,2022/05/10 18:56:33,3月2日起周一至周五15:00發號碼牌及販賣口罩  周六 10:00直接販售
5931132343,誠安藥局,新北市土城區中央路４段３６號１樓,121.4207,24.96088,(02)22677737,羅氏家用新冠病毒抗原自我檢測套組,79,2022/05/10 18:56:33,快篩代售時段：平日晚上8點，售完為止
5931133331,城安大藥局,新北市土城區金城路３段４０號,121.4656,24.98639,(02)22646561,羅氏家用新冠病毒抗原自我檢測套組,137,2022/05/10 18:56:33,快篩代售時間晚上8:30
5931171582,綠園藥局,新北市林口區仁愛路２段１０５號１樓,121.3843,25.07507,(02)86012258,羅氏家用新冠病毒抗原自我檢測套組,1,2022/05/10 18:56:33,上午8:30-12:00、下午2:30-18:00、晚上18:00-21:30
5931171706,榮新藥局,新北市林口區忠孝路３８３號１樓,121.3695,25.0713,(02)26089789,羅氏家用新冠病毒抗原自我檢測套組,1,2022/05/10 18:56:33,快篩發放時間  14:50發放號碼牌下午15:00開賣（直至賣完）
5931250015,松南藥局,新北市雙溪區中華路２９號,121.8658,25.03728,(02)24931085,羅氏家用新冠病毒抗原自我檢測套組,1,2022/05/10 18:56:33,實名制快篩12點半發號碼牌並販售，​但若排隊人數已超過數量，將視情況提早發放。週日快篩無販售。
5932010631,新華興清溪藥局,桃園市桃園區東門里中山東路１０號１樓,121.3136,24.99548,(03)3330011,羅氏家用新冠病毒抗原自我檢測套組,1,2022/05/10 18:56:33,實名制快篩週一~週日14:30，不發號碼牌請依序排隊購買
5932011870,永祥大藥局,桃園市桃園區永安路５２８號,121.2986,25.00181,(03)3337161,羅氏家用新冠病毒抗原自我檢測套組,3,2022/05/10 18:56:33,口罩販賣時段：週一至週六早上9點
5932013392,桃園中正藥局,桃園市桃園區中正路３７３號,121.3079,24.99955,(03)3381600,羅氏家用新冠病毒抗原自我檢測套組,13,2022/05/10 18:56:33,快篩實名制，每天16:00開始販售，售完為止。
5932014031,大廟藥局,桃園市桃園區中山路１５８號１樓,121.3091,24.99342,(03)3337006,羅氏家用新冠病毒抗原自我檢測套組,4,2022/05/10 18:56:33,無
5932014111,鴻發藥師藥局,桃園市桃園區大有路５４３號,121.3171,25.0149,(03)3582468,羅氏家用新冠病毒抗原自我檢測套組,78,2022/05/10 18:56:33,實聯快篩:早上09:30發放號碼牌，限當日下午2~4點憑牌購買，逾時不候請見諒
5932014326,闔新藥局,桃園市桃園區中正路５７６號１樓,121.3054,25.00388,(03)3317279,羅氏家用新冠病毒抗原自我檢測套組,1,2022/05/10 18:56:33,營業時間:9:00-21:00，實名制快篩領取時間14:30開始，現場排隊
5932018593,品一藥局,桃園市桃園區建新街７６號,121.3118,24.98261,(03)3638510,羅氏家用新冠病毒抗原自我檢測套組,1,2022/05/10 18:56:33,快篩販賣時間：週一至週五早上9：30；週六下午1：00（星期天休息），會發號碼牌（今天已發完）
5932019929,元氣藥局,桃園市桃園區民光東路一Ｏ九號,121.3183,25.0079,(03)3332201,羅氏家用新冠病毒抗原自我檢測套組,58,2022/05/10 18:56:33,現場排隊喔!，快篩試劑銷售時間:星期一三四六15:30，星期二五19:00，星期日無，12:00~15:00；18:00~18:30為休息時間
5932024242,樂心藥局,桃園市中壢區中山東路２段５３６號１樓,121.2455,24.94672,(03)4655667,羅氏家用新冠病毒抗原自我檢測套組,13,2022/05/10 18:56:33,5／10 晚上18:00販售
593202A833,君安藥局,桃園市中壢區中北路二段３９０號,121.2318,24.95388,(03)4685484,羅氏家用新冠病毒抗原自我檢測套組,21,2022/05/10 18:56:33,快篩實名制，週一至週五晚上7點，週六週日早上9點，視現場狀況，45分鐘前發號碼牌，發完隨即販售，過號視同放棄
5932031578,宜暉健保藥局,桃園市大溪區介壽路７１８號,121.2849,24.90544,(03)3806695,羅氏家用新冠病毒抗原自我檢測套組,68,2022/05/10 18:56:33,9:00-22:00／端午.中秋.除夕~初三休息／快篩販賣時間18:40發號碼牌，售完為止
5932031907,福澤大溪藥局,桃園市大溪區復興路１０５號１樓,121.2911,24.87917,(03)3884886,羅氏家用新冠病毒抗原自我檢測套組,2,2022/05/10 18:56:33,家用快篩販賣時段15:30至售完為止
5932040246,龍泰藥局,桃園市楊梅區民族路五段１４７巷２號,121.1736,24.9586,(03)4901525,羅氏家用新冠病毒抗原自我檢測套組,1,2022/05/10 18:56:33,快篩販售時間:早上7:30領號碼牌下午2點至4點領快篩（當日有效） 六日中午10點至12點領快篩
5932043130,宜康美藥局,桃園市楊梅區環東路４５２號,121.1571,24.91005,(03)4883805,羅氏家用新冠病毒抗原自我檢測套組,20,2022/05/10 18:56:33,快篩販賣時段：早上09:30~10:30（20份）下午15:30~16:30（38份）晚上19:30~20:30（20份）
5932052737,知博藥師藥局,桃園市蘆竹區營盤里中山路１６０號,121.2977,25.05702,(03)2221886,羅氏家用新冠病毒抗原自我檢測套組,1,2022/05/10 18:56:33,快篩販賣時段：暫定週一至週五16:00-17:00 週六.日不發放.以現場公告時間為主
5932052808,柏霖藥局,桃園市蘆竹區中正路３５９號２樓,121.291,25.04902,(03)2120284,羅氏家用新冠病毒抗原自我檢測套組,4,2022/05/10 18:56:33,快篩試劑販賣時間:18:00開始.售完為止
5932052979,南崁藥局,桃園市蘆竹區中正路２５１、２５３、２５５號,121.2921,25.04695,(03)3522022,羅氏家用新冠病毒抗原自我檢測套組,157,2022/05/10 18:56:33,快篩實名制，每天16:00開始販售，售完為止。
5932071009,德佑藥局,桃園市龜山區大崗里新興街２９３號,121.3558,25.04531,(03)3283556,羅氏家用新冠病毒抗原自我檢測套組,82,2022/05/10 18:56:33,快篩試劑販賣時段為每日晚上07:30開始（星期日暫停販售）
5932076791,誠安生活藥局,桃園市龜山區文化七路７９之２號,121.3635,25.05166,(03)3271997,羅氏家用新冠病毒抗原自我檢測套組,122,2022/05/10 18:56:33,即日起停止販售快篩
5932076844,帕米爾藥局,桃園市龜山區萬壽路二段９９１號,121.3369,24.99464,(03)3295522,羅氏家用新冠病毒抗原自我檢測套組,80,2022/05/10 18:56:33,星期一~六:家用快篩試劑販賣時段：14:30~售完。不發號碼牌，請直接排隊購買。
5932077270,明昌藥局,桃園市龜山區中興里萬壽路二段１１９１－６號,121.3318,24.99291,(03)3501205,羅氏家用新冠病毒抗原自我檢測套組,1,2022/05/10 18:56:33,無
5932077510,左外野藥局,桃園市龜山區文光街６號１樓,121.3802,25.05471,(03)3271503,羅氏家用新冠病毒抗原自我檢測套組,69,2022/05/10 18:56:33,快篩販售:晚上19:30至20:30（週五公休）*不發號碼牌 請直接排隊購買
5932077529,泰麟大藥局,桃園市龜山區自強西路２３８號１樓,121.3325,24.99625,(03)2133728,羅氏家用新冠病毒抗原自我檢測套組,33,2022/05/10 18:56:33,無
5932083670,保健藥局,桃園市八德區介壽路一段８３３號２樓,121.3,24.96168,(03)3669486,羅氏家用新冠病毒抗原自我檢測套組,78,2022/05/10 18:56:33,無
5932083974,晨鴻藥師藥局,桃園市八德區桃鶯路７號１樓,121.3265,24.97179,(03)3764299,羅氏家用新冠病毒抗原自我檢測套組,42,2022/05/10 18:56:33,快篩為早上8:30跟晚上6:00領取號碼牌，星期六早上一次發78份，快篩地圖數量參考就好，請勿再打電話詢問 謝謝
5932084828,阿爾富山藥局,桃園市八德區桃鶯路４號１樓,121.3261,24.97167,(03)3763350,羅氏家用新冠病毒抗原自我檢測套組,69,2022/05/10 18:56:33,本藥局實名制快篩於每日晚間7點以實際到貨數量發放，唯保留可視現場排隊人數額滿情況.酌情提前發號碼牌並受理購買!
5932084864,阿寶藥局,桃園市八德區東勇一路６號,121.3064,24.96452,(03)3750060,羅氏家用新冠病毒抗原自我檢測套組,48,2022/05/10 18:56:33,實名制快篩詳細公告請參閱阿寶藥局官方臉書
5932120098,金永生藥局,桃園市觀音區觀音里甘泉街７號,121.0814,25.03696,(03)4732072,羅氏家用新冠病毒抗原自我檢測套組,2,2022/05/10 18:56:33,全年無休，口罩販賣時段：週一至週日14:00起17:00
5932124381,日昇藥局,桃園市觀音區成功路一段７８１號,121.119,25.05221,(03)4834212,羅氏家用新冠病毒抗原自我檢測套組,40,2022/05/10 18:56:33,下午4點及晚上9點各販售39份快篩試劑
5933031652,合康藥局,新竹縣竹東鎮興農街１１號,121.0861,24.73988,(03)5103818,羅氏家用新冠病毒抗原自我檢測套組,3,2022/05/10 18:56:33,實名制快篩時段：下午17:00~22:30
5934012366,熊賀大藥局,宜蘭縣宜蘭市女中路３段２６號,121.7421,24.74576,(03)9352950,羅氏家用新冠病毒抗原自我檢測套組,75,2022/05/10 18:56:33,快篩 星期一至日 晚上7:00開賣 現場排隊
5935011738,佳禾藥局,苗栗縣苗栗市青苗里建台街7號,120.821,24.55742,(037)373041,羅氏家用新冠病毒抗原自我檢測套組,3,2022/05/10 18:56:33,快篩試劑7：30發號碼牌8：00開始販賣，販賣時段：營業時間至售完為止
5935052006,懷恩中西藥局,苗栗縣頭份市建國路１２８號１樓,120.9099,24.69584,(037)683981,羅氏家用新冠病毒抗原自我檢測套組,78,2022/05/10 18:56:33,營業時間:7:00-23:00
5936021363,小太陽藥局,臺中市東勢區豐勢路４１２之１、４１６號１樓,120.8292,24.25525,(04)25773481,羅氏家用新冠病毒抗原自我檢測套組,36,2022/05/10 18:56:33,早上7:30開始販售，週日公休
5936150332,真安大藥局,臺中市烏日區興祥街３號,120.6389,24.10483,(04)23360401,羅氏家用新冠病毒抗原自我檢測套組,156,2022/05/10 18:56:33,快篩周一到周六 下午1:30販售
5936190336,仁和藥局,臺中市太平區新仁路一段１６０號,120.7034,24.11124,(04)22783239,羅氏家用新冠病毒抗原自我檢測套組,9,2022/05/10 18:56:33,口罩販賣時間詳情，請見藥局粉絲團專頁
5936192018,和康藥局,臺中市太平區樹孝路４６２號,120.7203,24.15716,(04)23917355,羅氏家用新冠病毒抗原自我檢測套組,69,2022/05/10 18:56:33,實名制快篩販售星期一至六 發號碼牌 晚上七點開始銷售售完為止! 5／8（日）加開早上9:00販售，售完為止
5936192134,樹德大藥局,臺中市太平區樹德路１０２號１樓,120.7115,24.15386,(04)23981782,羅氏家用新冠病毒抗原自我檢測套組,2,2022/05/10 18:56:33,下午3點開始領號碼牌，分流領取，請勿依賴網站庫存
5937013570,彰化藥局,彰化縣彰化市永安街２７８、２８０號,120.5438,24.08977,(04)7287877,羅氏家用新冠病毒抗原自我檢測套組,78,2022/05/10 18:56:33,暫停販售
5937013605,大佳好藥局,彰化縣彰化市平和七街６號,120.5293,24.06697,(09)33520331,羅氏家用新冠病毒抗原自我檢測套組,61,2022/05/10 18:56:33,0510快篩18:00後暫時停售，勿來電詢問
5937013730,佳漾藥局,彰化縣彰化市延平路５８８號１樓,120.5374,24.06301,(04)7135518,羅氏家用新冠病毒抗原自我檢測套組,17,2022/05/10 18:56:33,實名制快篩販售時間為下午5點-售完為止，週六，週日及國定假日藥局休息．
5937130049,明志藥局,彰化縣花壇鄉三春村彰員路１段５４２號,120.5679,24.01439,(04)7867702,羅氏家用新冠病毒抗原自我檢測套組,1,2022/05/10 18:56:33,周一至周日9:00開始販賣口罩
5937181279,佳恩藥局,彰化縣永靖鄉永西村瑚璉路３０２號,120.547,23.92421,(04)8235753,羅氏家用新冠病毒抗原自我檢測套組,6,2022/05/10 18:56:33,快篩實名制 :電話預約制，當日早上9點開始預約（已額滿）
5938032373,和平藥局,南投縣草屯鎮草溪路１０２６號１樓,120.6819,23.97706,(049)2310085,羅氏家用新冠病毒抗原自我檢測套組,28,2022/05/10 18:56:33,快篩發放 現場排隊 勿打電話 時間 週一至週五 晚上6:30-8:30 ， 週六下午3:30-5:00 .周日公休.
5938041729,早安藥局,南投縣竹山鎮雲林路４１號,120.6834,23.75608,(049)2651032,羅氏家用新冠病毒抗原自我檢測套組,3,2022/05/10 18:56:33,實名制快篩試劑早上10點開始販售
5939010504,桂賓藥局,雲林縣斗六市信義里鎮北路３號,120.5432,23.71143,(05)5332138,羅氏家用新冠病毒抗原自我檢測套組,153,2022/05/10 18:56:33,週五.六.日 休息 沒售快篩
5939012400,陽光藥局,雲林縣斗六市永安路６９號,120.548,23.70923,(05)5362097,羅氏家用新冠病毒抗原自我檢測套組,20,2022/05/10 18:56:33,快篩16:00開賣~現場排隊，請勿電話詢問
5939021623,沈藥局,雲林縣斗南鎮中正路１７６號,120.4781,23.67661,(05)5972748,羅氏家用新冠病毒抗原自我檢測套組,1,2022/05/10 18:56:33,[實名制快篩] 每天固定 下午 3:30 開始販售
5940021157,康富藥師藥局,嘉義縣布袋鎮博愛二街２２號,120.1676,23.37901,(05)3470511,羅氏家用新冠病毒抗原自我檢測套組,8,2022/05/10 18:56:33,快篩：星期一至六下午5點前 星期日10點 前 現場排隊額滿發售 售完為止
5940031402,信沅中西藥局,嘉義縣大林鎮西林里０１１鄰中正路４２０號,120.4528,23.60129,(05)2656377,羅氏家用新冠病毒抗原自我檢測套組,78,2022/05/10 18:56:33,每日販售時間:19:00開始，領取排發完為止。
5941050063,新生藥局,臺南市佳里區新生路８０號１樓,120.1794,23.16106,(06)7224563,羅氏家用新冠病毒抗原自我檢測套組,39,2022/05/10 18:56:33,快篩時段:早上9:00~10:00。晚上7:00~8:00。星期日公休
5941270163,太子藥局,臺南市仁德區太子里太子路３３８號,120.2577,22.99146,(06)2729906,羅氏家用新冠病毒抗原自我檢測套組,1,2022/05/10 18:56:33,5／9快篩.已售完.
5943021604,葉錦霖藥局,屏東縣潮州鎮新榮里中山五巷３－４號,120.5391,22.54882,(08)7885629,羅氏家用新冠病毒抗原自我檢測套組,1,2022/05/10 18:56:33,藥局販售口罩時間，依藥局門口公告時間為主（售完為止）
5943031735,愛樂活藥局,屏東縣東港鎮長春一路１１３－１號,120.4594,22.47111,(08)8312388,羅氏家用新冠病毒抗原自我檢測套組,49,2022/05/10 18:56:33,快篩販賣時間: 週一，二，四，五，日 晚上7點開賣，週三，六（有夜市）下午3點開賣 （星期日公休 晚上才會開門喔）
5943170077,健安藥局,屏東縣新園鄉中洲村南興路１７０號,120.4586,22.4872,(08)8322649,羅氏家用新冠病毒抗原自我檢測套組,2,2022/05/10 18:56:33,自4／11~4／30日，販賣口罩時間至8:00起，售完為止。
5945012247,和信藥局,花蓮縣花蓮市中福路１３３號,121.6019,23.97208,(03)8330916,羅氏家用新冠病毒抗原自我檢測套組,5,2022/05/10 18:56:33,營業時間:上午8:30至12點.下午17:30至21點，口罩販賣時間12:30開始，現場排隊售完為止
5945013280,熙藥局,花蓮縣花蓮市中興路２１４號１樓,121.6245,23.99691,(03)8227772,羅氏家用新冠病毒抗原自我檢測套組,75,2022/05/10 18:56:33,週一至週五08:30~16:00／19:00~21:00；週六日08:30~12:00
5946080552,伯安健康藥局,臺東縣長濱鄉長濱村１０鄰長濱路１０５號,121.4515,23.31496,(089)832519,羅氏家用新冠病毒抗原自我檢測套組,24,2022/05/10 18:56:33,無
5946101118,伯安藥局,臺東縣池上鄉新生路１１６號,121.2187,23.12315,(089)863585,羅氏家用新冠病毒抗原自我檢測套組,23,2022/05/10 18:56:33,早0800-1200，午1400-1800，晚1800-2000
